{"107611857RR0001": {"name": "LENNOX & ADDINGTON COUNTY GENERAL HOSPITAL ASSOCIATION", "designationCode": "C", "categoryCode": "10", "address": "8 RICHMOND PARK DRIVE", "city": "NAPANEE", "province": "ON", "country": "CA", "postalCode": "K7R2Z4", "twitter": "None", "instagram": "None", "facebook": "None", "youtube": "None", "website": "None", "summary": "None", "logo": "None", "latitude": 44.24036405106917, "longitude": -76.9659297560906}, "890597842RR0001": {"name": "LENNOX & ADDINGTON COUNTY GENERAL HOSPITAL FOUNDATION", "designationCode": "A", "categoryCode": "13", "address": "8 RICHMOND PARK DRIVE", "city": "NAPANEE", "province": "ON", "country": "CA", "postalCode": "K7R2Z4", "twitter": "None", "instagram": "None", "facebook": "None", "youtube": "None", "website": "None", "summary": "None", "logo": "None", "latitude": 44.24036405106917, "longitude": -76.9659297560906}, "133231910RR0001": {"name": "LENNOX & ADDINGTON INTERVAL HOUSE", "designationCode": "C", "categoryCode": "01", "address": "PO BOX 113", "city": "NAPANEE", "province": "ON", "country": "CA", "postalCode": "K7R3L4", "twitter": "None", "instagram": "None", "facebook": "None", "youtube": "None", "website": "None", "summary": "None", "logo": "None", "latitude": 44.24834400000006, "longitude": -76.95158299999993}, "129003356RR0001": {"name": "LENNOX & ADDINGTON RESOURCES FOR CHILDREN", "designationCode": "C", "categoryCode": "01", "address": "465 ADVANCE AVE", "city": "NAPANEE", "province": "ON", "country": "CA", "postalCode": "K7R4A7", "twitter": "None", "instagram": "None", "facebook": "None", "youtube": "None", "website": "None", "summary": "None", "logo": "None", "latitude": 44.26166975465975, "longitude": -76.95698199731694}, "119013316RR0001": {"name": "LENNOX & ADDINGTON SENIORS OUTREACH SERVICES INC.", "designationCode": "C", "categoryCode": "09", "address": "12 RICHMOND PARK DR", "city": "NAPANEE", "province": "ON", "country": "CA", "postalCode": "K7R2Z5", "twitter": "None", "instagram": "None", "facebook": "None", "youtube": "None", "website": "None", "summary": "None", "logo": "None", "latitude": 44.24082210020698, "longitude": -76.96618481448147}, "119013357RR0001": {"name": "LENNOX AND ADDINGTON HISTORICAL SOCIETY", "designationCode": "C", "categoryCode": "52", "address": "PO BOX 392  STN MAIN", "city": "NAPANEE", "province": "ON", "country": "CA", "postalCode": "K7R3P5", "twitter": "None", "instagram": "None", "facebook": "None", "youtube": "None", "website": "None", "summary": "None", "logo": "None", "latitude": 44.31476598905889, "longitude": -76.86761476477007}, "119013340RR0001": {"name": "LENNOX AND ADDINGTON HISTORICAL SOCIETY FOUNDATION FUND", "designationCode": "C", "categoryCode": "50", "address": "BOX 392", "city": "NAPANEE", "province": "ON", "country": "CA", "postalCode": "K7R3P5", "twitter": "None", "instagram": "None", "facebook": "None", "youtube": "None", "website": "None", "summary": "None", "logo": "None", "latitude": 44.24834400000006, "longitude": -76.95158299999993}, "880250618RR0001": {"name": "LENNOX AND ADDINGTON 4-H ASSOCIATION", "designationCode": "C", "categoryCode": "29", "address": "196 ELIZABETH ST", "city": "NAPANEE", "province": "ON", "country": "CA", "postalCode": "K7R1B5", "twitter": "None", "instagram": "None", "facebook": "None", "youtube": "None", "website": "None", "summary": "None", "logo": "None", "latitude": 44.25369520956192, "longitude": -76.94553001933147}, "133604363RR0001": {"name": "LENNOX COMMUNITY THEATRE INC", "designationCode": "C", "categoryCode": "22", "address": "PO BOX 62", "city": "SELBY", "province": "ON", "country": "CA", "postalCode": "K0K2Z0", "twitter": "None", "instagram": "None", "facebook": "None", "youtube": "None", "website": "None", "summary": "None", "logo": "None", "latitude": 38.05561000000006, "longitude": -122.23239999999998}, "119288918RR1206": {"name": "LENNOXVILLE CONGREGATION OF JEHOVAH'S WITNESSES", "designationCode": "C", "categoryCode": "61", "address": "2845 RUE JUGE-MORIN", "city": "SHERBROOKE", "province": "QC", "country": "CA", "postalCode": "J1L1G6", "twitter": "None", "instagram": "None", "facebook": "None", "youtube": "None", "website": "None", "summary": "None", "logo": "None", "latitude": 45.40441519790516, "longitude": -71.94419807161401}, "107611949RR0001": {"name": "LENNOXVILLE PASTORAL CHARGE", "designationCode": "C", "categoryCode": "44", "address": "6 CHURCH STREET", "city": "SHERBROOKE", "province": "QC", "country": "CA", "postalCode": "J1M1S9", "twitter": "None", "instagram": "None", "facebook": "None", "youtube": "None", "website": "None", "summary": "None", "logo": "None", "latitude": 45.36762245325738, "longitude": -71.85710227990651}, "119013381RR0001": {"name": "LENNOXVILLE-ASCOT HISTORICAL AND MUSEUM SOCIETY", "designationCode": "C", "categoryCode": "52", "address": "BOX 61, SUCC. LENNOXVILLE", "city": "SHERBROOKE", "province": "QC", "country": "CA", "postalCode": "J1M1Z3", "twitter": "None", "instagram": "None", "facebook": "None", "youtube": "None", "website": "None", "summary": "None", "logo": "None", "latitude": 45.36752000000007, "longitude": -71.85659999999996}, "887187011RR0001": {"name": "LEO AND SHIRLEY GOLDFARB FOUNDATION/FONDATION LEO ET SHIRLEY GOLDFARB", "designationCode": "B", "categoryCode": "03", "address": "1 WESTMOUNT SQUARE SUITE 380", "city": "WESTMOUNT", "province": "QC", "country": "CA", "postalCode": "H3Z2P9", "twitter": "None", "instagram": "None", "facebook": "None", "youtube": "None", "website": "None", "summary": "None", "logo": "None", "latitude": 45.486721663140294, "longitude": -73.58740155519209}, "887381861RR0001": {"name": "LEO COUNCIL 1130 CHARITABLE FOUNDATION INC THUNDER BAY", "designationCode": "A", "categoryCode": "03", "address": "PO BOX 10143 STN P", "city": "THUNDER BAY", "province": "ON", "country": "CA", "postalCode": "P7B6T6", "twitter": "None", "instagram": "None", "facebook": "None", "youtube": "None", "website": "None", "summary": "None", "logo": "None", "latitude": 48.38168400000005, "longitude": -89.24550199999993}, "888813219RR0001": {"name": "LEOLA PURDY FOUNDATION", "designationCode": "B", "categoryCode": "03", "address": "1634 KEBET WAY", "city": "PORT COQUITLAM", "province": "BC", "country": "CA", "postalCode": "V3C5W9", "twitter": "None", "instagram": "None", "facebook": "None", "youtube": "None", "website": "None", "summary": "None", "logo": "None", "latitude": 49.23746322586456, "longitude": -122.76298631060628}, "892383464RR0001": {"name": "LEON FONTAINE MINISTRIES INC", "designationCode": "C", "categoryCode": "47", "address": "UNIT 1-595 LAGIMODIERE BLVD", "city": "WINNIPEG", "province": "MB", "country": "CA", "postalCode": "R2J3X2", "twitter": "None", "instagram": "None", "facebook": "None", "youtube": "None", "website": "None", "summary": "None", "logo": "None", "latitude": 49.85962557861785, "longitude": -97.05214788746171}, "828176677RR0001": {"name": "LEON JUDAH BLACKMORE FOUNDATION", "designationCode": "B", "categoryCode": "03", "address": "313-619 MOBERLY ROAD", "city": "VANCOUVER", "province": "BC", "country": "CA", "postalCode": "V5Z4B1", "twitter": "None", "instagram": "None", "facebook": "None", "youtube": "None", "website": "None", "summary": "None", "logo": "None", "latitude": 49.26846890339903, "longitude": -123.11788074871579}, "862813151RR0001": {"name": "LEONARD AND CAROL BERALL FOUNDATION / FONDATION LEONARD ET CAROL BERALL", "designationCode": "B", "categoryCode": "03", "address": "4005 REDPATH STREET           SUITE 401", "city": "MONTREAL", "province": "QC", "country": "CA", "postalCode": "H3G2G9", "twitter": "None", "instagram": "None", "facebook": "None", "youtube": "None", "website": "None", "summary": "None", "logo": "None", "latitude": 45.500026064400664, "longitude": -73.58463934664442}, "892319047RR0001": {"name": "LEONARD CHARITIES", "designationCode": "B", "categoryCode": "05", "address": "PO BOX 10085                  LCD PACIFIC CENTRE", "city": "VANCOUVER", "province": "BC", "country": "CA", "postalCode": "V7Y1B6", "twitter": "None", "instagram": "None", "facebook": "None", "youtube": "None", "website": "None", "summary": "None", "logo": "None", "latitude": 49.28299000000004, "longitude": -123.11890999999997}, "118897727RR0001": {"name": "LEONARD ELLEN FAMILY FOUNDATION", "designationCode": "B", "categoryCode": "03", "address": "301 - 3495 AV DU MUSEE", "city": "MONTREAL", "province": "QC", "country": "CA", "postalCode": "H3G2C8", "twitter": "None", "instagram": "None", "facebook": "None", "youtube": "None", "website": "None", "summary": "None", "logo": "None", "latitude": 45.50016095894155, "longitude": -73.58231711682741}, "119013597RR0001": {"name": "LEONARD WOLINSKY FOUNDATION", "designationCode": "B", "categoryCode": "03", "address": "127 MONTEZUMA TRAIL", "city": "SCARBOROUGH", "province": "ON", "country": "CA", "postalCode": "M1V1K4", "twitter": "None", "instagram": "None", "facebook": "None", "youtube": "None", "website": "None", "summary": "None", "logo": "None", "latitude": 43.810236690547555, "longitude": -79.28026127569424}, "119013589RR0001": {"name": "LEONARDO DA VINCI ACADEMY OF ARTS AND SCIENCES", "designationCode": "C", "categoryCode": "20", "address": "100 ALLANHURST DRIVE", "city": "ETOBICOKE", "province": "ON", "country": "CA", "postalCode": "M9A4K4", "twitter": "None", "instagram": "None", "facebook": "None", "youtube": "None", "website": "None", "summary": "None", "logo": "None", "latitude": 43.679697293409596, "longitude": -79.51927654414554}, "887536258RR0001": {"name": "LEONARDO DA VINCI COMMUNITY CENTRE / CENTRE COMMUNAUTAIRE LEONARDO DA VINCI", "designationCode": "C", "categoryCode": "56", "address": "8370 BOUL. LACORDAIRE         3E ETAGE", "city": "SAINT-LEONARD", "province": "QC", "country": "CA", "postalCode": "H1R3Y6", "twitter": "None", "instagram": "None", "facebook": "None", "youtube": "None", "website": "None", "summary": "None", "logo": "None", "latitude": 45.58593308825408, "longitude": -73.59577164997947}, "119013670RR0001": {"name": "LEOVILLE AND DISTRICT ARENA ASSOCIATION", "designationCode": "C", "categoryCode": "56", "address": "P.O. BOX 398", "city": "LEOVILLE", "province": "SK", "country": "CA", "postalCode": "S0J1N0", "twitter": "None", "instagram": "None", "facebook": "None", "youtube": "None", "website": "None", "summary": "None", "logo": "None", "latitude": 53.81522424750259, "longitude": -107.48751307404838}, "119013696RR0001": {"name": "LEOVILLE SENIOR CITIZENS SOCIETY", "designationCode": "C", "categoryCode": "56", "address": "BOX 56", "city": "LEOVILLE", "province": "SK", "country": "CA", "postalCode": "S0J1N0", "twitter": "None", "instagram": "None", "facebook": "None", "youtube": "None", "website": "None", "summary": "None", "logo": "None", "latitude": 53.81522424750259, "longitude": -107.48751307404838}, "119013845RR0001": {"name": "LEPREAU CEMETERY CO. INC.", "designationCode": "C", "categoryCode": "59", "address": "15 HUGHES RD", "city": "LEPREAU  CHAR. COUNTY", "province": "NB", "country": "CA", "postalCode": "E5J1L9", "twitter": "None", "instagram": "None", "facebook": "None", "youtube": "None", "website": "None", "summary": "None", "logo": "None", "latitude": 45.16564374100165, "longitude": -66.47514237050082}, "119288918RR0053": {"name": "LEROY SASK CONGREGATION OF JEHOVAH'S WITNESSES", "designationCode": "C", "categoryCode": "61", "address": "P.O. BOX 136", "city": "LEROY", "province": "SK", "country": "CA", "postalCode": "S0K2P0", "twitter": "None", "instagram": "None", "facebook": "None", "youtube": "None", "website": "None", "summary": "None", "logo": "None", "latitude": 52.000260000000026, "longitude": -104.73848999999996}, "119013969RR0001": {"name": "LEROY SENIOR CITIZENS CLUB", "designationCode": "C", "categoryCode": "56", "address": "BOX 248", "city": "LEROY", "province": "SK", "country": "CA", "postalCode": "S0K2P0", "twitter": "None", "instagram": "None", "facebook": "None", "youtube": "None", "website": "None", "summary": "None", "logo": "None", "latitude": 52.000260000000026, "longitude": -104.73848999999996}, "855188413RR0001": {"name": "LES \u00c9CORNIFLEUSES", "designationCode": "C", "categoryCode": "22", "address": "12551, RUE DU GRAND-PRE", "city": "QUEBEC", "province": "QC", "country": "CA", "postalCode": "G2A2R4", "twitter": "None", "instagram": "None", "facebook": "None", "youtube": "None", "website": "None", "summary": "None", "logo": "None", "latitude": 46.85896873382772, "longitude": -71.37224512877265}, "119015295RR0001": {"name": "LES \u00c9DITIONS DU BL\u00c9 INC", "designationCode": "C", "categoryCode": "22", "address": "340, BOULEVARD PROVENCHER", "city": "SAINT-BONIFACE", "province": "MB", "country": "CA", "postalCode": "R2H0G7", "twitter": "None", "instagram": "None", "facebook": "None", "youtube": "None", "website": "None", "summary": "None", "logo": "None", "latitude": 49.89396984869324, "longitude": -97.11442403133495}, "119013985RR0001": {"name": "LES ACCORDAILLES", "designationCode": "B", "categoryCode": "01", "address": "465, RUE GILFORD EST LOCAL 101", "city": "MONTREAL", "province": "QC", "country": "CA", "postalCode": "H2J1N5", "twitter": "None", "instagram": "None", "facebook": "None", "youtube": "None", "website": "None", "summary": "None", "logo": "None", "latitude": 45.52660374577296, "longitude": -73.5864044289629}, "892877846RR0001": {"name": "LES AIDANTS NATURELS DU HAUT ST-LAURENT (ANHSL)/THE NATURAL CAREGIVERS OF THE HAUT ST-LAURENT (NCHSL)", "designationCode": "C", "categoryCode": "11", "address": "23A RANG SAINTE ANNE", "city": "SAINT CHRYSOSTOME", "province": "QC", "country": "CA", "postalCode": "J0S1R0", "twitter": "None", "instagram": "None", "facebook": "None", "youtube": "None", "website": "None", "summary": "None", "logo": "None", "latitude": 45.10657239653735, "longitude": -73.76168612850068}, "103066064RR0001": {"name": "LES AILES DE L'ESPERANCE QUEBEC INC. WINGS OF HOPE QUEBEC INC.", "designationCode": "C", "categoryCode": "09", "address": "202 - 7665 BOUL SAINT-LAURENT", "city": "MONTREAL", "province": "QC", "country": "CA", "postalCode": "H2R1W9", "twitter": "None", "instagram": "None", "facebook": "None", "youtube": "None", "website": "None", "summary": "None", "logo": "None", "latitude": 45.53693994644805, "longitude": -73.62429503329685}, "872382841RR0001": {"name": "LES AILES DE L'ESPOIR DE ST-CALIXTE", "designationCode": "C", "categoryCode": "09", "address": "240, ALEXANDRE", "city": "ST-CALIXTE", "province": "QC", "country": "CA", "postalCode": "J0K1Z0", "twitter": "None", "instagram": "None", "facebook": "None", "youtube": "None", "website": "None", "summary": "None", "logo": "None", "latitude": 45.94404266887883, "longitude": -73.84677396254821}, "862599198RR0001": {"name": "LES AILES DE L'ESPOIR ENFANTIN INC.", "designationCode": "C", "categoryCode": "09", "address": "84-A GRANDE-ALL\u00c9E EST", "city": "GRANDE-RIVI\u00c8RE", "province": "QC", "country": "CA", "postalCode": "G0C1V0", "twitter": "None", "instagram": "None", "facebook": "None", "youtube": "None", "website": "None", "summary": "None", "logo": "None", "latitude": 48.39808043104037, "longitude": -64.49881915445208}, "119014017RR0001": {"name": "LES AINES ET LES AINEES DE JONQUIERE INC.", "designationCode": "C", "categoryCode": "01", "address": "3245, RUE DES PENSEES", "city": "JONQUIERE", "province": "QC", "country": "CA", "postalCode": "G7S5T6", "twitter": "None", "instagram": "None", "facebook": "None", "youtube": "None", "website": "None", "summary": "None", "logo": "None", "latitude": 48.42113106797867, "longitude": -71.20968194151465}, "859662439RR0001": {"name": "LES AMES EN TRESORS/TREASURED SOULS", "designationCode": "C", "categoryCode": "09", "address": "620 POTVIN", "city": "AUTEUIL", "province": "QC", "country": "CA", "postalCode": "H7K3A1", "twitter": "None", "instagram": "None", "facebook": "None", "youtube": "None", "website": "None", "summary": "None", "logo": "None", "latitude": 45.62525074438796, "longitude": -73.73951989673392}, "873285712RR0001": {"name": "LES AMI(E)S DES COEURS DE JESUS ET DE MARIE", "designationCode": "C", "categoryCode": "49", "address": "42 RUE DU RAVIN-BLEU", "city": "GATINEAU", "province": "QC", "country": "CA", "postalCode": "J8Z1X8", "twitter": "None", "instagram": "None", "facebook": "None", "youtube": "None", "website": "None", "summary": "None", "logo": "None", "latitude": 45.46494749125742, "longitude": -75.7685913487219}, "865440473RR0001": {"name": "LES AMIES D'ADELAIDE", "designationCode": "C", "categoryCode": "46", "address": "6989, RUE LOUIS-HEMON", "city": "MONTREAL", "province": "QC", "country": "CA", "postalCode": "H2E2T6", "twitter": "None", "instagram": "None", "facebook": "None", "youtube": "None", "website": "None", "summary": "None", "logo": "None", "latitude": 45.55064822482535, "longitude": -73.60081874311855}, "890912595RR0001": {"name": "LES AMIES DE L'ENTRAIDE DE SAINT-BENOIT DE PACKINGTON", "designationCode": "C", "categoryCode": "09", "address": "1281 CH OUELLET", "city": "PACKINGTON", "province": "QC", "country": "CA", "postalCode": "G0L1Z0", "twitter": "None", "instagram": "None", "facebook": "None", "youtube": "None", "website": "None", "summary": "None", "logo": "None", "latitude": 47.4923476392173, "longitude": -68.74289929090037}, "120587530RR0001": {"name": "LES AMIES DE PANET", "designationCode": "C", "categoryCode": "09", "address": "8 RUE PRINCIPALE O", "city": "ST-FABIEN-DE-PANET", "province": "QC", "country": "CA", "postalCode": "G0R2J0", "twitter": "None", "instagram": "None", "facebook": "None", "youtube": "None", "website": "None", "summary": "None", "logo": "None", "latitude": 46.65398981432854, "longitude": -70.14789787275657}, "103069704RR0001": {"name": "LES AMIRAMS DE LA VALLEE INC.", "designationCode": "C", "categoryCode": "09", "address": "278 ST-JEAN BAPTISTE", "city": "AMQUI", "province": "QC", "country": "CA", "postalCode": "G5J3R7", "twitter": "None", "instagram": "None", "facebook": "None", "youtube": "None", "website": "None", "summary": "None", "logo": "None", "latitude": 48.47776774132955, "longitude": -67.43732374560005}, "119014058RR0001": {"name": "LES AMIS (ARS MUSICA IN SUMMA)", "designationCode": "C", "categoryCode": "22", "address": "827 RUTHERFORD ST", "city": "COBOURG", "province": "ON", "country": "CA", "postalCode": "K9A5Y7", "twitter": "None", "instagram": "None", "facebook": "None", "youtube": "None", "website": "None", "summary": "None", "logo": "None", "latitude": 43.96677422200624, "longitude": -78.20359083875107}, "119918803RR0001": {"name": "LES AMIS CANADIENS DE BAMBI-EGYPTE INC.", "designationCode": "C", "categoryCode": "11", "address": "1630 LAJOIE", "city": "OUTREMONT", "province": "QC", "country": "CA", "postalCode": "H2V1R6", "twitter": "None", "instagram": "None", "facebook": "None", "youtube": "None", "website": "None", "summary": "None", "logo": "None", "latitude": 45.51604399166146, "longitude": -73.61492805173428}, "119014066RR0001": {"name": "LES AMIS CANADIENS DE LA COMMUNAUTE DES GARDIENS DES MURS DE JERUSALEM", "designationCode": "C", "categoryCode": "01", "address": "2550 BATES RD                 SUITE 305", "city": "MONTREAL", "province": "QC", "country": "CA", "postalCode": "H3S1A7", "twitter": "None", "instagram": "None", "facebook": "None", "youtube": "None", "website": "None", "summary": "None", "logo": "None", "latitude": 45.51378240354327, "longitude": -73.63086673186582}, "892275249RR0001": {"name": "LES AMIS CANADIENS DE TORAH VYIRAH RABBINICAL COLLEGE", "designationCode": "C", "categoryCode": "21", "address": "25 FRONTENAC AVE", "city": "NORTH YORK", "province": "ON", "country": "CA", "postalCode": "M5N1Z4", "twitter": "None", "instagram": "None", "facebook": "None", "youtube": "None", "website": "None", "summary": "None", "logo": "None", "latitude": 43.718154769346256, "longitude": -79.42262439855159}, "119014116RR0001": {"name": "LES AMIS CANADIENS DU SEMINAIRE YESHIVAH MIRER DE JERUSALEM INC./CANADIAN FRIENDS OF THE SEMINARY YESHIVAH MIRER OF JERUSALEM INC.", "designationCode": "C", "categoryCode": "21", "address": "493 GLENGARRY AVENUE", "city": "TORONTO", "province": "ON", "country": "CA", "postalCode": "M2M1E9", "twitter": "None", "instagram": "None", "facebook": "None", "youtube": "None", "website": "None", "summary": "None", "logo": "None", "latitude": 43.72076080930823, "longitude": -79.42626676366211}, "119014124RR0001": {"name": "LES AMIS COMPATISSANTS DU QUEBEC /THE COMPASSIONATE FRIENDS OF QUEBEC", "designationCode": "C", "categoryCode": "09", "address": "759 CROIS ADELE", "city": "PREVOST", "province": "QC", "country": "CA", "postalCode": "J0R1T0", "twitter": "None", "instagram": "None", "facebook": "None", "youtube": "None", "website": "None", "summary": "None", "logo": "None", "latitude": 45.85098036303307, "longitude": -74.0493925575044}, "873287759RR0001": {"name": "LES AMIS COMPATISSANTS DU QUEBEC, SECTION LAC ST-JEAN NORD", "designationCode": "C", "categoryCode": "09", "address": "151 RUE GAGNON", "city": "SAINT-EUGENE-D'ARGENTENAY", "province": "QC", "country": "CA", "postalCode": "G0W1B0", "twitter": "None", "instagram": "None", "facebook": "None", "youtube": "None", "website": "None", "summary": "None", "logo": "None", "latitude": 48.97819236248478, "longitude": -72.28407407894294}, "877946921RR0001": {"name": "LES AMIS DE BETHANIE", "designationCode": "C", "categoryCode": "46", "address": "981 AVENUE MURRAY", "city": "QUEBEC", "province": "QC", "country": "CA", "postalCode": "G1S3B4", "twitter": "None", "instagram": "None", "facebook": "None", "youtube": "None", "website": "None", "summary": "None", "logo": "None", "latitude": 46.799330615326866, "longitude": -71.2364905331526}, "805920675RR0001": {"name": "LES AMIS DE BIBLIOTHEQUE ET ARCHIVES NATIONALES DU QUEBEC (BANQ)", "designationCode": "C", "categoryCode": "50", "address": "475, BOUL. DE MAISONNEUVE EST", "city": "MONTREAL", "province": "QC", "country": "CA", "postalCode": "H2L5C4", "twitter": "None", "instagram": "None", "facebook": "None", "youtube": "None", "website": "None", "summary": "None", "logo": "None", "latitude": 45.51501979020694, "longitude": -73.56139547786897}, "861227593RR0001": {"name": "LES AMIS DE DU VALLON", "designationCode": "C", "categoryCode": "21", "address": "88 RUE DE CANNES", "city": "GATINEAU", "province": "QC", "country": "CA", "postalCode": "J8V2M4", "twitter": "None", "instagram": "None", "facebook": "None", "youtube": "None", "website": "None", "summary": "None", "logo": "None", "latitude": 45.49669648459233, "longitude": -75.72411678660026}, "890614910RR0001": {"name": "LES AMIS DE JEANNE-MANCE", "designationCode": "A", "categoryCode": "03", "address": "2000 SHERBROOKE OUEST", "city": "MONTREAL", "province": "QC", "country": "CA", "postalCode": "H3H1G4", "twitter": "None", "instagram": "None", "facebook": "None", "youtube": "None", "website": "None", "summary": "None", "logo": "None", "latitude": 45.49368344489018, "longitude": -73.5842704953837}, "141626549RR0001": {"name": "LES AMIS DE L'\u00c9COLE DESJARDINS INC", "designationCode": "C", "categoryCode": "21", "address": "1080 RUE DES JARDINS-FLEURIS", "city": "SHERBROOKE", "province": "QC", "country": "CA", "postalCode": "J1E1J7", "twitter": "None", "instagram": "None", "facebook": "None", "youtube": "None", "website": "None", "summary": "None", "logo": "None", "latitude": 45.4186098997637, "longitude": -71.86506903846139}, "890270010RR0001": {"name": "LES AMIS DE L'\u00c9COLE LAJOIE", "designationCode": "C", "categoryCode": "21", "address": "1276 LAJOIE", "city": "OUTREMONT", "province": "QC", "country": "CA", "postalCode": "H2V1P4", "twitter": "None", "instagram": "None", "facebook": "None", "youtube": "None", "website": "None", "summary": "None", "logo": "None", "latitude": 45.520445075480495, "longitude": -73.61094882581241}, "893061440RR0001": {"name": "LES AMIS DE L'\u00c9COLE NOTRE-DAME-DU-ROSAIRE DE SHERBROOKE", "designationCode": "C", "categoryCode": "21", "address": "1625 RUE DU ROSAIRE", "city": "SHERBROOKE", "province": "QC", "country": "CA", "postalCode": "J1H2T6", "twitter": "None", "instagram": "None", "facebook": "None", "youtube": "None", "website": "None", "summary": "None", "logo": "None", "latitude": 45.38742749321933, "longitude": -71.914563}, "119014249RR0001": {"name": "LES AMIS DE L'\u00c9COLE SACR\u00c9-COEUR", "designationCode": "C", "categoryCode": "21", "address": "137 RUE GILLESPIE", "city": "SHERBROOKE", "province": "QC", "country": "CA", "postalCode": "J1H4W9", "twitter": "None", "instagram": "None", "facebook": "None", "youtube": "None", "website": "None", "summary": "None", "logo": "None", "latitude": 45.39833760115995, "longitude": -71.89204771192783}, "893810846RR0001": {"name": "LES AMIS DE L'ACADEMIE DU SACRE-COEUR INC.", "designationCode": "C", "categoryCode": "21", "address": "80 RUE DE LA CROIX", "city": "SHERBROOKE", "province": "QC", "country": "CA", "postalCode": "J1C0R7", "twitter": "None", "instagram": "None", "facebook": "None", "youtube": "None", "website": "None", "summary": "None", "logo": "None", "latitude": 45.472283915084454, "longitude": -71.94677693476262}, "123730715RR0001": {"name": "LES AMIS DE L'ART DE TROIS-PISTOLES INC.", "designationCode": "C", "categoryCode": "52", "address": "168 RUE NOTRE-DAME E          P.R.", "city": "TROIS-PISTOLES", "province": "QC", "country": "CA", "postalCode": "G0L4K0", "twitter": "None", "instagram": "None", "facebook": "None", "youtube": "None", "website": "None", "summary": "None", "logo": "None", "latitude": 48.12746858142444, "longitude": -69.1705392199206}, "137144887RR0001": {"name": "LES AMIS DE L'ECOLE DE WATERVILLE INC.", "designationCode": "A", "categoryCode": "23", "address": "430, RUE DU COUVENT", "city": "WATERVILLE", "province": "QC", "country": "CA", "postalCode": "J0B3H0", "twitter": "None", "instagram": "None", "facebook": "None", "youtube": "None", "website": "None", "summary": "None", "logo": "None", "latitude": 45.27573304218365, "longitude": -71.88842681859904}, "886500792RR0001": {"name": "LES AMIS DE L'ECOLE HOLLAND/FRIENDS OF HOLLAND SCHOOL", "designationCode": "C", "categoryCode": "21", "address": "940 RUE ERNEST GAGNON", "city": "QUEBEC", "province": "QC", "country": "CA", "postalCode": "G1S3R2", "twitter": "None", "instagram": "None", "facebook": "None", "youtube": "None", "website": "None", "summary": "None", "logo": "None", "latitude": 46.79427871412089, "longitude": -71.24893140703436}, "850223546RR0001": {"name": "LES AMIS DE L'ECOLE PRIMAIRE DE L'EVEREST/FRIENDS OF EVERESTELEMENTARY", "designationCode": "C", "categoryCode": "21", "address": "2280 RUE LAVERDIERE", "city": "QUEBEC", "province": "QC", "country": "CA", "postalCode": "G1P2T3", "twitter": "None", "instagram": "None", "facebook": "None", "youtube": "None", "website": "None", "summary": "None", "logo": "None", "latitude": 46.81392661174885, "longitude": -71.2988625882911}, "889125266RR0001": {"name": "LES AMIS DE L'ECOLE PRIMAIRE DE SAINTE-FOY/FRIENDS OF ST.FOYELEMENTARY SCHOOL", "designationCode": "C", "categoryCode": "21", "address": "1240 RUE JULIEN-GREEN", "city": "SAINTE-FOY", "province": "QC", "country": "CA", "postalCode": "G1W3M1", "twitter": "None", "instagram": "None", "facebook": "None", "youtube": "None", "website": "None", "summary": "None", "logo": "None", "latitude": 46.76647059114797, "longitude": -71.28323878564798}, "887958510RR0001": {"name": "LES AMIS DE L'ECOLE PRIMAIRE DE VALCARTIER/FRIENDS OF VALCARTIER ELEMENTARY SCHOOL", "designationCode": "C", "categoryCode": "21", "address": "1748 BOULEVARD VALCARTIER", "city": "ST-GABRIEL DE VALCARTIER", "province": "QC", "country": "CA", "postalCode": "G0A4S0", "twitter": "None", "instagram": "None", "facebook": "None", "youtube": "None", "website": "None", "summary": "None", "logo": "None", "latitude": 46.93393752680465, "longitude": -71.46533171187052}, "870292182RR0001": {"name": "LES AMIS DE L'ECOLE PRIMAIRE LAURENTIAN/FRIENDS OF LAURENTIAN ELEMENTARY SCHOOL", "designationCode": "C", "categoryCode": "20", "address": "455 COURT ST", "city": "LACHUTE", "province": "QC", "country": "CA", "postalCode": "J8H1T2", "twitter": "None", "instagram": "None", "facebook": "None", "youtube": "None", "website": "None", "summary": "None", "logo": "None", "latitude": 45.6572432600841, "longitude": -74.3366368909342}, "867317489RR0001": {"name": "LES AMIS DE L'ENVOL", "designationCode": "C", "categoryCode": "09", "address": "541 RUE LARIVIERE", "city": "ROUYN-NORANDA", "province": "QC", "country": "CA", "postalCode": "J9X4J3", "twitter": "None", "instagram": "None", "facebook": "None", "youtube": "None", "website": "None", "summary": "None", "logo": "None", "latitude": 48.22814513379296, "longitude": -79.0125878100007}, "869524561RR0001": {"name": "LES AMIS DE L'ESCADRON 890 DE ST-GEORGES INC.", "designationCode": "C", "categoryCode": "29", "address": "12375 BOUL LACROIX", "city": "ST-GEORGES-DE-BEAUCE", "province": "QC", "country": "CA", "postalCode": "G5Y1L8", "twitter": "None", "instagram": "None", "facebook": "None", "youtube": "None", "website": "None", "summary": "None", "logo": "None"}, "871181772RR0001": {"name": "LES AMIS DE L'EST POUR LA DEFICIENCE INTELLECTUELLE", "designationCode": "C", "categoryCode": "01", "address": "12230 6 I\u00c8ME AVENUE", "city": "MONTREAL", "province": "QC", "country": "CA", "postalCode": "H1E1S2", "twitter": "None", "instagram": "None", "facebook": "None", "youtube": "None", "website": "None", "summary": "None", "logo": "None", "latitude": 45.62695500000005, "longitude": -73.60463599999993}, "119014256RR0001": {"name": "LES AMIS DE L'HOPITAL D'OTTAWA - CAMPUS GENERAL / THE FRIENDS OF THE OTTAWA HOSPITAL - GENERAL CAMPUS", "designationCode": "C", "categoryCode": "19", "address": "501 SMYTH ROAD", "city": "OTTAWA", "province": "ON", "country": "CA", "postalCode": "K1H8L6", "twitter": "None", "instagram": "None", "facebook": "None", "youtube": "None", "website": "None", "summary": "None", "logo": "None", "latitude": 45.39948712940154, "longitude": -75.64739468789217}, "891277345RR0001": {"name": "LES AMIS DE L'HOPITAL DE TRACADIE INC", "designationCode": "A", "categoryCode": "13", "address": "1750 PROMENADE SUNSET", "city": "BATHURST", "province": "NB", "country": "CA", "postalCode": "E2A4L7", "twitter": "None", "instagram": "None", "facebook": "None", "youtube": "None", "website": "None", "summary": "None", "logo": "None", "latitude": 47.64597338544208, "longitude": -65.69401318915024}, "141214965RR0001": {"name": "LES AMIS DE L'ORGUE DE MONTREAL", "designationCode": "C", "categoryCode": "22", "address": "1925, RUE ALEXANDRE DE S\u00c8VE   SUITE 315", "city": "MONTR\u00c9AL", "province": "QC", "country": "CA", "postalCode": "H2L2W2", "twitter": "None", "instagram": "None", "facebook": "None", "youtube": "None", "website": "None", "summary": "None", "logo": "None", "latitude": 45.524016166541536, "longitude": -73.55964896612623}, "898708862RR0001": {"name": "LES AMIS DE L'ORGUE DE RIMOUSKI", "designationCode": "C", "categoryCode": "22", "address": "C.P. 84", "city": "RIMOUSKI", "province": "QC", "country": "CA", "postalCode": "G5L7B7", "twitter": "None", "instagram": "None", "facebook": "None", "youtube": "None", "website": "None", "summary": "None", "logo": "None", "latitude": 48.44933700000006, "longitude": -68.52474349999993}, "119014298RR0001": {"name": "LES AMIS DE L'UNIVERSITE DE MONCTON INC.", "designationCode": "A", "categoryCode": "23", "address": "UNIVERSITE DE MONCTON", "city": "MONCTON", "province": "NB", "country": "CA", "postalCode": "E1A3E9", "twitter": "None", "instagram": "None", "facebook": "None", "youtube": "None", "website": "None", "summary": "None", "logo": "None", "latitude": 46.10445000000004, "longitude": -64.78059999999994}, "864170311RR0001": {"name": "LES AMIS DE LA BELLE CHAPELLE", "designationCode": "C", "categoryCode": "49", "address": "765, RUE DE WESTMOUNT", "city": "SHERBROOKE", "province": "QC", "country": "CA", "postalCode": "J1H2S7", "twitter": "None", "instagram": "None", "facebook": "None", "youtube": "None", "website": "None", "summary": "None", "logo": "None", "latitude": 45.38823052596793, "longitude": -71.89728308381903}, "893312256RR0001": {"name": "LES AMIS DE LA BIBLIOTHEQUE DE MONTREAL", "designationCode": "C", "categoryCode": "59", "address": "400-3565 RUE JARRY EST", "city": "MONTR\u00c9AL", "province": "QC", "country": "CA", "postalCode": "H1Z0A2", "twitter": "None", "instagram": "None", "facebook": "None", "youtube": "None", "website": "None", "summary": "None", "logo": "None", "latitude": 45.565346524505784, "longitude": -73.60817675599486}, "130332703RR0001": {"name": "LES AMIS DE LA DEFICIENCE INTELLECTUELLE RIVE-NORD", "designationCode": "C", "categoryCode": "09", "address": "50 THOUIN                     LOCAL 225", "city": "REPENTIGNY", "province": "QC", "country": "CA", "postalCode": "J6A4J4", "twitter": "None", "instagram": "None", "facebook": "None", "youtube": "None", "website": "None", "summary": "None", "logo": "None", "latitude": 45.73416390891028, "longitude": -73.45014598687135}, "896417763RR0001": {"name": "LES AMIS DE LA MAISON MACDONELL-WILLIAMSON / FRIENDS OF THE MACDONELL-WILLIAMSON HOUSE", "designationCode": "C", "categoryCode": "52", "address": "RR 1 PO BOX 8", "city": "CHUTE A BLONDEAU", "province": "ON", "country": "CA", "postalCode": "K0B1B0", "twitter": "None", "instagram": "None", "facebook": "None", "youtube": "None", "website": "None", "summary": "None", "logo": "None", "latitude": 45.58825000000007, "longitude": -74.46886999999998}, "887615284RR0001": {"name": "LES AMIS DE LA MONTAGNE (MONT-ROYAL) INC", "designationCode": "C", "categoryCode": "52", "address": "1260 CHEMIN REMEMBRANCE", "city": "MONTREAL", "province": "QC", "country": "CA", "postalCode": "H3H1A2", "twitter": "None", "instagram": "None", "facebook": "None", "youtube": "None", "website": "None", "summary": "None", "logo": "None", "latitude": 45.501623665272135, "longitude": -73.59348470272391}, "131736167RR0001": {"name": "LES AMIS DE LA MUSIQUE DE RICHMOND INC", "designationCode": "C", "categoryCode": "22", "address": "1010 PRINCIPALE NORD", "city": "RICHMOND", "province": "QC", "country": "CA", "postalCode": "J0B2H0", "twitter": "None", "instagram": "None", "facebook": "None", "youtube": "None", "website": "None", "summary": "None", "logo": "None", "latitude": 45.668141066622354, "longitude": -72.14996711552935}, "892468562RR0001": {"name": "LES AMIS DE LA MUSIQUE DE ROBERVAL INC.", "designationCode": "C", "categoryCode": "22", "address": "104 CH DU DOMAINE-PARENT", "city": "SAINT-PRIME", "province": "QC", "country": "CA", "postalCode": "G8J2B2", "twitter": "None", "instagram": "None", "facebook": "None", "youtube": "None", "website": "None", "summary": "None", "logo": "None", "latitude": 48.58276115349979, "longitude": -72.28658672450824}, "890096373RR0001": {"name": "LES AMIS DE LA RELEVE DE LA CROIX DU MONT-ROUGE", "designationCode": "C", "categoryCode": "52", "address": "426 RANG DE LA MONTAGNE", "city": "ROUGEMONT", "province": "QC", "country": "CA", "postalCode": "J0L1M0", "twitter": "None", "instagram": "None", "facebook": "None", "youtube": "None", "website": "None", "summary": "None", "logo": "None", "latitude": 45.47226147377228, "longitude": -73.09358915557728}, "130257447RR0001": {"name": "LES AMIS DE LA SANT\u00c9 MENTALE (BANLIEUE OUEST)", "designationCode": "C", "categoryCode": "59", "address": "121 - 186 PL SUTTON", "city": "BEACONSFIELD", "province": "QC", "country": "CA", "postalCode": "H9W5S3", "twitter": "None", "instagram": "None", "facebook": "None", "youtube": "None", "website": "None", "summary": "None", "logo": "None", "latitude": 45.43728095862442, "longitude": -73.84720654633858}, "119014231RR0001": {"name": "LES AMIS DE LA VILLA DU REPOS INC.", "designationCode": "C", "categoryCode": "13", "address": "403 MAIN STREET", "city": "SHEDIAC", "province": "NB", "country": "CA", "postalCode": "E4P2B9", "twitter": "None", "instagram": "None", "facebook": "None", "youtube": "None", "website": "None", "summary": "None", "logo": "None", "latitude": 46.219689040431696, "longitude": -64.53812234927874}, "119014223RR0001": {"name": "LES AMIS DE LA VILLA INC.", "designationCode": "C", "categoryCode": "05", "address": "403 RUE MAIN", "city": "SHEDIAC", "province": "NB", "country": "CA", "postalCode": "E4P2B9", "twitter": "None", "instagram": "None", "facebook": "None", "youtube": "None", "website": "None", "summary": "None", "logo": "None", "latitude": 46.219689040431696, "longitude": -64.53812234927874}, "103069753RR0001": {"name": "LES AMIS DE LAMATER", "designationCode": "C", "categoryCode": "09", "address": "695 RUE OUIMET", "city": "TERREBONNE", "province": "QC", "country": "CA", "postalCode": "J6W3B1", "twitter": "None", "instagram": "None", "facebook": "None", "youtube": "None", "website": "None", "summary": "None", "logo": "None", "latitude": 45.69920937108315, "longitude": -73.63618908976298}, "118935089RR0001": {"name": "LES AMIS DE PIEDMONT", "designationCode": "C", "categoryCode": "56", "address": "630 SHERBROOKE WEST           SUITE 400", "city": "MONTREAL", "province": "QC", "country": "CA", "postalCode": "H3A1E4", "twitter": "None", "instagram": "None", "facebook": "None", "youtube": "None", "website": "None", "summary": "None", "logo": "None", "latitude": 45.505404, "longitude": -73.5724035}, "857823835RR0001": {"name": "LES AMIS DE STEWART HALL/THE FRIENDS OF STEWART HALL", "designationCode": "A", "categoryCode": "23", "address": "176 CHEMIN DU BORD-DU-LAC", "city": "POINTE-CLAIRE", "province": "QC", "country": "CA", "postalCode": "H9S4J7", "twitter": "None", "instagram": "None", "facebook": "None", "youtube": "None", "website": "None", "summary": "None", "logo": "None", "latitude": 45.43499205741844, "longitude": -73.80887605199408}, "132904236RR0001": {"name": "LES AMIS DES AINES DE LANAUDIERE INC", "designationCode": "C", "categoryCode": "09", "address": "412 1ERE AVENUE", "city": "CRABTREE", "province": "QC", "country": "CA", "postalCode": "J0K1B0", "twitter": "None", "instagram": "None", "facebook": "None", "youtube": "None", "website": "None", "summary": "None", "logo": "None", "latitude": 45.97424543049213, "longitude": -73.47641494474595}, "892564063RR0001": {"name": "LES AMIS DES ESTACADES INC", "designationCode": "C", "categoryCode": "21", "address": "501 RUE DES ERABLES", "city": "CAP-DE-LA-MADELEINE", "province": "QC", "country": "CA", "postalCode": "G8T5J2", "twitter": "None", "instagram": "None", "facebook": "None", "youtube": "None", "website": "None", "summary": "None", "logo": "None", "latitude": 46.378321868882395, "longitude": -72.52291066686449}, "853855807RR0001": {"name": "LES AMIS DES FRATERNITES MONASTIQUES DE JERUSALEM - MONTREAL", "designationCode": "A", "categoryCode": "43", "address": "2000 RUE SHERBROOKE OUEST", "city": "MONTREAL", "province": "QC", "country": "CA", "postalCode": "H3H1G4", "twitter": "None", "instagram": "None", "facebook": "None", "youtube": "None", "website": "None", "summary": "None", "logo": "None", "latitude": 45.49368344489018, "longitude": -73.5842704953837}, "896573383RR0001": {"name": "LES AMIS DES JARDINS DE METIS INC.", "designationCode": "C", "categoryCode": "50", "address": "200 ROUTE 132", "city": "GRAND-M\u00c9TIS", "province": "QC", "country": "CA", "postalCode": "G0J1Z0", "twitter": "None", "instagram": "None", "facebook": "None", "youtube": "None", "website": "None", "summary": "None", "logo": "None", "latitude": 48.628326366140435, "longitude": -68.1228591870078}, "123376501RR0001": {"name": "LES AMIS DES PLAINES D'ABRAHAM INC. / FRIENDS OF THE PLAINS OF ABRAHAM INC.", "designationCode": "A", "categoryCode": "52", "address": "390 AVE DE BERNIERES", "city": "QUEBEC", "province": "QC", "country": "CA", "postalCode": "G1R2L7", "twitter": "None", "instagram": "None", "facebook": "None", "youtube": "None", "website": "None", "summary": "None", "logo": "None", "latitude": 46.80311559091684, "longitude": -71.2186865706617}, "119014322RR0001": {"name": "LES AMIS DES SCOUTS DE PLESSISVILLE INC.", "designationCode": "C", "categoryCode": "29", "address": "C.P. 171 SUCC. BUREAU-CHEF", "city": "PLESSISVILLE", "province": "QC", "country": "CA", "postalCode": "G6L2Y7", "twitter": "None", "instagram": "None", "facebook": "None", "youtube": "None", "website": "None", "summary": "None", "logo": "None", "latitude": 46.20763500000005, "longitude": -71.77579549999993}, "858293400RR0001": {"name": "LES AMIS DU BOISE DE LA POINTE ST-GILLES", "designationCode": "C", "categoryCode": "52", "address": "70 AVENUE MICHEL-H\u00c9MON", "city": "BAIE-COMEAU", "province": "QC", "country": "CA", "postalCode": "G4Z2A5", "twitter": "None", "instagram": "None", "facebook": "None", "youtube": "None", "website": "None", "summary": "None", "logo": "None", "latitude": 49.210890639082756, "longitude": -68.16314154847231}, "877771527RR0001": {"name": "LES AMIS DU CENTRE JEAN-CLAUDE-MALEPART", "designationCode": "C", "categoryCode": "03", "address": "2633 RUE ONTARIO EST", "city": "MONTREAL", "province": "QC", "country": "CA", "postalCode": "H2K1W8", "twitter": "None", "instagram": "None", "facebook": "None", "youtube": "None", "website": "None", "summary": "None", "logo": "None", "latitude": 45.53401812184775, "longitude": -73.55188072205539}, "107614414RR0001": {"name": "LES AMIS DU COCON INC.", "designationCode": "C", "categoryCode": "01", "address": "C.P. 552", "city": "EDMUNDSTON", "province": "NB", "country": "CA", "postalCode": "E3V3L2", "twitter": "None", "instagram": "None", "facebook": "None", "youtube": "None", "website": "None", "summary": "None", "logo": "None", "latitude": 47.37372000000006, "longitude": -68.32513249999994}, "890642796RR0001": {"name": "LES AMIS DU COLLEGE MESIVTA OF LAKEWOOD", "designationCode": "C", "categoryCode": "21", "address": "5773 AVENUE DUROCHER", "city": "OUTREMONT", "province": "QC", "country": "CA", "postalCode": "H2V3Y3", "twitter": "None", "instagram": "None", "facebook": "None", "youtube": "None", "website": "None", "summary": "None", "logo": "None", "latitude": 45.52203925757394, "longitude": -73.60597837800803}, "899862957RR0001": {"name": "LES AMIS DU CREPUSCULE", "designationCode": "C", "categoryCode": "09", "address": "650 RUE GIROUARD E", "city": "SAINT-HYACINTHE", "province": "QC", "country": "CA", "postalCode": "J2S2Y2", "twitter": "None", "instagram": "None", "facebook": "None", "youtube": "None", "website": "None", "summary": "None", "logo": "None", "latitude": 45.63261623495506, "longitude": -72.94180957057556}, "898212774RR0001": {"name": "LES AMIS DU FESTIVAL FRANCO-ONTARIEN (1994) INC.", "designationCode": "A", "categoryCode": "22", "address": "1155 ELMLEA DR", "city": "GLOUCESTER", "province": "ON", "country": "CA", "postalCode": "K1J6W1", "twitter": "None", "instagram": "None", "facebook": "None", "youtube": "None", "website": "None", "summary": "None", "logo": "None", "latitude": 45.43882292091282, "longitude": -75.60406024078128}, "119014389RR0001": {"name": "LES AMIS DU GRAND SEMINAIRE BEER SHMUEL", "designationCode": "C", "categoryCode": "21", "address": "5663 DUROCHER AVE", "city": "OUTREMONT", "province": "QC", "country": "CA", "postalCode": "H2V3Y3", "twitter": "None", "instagram": "None", "facebook": "None", "youtube": "None", "website": "None", "summary": "None", "logo": "None", "latitude": 45.52150825757394, "longitude": -73.60477237800804}}