{"879821569RR0001": {"name": "ELIZABETH LUE BONE MARROW FOUNDATION", "designationCode": "C", "categoryCode": "19", "address": "60 SCOTTFIELD DRIVE", "city": "TORONTO", "province": "ON", "country": "CA", "postalCode": "M1S5T7", "twitter": "None", "instagram": "None", "facebook": "None", "youtube": "None", "website": "None", "summary": "None", "logo": "None", "latitude": 43.80877192065302, "longitude": -79.25326780316178}, "891507543RR0001": {"name": "ELIZABETH PARK PROTESTANT CHAPEL", "designationCode": "C", "categoryCode": "39", "address": "CFSU (0) PROTESTANT CHAPLAIN  UPLANDS SITE", "city": "OTTAWA", "province": "ON", "country": "CA", "postalCode": "K1A0K5", "twitter": "None", "instagram": "None", "facebook": "None", "youtube": "None", "website": "None", "summary": "None", "logo": "None", "latitude": 45.423609000000056, "longitude": -75.69094399999993}, "891062044RR0001": {"name": "ELIZABETH ROSE HERMAN BURSARY FUND", "designationCode": "B", "categoryCode": "21", "address": "70 ST CLEMENTS AVENUE", "city": "TORONTO", "province": "ON", "country": "CA", "postalCode": "M4R1H2", "twitter": "None", "instagram": "None", "facebook": "None", "youtube": "None", "website": "None", "summary": "None", "logo": "None", "latitude": 43.712313147411635, "longitude": -79.40178671469779}, "118897495RR0001": {"name": "ELIZABETH UNITED CHURCH", "designationCode": "C", "categoryCode": "44", "address": "P.O. BOX 99", "city": "HARRINGTON HARBOUR", "province": "QC", "country": "CA", "postalCode": "G0G1N0", "twitter": "None", "instagram": "None", "facebook": "None", "youtube": "None", "website": "None", "summary": "None", "logo": "None", "latitude": 50.497070000000065, "longitude": -59.478399999999965}, "881929327RR0001": {"name": "ELIZABETH'S WILDLIFE CENTER SOCIETY", "designationCode": "C", "categoryCode": "54", "address": "32508 VERDON WAY", "city": "ABBOTSFORD", "province": "BC", "country": "CA", "postalCode": "V2T7Y3", "twitter": "None", "instagram": "None", "facebook": "None", "youtube": "None", "website": "None", "summary": "None", "logo": "None", "latitude": 49.07158572159404, "longitude": -122.32382699365202}, "118897511RR0001": {"name": "ELK / BEAVER LAKE EQUESTRIAN SOCIETY", "designationCode": "C", "categoryCode": "56", "address": "3891 SAVANNAH AVE", "city": "VICTORIA", "province": "BC", "country": "CA", "postalCode": "V8X1T6", "twitter": "None", "instagram": "None", "facebook": "None", "youtube": "None", "website": "None", "summary": "None", "logo": "None", "latitude": 48.46201569830918, "longitude": -123.36433226960607}, "107977126RR0004": {"name": "ELK ISLAND CATHOLIC SEPARATE REGIONAL DIVISION NO. 41", "designationCode": "C", "categoryCode": "20", "address": "160 FESTIVAL WAY", "city": "SHERWOOD PARK", "province": "AB", "country": "CA", "postalCode": "T8A5Z2", "twitter": "None", "instagram": "None", "facebook": "None", "youtube": "None", "website": "None", "summary": "None", "logo": "None", "latitude": 53.5279662489756, "longitude": -113.29728583847877}, "873602270RR0001": {"name": "ELK ISLAND PUBLIC SCHOOLS PARTNERS IN EDUCATION FOUNDATION", "designationCode": "C", "categoryCode": "03", "address": "PO BOX 57008                  2020 SHERWOOD DRIVE", "city": "SHERWOOD PARK", "province": "AB", "country": "CA", "postalCode": "T8A5L7", "twitter": "None", "instagram": "None", "facebook": "None", "youtube": "None", "website": "None", "summary": "None", "logo": "None", "latitude": 53.53104583236194, "longitude": -113.29550525238072}, "132269697RR0001": {"name": "ELK LAKE BAPTIST CHURCH ASSOCIATION", "designationCode": "C", "categoryCode": "31", "address": "5349 PATRICIA BAY HWY", "city": "VICTORIA", "province": "BC", "country": "CA", "postalCode": "V8Y1S2", "twitter": "None", "instagram": "None", "facebook": "None", "youtube": "None", "website": "None", "summary": "None", "logo": "None", "latitude": 48.533573819871016, "longitude": -123.38822818382015}, "118897628RR0001": {"name": "ELK POINT & DISTRICT AGRICULTURAL SOCIETY", "designationCode": "C", "categoryCode": "56", "address": "P.O. BOX 156", "city": "ELK POINT", "province": "AB", "country": "CA", "postalCode": "T0A1A0", "twitter": "None", "instagram": "None", "facebook": "None", "youtube": "None", "website": "None", "summary": "None", "logo": "None", "latitude": 54.815265, "longitude": -111.92067675}, "834465734RR0001": {"name": "ELK POINT BAPTIST CHURCH", "designationCode": "C", "categoryCode": "31", "address": "PO BOX 298", "city": "ELK POINT", "province": "AB", "country": "CA", "postalCode": "T0A1A0", "twitter": "None", "instagram": "None", "facebook": "None", "youtube": "None", "website": "None", "summary": "None", "logo": "None", "latitude": 54.815265, "longitude": -111.92067675}, "107296105RR0001": {"name": "ELK POINT MUNICIPAL LIBRARY BOARD", "designationCode": "C", "categoryCode": "50", "address": "BOX 750                       5123 - 50 AVENUE", "city": "ELK POINT", "province": "AB", "country": "CA", "postalCode": "T0A1A0", "twitter": "None", "instagram": "None", "facebook": "None", "youtube": "None", "website": "None", "summary": "None", "logo": "None", "latitude": 53.89691552120741, "longitude": -110.902464}, "107296162RR0001": {"name": "ELK POINT UNITED CHURCH PASTORAL CHARGE", "designationCode": "C", "categoryCode": "44", "address": "BOX 269", "city": "ELK POINT", "province": "AB", "country": "CA", "postalCode": "T0A1A0", "twitter": "None", "instagram": "None", "facebook": "None", "youtube": "None", "website": "None", "summary": "None", "logo": "None", "latitude": 54.815265, "longitude": -111.92067675}, "119288918RR0456": {"name": "ELK VALLEY BC CONGREGATION OF JEHOVAH'S WITNESSES", "designationCode": "C", "categoryCode": "61", "address": "1349 CYPRESS DR", "city": "SPARWOOD", "province": "BC", "country": "CA", "postalCode": "V0B2G2", "twitter": "None", "instagram": "None", "facebook": "None", "youtube": "None", "website": "None", "summary": "None", "logo": "None", "latitude": 49.75270090062906, "longitude": -114.88957781781964}, "132198474RR0001": {"name": "ELK VALLEY CONGREGATIONAL CHURCH", "designationCode": "C", "categoryCode": "39", "address": "500 ALPINE WAY                P.O. BOX 492", "city": "ELKFORD", "province": "BC", "country": "CA", "postalCode": "V0B1H0", "twitter": "None", "instagram": "None", "facebook": "None", "youtube": "None", "website": "None", "summary": "None", "logo": "None", "latitude": 50.019737754564, "longitude": -114.92115576594902}, "880465315RR0001": {"name": "ELK VALLEY CRITICAL INCIDENT RESPONSE TEAM", "designationCode": "C", "categoryCode": "59", "address": "POST OFFICE BOX 1319", "city": "FERNIE", "province": "BC", "country": "CA", "postalCode": "V0B1M0", "twitter": "None", "instagram": "None", "facebook": "None", "youtube": "None", "website": "None", "summary": "None", "logo": "None", "latitude": 49.499960000000044, "longitude": -115.06870999999995}, "891275661RR0001": {"name": "ELK VALLEY FAMILY SOCIETY", "designationCode": "C", "categoryCode": "09", "address": "BOX 2169", "city": "FERNIE", "province": "BC", "country": "CA", "postalCode": "V0B1M0", "twitter": "None", "instagram": "None", "facebook": "None", "youtube": "None", "website": "None", "summary": "None", "logo": "None", "latitude": 49.499960000000044, "longitude": -115.06870999999995}, "885448407RR0001": {"name": "ELK VALLEY HOSPICE (FERNIE & AREA)", "designationCode": "C", "categoryCode": "01", "address": "BOX 670", "city": "FERNIE", "province": "BC", "country": "CA", "postalCode": "V0B1M0", "twitter": "None", "instagram": "None", "facebook": "None", "youtube": "None", "website": "None", "summary": "None", "logo": "None", "latitude": 49.499960000000044, "longitude": -115.06870999999995}, "891246613RR0001": {"name": "ELK VALLEY HOSPITAL FOUNDATION", "designationCode": "C", "categoryCode": "11", "address": "P.O. BOX 670", "city": "FERNIE", "province": "BC", "country": "CA", "postalCode": "V0B1M0", "twitter": "None", "instagram": "None", "facebook": "None", "youtube": "None", "website": "None", "summary": "None", "logo": "None", "latitude": 49.499960000000044, "longitude": -115.06870999999995}, "863892899RR0001": {"name": "ELK VALLEY SENIORS HOUSING SOCIETY", "designationCode": "C", "categoryCode": "09", "address": "P.O. BOX 1587", "city": "SPARWOOD", "province": "BC", "country": "CA", "postalCode": "V0B2G0", "twitter": "None", "instagram": "None", "facebook": "None", "youtube": "None", "website": "None", "summary": "None", "logo": "None", "latitude": 49.71825130304497, "longitude": -114.89137413399925}, "891274664RR0001": {"name": "ELK VALLEY SOCIETY FOR COMMUNITY LIVING", "designationCode": "C", "categoryCode": "11", "address": "BOX 1464", "city": "FERNIE", "province": "BC", "country": "CA", "postalCode": "V0B1M0", "twitter": "None", "instagram": "None", "facebook": "None", "youtube": "None", "website": "None", "summary": "None", "logo": "None", "latitude": 49.499960000000044, "longitude": -115.06870999999995}, "118897529RR0001": {"name": "ELKFORD ALLIANCE CHURCH", "designationCode": "C", "categoryCode": "39", "address": "BOX 248", "city": "ELKFORD", "province": "BC", "country": "CA", "postalCode": "V0B1H0", "twitter": "None", "instagram": "None", "facebook": "None", "youtube": "None", "website": "None", "summary": "None", "logo": "None", "latitude": 50.02091000000007, "longitude": -114.91669999999999}, "107295990RR0001": {"name": "ELKFORD BAPTIST CHURCH", "designationCode": "C", "categoryCode": "31", "address": "BOX 1199", "city": "ELKFORD", "province": "BC", "country": "CA", "postalCode": "V0B1H0", "twitter": "None", "instagram": "None", "facebook": "None", "youtube": "None", "website": "None", "summary": "None", "logo": "None", "latitude": 50.02091000000007, "longitude": -114.91669999999999}, "108080516RR0001": {"name": "ELKFORD PUBLIC LIBRARY ASSOCIATION", "designationCode": "C", "categoryCode": "50", "address": "BOX 280", "city": "ELKFORD", "province": "BC", "country": "CA", "postalCode": "V0B1H0", "twitter": "None", "instagram": "None", "facebook": "None", "youtube": "None", "website": "None", "summary": "None", "logo": "None", "latitude": 50.02091000000007, "longitude": -114.91669999999999}, "893841460RR0001": {"name": "ELKFORD WOMEN'S TASK FORCE SOCIETY", "designationCode": "C", "categoryCode": "09", "address": "P.O. BOX 742", "city": "ELKFORD", "province": "BC", "country": "CA", "postalCode": "V0B1H0", "twitter": "None", "instagram": "None", "facebook": "None", "youtube": "None", "website": "None", "summary": "None", "logo": "None", "latitude": 50.02091000000007, "longitude": -114.91669999999999}, "897951190RR0001": {"name": "ELKHORN & AREA FOUNDATION INC.", "designationCode": "A", "categoryCode": "53", "address": "BOX 25", "city": "ELKHORN", "province": "MB", "country": "CA", "postalCode": "R0M0N0", "twitter": "None", "instagram": "None", "facebook": "None", "youtube": "None", "website": "None", "summary": "None", "logo": "None", "latitude": 49.975280000000055, "longitude": -101.23601999999994}, "118897560RR0001": {"name": "ELKHORN AGRICULTURAL SOCIETY", "designationCode": "C", "categoryCode": "56", "address": "BOX 177", "city": "ELKHORN", "province": "MB", "country": "CA", "postalCode": "R0M0N0", "twitter": "None", "instagram": "None", "facebook": "None", "youtube": "None", "website": "None", "summary": "None", "logo": "None", "latitude": 49.975280000000055, "longitude": -101.23601999999994}, "890636194RR0001": {"name": "ELKHORN CURLING CLUB TRUST", "designationCode": "C", "categoryCode": "56", "address": "BOX 28", "city": "ELKHORN", "province": "MB", "country": "CA", "postalCode": "R0M0N0", "twitter": "None", "instagram": "None", "facebook": "None", "youtube": "None", "website": "None", "summary": "None", "logo": "None", "latitude": 49.975280000000055, "longitude": -101.23601999999994}, "881499529RR0001": {"name": "ELKHORN DONOR'S CHOICE", "designationCode": "A", "categoryCode": "05", "address": "BOX 478", "city": "ELKHORN", "province": "MB", "country": "CA", "postalCode": "R0M0N0", "twitter": "None", "instagram": "None", "facebook": "None", "youtube": "None", "website": "None", "summary": "None", "logo": "None", "latitude": 49.975280000000055, "longitude": -101.23601999999994}, "857870232RR0001": {"name": "ELKHORN ELKS COMMUNITY FUND", "designationCode": "C", "categoryCode": "59", "address": "P.O. BOX 74                   #14 1ST ST.", "city": "ELKHORN", "province": "MB", "country": "CA", "postalCode": "R0M0N0", "twitter": "None", "instagram": "None", "facebook": "None", "youtube": "None", "website": "None", "summary": "None", "logo": "None", "latitude": 50.18130132727508, "longitude": -100.59979622360294}, "118897578RR0001": {"name": "ELKHORN GOSPEL FELLOWSHIP", "designationCode": "C", "categoryCode": "39", "address": "BOX 463", "city": "ELKHORN", "province": "MB", "country": "CA", "postalCode": "R0M0N0", "twitter": "None", "instagram": "None", "facebook": "None", "youtube": "None", "website": "None", "summary": "None", "logo": "None", "latitude": 49.975280000000055, "longitude": -101.23601999999994}, "118897594RR0001": {"name": "ELKHORN LEISURE CENTRE INC.", "designationCode": "C", "categoryCode": "56", "address": "BOX 418", "city": "ELKHORN", "province": "MB", "country": "CA", "postalCode": "R0M0N0", "twitter": "None", "instagram": "None", "facebook": "None", "youtube": "None", "website": "None", "summary": "None", "logo": "None", "latitude": 49.975280000000055, "longitude": -101.23601999999994}, "107447138RR0001": {"name": "ELKS AND ROYAL PURPLE FUND FOR CHILDREN", "designationCode": "C", "categoryCode": "65", "address": "100-2629 29TH AVE", "city": "REGINA", "province": "SK", "country": "CA", "postalCode": "S4S2N9", "twitter": "None", "instagram": "None", "facebook": "None", "youtube": "None", "website": "None", "summary": "None", "logo": "None", "latitude": 50.412255477350314, "longitude": -104.6199904417162}, "141152991RR0001": {"name": "ELKWATER CHARITABLE TRUST", "designationCode": "B", "categoryCode": "39", "address": "3425-2 AVENUE SOUTH", "city": "LETHBRIDGE", "province": "AB", "country": "CA", "postalCode": "T1J4V1", "twitter": "None", "instagram": "None", "facebook": "None", "youtube": "None", "website": "None", "summary": "None", "logo": "None", "latitude": 49.696839530439966, "longitude": -112.78914308381903}, "118897586RR0001": {"name": "ELKWOOD MANOR HEALTH AUXILIARY", "designationCode": "C", "categoryCode": "19", "address": "B0X 172", "city": "ELKHORN", "province": "MB", "country": "CA", "postalCode": "R0M0N0", "twitter": "None", "instagram": "None", "facebook": "None", "youtube": "None", "website": "None", "summary": "None", "logo": "None", "latitude": 49.92126838018772, "longitude": -97.19833535785601}, "846997922RR0001": {"name": "ELLEL MINISTRIES (CANADA) INC.", "designationCode": "C", "categoryCode": "49", "address": "183 HANNA ROAD", "city": "WESTPORT", "province": "ON", "country": "CA", "postalCode": "K0G1X0", "twitter": "None", "instagram": "None", "facebook": "None", "youtube": "None", "website": "None", "summary": "None", "logo": "None", "latitude": 43.71053389454088, "longitude": -79.3701942712795}, "892900788RR0001": {"name": "ELLEN AND MARTIN PROSSERMAN FOUNDATION, INC /FONDATION ELLEN ET MARTIN PROSSERMAN, INC", "designationCode": "B", "categoryCode": "03", "address": "1602-2300 YONGE ST", "city": "TORONTO", "province": "ON", "country": "CA", "postalCode": "M4P1E4", "twitter": "None", "instagram": "None", "facebook": "None", "youtube": "None", "website": "None", "summary": "None", "logo": "None", "latitude": 43.70721096779967, "longitude": -79.39846036808203}, "824441125RR0001": {"name": "ELLEN DOUGLASS ACCESS & INTEGRATION FOUNDATION INC.", "designationCode": "A", "categoryCode": "23", "address": "462 OXFORD STREET", "city": "WINNIPEG", "province": "MB", "country": "CA", "postalCode": "R3M3J8", "twitter": "None", "instagram": "None", "facebook": "None", "youtube": "None", "website": "None", "summary": "None", "logo": "None", "latitude": 49.86457845406545, "longitude": -97.1760377690578}, "118897735RR0001": {"name": "ELLEN KNOX ESTATE", "designationCode": "B", "categoryCode": "21", "address": "130 KING ST WEST 20TH FLOOR   BOX 430, STN FIRST CANADIAN PL", "city": "TORONTO", "province": "ON", "country": "CA", "postalCode": "M5X1K1", "twitter": "None", "instagram": "None", "facebook": "None", "youtube": "None", "website": "None", "summary": "None", "logo": "None", "latitude": 43.64826932503962, "longitude": -79.38190945606182}, "869312546RR0001": {"name": "ELLERSHOUSE COMMUNITY HALL", "designationCode": "B", "categoryCode": "56", "address": "25-429 ELLERSHOUSE ROAD", "city": "ELLERSHOUSE", "province": "NS", "country": "CA", "postalCode": "B0N1L0", "twitter": "None", "instagram": "None", "facebook": "None", "youtube": "None", "website": "None", "summary": "None", "logo": "None", "latitude": 44.945128907294176, "longitude": -64.0076527393963}, "118897743RR0001": {"name": "ELLERSHOUSE UNITED CHURCH", "designationCode": "C", "categoryCode": "44", "address": "PO BOX 43", "city": "ELLERSHOUSE", "province": "NS", "country": "CA", "postalCode": "B0N1L0", "twitter": "None", "instagram": "None", "facebook": "None", "youtube": "None", "website": "None", "summary": "None", "logo": "None", "latitude": 44.94507755254839, "longitude": -64.0064826779144}, "855527651RR0001": {"name": "ELLERSLIE ROAD BAPTIST CHURCH SOCIETY", "designationCode": "C", "categoryCode": "31", "address": "10603 ELLERSLIE RD SW", "city": "EDMONTON", "province": "AB", "country": "CA", "postalCode": "T6W1A1", "twitter": "None", "instagram": "None", "facebook": "None", "youtube": "None", "website": "None", "summary": "None", "logo": "None", "latitude": 53.42475049725965, "longitude": -113.50220069455825}, "107406316RR0002": {"name": "ELLICE FREE METHODIST CHURCH", "designationCode": "C", "categoryCode": "39", "address": "R.R.1", "city": "BASHAW", "province": "AB", "country": "CA", "postalCode": "T0B0H0", "twitter": "None", "instagram": "None", "facebook": "None", "youtube": "None", "website": "None", "summary": "None", "logo": "None", "latitude": 52.58377500000006, "longitude": -112.97088349999993}, "887072718RR0001": {"name": "ELLIOT LAKE AMATEUR THEATRE ENSEMBLE", "designationCode": "C", "categoryCode": "22", "address": "LESTER B PEARSON CIVIC CENTRE 255 HIGHWAY 108", "city": "ELLIOT LAKE", "province": "ON", "country": "CA", "postalCode": "P5A2T1", "twitter": "None", "instagram": "None", "facebook": "None", "youtube": "None", "website": "None", "summary": "None", "logo": "None", "latitude": 46.38259704892838, "longitude": -82.64163549443629}, "119288918RR0291": {"name": "ELLIOT LAKE CONGREGATION OF JEHOVAH'S WITNESSES", "designationCode": "C", "categoryCode": "61", "address": "219A OTTAWA AVE", "city": "ELLIOT LAKE", "province": "ON", "country": "CA", "postalCode": "P5A2N2", "twitter": "None", "instagram": "None", "facebook": "None", "youtube": "None", "website": "None", "summary": "None", "logo": "None", "latitude": 46.38176747169143, "longitude": -82.66239887358456}, "889512174RR0001": {"name": "ELLIOT LAKE EMERGENCY FOOD BANK INC", "designationCode": "C", "categoryCode": "09", "address": "5 MARY WALK", "city": "ELLIOT LAKE", "province": "ON", "country": "CA", "postalCode": "P5A1Z9", "twitter": "None", "instagram": "None", "facebook": "None", "youtube": "None", "website": "None", "summary": "None", "logo": "None", "latitude": 46.387002887039074, "longitude": -82.64897785152053}, "107384398RR0001": {"name": "ELLIOT LAKE FIRST BAPTIST CHURCH", "designationCode": "C", "categoryCode": "31", "address": "20 ROMAN AVE", "city": "ELLIOT LAKE", "province": "ON", "country": "CA", "postalCode": "P5A1R7", "twitter": "None", "instagram": "None", "facebook": "None", "youtube": "None", "website": "None", "summary": "None", "logo": "None", "latitude": 46.38075130841324, "longitude": -82.65269632635973}, "876372368RR0001": {"name": "ELLIOT LAKE SECONDARY SCHOOL", "designationCode": "C", "categoryCode": "20", "address": "303 MISSISSAUGA AVENUE", "city": "ELLIOT LAKE", "province": "ON", "country": "CA", "postalCode": "P5A1E8", "twitter": "None", "instagram": "None", "facebook": "None", "youtube": "None", "website": "None", "summary": "None", "logo": "None", "latitude": 46.37585870633151, "longitude": -82.66084756106865}, "107296931RR0001": {"name": "ELLIOT LAKE WOMEN'S GROUP INC.", "designationCode": "C", "categoryCode": "09", "address": "185 MISSISSAUGA AVE", "city": "ELLIOT LAKE", "province": "ON", "country": "CA", "postalCode": "P5A1E3", "twitter": "None", "instagram": "None", "facebook": "None", "youtube": "None", "website": "None", "summary": "None", "logo": "None", "latitude": 46.37018655063776, "longitude": -82.6540909730798}, "118897826RR0001": {"name": "ELLIOTT AND RINA ROSENBERG CHARITABLE FOUNDATION", "designationCode": "B", "categoryCode": "13", "address": "20 EGLINTON AVENUE WEST       STE 1009, BOX 2018", "city": "TORONTO", "province": "ON", "country": "CA", "postalCode": "M4R1K8", "twitter": "None", "instagram": "None", "facebook": "None", "youtube": "None", "website": "None", "summary": "None", "logo": "None", "latitude": 43.70661117236991, "longitude": -79.39906987844073}, "822706602RR0001": {"name": "ELLIOTT FAMILY 2011 FOUNDATION", "designationCode": "B", "categoryCode": "03", "address": "705-77 WALTER HARDWICK AVE", "city": "VANCOUVER", "province": "BC", "country": "CA", "postalCode": "V5Y0C6", "twitter": "None", "instagram": "None", "facebook": "None", "youtube": "None", "website": "None", "summary": "None", "logo": "None", "latitude": 49.271020857284896, "longitude": -123.10615868488533}, "107296972RR0001": {"name": "ELLIOTT HEIGHTS BAPTIST CHURCH", "designationCode": "C", "categoryCode": "31", "address": "1300 FENNELL AVE E", "city": "HAMILTON", "province": "ON", "country": "CA", "postalCode": "L8T1T6", "twitter": "None", "instagram": "None", "facebook": "None", "youtube": "None", "website": "None", "summary": "None", "logo": "None", "latitude": 43.223072984159636, "longitude": -79.81870884430715}, "812453074RR0001": {"name": "ELLIS AVENUE BIBLE CHURCH CHARITABLE PROPERTIES", "designationCode": "C", "categoryCode": "39", "address": "1500 KERNS ROAD", "city": "BURLINGTON", "province": "ON", "country": "CA", "postalCode": "L7P3A7", "twitter": "None", "instagram": "None", "facebook": "None", "youtube": "None", "website": "None", "summary": "None", "logo": "None", "latitude": 43.33901261082615, "longitude": -79.83518004933875}, "118897867RR0001": {"name": "ELLIS BIRD FARM LTD.", "designationCode": "C", "categoryCode": "54", "address": "PO BOX 5090 STN MAIN", "city": "LACOMBE", "province": "AB", "country": "CA", "postalCode": "T4L1W7", "twitter": "None", "instagram": "None", "facebook": "None", "youtube": "None", "website": "None", "summary": "None", "logo": "None", "latitude": 52.463094000000055, "longitude": -113.73671149999993}, "118897875RR0001": {"name": "ELLIS COMMUNITY PIONEER CHAPEL", "designationCode": "C", "categoryCode": "39", "address": "6681 ELLIS ROAD, RR#22", "city": "CAMBRIDGE", "province": "ON", "country": "CA", "postalCode": "N3C2V4", "twitter": "None", "instagram": "None", "facebook": "None", "youtube": "None", "website": "None", "summary": "None", "logo": "None", "latitude": 43.4351182462045, "longitude": -80.25444774752337}, "118897891RR0001": {"name": "ELLISTON PASTORAL CHARGE", "designationCode": "C", "categoryCode": "44", "address": "PO BOX 53", "city": "ELLISTON", "province": "NL", "country": "CA", "postalCode": "A0C1N0", "twitter": "None", "instagram": "None", "facebook": "None", "youtube": "None", "website": "None", "summary": "None", "logo": "None", "latitude": 48.65709053651393, "longitude": -53.09103299191166}, "132710856RR0001": {"name": "ELLWOOD HOUSE (OTTAWA) INCORPORATED", "designationCode": "C", "categoryCode": "01", "address": "2270 BRAESIDE AVE", "city": "OTTAWA", "province": "ON", "country": "CA", "postalCode": "K1H7J7", "twitter": "None", "instagram": "None", "facebook": "None", "youtube": "None", "website": "None", "summary": "None", "logo": "None", "latitude": 45.384008835968615, "longitude": -75.66044991191046}, "107297608RR0001": {"name": "ELM CHILDRENS CENTRE INCORPORATED", "designationCode": "C", "categoryCode": "01", "address": "162 MAIN STREET", "city": "GLENCOE", "province": "ON", "country": "CA", "postalCode": "N0L1M0", "twitter": "None", "instagram": "None", "facebook": "None", "youtube": "None", "website": "None", "summary": "None", "logo": "None", "latitude": 42.74485596168282, "longitude": -81.70700976591247}, "130523129RR0001": {"name": "ELM CREEK HOUSING CORPORATION INC", "designationCode": "C", "categoryCode": "09", "address": "BOX 314", "city": "ELM CREEK", "province": "MB", "country": "CA", "postalCode": "R0G0N0", "twitter": "None", "instagram": "None", "facebook": "None", "youtube": "None", "website": "None", "summary": "None", "logo": "None", "latitude": 49.19148365941253, "longitude": -97.76211492346253}, "107297624RR0001": {"name": "ELM CREEK STAY AND PLAY CENTRE INC.", "designationCode": "C", "categoryCode": "01", "address": "BOX 234", "city": "ELM CREEK", "province": "MB", "country": "CA", "postalCode": "R0G0N0", "twitter": "None", "instagram": "None", "facebook": "None", "youtube": "None", "website": "None", "summary": "None", "logo": "None"}, "890995210RR0001": {"name": "ELM FOUNDATION", "designationCode": "B", "categoryCode": "03", "address": "#410 550 WEST 6TH AVE", "city": "VANCOUVER", "province": "BC", "country": "CA", "postalCode": "V5Z1A1", "twitter": "None", "instagram": "None", "facebook": "None", "youtube": "None", "website": "None", "summary": "None", "logo": "None", "latitude": 49.26580582979448, "longitude": -123.11574114864246}, "875162513RR0001": {"name": "ELM RIVER CHARITABLE TRUST", "designationCode": "B", "categoryCode": "39", "address": "2500 - 201 PORTAGE AVE", "city": "WINNIPEG", "province": "MB", "country": "CA", "postalCode": "R3B3K6", "twitter": "None", "instagram": "None", "facebook": "None", "youtube": "None", "website": "None", "summary": "None", "logo": "None", "latitude": 49.895359615067065, "longitude": -97.13919299627776}, "129470134RR0001": {"name": "ELM STREET UNITED CHURCH", "designationCode": "C", "categoryCode": "44", "address": "11 ELM ST", "city": "ST. CATHARINES", "province": "ON", "country": "CA", "postalCode": "L2P2B6", "twitter": "None", "instagram": "None", "facebook": "None", "youtube": "None", "website": "None", "summary": "None", "logo": "None", "latitude": 43.142335478792596, "longitude": -79.21577266763806}, "126775337RR0001": {"name": "ELMA CENTRE CEMETERY", "designationCode": "C", "categoryCode": "59", "address": "145 ARTHUR STREET             PO BOX 307", "city": "ATWOOD", "province": "ON", "country": "CA", "postalCode": "N0G1B0", "twitter": "None", "instagram": "None", "facebook": "None", "youtube": "None", "website": "None", "summary": "None", "logo": "None", "latitude": 43.66707053952927, "longitude": -81.02223127269313}, "826770877RR0001": {"name": "ELMIRA COMMUNITY CHURCH", "designationCode": "C", "categoryCode": "39", "address": "5 - 112 ORIOLE PKY W", "city": "ELMIRA", "province": "ON", "country": "CA", "postalCode": "N3B1C5", "twitter": "None", "instagram": "None", "facebook": "None", "youtube": "None", "website": "None", "summary": "None", "logo": "None", "latitude": 43.5892237304485, "longitude": -80.5728587521037}, "879398907RR0001": {"name": "ELMIRA DEVELOPMENTAL SUPPORT CORPORATION", "designationCode": "C", "categoryCode": "11", "address": "118 BARNSWALLOW DR.", "city": "ELMIRA", "province": "ON", "country": "CA", "postalCode": "N3B2Y9", "twitter": "None", "instagram": "None", "facebook": "None", "youtube": "None", "website": "None", "summary": "None", "logo": "None", "latitude": 43.59342509853421, "longitude": -80.57715983063025}, "107297731RR0001": {"name": "ELMIRA DISTRICT COMMUNITY LIVING", "designationCode": "C", "categoryCode": "11", "address": "118 BARNSWALLOW DR.", "city": "ELMIRA", "province": "ON", "country": "CA", "postalCode": "N3B2Y9", "twitter": "None", "instagram": "None", "facebook": "None", "youtube": "None", "website": "None", "summary": "None", "logo": "None", "latitude": 43.59342509853421, "longitude": -80.57715983063025}, "118897974RR0001": {"name": "ELMIRA MENNONITE CHURCH INC.", "designationCode": "C", "categoryCode": "34", "address": "58 CHURCH ST WEST", "city": "ELMIRA", "province": "ON", "country": "CA", "postalCode": "N3B1N2", "twitter": "None", "instagram": "None", "facebook": "None", "youtube": "None", "website": "None", "summary": "None", "logo": "None", "latitude": 43.60062439223228, "longitude": -80.56481893046346}, "119288918RR1127": {"name": "ELMIRA ONTARIO CONGREGATION OF JEHOVAH'S WITNESSES", "designationCode": "C", "categoryCode": "61", "address": "128 QUEENSWAY DR.             P.O. BOX 399", "city": "ST. JACOBS", "province": "ON", "country": "CA", "postalCode": "N0B2N0", "twitter": "None", "instagram": "None", "facebook": "None", "youtube": "None", "website": "None", "summary": "None", "logo": "None", "latitude": 43.534446443533255, "longitude": -80.55565208743036}, "871729349RR0001": {"name": "ELMIRA PENTECOSTAL ASSEMBLY", "designationCode": "C", "categoryCode": "36", "address": "290 ARTHUR ST S", "city": "ELMIRA", "province": "ON", "country": "CA", "postalCode": "N3B3N4", "twitter": "None", "instagram": "None", "facebook": "None", "youtube": "None", "website": "None", "summary": "None", "logo": "None", "latitude": 43.58509131862771, "longitude": -80.56208744387965}, "894349604RR0001": {"name": "ELMIRA THEATRE COMPANY INC.", "designationCode": "C", "categoryCode": "22", "address": "BOX 271", "city": "ELMIRA", "province": "ON", "country": "CA", "postalCode": "N3B2Z7", "twitter": "None", "instagram": "None", "facebook": "None", "youtube": "None", "website": "None", "summary": "None", "logo": "None", "latitude": 43.59864300000005, "longitude": -80.55873349999993}, "890286776RR0001": {"name": "ELMSDALE CEMETERY COMPANY", "designationCode": "C", "categoryCode": "59", "address": "59 ELMBEL RD", "city": "BELNAN", "province": "NS", "country": "CA", "postalCode": "B2S2M3", "twitter": "None", "instagram": "None", "facebook": "None", "youtube": "None", "website": "None", "summary": "None", "logo": "None", "latitude": 44.98915605938033, "longitude": -63.522400160684505}, "118898022RR0001": {"name": "ELMSDALE UNITED BAPTIST CHURCH OF ELMSDALE, NOVA SCOTIA", "designationCode": "C", "categoryCode": "31", "address": "510 HIGHWAY #2", "city": "ENFIELD", "province": "NS", "country": "CA", "postalCode": "B2T1M5", "twitter": "None", "instagram": "None", "facebook": "None", "youtube": "None", "website": "None", "summary": "None", "logo": "None", "latitude": 44.95211587672567, "longitude": -63.52423913707972}, "118898030RR0001": {"name": "ELMSLEY-LOMBARDY PASTORAL CHARGE", "designationCode": "C", "categoryCode": "44", "address": "1601 GUTHRIE ROAD", "city": "SMITHS FALLS", "province": "ON", "country": "CA", "postalCode": "K7A5B8", "twitter": "None", "instagram": "None", "facebook": "None", "youtube": "None", "website": "None", "summary": "None", "logo": "None", "latitude": 44.91973155839938, "longitude": -75.94723743655165}, "139025134RR0001": {"name": "ELMSPRING CHARITABLE TRUST", "designationCode": "B", "categoryCode": "39", "address": "3425 2 AVENUE SOUTH", "city": "LETHBRIDGE", "province": "AB", "country": "CA", "postalCode": "T1J4V1", "twitter": "None", "instagram": "None", "facebook": "None", "youtube": "None", "website": "None", "summary": "None", "logo": "None", "latitude": 49.696839530439966, "longitude": -112.78914308381903}, "140883661RR0001": {"name": "ELMVALE COMMUNITY CHURCH", "designationCode": "C", "categoryCode": "39", "address": "12 QUEEN ST. E.", "city": "ELMVALE", "province": "ON", "country": "CA", "postalCode": "L0L1P0", "twitter": "None", "instagram": "None", "facebook": "None", "youtube": "None", "website": "None", "summary": "None", "logo": "None", "latitude": 44.58394014100634, "longitude": -79.86550309215757}, "118898055RR0001": {"name": "ELMVALE PASTORAL CHARGE", "designationCode": "C", "categoryCode": "44", "address": "27 YONGE ST SOUTH", "city": "ELMVALE", "province": "ON", "country": "CA", "postalCode": "L0L1P0", "twitter": "None", "instagram": "None", "facebook": "None", "youtube": "None", "website": "None", "summary": "None", "logo": "None", "latitude": 44.58210974747612, "longitude": -79.86478059198913}, "129818514RR0001": {"name": "ELMVALE PRESBYTERIAN CHURCH,", "designationCode": "C", "categoryCode": "37", "address": "22 QUEEN ST.E.", "city": "ELMVALE", "province": "ON", "country": "CA", "postalCode": "L0L1P0", "twitter": "None", "instagram": "None", "facebook": "None", "youtube": "None", "website": "None", "summary": "None", "logo": "None", "latitude": 44.58425455929744, "longitude": -79.86490460615931}, "892900127RR0001": {"name": "ELMVIEW RESIDENT AND FAMILY SUPPORT GROUP INC.", "designationCode": "C", "categoryCode": "19", "address": "1334 WASCANA HGHLDS", "city": "REGINA", "province": "SK", "country": "CA", "postalCode": "S4V2J9", "twitter": "None", "instagram": "None", "facebook": "None", "youtube": "None", "website": "None", "summary": "None", "logo": "None", "latitude": 50.422162474114295, "longitude": -104.54194689449554}, "118898071RR0001": {"name": "ELMWOOD AVENUE PRESBYTERIAN CHURCH", "designationCode": "C", "categoryCode": "37", "address": "111 ELMWOOD AVE E", "city": "LONDON", "province": "ON", "country": "CA", "postalCode": "N6C1J4", "twitter": "None", "instagram": "None", "facebook": "None", "youtube": "None", "website": "None", "summary": "None", "logo": "None", "latitude": 42.97064653895233, "longitude": -81.25538061642338}, "133475434RR0001": {"name": "ELMWOOD BIBLE CHAPEL", "designationCode": "C", "categoryCode": "39", "address": "200 FRANCIS ST.", "city": "RENFREW", "province": "ON", "country": "CA", "postalCode": "K7V1C4", "twitter": "None", "instagram": "None", "facebook": "None", "youtube": "None", "website": "None", "summary": "None", "logo": "None", "latitude": 45.475527553878315, "longitude": -76.6763986557825}, "883600694RR0001": {"name": "ELMWOOD CEMETERY", "designationCode": "C", "categoryCode": "59", "address": "412 RIVER ROAD", "city": "CORBYVILLE", "province": "ON", "country": "CA", "postalCode": "K0K1V0", "twitter": "None", "instagram": "None", "facebook": "None", "youtube": "None", "website": "None", "summary": "None", "logo": "None", "latitude": 44.22825202312224, "longitude": -77.4020362920694}, "118898097RR0001": {"name": "ELMWOOD CEMETERY COMPANY", "designationCode": "C", "categoryCode": "59", "address": "200 ELMWOOD DRIVE             P.O. BOX 485", "city": "MONCTON", "province": "NB", "country": "CA", "postalCode": "E1C8L9", "twitter": "None", "instagram": "None", "facebook": "None", "youtube": "None", "website": "None", "summary": "None", "logo": "None", "latitude": 46.107417436580306, "longitude": -64.77485000236592}, "877159814RR0001": {"name": "ELMWOOD COMMUNITY RESOURCE CENTRE AND AREA ASSOCIATION INC.", "designationCode": "C", "categoryCode": "09", "address": "545 WATT ST", "city": "WINNIPEG", "province": "MB", "country": "CA", "postalCode": "R2K2S2", "twitter": "None", "instagram": "None", "facebook": "None", "youtube": "None", "website": "None", "summary": "None", "logo": "None", "latitude": 49.91830246182707, "longitude": -97.09734591378637}, "107299455RR0001": {"name": "ELMWOOD MENNONITE BRETHREN CHURCH", "designationCode": "C", "categoryCode": "34", "address": "145 HENDERSON HWY", "city": "WINNIPEG", "province": "MB", "country": "CA", "postalCode": "R2L1L4", "twitter": "None", "instagram": "None", "facebook": "None", "youtube": "None", "website": "None", "summary": "None", "logo": "None", "latitude": 49.911775041346935, "longitude": -97.11659227696366}, "118898121RR0001": {"name": "ELMWOOD RESIDENCES INC.", "designationCode": "C", "categoryCode": "01", "address": "2012 ARLINGTON AVE", "city": "SASKATOON", "province": "SK", "country": "CA", "postalCode": "S7J2H5", "twitter": "None", "instagram": "None", "facebook": "None", "youtube": "None", "website": "None", "summary": "None", "logo": "None", "latitude": 52.103710455738884, "longitude": -106.61016436894741}, "107299513RR0001": {"name": "ELMWOOD SCHOOL INCORPORATED", "designationCode": "C", "categoryCode": "20", "address": "261 BUENA VISTA RD", "city": "OTTAWA", "province": "ON", "country": "CA", "postalCode": "K1M0V9", "twitter": "None", "instagram": "None", "facebook": "None", "youtube": "None", "website": "None", "summary": "None", "logo": "None", "latitude": 45.45102748326466, "longitude": -75.68015429254422}, "862578457RR0001": {"name": "ELMWOOD SHERBROOKE INC.", "designationCode": "C", "categoryCode": "59", "address": "P.O. BOX 751                  STN PLACE DE LA CITE", "city": "SHERBROOKE", "province": "QC", "country": "CA", "postalCode": "J1H5K7", "twitter": "None", "instagram": "None", "facebook": "None", "youtube": "None", "website": "None", "summary": "None", "logo": "None", "latitude": 45.39993924181269, "longitude": -71.89518081045317}, "118898089RR0001": {"name": "ELMWOOD-BRANT LUTHERAN PARISH", "designationCode": "C", "categoryCode": "32", "address": "619 9TH AVE", "city": "HANOVER", "province": "ON", "country": "CA", "postalCode": "N4N2M7", "twitter": "None", "instagram": "None", "facebook": "None", "youtube": "None", "website": "None", "summary": "None", "logo": "None"}, "129892105RR0001": {"name": "ELNORA & DISTRICT AGRICULTURAL SOCIETY", "designationCode": "C", "categoryCode": "56", "address": "BOX 515", "city": "ELNORA", "province": "AB", "country": "CA", "postalCode": "T0M0Y0", "twitter": "None", "instagram": "None", "facebook": "None", "youtube": "None", "website": "None", "summary": "None", "logo": "None", "latitude": 51.98342000000008, "longitude": -113.20191999999997}, "866374812RR0001": {"name": "ELOHIM ADONAI DROP-IN CHARITY CENTER, INC.", "designationCode": "C", "categoryCode": "01", "address": "201 - 3200 PORTAGE AVE", "city": "WINNIPEG", "province": "MB", "country": "CA", "postalCode": "R3K0Y7", "twitter": "None", "instagram": "None", "facebook": "None", "youtube": "None", "website": "None", "summary": "None", "logo": "None", "latitude": 49.88097867773697, "longitude": -97.2890947131686}, "861231314RR0001": {"name": "ELORA CENTRE FOR THE ARTS", "designationCode": "C", "categoryCode": "22", "address": "75 MELVILLE STREET            P.O. BOX 478", "city": "ELORA", "province": "ON", "country": "CA", "postalCode": "N0B1S0", "twitter": "None", "instagram": "None", "facebook": "None", "youtube": "None", "website": "None", "summary": "None", "logo": "None", "latitude": 43.68345118483464, "longitude": -80.42725584615418}, "888852449RR0001": {"name": "ELORA COMMUNITY THEATRE", "designationCode": "C", "categoryCode": "22", "address": "P.O. BOX 804", "city": "ELORA", "province": "ON", "country": "CA", "postalCode": "N0B1S0", "twitter": "None", "instagram": "None", "facebook": "None", "youtube": "None", "website": "None", "summary": "None", "logo": "None", "latitude": 43.73237071669247, "longitude": -80.50547829004643}, "118898204RR0001": {"name": "ELORA PASTORAL CHARGE", "designationCode": "C", "categoryCode": "44", "address": "75 GEDDES ST", "city": "ELORA", "province": "ON", "country": "CA", "postalCode": "N0B1S0", "twitter": "None", "instagram": "None", "facebook": "None", "youtube": "None", "website": "None", "summary": "None", "logo": "None", "latitude": 43.68283781432855, "longitude": -80.42959360032323}, "107299786RR0001": {"name": "ELORA ROAD CHRISTIAN FELLOWSHIP INC.", "designationCode": "C", "categoryCode": "39", "address": "5696 WELLINGTON ROAD 7        RR 5", "city": "GUELPH", "province": "ON", "country": "CA", "postalCode": "N1H6J2", "twitter": "None", "instagram": "None", "facebook": "None", "youtube": "None", "website": "None", "summary": "None", "logo": "None", "latitude": 43.59409189742737, "longitude": -80.31257792428555}, "118898212RR0001": {"name": "ELPHIN PRESBYTERIAN CHURCH", "designationCode": "C", "categoryCode": "37", "address": "3020 ELPIN / MABERLY RD", "city": "MCDONALDS CORNERS", "province": "ON", "country": "CA", "postalCode": "K0G1M0", "twitter": "None", "instagram": "None", "facebook": "None", "youtube": "None", "website": "None", "summary": "None", "logo": "None", "latitude": 44.923373428354395, "longitude": -76.61715454704901}, "118898253RR0001": {"name": "ELROSE DISTRICT HERITAGE SOCIETY INC.", "designationCode": "C", "categoryCode": "52", "address": "BOX 556", "city": "ELROSE", "province": "SK", "country": "CA", "postalCode": "S0L0Z0", "twitter": "None", "instagram": "None", "facebook": "None", "youtube": "None", "website": "None", "summary": "None", "logo": "None", "latitude": 51.20151000000004, "longitude": -108.02729999999997}, "118898261RR0001": {"name": "ELROSE GOLDEN AGE CLUB", "designationCode": "C", "categoryCode": "01", "address": "BOX 254", "city": "ELROSE", "province": "SK", "country": "CA", "postalCode": "S0L0Z0", "twitter": "None", "instagram": "None", "facebook": "None", "youtube": "None", "website": "None", "summary": "None", "logo": "None", "latitude": 51.20151000000004, "longitude": -108.02729999999997}, "868379967RR0001": {"name": "ELROSE HEALTH CARE AUXILIARY", "designationCode": "C", "categoryCode": "19", "address": "BOX 593", "city": "ELROSE", "province": "SK", "country": "CA", "postalCode": "S0L0Z0", "twitter": "None", "instagram": "None", "facebook": "None", "youtube": "None", "website": "None", "summary": "None", "logo": "None", "latitude": 51.20151000000004, "longitude": -108.02729999999997}, "118898287RR0001": {"name": "ELROSE UNITED CHURCH", "designationCode": "C", "categoryCode": "44", "address": "PO BOX 118", "city": "ELROSE", "province": "SK", "country": "CA", "postalCode": "S0L0Z0", "twitter": "None", "instagram": "None", "facebook": "None", "youtube": "None", "website": "None", "summary": "None", "logo": "None", "latitude": 51.20151000000004, "longitude": -108.02729999999997}}