{"107630873RR0001": {"name": "WORLDSERVE MINISTRIES INC.", "designationCode": "C", "categoryCode": "47", "address": "PO BOX 39530 RPO WHITE ROCK", "city": "SURREY", "province": "BC", "country": "CA", "postalCode": "V4A0A9", "twitter": "None", "instagram": "None", "facebook": "None", "youtube": "None", "website": "None", "summary": "None", "logo": "None", "latitude": 49.043630016734454, "longitude": -122.79103008165461}, "108222209RR0001": {"name": "WORLDSHAKERS CHRISTIAN GROWTH CENTER", "designationCode": "C", "categoryCode": "39", "address": "16340-96TH AVE", "city": "SURREY", "province": "BC", "country": "CA", "postalCode": "V4N2C1", "twitter": "None", "instagram": "None", "facebook": "None", "youtube": "None", "website": "None", "summary": "None", "logo": "None", "latitude": 49.17692646681872, "longitude": -122.76940008090483}, "130309917RR0001": {"name": "WORLDWIDE EVANGELIZATION FOR CHRIST", "designationCode": "C", "categoryCode": "47", "address": "37 ABERDEEN AVE", "city": "HAMILTON", "province": "ON", "country": "CA", "postalCode": "L8P2N6", "twitter": "None", "instagram": "None", "facebook": "None", "youtube": "None", "website": "None", "summary": "None", "logo": "None", "latitude": 43.246997969732924, "longitude": -79.87606910297761}, "119304897RR0001": {"name": "WORLDWIDE MARRIAGE ENCOUNTER (ATLANTIC) INC", "designationCode": "C", "categoryCode": "09", "address": "93 RIPPLEWOOD ROAD", "city": "MONCTON", "province": "NB", "country": "CA", "postalCode": "E1A6P5", "twitter": "None", "instagram": "None", "facebook": "None", "youtube": "None", "website": "None", "summary": "None", "logo": "None", "latitude": 46.11401241355523, "longitude": -64.7341857779446}, "119304905RR0001": {"name": "WORLDWIDE MARRIAGE ENCOUNTER DISTRICT IV ONTARIO", "designationCode": "C", "categoryCode": "09", "address": "4756 DONOVAN COURT", "city": "GLOUCESTER", "province": "ON", "country": "CA", "postalCode": "K1J8W1", "twitter": "None", "instagram": "None", "facebook": "None", "youtube": "None", "website": "None", "summary": "None", "logo": "None", "latitude": 45.44717048124544, "longitude": -75.61062}, "129106522RR0001": {"name": "WORLDWIDE REVIVAL MINISTRIES", "designationCode": "C", "categoryCode": "47", "address": "866 HERMAN WAY", "city": "MILTON", "province": "ON", "country": "CA", "postalCode": "L9T1N1", "twitter": "None", "instagram": "None", "facebook": "None", "youtube": "None", "website": "None", "summary": "None", "logo": "None", "latitude": 43.487567697184005, "longitude": -79.86884537650748}, "887520799RR0001": {"name": "WORLDWIDE VENTURES EVANGELISTIC ASSOCIATION", "designationCode": "C", "categoryCode": "39", "address": "24907 72 AVE. P.O. BOX 583", "city": "LANGLEY", "province": "BC", "country": "CA", "postalCode": "V1M2R9", "twitter": "None", "instagram": "None", "facebook": "None", "youtube": "None", "website": "None", "summary": "None", "logo": "None", "latitude": 49.13321447100232, "longitude": -122.53396419317329}, "882132780RR0001": {"name": "WORLDWIDE WELLNESS \\ PAIN CONTROL ORGANIZATION", "designationCode": "C", "categoryCode": "11", "address": "406 ALGONQUIN AVE             P.O.BOX 1497", "city": "NORTH BAY", "province": "ON", "country": "CA", "postalCode": "P1B4W5", "twitter": "None", "instagram": "None", "facebook": "None", "youtube": "None", "website": "None", "summary": "None", "logo": "None", "latitude": 46.316473491257426, "longitude": -79.4660618013737}, "882659212RR0001": {"name": "WORSHIP INTERCESSORY MINISTRIES (WIM)", "designationCode": "C", "categoryCode": "39", "address": "116 DAHLIA STREET", "city": "ROCKLAND", "province": "ON", "country": "CA", "postalCode": "K4K0G1", "twitter": "None", "instagram": "None", "facebook": "None", "youtube": "None", "website": "None", "summary": "None", "logo": "None", "latitude": 45.54595458227472, "longitude": -75.2981018256837}, "864613625RR0001": {"name": "WORSHIP WITH US MINISTRIES", "designationCode": "C", "categoryCode": "39", "address": "271 EAST 19TH ST", "city": "HAMILTON", "province": "ON", "country": "CA", "postalCode": "L9A4S6", "twitter": "None", "instagram": "None", "facebook": "None", "youtube": "None", "website": "None", "summary": "None", "logo": "None", "latitude": 43.23400629165142, "longitude": -79.8586771206313}, "119304996RR0001": {"name": "WORSLEY BAPTIST CHURCH", "designationCode": "C", "categoryCode": "31", "address": "BOX 233", "city": "WORSLEY", "province": "AB", "country": "CA", "postalCode": "T0H3W0", "twitter": "None", "instagram": "None", "facebook": "None", "youtube": "None", "website": "None", "summary": "None", "logo": "None", "latitude": 56.508710000000065, "longitude": -119.13987999999995}, "889648374RR0001": {"name": "WORSLEY PIONEER CLUB", "designationCode": "C", "categoryCode": "56", "address": "BOX 253", "city": "WORSLEY", "province": "AB", "country": "CA", "postalCode": "T0H3W0", "twitter": "None", "instagram": "None", "facebook": "None", "youtube": "None", "website": "None", "summary": "None", "logo": "None", "latitude": 56.508710000000065, "longitude": -119.13987999999995}, "826081671RR0001": {"name": "WORSLEY REINLAND MENNONITE CHURCH", "designationCode": "B", "categoryCode": "34", "address": "P.O. BOX 105", "city": "CLEARDALE", "province": "AB", "country": "CA", "postalCode": "T0H3Y0", "twitter": "None", "instagram": "None", "facebook": "None", "youtube": "None", "website": "None", "summary": "None", "logo": "None", "latitude": 56.35227750280956, "longitude": -119.47490099999999}, "888969599RR0001": {"name": "WORSLEY UNITED CHURCH", "designationCode": "C", "categoryCode": "44", "address": "BOX 58", "city": "WORSLEY", "province": "AB", "country": "CA", "postalCode": "T0H3W0", "twitter": "None", "instagram": "None", "facebook": "None", "youtube": "None", "website": "None", "summary": "None", "logo": "None", "latitude": 56.508710000000065, "longitude": -119.13987999999995}, "893671669RR0001": {"name": "WORWIN FOUNDATION/FONDATION WORWIN", "designationCode": "B", "categoryCode": "03", "address": "431-3219 YONGE ST", "city": "TORONTO", "province": "ON", "country": "CA", "postalCode": "M4N3S1", "twitter": "None", "instagram": "None", "facebook": "None", "youtube": "None", "website": "None", "summary": "None", "logo": "None", "latitude": 43.72822237330483, "longitude": -79.40298575587182}, "891512881RR0001": {"name": "WOUTER VAN STRALEN MEMORIAL SCHOLARSHIP FUND", "designationCode": "B", "categoryCode": "21", "address": "247 BROCKMERE CLIFFS DRIVE", "city": "BROCKVILLE", "province": "ON", "country": "CA", "postalCode": "K6V5T3", "twitter": "None", "instagram": "None", "facebook": "None", "youtube": "None", "website": "None", "summary": "None", "logo": "None", "latitude": 44.527507868048666, "longitude": -75.76889510215815}, "131373490RR0001": {"name": "WRA WILDLIFE RESCUE ASSOCIATION OF BRITISH COLUMBIA", "designationCode": "C", "categoryCode": "54", "address": "5216 GLENCARIN DRIVE", "city": "BURNABY", "province": "BC", "country": "CA", "postalCode": "V5B3C1", "twitter": "None", "instagram": "None", "facebook": "None", "youtube": "None", "website": "None", "summary": "None", "logo": "None", "latitude": 49.24155469323823, "longitude": -122.9597900950238}, "890669864RR0001": {"name": "WRAGS WESTERN REGIONAL ADVOCACY GROUP SOCIETY", "designationCode": "C", "categoryCode": "09", "address": "370-3771 JACOMBS ROAD", "city": "RICHMOND", "province": "BC", "country": "CA", "postalCode": "V6V2L9", "twitter": "None", "instagram": "None", "facebook": "None", "youtube": "None", "website": "None", "summary": "None", "logo": "None", "latitude": 49.187372424703085, "longitude": -123.08037599665073}, "862870318RR0001": {"name": "WRDC EDUCATIONAL RESOURCE CENTRE", "designationCode": "C", "categoryCode": "59", "address": "175 HAMLYN RD", "city": "ST. JOHN'S", "province": "NL", "country": "CA", "postalCode": "A1E5Z6", "twitter": "None", "instagram": "None", "facebook": "None", "youtube": "None", "website": "None", "summary": "None", "logo": "None", "latitude": 47.540307004456196, "longitude": -52.75713966292052}, "119305035RR0001": {"name": "WRENTHAM COMMUNITY CHURCH SOCIETY,", "designationCode": "C", "categoryCode": "39", "address": "4628-63 AVENUE", "city": "TABER", "province": "AB", "country": "CA", "postalCode": "T1G0B3", "twitter": "None", "instagram": "None", "facebook": "None", "youtube": "None", "website": "None", "summary": "None", "logo": "None", "latitude": 49.799661496249094, "longitude": -112.16028046280802}, "863601258RR0001": {"name": "WRENTHAM FIRE & RESCUE FOUNDATION", "designationCode": "A", "categoryCode": "59", "address": "BOX 128", "city": "WRENTHAM", "province": "AB", "country": "CA", "postalCode": "T0K2P0", "twitter": "None", "instagram": "None", "facebook": "None", "youtube": "None", "website": "None", "summary": "None", "logo": "None", "latitude": 49.51901000000004, "longitude": -112.18041999999997}, "127798163RR0001": {"name": "WRENTHAM LIBRARY SOCIETY", "designationCode": "C", "categoryCode": "50", "address": "BOX 111", "city": "WRENTHAM", "province": "AB", "country": "CA", "postalCode": "T0K2P0", "twitter": "None", "instagram": "None", "facebook": "None", "youtube": "None", "website": "None", "summary": "None", "logo": "None", "latitude": 49.51901000000004, "longitude": -112.18041999999997}, "869991992RR0001": {"name": "WRIGHT FAMILY MEMORIAL FOUNDATION OF THE ANGLICAN CHURCH OF ST. JOHN THE EVANGELIST OF STRATHROY", "designationCode": "B", "categoryCode": "43", "address": "34 HEAD STREET NORTH", "city": "STRATHROY", "province": "ON", "country": "CA", "postalCode": "N7G2J7", "twitter": "None", "instagram": "None", "facebook": "None", "youtube": "None", "website": "None", "summary": "None", "logo": "None", "latitude": 42.95911406826712, "longitude": -81.62020321553452}, "891877409RR0001": {"name": "WRINCH MEMORIAL FOUNDATION", "designationCode": "A", "categoryCode": "13", "address": "PO BAG 100", "city": "HAZELTON", "province": "BC", "country": "CA", "postalCode": "V0J1Y0", "twitter": "None", "instagram": "None", "facebook": "None", "youtube": "None", "website": "None", "summary": "None", "logo": "None", "latitude": 55.2675692820996, "longitude": -127.62287325854736}, "122250566RR0001": {"name": "WRITERS' FEDERATION OF NOVA SCOTIA", "designationCode": "C", "categoryCode": "22", "address": "1113 MARGINAL RD", "city": "HALIFAX", "province": "NS", "country": "CA", "postalCode": "B3H4P7", "twitter": "None", "instagram": "None", "facebook": "None", "youtube": "None", "website": "None", "summary": "None", "logo": "None", "latitude": 44.639260983351576, "longitude": -63.56640067941039}, "119305076RR0001": {"name": "WRITERS' TRUST OF CANADA/SOCIETE D'ENCOURAGEMENT AUX ECRIVAINS DU CANADA", "designationCode": "C", "categoryCode": "21", "address": "460 RICHMOND STREET WEST #600", "city": "TORONTO", "province": "ON", "country": "CA", "postalCode": "M5V1Y1", "twitter": "None", "instagram": "None", "facebook": "None", "youtube": "None", "website": "None", "summary": "None", "logo": "None", "latitude": 43.647731391078445, "longitude": -79.39763466639732}, "892181447RR0001": {"name": "WROXTON AND DISTRICT RECREATION BOARD", "designationCode": "C", "categoryCode": "56", "address": "BOX 122", "city": "WROXTON", "province": "SK", "country": "CA", "postalCode": "S0A4S0", "twitter": "None", "instagram": "None", "facebook": "None", "youtube": "None", "website": "None", "summary": "None", "logo": "None", "latitude": 51.225820000000056, "longitude": -101.88971999999995}, "892524364RR0001": {"name": "WSL FOUNDATION", "designationCode": "B", "categoryCode": "43", "address": "76 BRAID STREET", "city": "NEW WESTMINSTER", "province": "BC", "country": "CA", "postalCode": "V3L3P3", "twitter": "None", "instagram": "None", "facebook": "None", "youtube": "None", "website": "None", "summary": "None", "logo": "None", "latitude": 49.23089539938237, "longitude": -122.88181767501929}, "831863758RR0001": {"name": "WTS Canadian Education Foundation", "designationCode": "C", "categoryCode": "21", "address": "430 - 688 HASTINGS ST W", "city": "VANCOUVER", "province": "BC", "country": "CA", "postalCode": "V6B1P1", "twitter": "None", "instagram": "None", "facebook": "None", "youtube": "None", "website": "None", "summary": "None", "logo": "None", "latitude": 49.28507963500504, "longitude": -123.11355626925935}, "119305142RR0001": {"name": "WYCHWOOD DAVENPORT PRESBYTERIAN CHURCH", "designationCode": "C", "categoryCode": "37", "address": "P.O. BOX 73559                WYCHWOOD PO", "city": "TORONTO", "province": "ON", "country": "CA", "postalCode": "M6C1C1", "twitter": "None", "instagram": "None", "facebook": "None", "youtube": "None", "website": "None", "summary": "None", "logo": "None", "latitude": 43.6854527496474, "longitude": -79.42449652240887}, "892674045RR0001": {"name": "WYCHWOOD OPEN DOOR DROP-IN CENTRE", "designationCode": "C", "categoryCode": "09", "address": "729 ST CLAIR AVE W", "city": "TORONTO", "province": "ON", "country": "CA", "postalCode": "M6C1B2", "twitter": "None", "instagram": "None", "facebook": "None", "youtube": "None", "website": "None", "summary": "None", "logo": "None", "latitude": 43.68135476545115, "longitude": -79.42687805681192}, "108223363RR0001": {"name": "WYCHWOOD TIGERS DAYCARE CENTRE", "designationCode": "C", "categoryCode": "01", "address": "44 HILTON AVENUE", "city": "TORONTO", "province": "ON", "country": "CA", "postalCode": "M5R3E6", "twitter": "None", "instagram": "None", "facebook": "None", "youtube": "None", "website": "None", "summary": "None", "logo": "None", "latitude": 43.679090577846424, "longitude": -79.41550422234384}, "108223371RR0001": {"name": "WYCLIFFE BIBLE TRANSLATORS OF CANADA INC.", "designationCode": "C", "categoryCode": "47", "address": "4316 - 10TH STREET NE         FINANCE MANAGER", "city": "CALGARY", "province": "AB", "country": "CA", "postalCode": "T2E6K3", "twitter": "None", "instagram": "None", "facebook": "None", "youtube": "None", "website": "None", "summary": "None", "logo": "None", "latitude": 51.09080302553522, "longitude": -114.03814128169552}, "119305159RR0001": {"name": "WYCLIFFE CHURCH,", "designationCode": "C", "categoryCode": "30", "address": "20 YONGE ST NORTH", "city": "ELMVALE", "province": "ON", "country": "CA", "postalCode": "L0L1P0", "twitter": "None", "instagram": "None", "facebook": "None", "youtube": "None", "website": "None", "summary": "None", "logo": "None", "latitude": 44.58496037065849, "longitude": -79.8674417838282}, "108223389RR0001": {"name": "WYCLIFFE COLLEGE", "designationCode": "C", "categoryCode": "20", "address": "5 HOSKIN AVE", "city": "TORONTO", "province": "ON", "country": "CA", "postalCode": "M5S1H7", "twitter": "None", "instagram": "None", "facebook": "None", "youtube": "None", "website": "None", "summary": "None", "logo": "None", "latitude": 43.66473780151794, "longitude": -79.39524633637264}, "119305175RR0001": {"name": "WYECLIFF BIBLE CHAPEL", "designationCode": "C", "categoryCode": "39", "address": "169-22560 WYE RD", "city": "SHERWOOD PARK", "province": "AB", "country": "CA", "postalCode": "T8A4T6", "twitter": "None", "instagram": "None", "facebook": "None", "youtube": "None", "website": "None", "summary": "None", "logo": "None", "latitude": 53.516799525102535, "longitude": -113.237334}, "133136689RR0001": {"name": "WYEVALE FREE METHODIST CHURCH", "designationCode": "C", "categoryCode": "39", "address": "10 CONCESSION ROAD 5 W", "city": "TINY", "province": "ON", "country": "CA", "postalCode": "L0L2T0", "twitter": "None", "instagram": "None", "facebook": "None", "youtube": "None", "website": "None", "summary": "None", "logo": "None", "latitude": 44.60592300000006, "longitude": -79.97721199999994}, "119305191RR0001": {"name": "WYEVALE WAVERLEY PASTORAL CHARGE", "designationCode": "C", "categoryCode": "44", "address": "1 WATER STREET, UNIT B", "city": "PENETANGUISHENE", "province": "ON", "country": "CA", "postalCode": "L9M1V5", "twitter": "None", "instagram": "None", "facebook": "None", "youtube": "None", "website": "None", "summary": "None", "logo": "None", "latitude": 44.76995116654154, "longitude": -79.93513495005473}, "874781156RR0001": {"name": "WYLDE WIND FOUNDATION", "designationCode": "B", "categoryCode": "55", "address": "550 FIRST STREET              SUITE 101", "city": "COLLINGWOOD", "province": "ON", "country": "CA", "postalCode": "L9Y1C1", "twitter": "None", "instagram": "None", "facebook": "None", "youtube": "None", "website": "None", "summary": "None", "logo": "None", "latitude": 44.501197803427914, "longitude": -80.23348463612356}, "119305209RR0001": {"name": "WYMARK ATHLETIC CO-OPERATIVE ASSOCIATION LIMITED", "designationCode": "C", "categoryCode": "56", "address": "BOX 2", "city": "WYMARK", "province": "SK", "country": "CA", "postalCode": "S0N2Y0", "twitter": "None", "instagram": "None", "facebook": "None", "youtube": "None", "website": "None", "summary": "None", "logo": "None", "latitude": 50.10786000000002, "longitude": -107.736102}, "829301746RR0001": {"name": "WYMARK FUTURES GROUP INC.", "designationCode": "A", "categoryCode": "23", "address": "PO BOX 142", "city": "WYMARK", "province": "SK", "country": "CA", "postalCode": "S0N2Y0", "twitter": "None", "instagram": "None", "facebook": "None", "youtube": "None", "website": "None", "summary": "None", "logo": "None", "latitude": 50.10697000000005, "longitude": -107.73681999999997}, "119305217RR0001": {"name": "WYNDHAM HOUSE", "designationCode": "C", "categoryCode": "01", "address": "PO BOX 1898 STN MAIN", "city": "GUELPH", "province": "ON", "country": "CA", "postalCode": "N1H7A1", "twitter": "None", "instagram": "None", "facebook": "None", "youtube": "None", "website": "None", "summary": "None", "logo": "None", "latitude": 43.54455300000005, "longitude": -80.24788249999993}, "119305225RR0001": {"name": "WYNDHOLME CHRISTIAN CHURCH (CHURCH OF CHRIST DISCIPLES),", "designationCode": "C", "categoryCode": "39", "address": "PO BOX 28085 RPO TACOMA", "city": "DARTMOUTH", "province": "NS", "country": "CA", "postalCode": "B2W6E2", "twitter": "None", "instagram": "None", "facebook": "None", "youtube": "None", "website": "None", "summary": "None", "logo": "None", "latitude": 44.68070793787873, "longitude": -63.535786194128974}, "132916768RR0001": {"name": "WYNNDEL COMMUNITY CENTRE", "designationCode": "C", "categoryCode": "56", "address": "5127 WYNNDEL RD", "city": "WYNNDEL", "province": "BC", "country": "CA", "postalCode": "V0B2N2", "twitter": "None", "instagram": "None", "facebook": "None", "youtube": "None", "website": "None", "summary": "None", "logo": "None", "latitude": 49.18027011411477, "longitude": -116.54904022127599}, "108223546RR0001": {"name": "WYNNDEL COMMUNITY CHURCH", "designationCode": "C", "categoryCode": "39", "address": "5113 WYNNDEL ROAD", "city": "WYNNDEL", "province": "BC", "country": "CA", "postalCode": "V0B2N2", "twitter": "None", "instagram": "None", "facebook": "None", "youtube": "None", "website": "None", "summary": "None", "logo": "None", "latitude": 49.180190091320846, "longitude": -116.54915869790514}, "860255694RR0001": {"name": "WYNYARD & DISTRICT FOOD BANK INC.", "designationCode": "C", "categoryCode": "09", "address": "BOX 1225", "city": "WYNYARD", "province": "SK", "country": "CA", "postalCode": "S0A4T0", "twitter": "None", "instagram": "None", "facebook": "None", "youtube": "None", "website": "None", "summary": "None", "logo": "None", "latitude": 51.76523000000003, "longitude": -104.18008999999995}, "119305241RR0001": {"name": "WYNYARD AND DISTRICT COMBINED APPEAL", "designationCode": "A", "categoryCode": "05", "address": "BOX 220", "city": "WYNARD", "province": "SK", "country": "CA", "postalCode": "S0A4T0", "twitter": "None", "instagram": "None", "facebook": "None", "youtube": "None", "website": "None", "summary": "None", "logo": "None", "latitude": 51.950690000000066, "longitude": -103.80153999999999}, "125593657RR0074": {"name": "WYNYARD SQUADRON NO 568", "designationCode": "C", "categoryCode": "29", "address": "TREASURER / CHRIS PASTERNAK   BOX 910", "city": "WYNYARD", "province": "SK", "country": "CA", "postalCode": "S0A4T0", "twitter": "None", "instagram": "None", "facebook": "None", "youtube": "None", "website": "None", "summary": "None", "logo": "None", "latitude": 51.76522500000006, "longitude": -104.18009299999993}, "119305274RR0001": {"name": "WYNYARD UNITED CHURCH", "designationCode": "C", "categoryCode": "44", "address": "PO BOX 279", "city": "WYNYARD", "province": "SK", "country": "CA", "postalCode": "S0A4T0", "twitter": "None", "instagram": "None", "facebook": "None", "youtube": "None", "website": "None", "summary": "None", "logo": "None", "latitude": 51.76523000000003, "longitude": -104.18008999999995}, "804086619RR0001": {"name": "WYOMING CHRISTIAN REFORMED CHURCH", "designationCode": "C", "categoryCode": "39", "address": "4524 CONFEDERATION LINE       P.O. BOX 68", "city": "WYOMING", "province": "ON", "country": "CA", "postalCode": "N0N1T0", "twitter": "None", "instagram": "None", "facebook": "None", "youtube": "None", "website": "None", "summary": "None", "logo": "None", "latitude": 42.955219442725806, "longitude": -82.1170317783773}, "862985595RR0001": {"name": "WYOMING COMMUNITY FOUNDATION", "designationCode": "A", "categoryCode": "03", "address": "546 NIAGARA STREET", "city": "WYOMING", "province": "ON", "country": "CA", "postalCode": "N0N1T0", "twitter": "None", "instagram": "None", "facebook": "None", "youtube": "None", "website": "None", "summary": "None", "logo": "None", "latitude": 42.94968984713536, "longitude": -82.11940051954141}, "131909194RR0001": {"name": "WYOMING REGULAR BAPTIST CHURCH", "designationCode": "C", "categoryCode": "31", "address": "BOX 128, 484 BROADWAY STREET", "city": "WYOMING", "province": "ON", "country": "CA", "postalCode": "N0N1T0", "twitter": "None", "instagram": "None", "facebook": "None", "youtube": "None", "website": "None", "summary": "None", "logo": "None", "latitude": 42.94259039217496, "longitude": -82.1190195093768}, "890202849RR0001": {"name": "WYOMING UNITED CHURCH", "designationCode": "C", "categoryCode": "44", "address": "730 SECOND ST BOX 487", "city": "WYOMING", "province": "ON", "country": "CA", "postalCode": "N0N1T0", "twitter": "None", "instagram": "None", "facebook": "None", "youtube": "None", "website": "None", "summary": "None", "logo": "None", "latitude": 42.95616274854291, "longitude": -82.12157057761527}, "119305316RR0001": {"name": "WYVERN-COLLINGWOOD CEMETERY COMPANY", "designationCode": "C", "categoryCode": "59", "address": "635 WYVERN RD", "city": "COLLINGWOOD", "province": "NS", "country": "CA", "postalCode": "B0M1E0", "twitter": "None", "instagram": "None", "facebook": "None", "youtube": "None", "website": "None", "summary": "None", "logo": "None", "latitude": 45.6010787871422, "longitude": -63.93910515675095}, "119305332RR0001": {"name": "X CHANGES ARTISTS' GALLERY AND STUDIOS SOCIETY", "designationCode": "C", "categoryCode": "22", "address": "6E-2333 GOVERNMENT STREET", "city": "VICTORIA", "province": "BC", "country": "CA", "postalCode": "V8T4P4", "twitter": "None", "instagram": "None", "facebook": "None", "youtube": "None", "website": "None", "summary": "None", "logo": "None", "latitude": 48.43484964363204, "longitude": -123.36725066769631}, "840337950RR0001": {"name": "X-Quive", "designationCode": "C", "categoryCode": "09", "address": "121, RUE MONIQUE", "city": "SAINTE-AGATHE-DES-MONTS", "province": "QC", "country": "CA", "postalCode": "J8C3V1", "twitter": "None", "instagram": "None", "facebook": "None", "youtube": "None", "website": "None", "summary": "None", "logo": "None", "latitude": 46.061914840412015, "longitude": -74.26637415300979}, "866736317RR0001": {"name": "X-TREME RESCUE INC.", "designationCode": "C", "categoryCode": "59", "address": "BOX 582", "city": "KAMSACK", "province": "SK", "country": "CA", "postalCode": "S0A1S0", "twitter": "None", "instagram": "None", "facebook": "None", "youtube": "None", "website": "None", "summary": "None", "logo": "None", "latitude": 51.63817289172365, "longitude": -101.65758543154911}, "808117683RR0001": {"name": "Xara Choral Theatre Society", "designationCode": "C", "categoryCode": "22", "address": "5675 SPRING GARDEN ROAD       POST OFFICE BOX 36144", "city": "HALIFAX", "province": "NS", "country": "CA", "postalCode": "B3J3S9", "twitter": "None", "instagram": "None", "facebook": "None", "youtube": "None", "website": "None", "summary": "None", "logo": "None", "latitude": 44.64251297919665, "longitude": -63.579021547608}, "765998125RR0001": {"name": "Xenia Concerts Inc.", "designationCode": "C", "categoryCode": "22", "address": "804 - 5101 DUNDAS ST W", "city": "ETOBICOKE", "province": "ON", "country": "CA", "postalCode": "M9A5G8", "twitter": "None", "instagram": "None", "facebook": "None", "youtube": "None", "website": "None", "summary": "None", "logo": "None", "latitude": 43.644924294188996, "longitude": -79.53219817941039}, "108223769RR0001": {"name": "XAVIER HOUSE INCORPORATED", "designationCode": "C", "categoryCode": "01", "address": "PO BOX 2100", "city": "ST.JOHN'S", "province": "NL", "country": "CA", "postalCode": "A1C5R6", "twitter": "None", "instagram": "None", "facebook": "None", "youtube": "None", "website": "None", "summary": "None", "logo": "None", "latitude": 47.56082100000006, "longitude": -52.71219349999993}, "851194571RR0001": {"name": "XAXE TENEW SACRED LAND SOCIETY", "designationCode": "B", "categoryCode": "59", "address": "22 LATESS ROAD                PO BOX 31", "city": "BRENTWOOD BAY", "province": "BC", "country": "CA", "postalCode": "V8M1R3", "twitter": "None", "instagram": "None", "facebook": "None", "youtube": "None", "website": "None", "summary": "None", "logo": "None", "latitude": 48.58014937604894, "longitude": -123.46272574411392}, "119305340RR0001": {"name": "XEROX CANADA INC EMPLOYEES CHARITY TRUST", "designationCode": "B", "categoryCode": "75", "address": "500 - 20 YORK MILLS RD", "city": "NORTH YORK", "province": "ON", "country": "CA", "postalCode": "M2P2C2", "twitter": "None", "instagram": "None", "facebook": "None", "youtube": "None", "website": "None", "summary": "None", "logo": "None", "latitude": 43.74415499478701, "longitude": -79.40289462250523}, "894065473RR0001": {"name": "XOLHEMET SOCIETY", "designationCode": "C", "categoryCode": "09", "address": "PO BOX 2025                   SARDIS STN MAIN", "city": "CHILLIWACK", "province": "BC", "country": "CA", "postalCode": "V2R1A5", "twitter": "None", "instagram": "None", "facebook": "None", "youtube": "None", "website": "None", "summary": "None", "logo": "None", "latitude": 49.129320000000064, "longitude": -121.96022999999997}, "882901176RR0001": {"name": "XRISTOS COMMUNITY SOCIETY", "designationCode": "C", "categoryCode": "49", "address": "35-10070 FIFTH STREET", "city": "SIDNEY", "province": "BC", "country": "CA", "postalCode": "V8L2X9", "twitter": "None", "instagram": "None", "facebook": "None", "youtube": "None", "website": "None", "summary": "None", "logo": "None", "latitude": 48.65502929159433, "longitude": -123.40037129159433}, "845089325RR0001": {"name": "XTREME MERCY CANADA SOCIETY", "designationCode": "C", "categoryCode": "39", "address": "3 - 8979 BROADWAY STREET", "city": "CHILLIWACK", "province": "BC", "country": "CA", "postalCode": "V2P5V9", "twitter": "None", "instagram": "None", "facebook": "None", "youtube": "None", "website": "None", "summary": "None", "logo": "None", "latitude": 49.16537250453667, "longitude": -121.9352583998603}, "130523103RR0001": {"name": "Y E S MANITOBA INCORPORATED", "designationCode": "C", "categoryCode": "09", "address": "614-294 PORTAGE AVE", "city": "WINNIPEG", "province": "MB", "country": "CA", "postalCode": "R3C0B9", "twitter": "None", "instagram": "None", "facebook": "None", "youtube": "None", "website": "None", "summary": "None", "logo": "None", "latitude": 49.89376320286816, "longitude": -97.14299429473726}, "888743267RR0001": {"name": "Y M - Y W H A FOUNDATION", "designationCode": "A", "categoryCode": "03", "address": "5500 WESTBURY AVE", "city": "MONTREAL", "province": "QC", "country": "CA", "postalCode": "H3W2W8", "twitter": "None", "instagram": "None", "facebook": "None", "youtube": "None", "website": "None", "summary": "None", "logo": "None", "latitude": 45.48852085120341, "longitude": -73.63422599059359}, "119306108RR0001": {"name": "Y M C A ST CATHARINES TRUST", "designationCode": "B", "categoryCode": "45", "address": "PO BOX 10085                  LCD PACIFIC CENTRE", "city": "VANCOUVER", "province": "BC", "country": "CA", "postalCode": "V7Y1B6", "twitter": "None", "instagram": "None", "facebook": "None", "youtube": "None", "website": "None", "summary": "None", "logo": "None", "latitude": 49.28299000000004, "longitude": -123.11890999999997}, "119306116RR0001": {"name": "Y M H A JEWISH COMMUNITY CENTRE OF WINNIPEG INC", "designationCode": "C", "categoryCode": "49", "address": "123 DONCASTER ST SUITE B100", "city": "WINNIPEG", "province": "MB", "country": "CA", "postalCode": "R3N2B3", "twitter": "None", "instagram": "None", "facebook": "None", "youtube": "None", "website": "None", "summary": "None", "logo": "None", "latitude": 49.872266622540245, "longitude": -97.20828227653004}, "119307858RR0001": {"name": "Y U F A FOUNDATION", "designationCode": "A", "categoryCode": "23", "address": "4700 KEELE STREET             ROOM 216, ATKINSONS BUILDING", "city": "TORONTO", "province": "ON", "country": "CA", "postalCode": "M3J1P3", "twitter": "None", "instagram": "None", "facebook": "None", "youtube": "None", "website": "None", "summary": "None", "logo": "None", "latitude": 43.77448979818479, "longitude": -79.4939737399481}, "119305449RR0001": {"name": "Y.A.N.A. FUND SOCIETY", "designationCode": "C", "categoryCode": "09", "address": "102 - 2456 ROSEWALL CRES", "city": "COURTENAY", "province": "BC", "country": "CA", "postalCode": "V9N8R9", "twitter": "None", "instagram": "None", "facebook": "None", "youtube": "None", "website": "None", "summary": "None", "logo": "None", "latitude": 49.67036999999999, "longitude": -124.99744958252096}, "129537437RR0001": {"name": "Y.E.S.S.: YOUTH EMERGENCY SHELTER SOCIETY OF EDMONTON", "designationCode": "C", "categoryCode": "09", "address": "9310 82 AVE", "city": "EDMONTON", "province": "AB", "country": "CA", "postalCode": "T6C0Z6", "twitter": "None", "instagram": "None", "facebook": "None", "youtube": "None", "website": "None", "summary": "None", "logo": "None", "latitude": 53.51811904873794, "longitude": -113.47005445126207}, "119306090RR0001": {"name": "Y.M.C.A. PROPERTIES INCORPORATED", "designationCode": "C", "categoryCode": "49", "address": "1867 YONGE STREET, SUITE 601", "city": "TORONTO", "province": "ON", "country": "CA", "postalCode": "M4S1Y5", "twitter": "None", "instagram": "None", "facebook": "None", "youtube": "None", "website": "None", "summary": "None", "logo": "None", "latitude": 43.69720023258699, "longitude": -79.39632670520542}, "821009289RR0001": {"name": "Y.P. Heung Foundation", "designationCode": "B", "categoryCode": "05", "address": "200 - 1661 WEST 2ND AVE.", "city": "VANCOUVER", "province": "BC", "country": "CA", "postalCode": "V6J1H3", "twitter": "None", "instagram": "None", "facebook": "None", "youtube": "None", "website": "None", "summary": "None", "logo": "None", "latitude": 49.269756518754555, "longitude": -123.14226108090483}, "121555148RR0001": {"name": "Y.W.C.A AGVVIK NUNAVUT", "designationCode": "C", "categoryCode": "09", "address": "BOX 237", "city": "IQALUIT", "province": "NU", "country": "CA", "postalCode": "X0A0H0", "twitter": "None", "instagram": "None", "facebook": "None", "youtube": "None", "website": "None", "summary": "None", "logo": "None", "latitude": 62.81090700000006, "longitude": -92.08155949999994}, "108228628RR0001": {"name": "Y'S OWL MACLURE CO-OPERATIVE CENTRE INC.", "designationCode": "C", "categoryCode": "09", "address": "100-1140 MORRISON DRIVE", "city": "OTTAWA", "province": "ON", "country": "CA", "postalCode": "K2H8S9", "twitter": "None", "instagram": "None", "facebook": "None", "youtube": "None", "website": "None", "summary": "None", "logo": "None", "latitude": 45.34483178994716, "longitude": -75.79709855363792}, "726591720RR0001": {"name": "Yachad, the Canadian Jewish Council for Disabilities", "designationCode": "C", "categoryCode": "09", "address": "15 GORMAN PARK RD", "city": "NORTH YORK", "province": "ON", "country": "CA", "postalCode": "M3H3K3", "twitter": "None", "instagram": "None", "facebook": "None", "youtube": "None", "website": "None", "summary": "None", "logo": "None", "latitude": 43.74742119623171, "longitude": -79.44611761723145}, "814383600RR0001": {"name": "Yaegerin Church", "designationCode": "C", "categoryCode": "37", "address": "10131 BAYVIEW AVE", "city": "RICHMOND HILL", "province": "ON", "country": "CA", "postalCode": "L4C2L4", "twitter": "None", "instagram": "None", "facebook": "None", "youtube": "None", "website": "None", "summary": "None", "logo": "None", "latitude": 43.87927282070518, "longitude": -79.41623694538113}, "822165866RR0001": {"name": "Yael's Indaba Charitable Initiative Society", "designationCode": "C", "categoryCode": "11", "address": "460 - 745 THURLOW ST", "city": "VANCOUVER", "province": "BC", "country": "CA", "postalCode": "V6E0C5", "twitter": "None", "instagram": "None", "facebook": "None", "youtube": "None", "website": "None", "summary": "None", "logo": "None", "latitude": 49.285181832553974, "longitude": -123.1240751383693}, "834257537RR0001": {"name": "Yaflo Charitable Trust", "designationCode": "B", "categoryCode": "03", "address": "335 HILLHURST BLVD", "city": "TORONTO", "province": "ON", "country": "CA", "postalCode": "M6B1M9", "twitter": "None", "instagram": "None", "facebook": "None", "youtube": "None", "website": "None", "summary": "None", "logo": "None", "latitude": 43.707348860378666, "longitude": -79.43347559602405}, "811695717RR0001": {"name": "Yahero Kids Canada", "designationCode": "C", "categoryCode": "47", "address": "43 RIVERTRAIL AVE", "city": "KITCHENER", "province": "ON", "country": "CA", "postalCode": "N2A0H8", "twitter": "None", "instagram": "None", "facebook": "None", "youtube": "None", "website": "None", "summary": "None", "logo": "None", "latitude": 43.45100821761201, "longitude": -80.40526277950248}, "829169689RR0001": {"name": "Yamnuska Wolfdog Sanctuary Ltd.", "designationCode": "B", "categoryCode": "54", "address": "PO BOX 1377 STN MAIN", "city": "COCHRANE", "province": "AB", "country": "CA", "postalCode": "T4C1B3", "twitter": "None", "instagram": "None", "facebook": "None", "youtube": "None", "website": "None", "summary": "None", "logo": "None", "latitude": 51.19089900000006, "longitude": -114.46804249999994}, "856707484RR0001": {"name": "Yan Te Buddhist Association", "designationCode": "C", "categoryCode": "35", "address": "36 FULHAM STREET", "city": "TORONTO", "province": "ON", "country": "CA", "postalCode": "M1S2A5", "twitter": "None", "instagram": "None", "facebook": "None", "youtube": "None", "website": "None", "summary": "None", "logo": "None", "latitude": 43.78627777990653, "longitude": -79.26899057663434}, "832528244RR0001": {"name": "Yarmouth County Historical Society Foundation", "designationCode": "A", "categoryCode": "53", "address": "60 WILLIAM STREET", "city": "YARMOUTH", "province": "NS", "country": "CA", "postalCode": "B5A1Y5", "twitter": "None", "instagram": "None", "facebook": "None", "youtube": "None", "website": "None", "summary": "None", "logo": "None", "latitude": 43.832469331669444, "longitude": -66.1175278877602}, "829229756RR0001": {"name": "Yarmouth Life Skills for Disabled Adults Association", "designationCode": "C", "categoryCode": "11", "address": "15 HAWTHORNE STREET", "city": "YARMOUTH", "province": "NS", "country": "CA", "postalCode": "B5A1M8", "twitter": "None", "instagram": "None", "facebook": "None", "youtube": "None", "website": "None", "summary": "None", "logo": "None", "latitude": 43.83362478934157, "longitude": -66.12108416429119}, "859724213RR0001": {"name": "Yaseen Centre of Manitoba Inc.", "designationCode": "C", "categoryCode": "60", "address": "746 ELLICE AVENUE", "city": "WINNIPEG", "province": "MB", "country": "CA", "postalCode": "R3G0B6", "twitter": "None", "instagram": "None", "facebook": "None", "youtube": "None", "website": "None", "summary": "None", "logo": "None", "latitude": 49.89311453231589, "longitude": -97.16565153136361}, "839670122RR0001": {"name": "Yayoi Theatre Movement Society", "designationCode": "C", "categoryCode": "22", "address": "107-1477 FOUNTAIN WAY", "city": "VANCOUVER", "province": "BC", "country": "CA", "postalCode": "V6H3W9", "twitter": "None", "instagram": "None", "facebook": "None", "youtube": "None", "website": "None", "summary": "None", "logo": "None", "latitude": 49.26886699117725, "longitude": -123.13658832512328}, "811494665RR0001": {"name": "Yeanung Presbyterian Church", "designationCode": "C", "categoryCode": "37", "address": "731 BLOOR STREET WEST         2ND FLOOR", "city": "TORONTO", "province": "ON", "country": "CA", "postalCode": "M6G1L5", "twitter": "None", "instagram": "None", "facebook": "None", "youtube": "None", "website": "None", "summary": "None", "logo": "None", "latitude": 43.66351756534701, "longitude": -79.41821718525624}, "841591084RR0001": {"name": "Year of Jubilee", "designationCode": "C", "categoryCode": "09", "address": "6071 WHALEN LINE              RURAL ROUTE 3", "city": "LUCAN", "province": "ON", "country": "CA", "postalCode": "N0M2J0", "twitter": "None", "instagram": "None", "facebook": "None", "youtube": "None", "website": "None", "summary": "None", "logo": "None", "latitude": 43.26341149080254, "longitude": -81.36301402856903}, "827914326RR0001": {"name": "Yedidut Torah Foundation", "designationCode": "C", "categoryCode": "21", "address": "181 BAY STREET                SUITE 250", "city": "TORONTO", "province": "ON", "country": "CA", "postalCode": "M6A1Y7", "twitter": "None", "instagram": "None", "facebook": "None", "youtube": "None", "website": "None", "summary": "None", "logo": "None", "latitude": 43.64734187870053, "longitude": -79.37943361864508}, "822639563RR0001": {"name": "Yehyang Korean Presbyterian Church", "designationCode": "C", "categoryCode": "37", "address": "414 - 7460 BATHURST ST", "city": "THORNHILL", "province": "ON", "country": "CA", "postalCode": "L4J7K9", "twitter": "None", "instagram": "None", "facebook": "None", "youtube": "None", "website": "None", "summary": "None", "logo": "None", "latitude": 43.80524944517863, "longitude": -79.4488386162209}, "809066459RR0001": {"name": "Yellowballoon Marrow Failure and Myelodysplasia Projects", "designationCode": "B", "categoryCode": "11", "address": "145 RIDLEY BOULEVARD,", "city": "TORONTO", "province": "ON", "country": "CA", "postalCode": "M5M3M3", "twitter": "None", "instagram": "None", "facebook": "None", "youtube": "None", "website": "None", "summary": "None", "logo": "None", "latitude": 43.738021499567324, "longitude": -79.41617016180967}, "828722249RR0001": {"name": "Yellowhead Presbytery", "designationCode": "C", "categoryCode": "44", "address": "RR 1", "city": "DUFFIELD", "province": "AB", "country": "CA", "postalCode": "T0E0N0", "twitter": "None", "instagram": "None", "facebook": "None", "youtube": "None", "website": "None", "summary": "None", "logo": "None", "latitude": 53.527630000000045, "longitude": -114.34564999999998}, "106693047RR0064": {"name": "Yellowknife Seventh-day Adventist Church", "designationCode": "C", "categoryCode": "41", "address": "5816 HIGHWAY 2A", "city": "LACOMBE", "province": "AB", "country": "CA", "postalCode": "T4L2G5", "twitter": "None", "instagram": "None", "facebook": "None", "youtube": "None", "website": "None", "summary": "None", "logo": "None", "latitude": 52.474063600197404, "longitude": -113.71692568401835}, "129964532RR0001": {"name": "Yellowknife Women's Society", "designationCode": "C", "categoryCode": "09", "address": "5610 - 50TH AVENUE            P.O. BOX 2303", "city": "YELLOWKNIFE", "province": "NT", "country": "CA", "postalCode": "X1A2P7", "twitter": "None", "instagram": "None", "facebook": "None", "youtube": "None", "website": "None", "summary": "None", "logo": "None", "latitude": 62.44998743649722, "longitude": -114.38005144420225}, "841455454RR0001": {"name": "Yeshiva Gedola Bridgeport of Canada Foundation", "designationCode": "C", "categoryCode": "42", "address": "34 ALEXANDRA WOOD", "city": "TORONTO", "province": "ON", "country": "CA", "postalCode": "M5N2S1", "twitter": "None", "instagram": "None", "facebook": "None", "youtube": "None", "website": "None", "summary": "None", "logo": "None", "latitude": 43.712225351087845, "longitude": -79.42442861353784}, "821861705RR0001": {"name": "Yeshiva Pirchei Shoshanim Canada", "designationCode": "C", "categoryCode": "42", "address": "10-1170 SHEPPARD AVE W", "city": "TORONTO", "province": "ON", "country": "CA", "postalCode": "M3K2A3", "twitter": "None", "instagram": "None", "facebook": "None", "youtube": "None", "website": "None", "summary": "None", "logo": "None", "latitude": 43.75500650628973, "longitude": -79.47189080956801}, "119305993RR0001": {"name": "Yeshiva Student Religious Education Fund", "designationCode": "C", "categoryCode": "21", "address": "2939 BATHURST STREET", "city": "TORONTO", "province": "ON", "country": "CA", "postalCode": "M6B3B2", "twitter": "None", "instagram": "None", "facebook": "None", "youtube": "None", "website": "None", "summary": "None", "logo": "None", "latitude": 43.71620865168213, "longitude": -79.42900636952527}, "828481705RR0001": {"name": "Yeshivas Oholei Menachem Mendel, Lubavitch", "designationCode": "C", "categoryCode": "20", "address": "3055 BATHURST ST.", "city": "TORONTO", "province": "ON", "country": "CA", "postalCode": "M6B3B7", "twitter": "None", "instagram": "None", "facebook": "None", "youtube": "None", "website": "None", "summary": "None", "logo": "None", "latitude": 43.718780032200314, "longitude": -79.42960710695966}, "806177887RR0001": {"name": "Yeung Kwong Charitable Association of Canada", "designationCode": "C", "categoryCode": "39", "address": "202-640 WEST BROADWAY", "city": "VANCOUVER", "province": "BC", "country": "CA", "postalCode": "V5Z1G4", "twitter": "None", "instagram": "None", "facebook": "None", "youtube": "None", "website": "None", "summary": "None", "logo": "None", "latitude": 49.263196109523165, "longitude": -123.11874531075742}}