{"837809508RR0001": {"name": "Hussaini Canadian Educational and Cultural Association", "designationCode": "C", "categoryCode": "60", "address": "330-66 STREET", "city": "EDMONTON", "province": "AB", "country": "CA", "postalCode": "T6X1A3", "twitter": "None", "instagram": "None", "facebook": "None", "youtube": "None", "website": "None", "summary": "None", "logo": "None", "latitude": 53.42941080591235, "longitude": -113.44272901043689}, "828722983RR0001": {"name": "Hussar Rural Fire Association", "designationCode": "C", "categoryCode": "59", "address": "PO BOX 324", "city": "HUSSAR", "province": "AB", "country": "CA", "postalCode": "T0J1S0", "twitter": "None", "instagram": "None", "facebook": "None", "youtube": "None", "website": "None", "summary": "None", "logo": "None", "latitude": 51.05012000000005, "longitude": -112.68516999999997}, "832484083RR0001": {"name": "Hyatt Family Foundation", "designationCode": "B", "categoryCode": "05", "address": "2005 SHEPPARD AVE. EAST       SUITE 100", "city": "TORONTO", "province": "ON", "country": "CA", "postalCode": "M2J5B4", "twitter": "None", "instagram": "None", "facebook": "None", "youtube": "None", "website": "None", "summary": "None", "logo": "None", "latitude": 43.77436849624909, "longitude": -79.33790961564398}, "107999310RR0001": {"name": "Hydrocephalus Canada", "designationCode": "C", "categoryCode": "11", "address": "16 FOUR SEASONS PLACE, STE 111", "city": "TORONTO", "province": "ON", "country": "CA", "postalCode": "M9B6E5", "twitter": "None", "instagram": "None", "facebook": "None", "youtube": "None", "website": "None", "summary": "None", "logo": "None", "latitude": 43.64759794419769, "longitude": -79.5615170915224}, "855885588RR0001": {"name": "Hydrogeologists Without Borders", "designationCode": "C", "categoryCode": "09", "address": "3223 COCHRANE ROAD NW", "city": "CALGARY", "province": "AB", "country": "CA", "postalCode": "T2M4J4", "twitter": "None", "instagram": "None", "facebook": "None", "youtube": "None", "website": "None", "summary": "None", "logo": "None", "latitude": 51.08079970967747, "longitude": -114.11631581378028}, "733206296RR0001": {"name": "Hylife Foundation Inc.", "designationCode": "B", "categoryCode": "03", "address": "5 FABAS STREET                BOX 100", "city": "LA BROQUERIE", "province": "MB", "country": "CA", "postalCode": "R0A0W0", "twitter": "None", "instagram": "None", "facebook": "None", "youtube": "None", "website": "None", "summary": "None", "logo": "None"}, "829515196RR0001": {"name": "Hythe and District Food Bank Society", "designationCode": "C", "categoryCode": "09", "address": "POST OFFICE BOX 792           10023-101 AVENUE", "city": "HYTHE", "province": "AB", "country": "CA", "postalCode": "T0H2C0", "twitter": "None", "instagram": "None", "facebook": "None", "youtube": "None", "website": "None", "summary": "None", "logo": "None", "latitude": 55.32787840937163, "longitude": -119.55560461884663}, "890969645RR0001": {"name": "Hythe Nursing Home Foundation", "designationCode": "A", "categoryCode": "15", "address": "BOX 100", "city": "HYTHE", "province": "AB", "country": "CA", "postalCode": "T0H3C0", "twitter": "None", "instagram": "None", "facebook": "None", "youtube": "None", "website": "None", "summary": "None", "logo": "None", "latitude": 55.326339735701026, "longitude": -119.55635248358334}, "815466149RR0001": {"name": "HA\u00cfTI-SED QUEBEC CANADA", "designationCode": "C", "categoryCode": "03", "address": "205 RUE DE LA PROMENADE", "city": "VAL-D'OR", "province": "QC", "country": "CA", "postalCode": "J9P0C3", "twitter": "None", "instagram": "None", "facebook": "None", "youtube": "None", "website": "None", "summary": "None", "logo": "None", "latitude": 48.176922823763604, "longitude": -77.72924884018087}, "857248694RR0001": {"name": "HAB Family Foundation", "designationCode": "B", "categoryCode": "05", "address": "418-650 WEST GEORGIA STREET   PO BOX 11602", "city": "VANCOUVER", "province": "BC", "country": "CA", "postalCode": "V6B4N9", "twitter": "None", "instagram": "None", "facebook": "None", "youtube": "None", "website": "None", "summary": "None", "logo": "None", "latitude": 49.28012307167682, "longitude": -123.11442679241839}, "854820768RR0001": {"name": "HABITANT CEMETERY", "designationCode": "C", "categoryCode": "59", "address": "50 WATER STREET               RR 2", "city": "CANNING", "province": "NS", "country": "CA", "postalCode": "B0P1H0", "twitter": "None", "instagram": "None", "facebook": "None", "youtube": "None", "website": "None", "summary": "None", "logo": "None", "latitude": 45.161819004443394, "longitude": -64.36030893031923}, "889626545RR0001": {"name": "HABITAT ACQUISITION TRUST", "designationCode": "C", "categoryCode": "53", "address": "PO BOX 8552", "city": "VICTORIA", "province": "BC", "country": "CA", "postalCode": "V8W3S2", "twitter": "None", "instagram": "None", "facebook": "None", "youtube": "None", "website": "None", "summary": "None", "logo": "None", "latitude": 48.42854700000005, "longitude": -123.36445249999994}, "118950112RR0001": {"name": "HABITAT DE L'ANSE ST-JEAN INC.", "designationCode": "C", "categoryCode": "59", "address": "535, RUE COLLARD OUEST", "city": "ALMA", "province": "QC", "country": "CA", "postalCode": "G8B1N1", "twitter": "None", "instagram": "None", "facebook": "None", "youtube": "None", "website": "None", "summary": "None", "logo": "None", "latitude": 48.54876168916257, "longitude": -71.6501782472735}, "893104299RR0001": {"name": "HABITAT FOR HUMANITY - CAMROSE SOCIETY", "designationCode": "C", "categoryCode": "09", "address": "5007 46 ST", "city": "CAMROSE", "province": "AB", "country": "CA", "postalCode": "T4V3G3", "twitter": "None", "instagram": "None", "facebook": "None", "youtube": "None", "website": "None", "summary": "None", "logo": "None", "latitude": 53.02151076963472, "longitude": -112.81846306298701}, "129443966RR0001": {"name": "HABITAT FOR HUMANITY - EDMONTON SOCIETY", "designationCode": "C", "categoryCode": "09", "address": "8210 YELLOWHEAD TRAIL", "city": "EDMONTON", "province": "AB", "country": "CA", "postalCode": "T5B1G5", "twitter": "None", "instagram": "None", "facebook": "None", "youtube": "None", "website": "None", "summary": "None", "logo": "None", "latitude": 53.58249265543417, "longitude": -113.46970961720415}, "890092596RR0001": {"name": "HABITAT FOR HUMANITY - HURONIA INC", "designationCode": "C", "categoryCode": "09", "address": "128 BROCK ST                  UNIT 2", "city": "BARRIE", "province": "ON", "country": "CA", "postalCode": "L4N2M2", "twitter": "None", "instagram": "None", "facebook": "None", "youtube": "None", "website": "None", "summary": "None", "logo": "None", "latitude": 44.37415217375491, "longitude": -79.700894705811}, "894449073RR0001": {"name": "HABITAT FOR HUMANITY - MONCTON AREA/ REGION DE MONCTON INC.", "designationCode": "C", "categoryCode": "09", "address": "950 MOUNTAIN RD", "city": "MONCTON", "province": "NB", "country": "CA", "postalCode": "E1C2S2", "twitter": "None", "instagram": "None", "facebook": "None", "youtube": "None", "website": "None", "summary": "None", "logo": "None", "latitude": 46.10200742157666, "longitude": -64.81441009882266}, "139361638RR0001": {"name": "HABITAT FOR HUMANITY - SARNIA/LAMBTON", "designationCode": "C", "categoryCode": "09", "address": "1787 LONDON LINE", "city": "SARNIA", "province": "ON", "country": "CA", "postalCode": "N7T7H2", "twitter": "None", "instagram": "None", "facebook": "None", "youtube": "None", "website": "None", "summary": "None", "logo": "None", "latitude": 42.98367250562684, "longitude": -82.32312374715792}, "875384125RR0001": {"name": "HABITAT FOR HUMANITY BRANT", "designationCode": "C", "categoryCode": "09", "address": "408 HENRY ST", "city": "BRANTFORD", "province": "ON", "country": "CA", "postalCode": "N3S7W1", "twitter": "None", "instagram": "None", "facebook": "None", "youtube": "None", "website": "None", "summary": "None", "logo": "None", "latitude": 43.158705810347136, "longitude": -80.21673269761695}, "118950120RR0001": {"name": "HABITAT FOR HUMANITY CANADA HABITAT POUR L'HUMANIT\u00c9 CANADA", "designationCode": "C", "categoryCode": "99", "address": "477 MOUNT PLEASANT RD         SUITE 403", "city": "TORONTO", "province": "ON", "country": "CA", "postalCode": "M4S2L9", "twitter": "None", "instagram": "None", "facebook": "None", "youtube": "None", "website": "None", "summary": "None", "logo": "None", "latitude": 43.70084943326208, "longitude": -79.38711932425453}, "874192404RR0001": {"name": "HABITAT FOR HUMANITY DURHAM INC.", "designationCode": "C", "categoryCode": "09", "address": "85 CHAMBERS DR. UNIT#7", "city": "AJAX", "province": "ON", "country": "CA", "postalCode": "L1Z1E2", "twitter": "None", "instagram": "None", "facebook": "None", "youtube": "None", "website": "None", "summary": "None", "logo": "None", "latitude": 43.86014712792581, "longitude": -79.01096138426075}, "891522567RR0001": {"name": "HABITAT FOR HUMANITY GREATER KINGSTON & FRONTENAC", "designationCode": "C", "categoryCode": "09", "address": "607 GARDINERS RD", "city": "KINGSTON", "province": "ON", "country": "CA", "postalCode": "K7M3Y4", "twitter": "None", "instagram": "None", "facebook": "None", "youtube": "None", "website": "None", "summary": "None", "logo": "None", "latitude": 44.2426676858157, "longitude": -76.5678502087825}, "133824680RR0001": {"name": "HABITAT FOR HUMANITY GREATER TORONTO AREA", "designationCode": "C", "categoryCode": "09", "address": "155 BERMONDSEY RD", "city": "NORTH YORK", "province": "ON", "country": "CA", "postalCode": "M4A1X9", "twitter": "None", "instagram": "None", "facebook": "None", "youtube": "None", "website": "None", "summary": "None", "logo": "None", "latitude": 43.72064868806605, "longitude": -79.31537009833266}, "895319945RR0001": {"name": "HABITAT FOR HUMANITY GREY BRUCE", "designationCode": "C", "categoryCode": "09", "address": "2-640 2ND AVE E", "city": "OWEN SOUND", "province": "ON", "country": "CA", "postalCode": "N4K2G8", "twitter": "None", "instagram": "None", "facebook": "None", "youtube": "None", "website": "None", "summary": "None", "logo": "None", "latitude": 44.55204287684514, "longitude": -80.93994073007258}, "866072432RR0001": {"name": "HABITAT FOR HUMANITY HALTON/MISSISSAUGA", "designationCode": "C", "categoryCode": "09", "address": "10 - 1800 APPLEBY LINE", "city": "BURLINGTON", "province": "ON", "country": "CA", "postalCode": "L7L6A1", "twitter": "None", "instagram": "None", "facebook": "None", "youtube": "None", "website": "None", "summary": "None", "logo": "None", "latitude": 43.39114065136503, "longitude": -79.78660763258087}, "136473717RR0001": {"name": "HABITAT FOR HUMANITY HEARTLAND ONTARIO INC.", "designationCode": "C", "categoryCode": "09", "address": "2-40 PACIFIC CRT", "city": "LONDON", "province": "ON", "country": "CA", "postalCode": "N5V3K4", "twitter": "None", "instagram": "None", "facebook": "None", "youtube": "None", "website": "None", "summary": "None", "logo": "None", "latitude": 43.01061728230109, "longitude": -81.17522713693829}, "845327345RR0001": {"name": "HABITAT FOR HUMANITY HURON COUNTY", "designationCode": "C", "categoryCode": "09", "address": "BOX 453", "city": "GODERICH", "province": "ON", "country": "CA", "postalCode": "N7A4C7", "twitter": "None", "instagram": "None", "facebook": "None", "youtube": "None", "website": "None", "summary": "None", "logo": "None", "latitude": 43.74263400000005, "longitude": -81.70775449999994}, "816624142RR0001": {"name": "HABITAT FOR HUMANITY IQALUIT", "designationCode": "C", "categoryCode": "09", "address": "P.O. BOX 1989, BUILDING 741", "city": "IQALUIT", "province": "NU", "country": "CA", "postalCode": "X0A0H0", "twitter": "None", "instagram": "None", "facebook": "None", "youtube": "None", "website": "None", "summary": "None", "logo": "None", "latitude": 62.81090700000006, "longitude": -92.08155949999994}, "864706163RR0001": {"name": "HABITAT FOR HUMANITY KAMLOOPS SOCIETY", "designationCode": "C", "categoryCode": "09", "address": "261A VICTORIA STREET", "city": "KAMLOOPS", "province": "BC", "country": "CA", "postalCode": "V2C2A1", "twitter": "None", "instagram": "None", "facebook": "None", "youtube": "None", "website": "None", "summary": "None", "logo": "None", "latitude": 50.67576886855419, "longitude": -120.33532675638278}, "881877781RR0001": {"name": "HABITAT FOR HUMANITY MID-VANCOUVER ISLAND SOCIETY", "designationCode": "C", "categoryCode": "09", "address": "1-4128 MOSTAR ROAD", "city": "NANAIMO", "province": "BC", "country": "CA", "postalCode": "V9T6C9", "twitter": "None", "instagram": "None", "facebook": "None", "youtube": "None", "website": "None", "summary": "None", "logo": "None"}, "140290735RR0001": {"name": "HABITAT FOR HUMANITY NATIONAL CAPITAL REGION", "designationCode": "C", "categoryCode": "09", "address": "768 BELFAST RD", "city": "OTTAWA", "province": "ON", "country": "CA", "postalCode": "K1G0Z5", "twitter": "None", "instagram": "None", "facebook": "None", "youtube": "None", "website": "None", "summary": "None", "logo": "None", "latitude": 45.41432659195602, "longitude": -75.64103181380894}, "899006191RR0001": {"name": "HABITAT FOR HUMANITY NIAGARA", "designationCode": "C", "categoryCode": "09", "address": "150 BUNTING RD", "city": "ST CATHARINES", "province": "ON", "country": "CA", "postalCode": "L2P3G5", "twitter": "None", "instagram": "None", "facebook": "None", "youtube": "None", "website": "None", "summary": "None", "logo": "None", "latitude": 43.16612211379765, "longitude": -79.2097654495074}, "138524939RR0001": {"name": "HABITAT FOR HUMANITY NOVA SCOTIA", "designationCode": "C", "categoryCode": "09", "address": "H-81 WRIGHT AVE", "city": "DARTMOUTH", "province": "NS", "country": "CA", "postalCode": "B3B1H4", "twitter": "None", "instagram": "None", "facebook": "None", "youtube": "None", "website": "None", "summary": "None", "logo": "None", "latitude": 44.704181787174385, "longitude": -63.59717481744627}, "871696498RR0001": {"name": "HABITAT FOR HUMANITY OF NORTHUMBERLAND", "designationCode": "C", "categoryCode": "09", "address": "764 DIVISION ST", "city": "COBOURG", "province": "ON", "country": "CA", "postalCode": "K9A5V2", "twitter": "None", "instagram": "None", "facebook": "None", "youtube": "None", "website": "None", "summary": "None", "logo": "None", "latitude": 43.97312889482934, "longitude": -78.17141891332503}, "893198176RR0001": {"name": "HABITAT FOR HUMANITY OKANAGAN SOCIETY", "designationCode": "C", "categoryCode": "09", "address": "1793 ROSS ROAD", "city": "WEST KELOWNA", "province": "BC", "country": "CA", "postalCode": "V1Z3E7", "twitter": "None", "instagram": "None", "facebook": "None", "youtube": "None", "website": "None", "summary": "None", "logo": "None"}, "866675275RR0001": {"name": "HABITAT FOR HUMANITY ON THE BORDER LLOYDMINSTER SOCIETY", "designationCode": "C", "categoryCode": "09", "address": "PO BOX 143 STN MAIN", "city": "LLOYDMINSTER", "province": "SK", "country": "CA", "postalCode": "S9V0Y1", "twitter": "None", "instagram": "None", "facebook": "None", "youtube": "None", "website": "None", "summary": "None", "logo": "None", "latitude": 53.274840000000054, "longitude": -109.99074949999994}, "887017515RR0001": {"name": "HABITAT FOR HUMANITY ONTARIO GATEWAY NORTH", "designationCode": "C", "categoryCode": "09", "address": "1964 MUSKOKA BEACH RD.        RR-1", "city": "GRAVENHURST", "province": "ON", "country": "CA", "postalCode": "P1P1R1", "twitter": "None", "instagram": "None", "facebook": "None", "youtube": "None", "website": "None", "summary": "None", "logo": "None", "latitude": 44.968339747889715, "longitude": -79.36180128550575}, "857724447RR0001": {"name": "HABITAT FOR HUMANITY PETERBOROUGH AND DISTRICT", "designationCode": "C", "categoryCode": "09", "address": "550 BRAIDWOOD AVE", "city": "PETERBOROUGH", "province": "ON", "country": "CA", "postalCode": "K9J1W1", "twitter": "None", "instagram": "None", "facebook": "None", "youtube": "None", "website": "None", "summary": "None", "logo": "None", "latitude": 44.283705482274094, "longitude": -78.32491464922245}, "892389339RR0001": {"name": "HABITAT FOR HUMANITY PRINCE EDWARD ISLAND INC.", "designationCode": "C", "categoryCode": "09", "address": "365 MOUNT EDWARD RD", "city": "CHARLOTTETOWN", "province": "PE", "country": "CA", "postalCode": "C1E2A1", "twitter": "None", "instagram": "None", "facebook": "None", "youtube": "None", "website": "None", "summary": "None", "logo": "None", "latitude": 46.2774093738531, "longitude": -63.14473226784572}, "892511163RR0001": {"name": "HABITAT FOR HUMANITY RED DEER REGION SOCIETY", "designationCode": "C", "categoryCode": "09", "address": "4732 78 A STREET CLOSE", "city": "RED DEER", "province": "AB", "country": "CA", "postalCode": "T4P2J2", "twitter": "None", "instagram": "None", "facebook": "None", "youtube": "None", "website": "None", "summary": "None", "logo": "None", "latitude": 52.30828211367196, "longitude": -113.80791765914074}, "891927030RR0001": {"name": "HABITAT FOR HUMANITY REGINA INC.", "designationCode": "C", "categoryCode": "09", "address": "1740 BRODER STREET", "city": "REGINA", "province": "SK", "country": "CA", "postalCode": "S4N2H7", "twitter": "None", "instagram": "None", "facebook": "None", "youtube": "None", "website": "None", "summary": "None", "logo": "None", "latitude": 50.451750210918235, "longitude": -104.59091617632238}, "879877223RR0001": {"name": "HABITAT FOR HUMANITY SAINT JOHN REGION INC", "designationCode": "C", "categoryCode": "09", "address": "727 ROTHESAY AVE", "city": "SAINT JOHN", "province": "NB", "country": "CA", "postalCode": "E2H2H6", "twitter": "None", "instagram": "None", "facebook": "None", "youtube": "None", "website": "None", "summary": "None", "logo": "None", "latitude": 45.322674454065435, "longitude": -66.02436873607809}, "131154536RR0001": {"name": "HABITAT FOR HUMANITY SASKATOON INC.", "designationCode": "C", "categoryCode": "09", "address": "320 21ST W", "city": "SASKATOON", "province": "SK", "country": "CA", "postalCode": "S7M4E6", "twitter": "None", "instagram": "None", "facebook": "None", "youtube": "None", "website": "None", "summary": "None", "logo": "None", "latitude": 52.12772949379625, "longitude": -106.67461402553522}, "865217756RR0001": {"name": "HABITAT FOR HUMANITY SAULT STE MARIE AND AREA", "designationCode": "C", "categoryCode": "09", "address": "32 WHITE OAK DR.E.", "city": "SAULT STE-MARIE", "province": "ON", "country": "CA", "postalCode": "P6B4J8", "twitter": "None", "instagram": "None", "facebook": "None", "youtube": "None", "website": "None", "summary": "None", "logo": "None", "latitude": 46.53754338054686, "longitude": -84.33422658505977}, "895707818RR0001": {"name": "HABITAT FOR HUMANITY SEAWAY VALLEY", "designationCode": "C", "categoryCode": "09", "address": "1400 VINCENT MASSEY DR", "city": "CORNWALL", "province": "ON", "country": "CA", "postalCode": "K6J5N4", "twitter": "None", "instagram": "None", "facebook": "None", "youtube": "None", "website": "None", "summary": "None", "logo": "None", "latitude": 45.029268710738094, "longitude": -74.7545693182633}, "881983183RR0001": {"name": "HABITAT FOR HUMANITY SOCIETY OF GREATER VANCOUVER", "designationCode": "C", "categoryCode": "09", "address": "7977 ENTERPRISE ST", "city": "BURNABY", "province": "BC", "country": "CA", "postalCode": "V5A1V5", "twitter": "None", "instagram": "None", "facebook": "None", "youtube": "None", "website": "None", "summary": "None", "logo": "None", "latitude": 49.25554876169422, "longitude": -122.93159117798315}, "801416546RR0001": {"name": "HABITAT FOR HUMANITY SOUTH GEORGIAN BAY", "designationCode": "C", "categoryCode": "09", "address": "155 SANFORD FLEMING RD", "city": "COLLINGWOOD", "province": "ON", "country": "CA", "postalCode": "L9Y5A6", "twitter": "None", "instagram": "None", "facebook": "None", "youtube": "None", "website": "None", "summary": "None", "logo": "None", "latitude": 44.49386969649757, "longitude": -80.18999117859903}, "863787370RR0001": {"name": "HABITAT FOR HUMANITY SUNSHINE COAST", "designationCode": "C", "categoryCode": "09", "address": "5605 SUNSHINE COAST HWY", "city": "SECHELT", "province": "BC", "country": "CA", "postalCode": "V0N3A0", "twitter": "None", "instagram": "None", "facebook": "None", "youtube": "None", "website": "None", "summary": "None", "logo": "None", "latitude": 49.47164904706392, "longitude": -123.754920004451}, "884342825RR0001": {"name": "HABITAT FOR HUMANITY THOUSAND ISLANDS", "designationCode": "C", "categoryCode": "09", "address": "PO BOX 383 LCD MAIN", "city": "BROCKVILLE", "province": "ON", "country": "CA", "postalCode": "K6V5V6", "twitter": "None", "instagram": "None", "facebook": "None", "youtube": "None", "website": "None", "summary": "None", "logo": "None", "latitude": 44.59037100000006, "longitude": -75.68301049999994}, "139262182RR0001": {"name": "HABITAT FOR HUMANITY THUNDER BAY", "designationCode": "C", "categoryCode": "09", "address": "660 SQUIER ST", "city": "THUNDER BAY", "province": "ON", "country": "CA", "postalCode": "P7B4A8", "twitter": "None", "instagram": "None", "facebook": "None", "youtube": "None", "website": "None", "summary": "None", "logo": "None", "latitude": 48.41500840466843, "longitude": -89.247363896647}, "865088140RR0001": {"name": "HABITAT FOR HUMANITY VANCOUVER ISLAND NORTH SOCIETY", "designationCode": "C", "categoryCode": "09", "address": "1755 13TH STREET", "city": "COURTENAY", "province": "BC", "country": "CA", "postalCode": "V9N7B6", "twitter": "None", "instagram": "None", "facebook": "None", "youtube": "None", "website": "None", "summary": "None", "logo": "None", "latitude": 49.67792883516057, "longitude": -125.00990641413216}, "890604135RR0001": {"name": "HABITAT FOR HUMANITY VICTORIA", "designationCode": "C", "categoryCode": "09", "address": "849 ORONO AVE", "city": "VICTORIA", "province": "BC", "country": "CA", "postalCode": "V9B2T9", "twitter": "None", "instagram": "None", "facebook": "None", "youtube": "None", "website": "None", "summary": "None", "logo": "None", "latitude": 48.44705696225327, "longitude": -123.50499722975404}, "133293928RR0001": {"name": "HABITAT FOR HUMANITY WATERLOO REGION INC", "designationCode": "C", "categoryCode": "09", "address": "120 NORTHFIELD DRIVE EAST", "city": "WATERLOO", "province": "ON", "country": "CA", "postalCode": "N2J4G8", "twitter": "None", "instagram": "None", "facebook": "None", "youtube": "None", "website": "None", "summary": "None", "logo": "None", "latitude": 43.50673860508375, "longitude": -80.52468894347561}, "138819479RR0001": {"name": "HABITAT FOR HUMANITY WINDSOR-ESSEX INC.", "designationCode": "C", "categoryCode": "09", "address": "3064 DEVON DR", "city": "WINDSOR", "province": "ON", "country": "CA", "postalCode": "N8X4L2", "twitter": "None", "instagram": "None", "facebook": "None", "youtube": "None", "website": "None", "summary": "None", "logo": "None", "latitude": 42.27817787956591, "longitude": -82.99693269297174}, "872765953RR0001": {"name": "HABITAT FOR HUMANITY WOOD BUFFALO SOCIETY", "designationCode": "C", "categoryCode": "09", "address": "1 C.A. KNIGHT WAY", "city": "FORT MCMURRAY", "province": "AB", "country": "CA", "postalCode": "T9H5C5", "twitter": "None", "instagram": "None", "facebook": "None", "youtube": "None", "website": "None", "summary": "None", "logo": "None", "latitude": 56.73095700000006, "longitude": -111.38965549999993}, "871142907RR0001": {"name": "HABITAT FOR HUMANITY YUKON SOCIETY", "designationCode": "C", "categoryCode": "09", "address": "PO BOX 31118", "city": "WHITEHORSE", "province": "YT", "country": "CA", "postalCode": "Y1A5P7", "twitter": "None", "instagram": "None", "facebook": "None", "youtube": "None", "website": "None", "summary": "None", "logo": "None", "latitude": 60.72084600000005, "longitude": -135.05323399999992}, "899221915RR0001": {"name": "HABITAT FOR HUMANITY-FREDERICTON AREA/REGION DE FREDERICTON INC.", "designationCode": "C", "categoryCode": "09", "address": "PO BOX 643 STN A", "city": "FREDERICTON", "province": "NB", "country": "CA", "postalCode": "E3B5A6", "twitter": "None", "instagram": "None", "facebook": "None", "youtube": "None", "website": "None", "summary": "None", "logo": "None", "latitude": 45.96062100000006, "longitude": -66.63911299999994}, "134177591RR0001": {"name": "HABITAT HOUSING SOCIETY", "designationCode": "C", "categoryCode": "09", "address": "9815 140TH STREET", "city": "SURREY", "province": "BC", "country": "CA", "postalCode": "V3T1P6", "twitter": "None", "instagram": "None", "facebook": "None", "youtube": "None", "website": "None", "summary": "None", "logo": "None", "latitude": 49.18071779156327, "longitude": -122.83438281906038}, "107459984RR0001": {"name": "HABITAT JEUNESSE, MASCOUCHE", "designationCode": "C", "categoryCode": "09", "address": "2973 RUE STE-MARIE", "city": "MASCOUCHE", "province": "QC", "country": "CA", "postalCode": "J7K1N8", "twitter": "None", "instagram": "None", "facebook": "None", "youtube": "None", "website": "None", "summary": "None", "logo": "None", "latitude": 45.74767384707711, "longitude": -73.60222706466044}, "107459901RR0001": {"name": "HABITATION BAPTIST CHURCH", "designationCode": "C", "categoryCode": "31", "address": "3417 GRANVILLE ROAD           RR 2", "city": "GRANVILLE FERRY", "province": "NS", "country": "CA", "postalCode": "B0S1K0", "twitter": "None", "instagram": "None", "facebook": "None", "youtube": "None", "website": "None", "summary": "None", "logo": "None", "latitude": 44.71045970257875, "longitude": -65.61996977243427}, "118950153RR0001": {"name": "HABITATION NEW HORIZONS CLUB", "designationCode": "C", "categoryCode": "56", "address": "RR 2", "city": "GRANVILLE FERRY ANNAP CO", "province": "NS", "country": "CA", "postalCode": "B0S1K0", "twitter": "None", "instagram": "None", "facebook": "None", "youtube": "None", "website": "None", "summary": "None", "logo": "None", "latitude": 44.704004277787405, "longitude": -65.64535661059041}, "118950161RR0001": {"name": "HABITATION PAINCHAUD", "designationCode": "C", "categoryCode": "59", "address": "1415 AV SAINT-PASCAL", "city": "QUEBEC", "province": "QC", "country": "CA", "postalCode": "G1J4R1", "twitter": "None", "instagram": "None", "facebook": "None", "youtube": "None", "website": "None", "summary": "None", "logo": "None", "latitude": 46.83638720009819, "longitude": -71.21820829283267}, "107617615RR0001": {"name": "HABITATIONS L'ESCALIER DE MONTREAL", "designationCode": "C", "categoryCode": "01", "address": "2295 AVE. DESJARDINS", "city": "MONTREAL", "province": "QC", "country": "CA", "postalCode": "H1V2H6", "twitter": "None", "instagram": "None", "facebook": "None", "youtube": "None", "website": "None", "summary": "None", "logo": "None"}, "128912193RR0001": {"name": "HABITATIONS LES II VOLETS", "designationCode": "C", "categoryCode": "01", "address": "6240 AV CHRISTOPHE-COLOMB     SUITE 100", "city": "MONTR\u00c9AL", "province": "QC", "country": "CA", "postalCode": "H2S2G7", "twitter": "None", "instagram": "None", "facebook": "None", "youtube": "None", "website": "None", "summary": "None", "logo": "None", "latitude": 45.5367079094872, "longitude": -73.59916381865635}, "137691200RR0001": {"name": "HABITATIONS NOUVELLES AVENUES", "designationCode": "C", "categoryCode": "01", "address": "101-3950 RUE BEAUBIEN E.", "city": "MONTREAL", "province": "QC", "country": "CA", "postalCode": "H1X3M8", "twitter": "None", "instagram": "None", "facebook": "None", "youtube": "None", "website": "None", "summary": "None", "logo": "None", "latitude": 45.55881929689121, "longitude": -73.5829719497222}, "829177740RR0001": {"name": "HABITATIONS PIGNON SUR ROUES", "designationCode": "C", "categoryCode": "09", "address": "206-3150, RUE RACHEL EST", "city": "MONTR\u00c9AL", "province": "QC", "country": "CA", "postalCode": "H1W0A2", "twitter": "None", "instagram": "None", "facebook": "None", "youtube": "None", "website": "None", "summary": "None", "logo": "None", "latitude": 45.5456491664824, "longitude": -73.5604436031257}, "140952680RR0001": {"name": "HABITATIONS RDI", "designationCode": "C", "categoryCode": "09", "address": "95, DE LA POINTE-AUX-LIEVRES  IMMEUBLE POPULAIRE DE QUEBEC", "city": "QUEBEC", "province": "QC", "country": "CA", "postalCode": "G1K5Y6", "twitter": "None", "instagram": "None", "facebook": "None", "youtube": "None", "website": "None", "summary": "None", "logo": "None", "latitude": 46.816624583333294, "longitude": -71.21989999999994}, "891947301RR0001": {"name": "HABITATIONS STEPHEN JAKE BEAVEN", "designationCode": "C", "categoryCode": "01", "address": "18 GOLF ROAD", "city": "ARUNDEL", "province": "QC", "country": "CA", "postalCode": "J0T1A0", "twitter": "None", "instagram": "None", "facebook": "None", "youtube": "None", "website": "None", "summary": "None", "logo": "None", "latitude": 45.98188240608207, "longitude": -74.6153106135092}, "888836640RR0001": {"name": "HABONIM ZIONIST SOCIETY-CHARITABLE TRUST OPERATING CAMP MIRIAM,", "designationCode": "C", "categoryCode": "56", "address": "303-950 41ST AVE W", "city": "VANCOUVER", "province": "BC", "country": "CA", "postalCode": "V5Z2N7", "twitter": "None", "instagram": "None", "facebook": "None", "youtube": "None", "website": "None", "summary": "None", "logo": "None", "latitude": 49.23387050620376, "longitude": -123.12594479822836}, "118950229RR0001": {"name": "HACHNOSAS KALLAH", "designationCode": "C", "categoryCode": "03", "address": "248 HADDINGTON AVE.", "city": "TORONTO", "province": "ON", "country": "CA", "postalCode": "M5M2P9", "twitter": "None", "instagram": "None", "facebook": "None", "youtube": "None", "website": "None", "summary": "None", "logo": "None", "latitude": 43.73267612519462, "longitude": -79.43048858993586}, "868652751RR0001": {"name": "HACKMATACK CHILDREN'S CHOICE BOOK AWARD & SOCIETY", "designationCode": "C", "categoryCode": "21", "address": "PO BOX 34055,                 SCOTIA SQUARE RPO", "city": "HALIFAX", "province": "NS", "country": "CA", "postalCode": "B3J2S1", "twitter": "None", "instagram": "None", "facebook": "None", "youtube": "None", "website": "None", "summary": "None", "logo": "None", "latitude": 44.64914004501099, "longitude": -63.57538007718255}, "135506483RR0001": {"name": "HADASSAH-WIZO ORGANIZATION OF CANADA - L'ORGANISATION HADASSAH-WIZO DU CANADA", "designationCode": "C", "categoryCode": "09", "address": "208 - 90 EGLINTON AVE E", "city": "TORONTO", "province": "ON", "country": "CA", "postalCode": "M4P2Y3", "twitter": "None", "instagram": "None", "facebook": "None", "youtube": "None", "website": "None", "summary": "None", "logo": "None", "latitude": 43.7089009100495, "longitude": -79.38780176683875}, "863000253RR0001": {"name": "HADDEN FAMILY FOUNDATION", "designationCode": "B", "categoryCode": "03", "address": "53 UPPER CANADA DRIVE         RR#1", "city": "PORT ROWAN", "province": "ON", "country": "CA", "postalCode": "N0E1M0", "twitter": "None", "instagram": "None", "facebook": "None", "youtube": "None", "website": "None", "summary": "None", "logo": "None", "latitude": 42.62922978628315, "longitude": -80.46137169885743}, "864631726RR0001": {"name": "HADDINGTON HOUSE INC.", "designationCode": "C", "categoryCode": "20", "address": "99 NORTH RIVER RD", "city": "CHARLOTTETOWN", "province": "PE", "country": "CA", "postalCode": "C1A3K6", "twitter": "None", "instagram": "None", "facebook": "None", "youtube": "None", "website": "None", "summary": "None", "logo": "None", "latitude": 46.23450380682672, "longitude": -63.1398989753015}, "845236876RR0001": {"name": "HAFFORD AND DISTRICT MUSIC FESTIVAL", "designationCode": "C", "categoryCode": "22", "address": "PO BOX 133", "city": "HAFFORD", "province": "SK", "country": "CA", "postalCode": "S0J1A0", "twitter": "None", "instagram": "None", "facebook": "None", "youtube": "None", "website": "None", "summary": "None", "logo": "None", "latitude": 52.71682000000004, "longitude": -107.35123999999996}, "118950278RR0001": {"name": "HAFFORD AND DISTRICT RECREATION BOARD INC.", "designationCode": "C", "categoryCode": "56", "address": "BOX 265", "city": "HAFFORD", "province": "SK", "country": "CA", "postalCode": "S0J1A0", "twitter": "None", "instagram": "None", "facebook": "None", "youtube": "None", "website": "None", "summary": "None", "logo": "None", "latitude": 52.71682000000004, "longitude": -107.35123999999996}, "891604175RR0001": {"name": "HAFFORD GOSPEL FELLOWSHIP", "designationCode": "C", "categoryCode": "39", "address": "211 MAIN ST.                  BOX 234", "city": "HAFFORD", "province": "SK", "country": "CA", "postalCode": "S0J1A0", "twitter": "None", "instagram": "None", "facebook": "None", "youtube": "None", "website": "None", "summary": "None", "logo": "None", "latitude": 52.726561771456254, "longitude": -107.3530058205345}, "864399597RR0001": {"name": "HAFFORD LOCAL BOARD TRUST", "designationCode": "C", "categoryCode": "21", "address": "P.O. BOX 101", "city": "HAFFORD", "province": "SK", "country": "CA", "postalCode": "S0J1A0", "twitter": "None", "instagram": "None", "facebook": "None", "youtube": "None", "website": "None", "summary": "None", "logo": "None", "latitude": 52.71682000000004, "longitude": -107.35123999999996}, "889213260RR0001": {"name": "HAGA CEMETERY COMMITTEE", "designationCode": "C", "categoryCode": "59", "address": "PO BOX 416", "city": "ARBORG", "province": "MB", "country": "CA", "postalCode": "R0C0A0", "twitter": "None", "instagram": "None", "facebook": "None", "youtube": "None", "website": "None", "summary": "None", "logo": "None", "latitude": 50.91022850109325, "longitude": -97.2043884534773}, "837379148RR0001": {"name": "HAGEN FAMILY FOUNDATION / FONDATION DE LA FAMILLE HAGEN", "designationCode": "B", "categoryCode": "03", "address": "20500 TRANSCANADA HWY", "city": "BAIE D'URF\u00c9", "province": "QC", "country": "CA", "postalCode": "H9X0A2", "twitter": "None", "instagram": "None", "facebook": "None", "youtube": "None", "website": "None", "summary": "None", "logo": "None", "latitude": 45.426570000000055, "longitude": -73.91748949999993}, "889847737RR0001": {"name": "HAGER HULL MILLER SCHOLARSHIP FUND OF EAST YORK COLLEGIATE", "designationCode": "C", "categoryCode": "21", "address": "755 MILLWOOD ROAD", "city": "TORONTO", "province": "ON", "country": "CA", "postalCode": "M4G1V7", "twitter": "None", "instagram": "None", "facebook": "None", "youtube": "None", "website": "None", "summary": "None", "logo": "None"}, "134870021RR0001": {"name": "HAGERMAN MENNONITE CHURCH,", "designationCode": "C", "categoryCode": "34", "address": "4581 - 14TH AVE", "city": "MARKHAM", "province": "ON", "country": "CA", "postalCode": "L3S3K2", "twitter": "None", "instagram": "None", "facebook": "None", "youtube": "None", "website": "None", "summary": "None", "logo": "None", "latitude": 43.84399287480539, "longitude": -79.30229418414226}, "107460297RR0001": {"name": "HAGERSVILLE BAPTIST CHURCH", "designationCode": "C", "categoryCode": "31", "address": "4260 HIGHWAY 6", "city": "HAGERSVILLE", "province": "ON", "country": "CA", "postalCode": "N0A1H0", "twitter": "None", "instagram": "None", "facebook": "None", "youtube": "None", "website": "None", "summary": "None", "logo": "None", "latitude": 42.96548475327002, "longitude": -80.04858980260849}, "845954734RR0001": {"name": "HAGERSVILLE COMMUNITY CHRISTIAN REFORMED CHURCH", "designationCode": "C", "categoryCode": "39", "address": "BOX 267", "city": "HAGERSVILLE", "province": "ON", "country": "CA", "postalCode": "N0A1H0", "twitter": "None", "instagram": "None", "facebook": "None", "youtube": "None", "website": "None", "summary": "None", "logo": "None", "latitude": 42.96624567435869, "longitude": -80.04526476987148}, "119288918RR0330": {"name": "HAGERSVILLE ONTARIO CONGREGATION OF JEHOVAH'S WITNESSES", "designationCode": "C", "categoryCode": "61", "address": "128 BRAEMAR AVE", "city": "CALEDONIA", "province": "ON", "country": "CA", "postalCode": "N3W2L8", "twitter": "None", "instagram": "None", "facebook": "None", "youtube": "None", "website": "None", "summary": "None", "logo": "None", "latitude": 43.064702579260064, "longitude": -79.96892332670645}, "118950369RR0001": {"name": "HAGERSVILLE UNITED CHURCH", "designationCode": "C", "categoryCode": "44", "address": "P.O. BOX 146", "city": "HAGERSVILLE", "province": "ON", "country": "CA", "postalCode": "N0A1H0", "twitter": "None", "instagram": "None", "facebook": "None", "youtube": "None", "website": "None", "summary": "None", "logo": "None", "latitude": 42.96624567435869, "longitude": -80.04526476987148}, "107464067RR0001": {"name": "HAGI COMMUNITY SERVICES FOR INDEPENDENCE", "designationCode": "C", "categoryCode": "09", "address": "1201 JASPER DRIVE", "city": "THUNDER BAY", "province": "ON", "country": "CA", "postalCode": "P7B6R2", "twitter": "None", "instagram": "None", "facebook": "None", "youtube": "None", "website": "None", "summary": "None", "logo": "None", "latitude": 48.4191547943619, "longitude": -89.25506380451903}, "107460388RR0001": {"name": "HAGUE GOSPEL CHURCH INC.", "designationCode": "C", "categoryCode": "34", "address": "BOX 30", "city": "HAGUE", "province": "SK", "country": "CA", "postalCode": "S0K1X0", "twitter": "None", "instagram": "None", "facebook": "None", "youtube": "None", "website": "None", "summary": "None", "logo": "None", "latitude": 52.50953000000004, "longitude": -106.41138999999998}, "107460396RR0001": {"name": "HAGUE MENNONITE CHURCH", "designationCode": "C", "categoryCode": "34", "address": "BOX 73", "city": "HAGUE", "province": "SK", "country": "CA", "postalCode": "S0K1X0", "twitter": "None", "instagram": "None", "facebook": "None", "youtube": "None", "website": "None", "summary": "None", "logo": "None", "latitude": 52.50953000000004, "longitude": -106.41138999999998}, "119288918RR0132": {"name": "HAGUE PARK CONGREGATION OF JEHOVAH'S WITNESSES, TORONTO, ONTARIO", "designationCode": "C", "categoryCode": "61", "address": "1609 - 3400 EGLINTON AVE EAST", "city": "SCARBOROUGH", "province": "ON", "country": "CA", "postalCode": "M1J2H8", "twitter": "None", "instagram": "None", "facebook": "None", "youtube": "None", "website": "None", "summary": "None", "logo": "None", "latitude": 43.744572000000005, "longitude": -79.21286775}, "872753918RR0001": {"name": "HAHNEMANN CENTER FOR HEIL KUNST TRUST", "designationCode": "B", "categoryCode": "15", "address": "9-4338 INNES RD", "city": "OTTAWA", "province": "ON", "country": "CA", "postalCode": "K4A3W3", "twitter": "None", "instagram": "None", "facebook": "None", "youtube": "None", "website": "None", "summary": "None", "logo": "None", "latitude": 45.45943701243617, "longitude": -75.4924859662418}, "837319326RR0001": {"name": "HAIDA GWAII FOUNDATION", "designationCode": "A", "categoryCode": "03", "address": "400-725 GRANVILLE STREET", "city": "VANCOUVER", "province": "BC", "country": "CA", "postalCode": "V7Y1G5", "twitter": "None", "instagram": "None", "facebook": "None", "youtube": "None", "website": "None", "summary": "None", "logo": "None", "latitude": 49.2574107949392, "longitude": -123.1388109520393}, "107867996RR0001": {"name": "HAIDA GWAII MUSEUM SOCIETY", "designationCode": "C", "categoryCode": "50", "address": "PO BOX 1373, SECOND BEACH ROAD", "city": "SKIDEGATE", "province": "BC", "country": "CA", "postalCode": "V0T1S1", "twitter": "None", "instagram": "None", "facebook": "None", "youtube": "None", "website": "None", "summary": "None", "logo": "None", "latitude": 53.24893018527594, "longitude": -131.99725756008513}, "107984379RR0001": {"name": "HAIDA GWAII PASTORAL CHARGE", "designationCode": "C", "categoryCode": "44", "address": "BOX 1307                      183 3RD AVE", "city": "SKIDEGATE", "province": "BC", "country": "CA", "postalCode": "V0T1S1", "twitter": "None", "instagram": "None", "facebook": "None", "youtube": "None", "website": "None", "summary": "None", "logo": "None", "latitude": 53.270700676592256, "longitude": -131.9839023951198}, "890624760RR0001": {"name": "HAIDA GWAII SOCIETY FOR COMMUNITY PEACE", "designationCode": "C", "categoryCode": "01", "address": "P.O. BOX 811", "city": "MASSET", "province": "BC", "country": "CA", "postalCode": "V0T1M0", "twitter": "None", "instagram": "None", "facebook": "None", "youtube": "None", "website": "None", "summary": "None", "logo": "None", "latitude": 54.01182000000006, "longitude": -132.14781}, "897656450RR0001": {"name": "HAIG-BROWN INSTITUTE", "designationCode": "C", "categoryCode": "59", "address": "400-145 CHADWICK CRT", "city": "NORTH VANCOUVER", "province": "BC", "country": "CA", "postalCode": "V7M3K1", "twitter": "None", "instagram": "None", "facebook": "None", "youtube": "None", "website": "None", "summary": "None", "logo": "None", "latitude": 49.3107484486418, "longitude": -123.08373079299793}, "107460529RR0001": {"name": "HAILEYBURY AND DISTRICT BAPTIST CHURCH", "designationCode": "C", "categoryCode": "31", "address": "495 RORKE AVE                 PO BOX 934", "city": "HAILEYBURY", "province": "ON", "country": "CA", "postalCode": "P0J1K0", "twitter": "None", "instagram": "None", "facebook": "None", "youtube": "None", "website": "None", "summary": "None", "logo": "None", "latitude": 47.44965705891504, "longitude": -79.63762353851345}, "107797383RR0111": {"name": "HAILEYBURY SEVENTH-DAY ADVENTIST CHURCH", "designationCode": "C", "categoryCode": "41", "address": "P.O. BOX 778", "city": "HAILEYBURY", "province": "ON", "country": "CA", "postalCode": "P0J1K0", "twitter": "None", "instagram": "None", "facebook": "None", "youtube": "None", "website": "None", "summary": "None", "logo": "None", "latitude": 47.449380000000076, "longitude": -79.63766999999996}, "893384297RR0001": {"name": "HAISLA PENTECOSTAL ASSEMBLY", "designationCode": "C", "categoryCode": "36", "address": "PO BOX 1103", "city": "KITAMAAT VILLAGE", "province": "BC", "country": "CA", "postalCode": "V0T2B0", "twitter": "None", "instagram": "None", "facebook": "None", "youtube": "None", "website": "None", "summary": "None", "logo": "None", "latitude": 53.97705000000008, "longitude": -128.64441999999997}, "890345648RR0001": {"name": "HAISLA UNITED CHURCH", "designationCode": "C", "categoryCode": "44", "address": "PO BOX 1040", "city": "HAISLA", "province": "BC", "country": "CA", "postalCode": "V0T2B0", "twitter": "None", "instagram": "None", "facebook": "None", "youtube": "None", "website": "None", "summary": "None", "logo": "None", "latitude": 53.97186291310739, "longitude": -128.64975365901984}}