{"847760865RR0001": {"name": "Native Territories Avian Research Project (NTARP)", "designationCode": "C", "categoryCode": "21", "address": "R.R.  3", "city": "WALLACEBURG", "province": "ON", "country": "CA", "postalCode": "N8A4K9", "twitter": "None", "instagram": "None", "facebook": "None", "youtube": "None", "website": "None", "summary": "None", "logo": "None", "latitude": 42.59188500000006, "longitude": -82.47018499999993}, "107910259RR0006": {"name": "Nativity of Our Lord Parish", "designationCode": "C", "categoryCode": "38", "address": "480 RATHBURN RD", "city": "ETOBICOKE", "province": "ON", "country": "CA", "postalCode": "M9C3S8", "twitter": "None", "instagram": "None", "facebook": "None", "youtube": "None", "website": "None", "summary": "None", "logo": "None", "latitude": 43.65220706027438, "longitude": -79.57620039635854}, "791148497RR0001": {"name": "Nature-Avenir", "designationCode": "C", "categoryCode": "59", "address": "311 RUE LAURIER", "city": "DRUMMONDVILLE", "province": "QC", "country": "CA", "postalCode": "J2B5E5", "twitter": "None", "instagram": "None", "facebook": "None", "youtube": "None", "website": "None", "summary": "None", "logo": "None", "latitude": 45.86952196476993, "longitude": -72.47631954039463}, "833705304RR0001": {"name": "Nature's Calling! Environmental Education", "designationCode": "C", "categoryCode": "52", "address": "POST OFFICE BOX 995", "city": "SIMCOE", "province": "ON", "country": "CA", "postalCode": "N3Y4N5", "twitter": "None", "instagram": "None", "facebook": "None", "youtube": "None", "website": "None", "summary": "None", "logo": "None"}, "887219921RR0001": {"name": "Naval Marine Archive The Canadian Collection Archive navale marine la collection canadienne", "designationCode": "C", "categoryCode": "50", "address": "205 MAIN ST", "city": "PICTON", "province": "ON", "country": "CA", "postalCode": "K0K2T0", "twitter": "None", "instagram": "None", "facebook": "None", "youtube": "None", "website": "None", "summary": "None", "logo": "None", "latitude": 44.19266035250148, "longitude": -77.05407326937492}, "841349863RR0001": {"name": "Naveed Foundation", "designationCode": "B", "categoryCode": "05", "address": "2-61 OCHTERLONEY ST", "city": "DARTMOUTH", "province": "NS", "country": "CA", "postalCode": "B2Y1C3", "twitter": "None", "instagram": "None", "facebook": "None", "youtube": "None", "website": "None", "summary": "None", "logo": "None", "latitude": 44.66698948043738, "longitude": -63.56804414599798}, "823343355RR0001": {"name": "Navire Marchand pour Christ", "designationCode": "C", "categoryCode": "09", "address": "975 BOUL VANIER", "city": "LAVAL", "province": "QC", "country": "CA", "postalCode": "H7C2M9", "twitter": "None", "instagram": "None", "facebook": "None", "youtube": "None", "website": "None", "summary": "None", "logo": "None", "latitude": 45.6065951379479, "longitude": -73.65489883706515}, "853495349RR0001": {"name": "Navjeewan Community Church", "designationCode": "C", "categoryCode": "39", "address": "4633 CROSSCREEK COURT", "city": "MISSISSAUGA", "province": "ON", "country": "CA", "postalCode": "L5V1G5", "twitter": "None", "instagram": "None", "facebook": "None", "youtube": "None", "website": "None", "summary": "None", "logo": "None", "latitude": 43.58449212075122, "longitude": -79.67647755118603}, "119246635RR0094": {"name": "Navy League of Canada - Amherst Branch", "designationCode": "C", "categoryCode": "29", "address": "212 UNIACKE RD", "city": "BAIE VERTE", "province": "NB", "country": "CA", "postalCode": "E4M1K5", "twitter": "None", "instagram": "None", "facebook": "None", "youtube": "None", "website": "None", "summary": "None", "logo": "None", "latitude": 45.986859579202736, "longitude": -64.09689760066993}, "119246635RR0096": {"name": "Navy League of Canada Cape Breton Division", "designationCode": "C", "categoryCode": "29", "address": "124 HOLLAND STREET", "city": "RESERVE MINES", "province": "NS", "country": "CA", "postalCode": "B1E1C3", "twitter": "None", "instagram": "None", "facebook": "None", "youtube": "None", "website": "None", "summary": "None", "logo": "None", "latitude": 46.19011739829179, "longitude": -60.017418126002674}, "840224604RR0001": {"name": "Navy League of Canada Foothills Branch", "designationCode": "C", "categoryCode": "29", "address": "PO BOX 45029 RPO HIGWOOD", "city": "HIGH RIVER", "province": "AB", "country": "CA", "postalCode": "T1V1R7", "twitter": "None", "instagram": "None", "facebook": "None", "youtube": "None", "website": "None", "summary": "None", "logo": "None", "latitude": 50.57484016940314, "longitude": -113.88951}, "119246635RR0087": {"name": "Navy League of Canada Mount Uniacke Branch", "designationCode": "C", "categoryCode": "29", "address": "PO BOX 32", "city": "MOUNT UNIACKE", "province": "NS", "country": "CA", "postalCode": "B0N1Z0", "twitter": "None", "instagram": "None", "facebook": "None", "youtube": "None", "website": "None", "summary": "None", "logo": "None", "latitude": 44.95820100000006, "longitude": -63.90217699999994}, "119246635RR0051": {"name": "Navy League of Canada,J.R.K. Millen Branch", "designationCode": "C", "categoryCode": "29", "address": "1 NAVY WAY", "city": "WINNIPEG", "province": "MB", "country": "CA", "postalCode": "R3C4J7", "twitter": "None", "instagram": "None", "facebook": "None", "youtube": "None", "website": "None", "summary": "None", "logo": "None", "latitude": 49.88594685988772, "longitude": -97.13774032638932}, "844945527RR0001": {"name": "Nawan Nanaksar Thath", "designationCode": "C", "categoryCode": "62", "address": "3-187 DEERHURST DRIVE", "city": "BRAMPTON", "province": "ON", "country": "CA", "postalCode": "L6T5K3", "twitter": "None", "instagram": "None", "facebook": "None", "youtube": "None", "website": "None", "summary": "None", "logo": "None", "latitude": 43.74494975662164, "longitude": -79.6684638699293}, "835203159RR0001": {"name": "Naya Jeewan Church", "designationCode": "C", "categoryCode": "36", "address": "8868 128 ST", "city": "SURREY", "province": "BC", "country": "CA", "postalCode": "V3V5M7", "twitter": "None", "instagram": "None", "facebook": "None", "youtube": "None", "website": "None", "summary": "None", "logo": "None", "latitude": 49.16374200000001, "longitude": -122.86800995501773}, "841688682RR0001": {"name": "NayaSophia Foundation", "designationCode": "C", "categoryCode": "11", "address": "127 BURBANK DR,", "city": "TORONTO", "province": "ON", "country": "CA", "postalCode": "M2K1N6", "twitter": "None", "instagram": "None", "facebook": "None", "youtube": "None", "website": "None", "summary": "None", "logo": "None", "latitude": 43.777981203185284, "longitude": -79.3819613413643}, "841898372RR0001": {"name": "Nazem Kadri Foundation", "designationCode": "B", "categoryCode": "03", "address": "22061 RICHMOND ST", "city": "LONDON", "province": "ON", "country": "CA", "postalCode": "N5X4B2", "twitter": "None", "instagram": "None", "facebook": "None", "youtube": "None", "website": "None", "summary": "None", "logo": "None", "latitude": 43.07256743620586, "longitude": -81.30633304448945}, "810956565RR0001": {"name": "Ne'eman Foundation Canada", "designationCode": "C", "categoryCode": "47", "address": "75 LISA CRESCENT", "city": "THORNHILL", "province": "ON", "country": "CA", "postalCode": "L4J2N2", "twitter": "None", "instagram": "None", "facebook": "None", "youtube": "None", "website": "None", "summary": "None", "logo": "None", "latitude": 43.800972108517534, "longitude": -79.4426355968321}, "809451008RR0001": {"name": "Near North Enviro-Education Centre", "designationCode": "C", "categoryCode": "29", "address": "140 MAIN STREET               P.O. BOX 825", "city": "SUNDRIDGE", "province": "ON", "country": "CA", "postalCode": "P0A1Z0", "twitter": "None", "instagram": "None", "facebook": "None", "youtube": "None", "website": "None", "summary": "None", "logo": "None", "latitude": 45.773092423278776, "longitude": -79.3859180480407}, "809361116RR0001": {"name": "Nebula Foundation", "designationCode": "C", "categoryCode": "20", "address": "12023 81 STREET NW", "city": "EDMONTON", "province": "AB", "country": "CA", "postalCode": "T5B2S9", "twitter": "None", "instagram": "None", "facebook": "None", "youtube": "None", "website": "None", "summary": "None", "logo": "None", "latitude": 53.574317444630395, "longitude": -113.46544576291231}, "119246742RR0001": {"name": "Necef Sabeel Canada", "designationCode": "C", "categoryCode": "21", "address": "7565 NEWMAN BLVD              P.O. BOX 3067 STATION LAPIERRE", "city": "LASALLE", "province": "QC", "country": "CA", "postalCode": "H8N3H2", "twitter": "None", "instagram": "None", "facebook": "None", "youtube": "None", "website": "None", "summary": "None", "logo": "None", "latitude": 45.43817431881884, "longitude": -73.61948150991618}, "843609421RR0001": {"name": "Nechako Valley Community Services Society", "designationCode": "C", "categoryCode": "09", "address": "PO BOX 1249", "city": "VANDERHOOF", "province": "BC", "country": "CA", "postalCode": "V0J3A0", "twitter": "None", "instagram": "None", "facebook": "None", "youtube": "None", "website": "None", "summary": "None", "logo": "None", "latitude": 54.01397400000006, "longitude": -124.01297449999993}, "850580689RR0001": {"name": "Nechako Valley Society of the Performing Arts", "designationCode": "C", "categoryCode": "22", "address": "409 3RD STREET WEST           POST OFFICE BOX 2145", "city": "VANDERHOOF", "province": "BC", "country": "CA", "postalCode": "V0J3A0", "twitter": "None", "instagram": "None", "facebook": "None", "youtube": "None", "website": "None", "summary": "None", "logo": "None", "latitude": 54.01220462082861, "longitude": -124.01566646285028}, "107766388RR0001": {"name": "Nechi Institute: Centre of Indigenous Learning", "designationCode": "C", "categoryCode": "09", "address": "PO BOX 2039                   STATION MAIN", "city": "ST. ALBERT", "province": "AB", "country": "CA", "postalCode": "T8N2G3", "twitter": "None", "instagram": "None", "facebook": "None", "youtube": "None", "website": "None", "summary": "None", "logo": "None", "latitude": 53.633832000000055, "longitude": -113.62747399999994}, "839408440RR0001": {"name": "Neekoo Philanthropic Society", "designationCode": "C", "categoryCode": "21", "address": "305-1168 HAMILTON STREET", "city": "VANCOUVER", "province": "BC", "country": "CA", "postalCode": "V6B2S2", "twitter": "None", "instagram": "None", "facebook": "None", "youtube": "None", "website": "None", "summary": "None", "logo": "None", "latitude": 49.27513397417633, "longitude": -123.12223501399404}, "749148896RR0001": {"name": "Neema International Canada", "designationCode": "C", "categoryCode": "09", "address": "660 WOBURN AVENUE", "city": "TORONTO", "province": "ON", "country": "CA", "postalCode": "M5M1M1", "twitter": "None", "instagram": "None", "facebook": "None", "youtube": "None", "website": "None", "summary": "None", "logo": "None", "latitude": 43.72348015794319, "longitude": -79.42610711977025}, "862750106RR0001": {"name": "Neepawa Personal Care Home - Resident Family Council", "designationCode": "C", "categoryCode": "09", "address": "500 VETERANS WAY,PO BOX 1240", "city": "NEEPAWA", "province": "MB", "country": "CA", "postalCode": "R0J1H0", "twitter": "None", "instagram": "None", "facebook": "None", "youtube": "None", "website": "None", "summary": "None", "logo": "None", "latitude": 50.22581100000005, "longitude": -99.48963949999994}, "856383559RR0001": {"name": "Neighbourhood Basketball Association", "designationCode": "C", "categoryCode": "59", "address": "1172 BAY STREET               SUITE 270", "city": "TORONTO", "province": "ON", "country": "CA", "postalCode": "M5S2B4", "twitter": "None", "instagram": "None", "facebook": "None", "youtube": "None", "website": "None", "summary": "None", "logo": "None", "latitude": 43.6691709328294, "longitude": -79.38930368278592}, "762520120RR0001": {"name": "Neighbourhood Church", "designationCode": "C", "categoryCode": "36", "address": "616 3 ST SE", "city": "MEDICINE HAT", "province": "AB", "country": "CA", "postalCode": "T1A0H5", "twitter": "None", "instagram": "None", "facebook": "None", "youtube": "None", "website": "None", "summary": "None", "logo": "None", "latitude": 50.03994978212821, "longitude": -110.67525124132955}, "876799719RR0001": {"name": "Neighbourhood Watch Association of St. Albert", "designationCode": "C", "categoryCode": "59", "address": "96 BELLEROSE DRIVE", "city": "ST ALBERT", "province": "AB", "country": "CA", "postalCode": "T8N7A4", "twitter": "None", "instagram": "None", "facebook": "None", "youtube": "None", "website": "None", "summary": "None", "logo": "None", "latitude": 53.64978022644147, "longitude": -113.61863636115807}, "848555769RR0001": {"name": "Neighbourlink Chatham - Kent", "designationCode": "C", "categoryCode": "09", "address": "PO BOX 1342", "city": "CHATHAM", "province": "ON", "country": "CA", "postalCode": "N7M5L9", "twitter": "None", "instagram": "None", "facebook": "None", "youtube": "None", "website": "None", "summary": "None", "logo": "None", "latitude": 42.404613000000055, "longitude": -82.18960099999994}, "884653528RR0001": {"name": "Neighbourlink Hinton Society", "designationCode": "C", "categoryCode": "49", "address": "106 BRULE ST", "city": "HINTON", "province": "AB", "country": "CA", "postalCode": "T7V1M9", "twitter": "None", "instagram": "None", "facebook": "None", "youtube": "None", "website": "None", "summary": "None", "logo": "None", "latitude": 53.38800544604404, "longitude": -117.60097266902304}, "890128598RR0001": {"name": "Neighbourlink-Northumberland", "designationCode": "C", "categoryCode": "49", "address": "352 BALL ST SUITE 206", "city": "COBOURG", "province": "ON", "country": "CA", "postalCode": "K9A3J2", "twitter": "None", "instagram": "None", "facebook": "None", "youtube": "None", "website": "None", "summary": "None", "logo": "None", "latitude": 43.96107835665641, "longitude": -78.17289012776303}, "849373246RR0001": {"name": "Neighbours Helping Neighbours Society", "designationCode": "C", "categoryCode": "09", "address": "PO BOX 427", "city": "TATAMAGOUCHE", "province": "NS", "country": "CA", "postalCode": "B0K1V0", "twitter": "None", "instagram": "None", "facebook": "None", "youtube": "None", "website": "None", "summary": "None", "logo": "None", "latitude": 45.71288526208159, "longitude": -63.415849046616174}, "892399445RR0001": {"name": "NeighbourLink Sarnia-Lambton", "designationCode": "C", "categoryCode": "49", "address": "BOX 7", "city": "SARNIA", "province": "ON", "country": "CA", "postalCode": "N7T7H8", "twitter": "None", "instagram": "None", "facebook": "None", "youtube": "None", "website": "None", "summary": "None", "logo": "None", "latitude": 42.97877700000005, "longitude": -82.40368399999993}, "800687709RR0001": {"name": "Nejat Church", "designationCode": "C", "categoryCode": "39", "address": "8658 156 STREET", "city": "SURREY", "province": "BC", "country": "CA", "postalCode": "V3S3S1", "twitter": "None", "instagram": "None", "facebook": "None", "youtube": "None", "website": "None", "summary": "None", "logo": "None", "latitude": 49.160187335276134, "longitude": -122.79009148055296}, "739183291RR0001": {"name": "Nelina's Hope", "designationCode": "A", "categoryCode": "13", "address": "6600 EDENWOOD DR", "city": "MISSISSAUGA", "province": "ON", "country": "CA", "postalCode": "L5N3G1", "twitter": "None", "instagram": "None", "facebook": "None", "youtube": "None", "website": "None", "summary": "None", "logo": "None", "latitude": 43.576819481533896, "longitude": -79.75845223524135}, "817792831RR0001": {"name": "Nelles Manor Heritage House", "designationCode": "C", "categoryCode": "50", "address": "126 MAIN STREET WEST", "city": "GRIMSBY", "province": "ON", "country": "CA", "postalCode": "L3M1R8", "twitter": "None", "instagram": "None", "facebook": "None", "youtube": "None", "website": "None", "summary": "None", "logo": "None", "latitude": 43.19312347489747, "longitude": -79.567362}, "811788702RR0001": {"name": "Nelson Civic Theatre Society", "designationCode": "C", "categoryCode": "22", "address": "103-719 VERNON ST", "city": "NELSON", "province": "BC", "country": "CA", "postalCode": "V1L4G3", "twitter": "None", "instagram": "None", "facebook": "None", "youtube": "None", "website": "None", "summary": "None", "logo": "None", "latitude": 49.494052113851914, "longitude": -117.29175080856025}, "828762344RR0001": {"name": "Nelson Food Cupboard Society", "designationCode": "C", "categoryCode": "09", "address": "602 SILICA STREET", "city": "NELSON", "province": "BC", "country": "CA", "postalCode": "V1L4N1", "twitter": "None", "instagram": "None", "facebook": "None", "youtube": "None", "website": "None", "summary": "None", "logo": "None", "latitude": 49.49095232217706, "longitude": -117.29125393724412}, "899846216RR0001": {"name": "Nelson Unitarian Spiritual Centre", "designationCode": "C", "categoryCode": "39", "address": "202 - 520 KOOTENAY ST", "city": "NELSON", "province": "BC", "country": "CA", "postalCode": "V1L5W4", "twitter": "None", "instagram": "None", "facebook": "None", "youtube": "None", "website": "None", "summary": "None", "logo": "None", "latitude": 49.490745035677904, "longitude": -117.2966090233037}, "851681395RR0001": {"name": "Nenan Dane Zaa Deh Zona Family Services Society", "designationCode": "C", "categoryCode": "09", "address": "10615 102 ST", "city": "FORT ST. JOHN", "province": "BC", "country": "CA", "postalCode": "V1J5L3", "twitter": "None", "instagram": "None", "facebook": "None", "youtube": "None", "website": "None", "summary": "None", "logo": "None", "latitude": 56.25258258090486, "longitude": -120.85089253119071}, "742380322RR0001": {"name": "Neo Kids Foundation", "designationCode": "A", "categoryCode": "13", "address": "41 RAMSEY LAKE ROAD,", "city": "SUDBURY", "province": "ON", "country": "CA", "postalCode": "P3E5J1", "twitter": "None", "instagram": "None", "facebook": "None", "youtube": "None", "website": "None", "summary": "None", "logo": "None", "latitude": 46.469380295947126, "longitude": -80.99612071267406}, "825285695RR0001": {"name": "Nepali Children's Education Project", "designationCode": "C", "categoryCode": "21", "address": "55 SUNNYBRAE CRESCENT", "city": "TORONTO", "province": "ON", "country": "CA", "postalCode": "M6M4W6", "twitter": "None", "instagram": "None", "facebook": "None", "youtube": "None", "website": "None", "summary": "None", "logo": "None", "latitude": 43.68872266250219, "longitude": -79.4971869975185}, "833349491RR0001": {"name": "Nepali Heritage Charity Foundation of BC (NHCF)", "designationCode": "C", "categoryCode": "01", "address": "13387 89A AVE", "city": "SURREY", "province": "BC", "country": "CA", "postalCode": "V3V1B4", "twitter": "None", "instagram": "None", "facebook": "None", "youtube": "None", "website": "None", "summary": "None", "logo": "None", "latitude": 49.16547248211083, "longitude": -122.85187110935425}, "876840414RR0001": {"name": "Nesbitt-McMaster Foundation / fondation Nesbitt-McMaster", "designationCode": "B", "categoryCode": "03", "address": "100-400 BRADWICK DR", "city": "CONCORD", "province": "ON", "country": "CA", "postalCode": "L4K5V9", "twitter": "None", "instagram": "None", "facebook": "None", "youtube": "None", "website": "None", "summary": "None", "logo": "None", "latitude": 43.81658548788189, "longitude": -79.48116160796927}, "765913892RR0001": {"name": "Neshama Hospice", "designationCode": "C", "categoryCode": "10", "address": "302-336 SPADINA ROAD", "city": "TORONTO", "province": "ON", "country": "CA", "postalCode": "M5R2V8", "twitter": "None", "instagram": "None", "facebook": "None", "youtube": "None", "website": "None", "summary": "None", "logo": "None", "latitude": 43.683977881758935, "longitude": -79.41092315393249}, "805853918RR0001": {"name": "Neshamah Congregation of York Region", "designationCode": "C", "categoryCode": "42", "address": "68 SEABREEZE AVE", "city": "THORNHILL", "province": "ON", "country": "CA", "postalCode": "L4J8T7", "twitter": "None", "instagram": "None", "facebook": "None", "youtube": "None", "website": "None", "summary": "None", "logo": "None", "latitude": 43.82989113962133, "longitude": -79.46833740397595}, "808104152RR0001": {"name": "Neulsarang Presbyterian Church", "designationCode": "C", "categoryCode": "39", "address": "85 PARKWOODS VILLAGE DR.", "city": "TORONTO", "province": "ON", "country": "CA", "postalCode": "M3A2X9", "twitter": "None", "instagram": "None", "facebook": "None", "youtube": "None", "website": "None", "summary": "None", "logo": "None", "latitude": 43.76112640357193, "longitude": -79.32388067955462}, "802030015RR0001": {"name": "Nev Foundation", "designationCode": "A", "categoryCode": "03", "address": "18 DENISON CRES", "city": "RED DEER", "province": "AB", "country": "CA", "postalCode": "T4R2E9", "twitter": "None", "instagram": "None", "facebook": "None", "youtube": "None", "website": "None", "summary": "None", "logo": "None", "latitude": 52.259909467684125, "longitude": -113.759073}, "849599535RR0001": {"name": "Neveah's Charity of West Lincoln", "designationCode": "C", "categoryCode": "54", "address": "555 HALDIMAND ROAD 17         RR 5", "city": "DUNNVILLE", "province": "ON", "country": "CA", "postalCode": "N1A2W4", "twitter": "None", "instagram": "None", "facebook": "None", "youtube": "None", "website": "None", "summary": "None", "logo": "None", "latitude": 42.92924397180189, "longitude": -79.67820154708322}, "810508473RR0001": {"name": "Never Alone Foundation Inc.", "designationCode": "B", "categoryCode": "13", "address": "P.O. BOX 51064 RPO            TYNDALL PARK", "city": "WINNIPEG", "province": "MB", "country": "CA", "postalCode": "R2X3C6", "twitter": "None", "instagram": "None", "facebook": "None", "youtube": "None", "website": "None", "summary": "None", "logo": "None", "latitude": 49.93509857035637, "longitude": -97.18914229995275}, "816201701RR0001": {"name": "Never Forgotten National Memorial Foundation", "designationCode": "C", "categoryCode": "59", "address": "6 VANSCO ROAD", "city": "TORONTO", "province": "ON", "country": "CA", "postalCode": "M8Z5J4", "twitter": "None", "instagram": "None", "facebook": "None", "youtube": "None", "website": "None", "summary": "None", "logo": "None", "latitude": 43.62023048430388, "longitude": -79.53441376484462}, "849044839RR0001": {"name": "Never Stop Saving Animal Disaster Rescue Transport", "designationCode": "C", "categoryCode": "54", "address": "38 HABITANT CRES.", "city": "WHITBY", "province": "ON", "country": "CA", "postalCode": "L1P1E2", "twitter": "None", "instagram": "None", "facebook": "None", "youtube": "None", "website": "None", "summary": "None", "logo": "None", "latitude": 43.886730719949256, "longitude": -78.96238287249678}, "855783494RR0001": {"name": "Neville Historical Society Inc.", "designationCode": "C", "categoryCode": "50", "address": "PO BOX 149", "city": "NEVILLE", "province": "SK", "country": "CA", "postalCode": "S0N1T0", "twitter": "None", "instagram": "None", "facebook": "None", "youtube": "None", "website": "None", "summary": "None", "logo": "None", "latitude": 49.96169000000003, "longitude": -107.62678999999997}, "862635950RR0001": {"name": "New name: Petitcodiac Watershed Alliance (PWA) Inc. / Alliance du bassin versant Petticodiac (ABVP) Inc.", "designationCode": "C", "categoryCode": "52", "address": "SUITE 405                     236 ST-GEORGE STREET", "city": "MONCTON", "province": "NB", "country": "CA", "postalCode": "E1C1W1", "twitter": "None", "instagram": "None", "facebook": "None", "youtube": "None", "website": "None", "summary": "None", "logo": "None", "latitude": 46.091121853165305, "longitude": -64.7828863956374}, "853173300RR0001": {"name": "New Animal Shelter for Uxbridge-Scugog", "designationCode": "C", "categoryCode": "54", "address": "P.O. BOX 507", "city": "UXBRIDGE", "province": "ON", "country": "CA", "postalCode": "L9P1N1", "twitter": "None", "instagram": "None", "facebook": "None", "youtube": "None", "website": "None", "summary": "None", "logo": "None", "latitude": 44.10619800000005, "longitude": -79.12382299999993}, "805173226RR0001": {"name": "New Awakening of the Church", "designationCode": "C", "categoryCode": "39", "address": "12-1179 FINCH AVE WEST", "city": "TORONTO", "province": "ON", "country": "CA", "postalCode": "M3J2G1", "twitter": "None", "instagram": "None", "facebook": "None", "youtube": "None", "website": "None", "summary": "None", "logo": "None", "latitude": 43.765418814790834, "longitude": -79.48208677751192}, "837991686RR0001": {"name": "New Beginning Church", "designationCode": "C", "categoryCode": "36", "address": "195-928 LAPORTE STEET", "city": "ROCKLAND", "province": "ON", "country": "CA", "postalCode": "K4K1M7", "twitter": "None", "instagram": "None", "facebook": "None", "youtube": "None", "website": "None", "summary": "None", "logo": "None", "latitude": 45.53990047215617, "longitude": -75.30423309977496}, "822311833RR0001": {"name": "New Beginnings Baptist Church of Dawson Creek", "designationCode": "C", "categoryCode": "31", "address": "PO BOX 444", "city": "DAWSON CREEK", "province": "BC", "country": "CA", "postalCode": "V1G4H3", "twitter": "None", "instagram": "None", "facebook": "None", "youtube": "None", "website": "None", "summary": "None", "logo": "None", "latitude": 55.76171100000006, "longitude": -120.23704249999994}, "118903038RR0001": {"name": "New Beginnings Church", "designationCode": "C", "categoryCode": "36", "address": "1073 ST. MARY'S ROAD", "city": "WINNIPEG", "province": "MB", "country": "CA", "postalCode": "R2M3T2", "twitter": "None", "instagram": "None", "facebook": "None", "youtube": "None", "website": "None", "summary": "None", "logo": "None", "latitude": 49.837018568411374, "longitude": -97.11239201327288}, "815662556RR0001": {"name": "New Beginnings Fellowship", "designationCode": "C", "categoryCode": "39", "address": "7775 YONGE ST", "city": "THORNHILL", "province": "ON", "country": "CA", "postalCode": "L3T2C4", "twitter": "None", "instagram": "None", "facebook": "None", "youtube": "None", "website": "None", "summary": "None", "logo": "None"}, "782451322RR0001": {"name": "New Beginnings Fellowship of Fort Frances", "designationCode": "C", "categoryCode": "36", "address": "RR #2 SITE 202-1", "city": "FORT FRANCES", "province": "ON", "country": "CA", "postalCode": "P9A3M3", "twitter": "None", "instagram": "None", "facebook": "None", "youtube": "None", "website": "None", "summary": "None", "logo": "None", "latitude": 48.61109694712831, "longitude": -93.398518750439}, "893149070RR0001": {"name": "New Beginnings, ABI and Stroke Recovery Association", "designationCode": "C", "categoryCode": "11", "address": "9 MAPLE LEAF DRIVE", "city": "CHATHAM", "province": "ON", "country": "CA", "postalCode": "N7M6H2", "twitter": "None", "instagram": "None", "facebook": "None", "youtube": "None", "website": "None", "summary": "None", "logo": "None", "latitude": 42.4036707657969, "longitude": -82.16530317894905}, "820311249RR0001": {"name": "New Bethel", "designationCode": "C", "categoryCode": "39", "address": "174/184 SHORTING ROAD", "city": "SCARBOROUGH", "province": "ON", "country": "CA", "postalCode": "M1S3S7", "twitter": "None", "instagram": "None", "facebook": "None", "youtube": "None", "website": "None", "summary": "None", "logo": "None", "latitude": 43.79605835605553, "longitude": -79.25085610593712}, "855754917RR0001": {"name": "New Birth Tabernacle", "designationCode": "C", "categoryCode": "39", "address": "26-173 ADVANCE BLVD", "city": "BRAMPTON", "province": "ON", "country": "CA", "postalCode": "L6T4Z7", "twitter": "None", "instagram": "None", "facebook": "None", "youtube": "None", "website": "None", "summary": "None", "logo": "None", "latitude": 43.693352782099545, "longitude": -79.69295737670996}, "800677205RR0001": {"name": "New Breed Ministries", "designationCode": "C", "categoryCode": "39", "address": "30 CHADWICK DRIVE", "city": "AJAX", "province": "ON", "country": "CA", "postalCode": "L1S5V3", "twitter": "None", "instagram": "None", "facebook": "None", "youtube": "None", "website": "None", "summary": "None", "logo": "None", "latitude": 43.85661939078999, "longitude": -79.03346895778769}, "847530672RR0001": {"name": "New Brunswick Association of Family Resource Centres Inc.", "designationCode": "C", "categoryCode": "10", "address": "60 VETERANS DR", "city": "FREDERICTON", "province": "NB", "country": "CA", "postalCode": "E3A4C3", "twitter": "None", "instagram": "None", "facebook": "None", "youtube": "None", "website": "None", "summary": "None", "logo": "None", "latitude": 45.97816528117591, "longitude": -66.59756658451151}, "803212737RR0001": {"name": "New Brunswick Aviation Museum, Inc.", "designationCode": "C", "categoryCode": "50", "address": "1753 ROUTE 118", "city": "DOYLE'S BROOK", "province": "NB", "country": "CA", "postalCode": "E9E2H8", "twitter": "None", "instagram": "None", "facebook": "None", "youtube": "None", "website": "None", "summary": "None", "logo": "None", "latitude": 46.82924200698874, "longitude": -65.76490211925133}, "862377801RR0001": {"name": "New Brunswick Breast and Women's Cancer Partnership Inc./Le partenariat du cancer du sein et des cancers f\u00e9minins du Nouveau Brunswick inc.", "designationCode": "C", "categoryCode": "11", "address": "30 HAMILTON COURT", "city": "RIVERVIEW", "province": "NB", "country": "CA", "postalCode": "E1B3C3", "twitter": "None", "instagram": "None", "facebook": "None", "youtube": "None", "website": "None", "summary": "None", "logo": "None", "latitude": 46.05484121896831, "longitude": -64.82203882344648}, "119288918RR1170": {"name": "New Brunswick Circuit 1A of Jehovah's Witnesses", "designationCode": "C", "categoryCode": "61", "address": "88 MAXWELL CROSSING ROAD", "city": "OLD RIDGE", "province": "NB", "country": "CA", "postalCode": "E3L4V7", "twitter": "None", "instagram": "None", "facebook": "None", "youtube": "None", "website": "None", "summary": "None", "logo": "None", "latitude": 45.24340792972703, "longitude": -67.27460138655421}, "119288918RR0887": {"name": "New Brunswick Circuit 1B of Jehovah's Witnesses", "designationCode": "C", "categoryCode": "61", "address": "18 HOLLYWOOD DRIVE", "city": "MONCTON", "province": "NB", "country": "CA", "postalCode": "E1E2R5", "twitter": "None", "instagram": "None", "facebook": "None", "youtube": "None", "website": "None", "summary": "None", "logo": "None", "latitude": 46.07720005744709, "longitude": -64.81394325064903}, "890651102RR0001": {"name": "New Brunswick Hospice Palliative Care Association Inc.", "designationCode": "C", "categoryCode": "19", "address": "302F - 1015 REGENT ST", "city": "FREDERICTON", "province": "NB", "country": "CA", "postalCode": "E3B6H5", "twitter": "None", "instagram": "None", "facebook": "None", "youtube": "None", "website": "None", "summary": "None", "logo": "None", "latitude": 45.94937599670604, "longitude": -66.64886796747462}, "813341716RR0001": {"name": "New Brunswick International Sculpture Symposium Inc.", "designationCode": "C", "categoryCode": "22", "address": "PO BOX 20090                  39 KING STREET", "city": "SAINT JOHN", "province": "NB", "country": "CA", "postalCode": "E2L5B2", "twitter": "None", "instagram": "None", "facebook": "None", "youtube": "None", "website": "None", "summary": "None", "logo": "None", "latitude": 45.27306328893755, "longitude": -66.06129501471517}, "810513523RR0001": {"name": "New Brunswick Medical Education Foundation Inc.", "designationCode": "C", "categoryCode": "21", "address": "POST OFFICE BOX 22061", "city": "SAINT JOHN", "province": "NB", "country": "CA", "postalCode": "E2K4T7", "twitter": "None", "instagram": "None", "facebook": "None", "youtube": "None", "website": "None", "summary": "None", "logo": "None", "latitude": 45.27342600000006, "longitude": -66.06407149999993}, "774210322RR0001": {"name": "New Brunswick Refugee Clinic Inc. / Clinique de r\u00e9fugi\u00e9s du Nouveau-Brunswick Inc.", "designationCode": "C", "categoryCode": "09", "address": "204 - 327 ST GEORGE ST", "city": "MONCTON", "province": "NB", "country": "CA", "postalCode": "E1C1W8", "twitter": "None", "instagram": "None", "facebook": "None", "youtube": "None", "website": "None", "summary": "None", "logo": "None", "latitude": 46.090309380099434, "longitude": -64.78686095792132}, "719383523RR0001": {"name": "New Brunswick Refugee Foundation Inc. / Fondation des r\u00e9fuge\u00e9s du Nouveau-Brunswick INc.", "designationCode": "A", "categoryCode": "03", "address": "4 - 327 ST GEORGE ST", "city": "MONCTON", "province": "NB", "country": "CA", "postalCode": "E1C1W8", "twitter": "None", "instagram": "None", "facebook": "None", "youtube": "None", "website": "None", "summary": "None", "logo": "None", "latitude": 46.090309380099434, "longitude": -64.78686095792132}, "819240946RR0001": {"name": "New Care I.O.O.F. Seniors Home", "designationCode": "C", "categoryCode": "59", "address": "20 BROOKS STREET", "city": "BARRIE", "province": "ON", "country": "CA", "postalCode": "L4N7X2", "twitter": "None", "instagram": "None", "facebook": "None", "youtube": "None", "website": "None", "summary": "None", "logo": "None", "latitude": 44.368626056927475, "longitude": -79.68698257366282}, "836343673RR0001": {"name": "New Circles Community Services", "designationCode": "C", "categoryCode": "09", "address": "161 BARTLEY DR", "city": "NORTH YORK", "province": "ON", "country": "CA", "postalCode": "M4A1E6", "twitter": "None", "instagram": "None", "facebook": "None", "youtube": "None", "website": "None", "summary": "None", "logo": "None", "latitude": 43.721739252553625, "longitude": -79.31037779265978}, "849741715RR0001": {"name": "New City Baptist Church", "designationCode": "C", "categoryCode": "31", "address": "PH6-120 WIDDICOMBE HILL BLVD", "city": "ETOBICOKE", "province": "ON", "country": "CA", "postalCode": "M9R4A6", "twitter": "None", "instagram": "None", "facebook": "None", "youtube": "None", "website": "None", "summary": "None", "logo": "None", "latitude": 43.676489116567616, "longitude": -79.5581254632407}, "806257416RR0001": {"name": "New City Church", "designationCode": "C", "categoryCode": "39", "address": "28 REBECCA ST", "city": "HAMILTON", "province": "ON", "country": "CA", "postalCode": "L8R1B4", "twitter": "None", "instagram": "None", "facebook": "None", "youtube": "None", "website": "None", "summary": "None", "logo": "None", "latitude": 43.25805936718798, "longitude": -79.86723089884005}, "803048289RR0001": {"name": "New City Church Newmarket", "designationCode": "C", "categoryCode": "39", "address": "242 PLYMOUTH TRAIL", "city": "NEWMARKET", "province": "ON", "country": "CA", "postalCode": "L3Y6G7", "twitter": "None", "instagram": "None", "facebook": "None", "youtube": "None", "website": "None", "summary": "None", "logo": "None", "latitude": 44.06528186759202, "longitude": -79.47339670967749}, "745069724RR0001": {"name": "New City Church Toronto", "designationCode": "C", "categoryCode": "39", "address": "19 CRAFTSMAN LANE,", "city": "TORONTO", "province": "ON", "country": "CA", "postalCode": "M6H4J5", "twitter": "None", "instagram": "None", "facebook": "None", "youtube": "None", "website": "None", "summary": "None", "logo": "None", "latitude": 43.66839471135091, "longitude": -79.43682224868714}, "840137848RR0001": {"name": "New Community Global Ministries", "designationCode": "C", "categoryCode": "39", "address": "52-6060 SNOWY OWL CRESCENT", "city": "MISSISSAUGA", "province": "ON", "country": "CA", "postalCode": "L5N7K3", "twitter": "None", "instagram": "None", "facebook": "None", "youtube": "None", "website": "None", "summary": "None", "logo": "None", "latitude": 43.556410751572656, "longitude": -79.76009603361396}, "889531844RR0001": {"name": "New Cornwall Baptist Church", "designationCode": "C", "categoryCode": "31", "address": "RR 3", "city": "MAHONE BAY", "province": "NS", "country": "CA", "postalCode": "B0J2E0", "twitter": "None", "instagram": "None", "facebook": "None", "youtube": "None", "website": "None", "summary": "None", "logo": "None", "latitude": 44.5107664683721, "longitude": -64.5603343504879}, "814425609RR0001": {"name": "New Covenant Abundant Life Christian Family Ministries Seventh Day International", "designationCode": "C", "categoryCode": "39", "address": "10 NEWINGTON CRESCENT", "city": "BRAMPTON", "province": "ON", "country": "CA", "postalCode": "L6P3G3", "twitter": "None", "instagram": "None", "facebook": "None", "youtube": "None", "website": "None", "summary": "None", "logo": "None", "latitude": 43.790441342229705, "longitude": -79.68378160271781}, "784950289RR0001": {"name": "New Covenant Alliance Church of The Christian and MissionaryAlliance in Canada", "designationCode": "C", "categoryCode": "39", "address": "3851 54 AVE NE", "city": "CALGARY", "province": "AB", "country": "CA", "postalCode": "T3J3W5", "twitter": "None", "instagram": "None", "facebook": "None", "youtube": "None", "website": "None", "summary": "None", "logo": "None", "latitude": 51.102280542847495, "longitude": -113.97829436081135}, "801183567RR0001": {"name": "New Covenant Christian Church", "designationCode": "C", "categoryCode": "39", "address": "500 CENTRAL AVENUE", "city": "FORT ERIE", "province": "ON", "country": "CA", "postalCode": "L2A3V1", "twitter": "None", "instagram": "None", "facebook": "None", "youtube": "None", "website": "None", "summary": "None", "logo": "None", "latitude": 42.9260871498747, "longitude": -78.91870605559312}, "805140555RR0001": {"name": "New Covenant Church of Toronto", "designationCode": "C", "categoryCode": "39", "address": "2 TERME AVE.", "city": "VAUGHAN", "province": "ON", "country": "CA", "postalCode": "L4H0M9", "twitter": "None", "instagram": "None", "facebook": "None", "youtube": "None", "website": "None", "summary": "None", "logo": "None", "latitude": 43.83392467055225, "longitude": -79.57202959827441}, "805101920RR0001": {"name": "New Covenant Church of Winnipeg Inc.", "designationCode": "C", "categoryCode": "39", "address": "114 - 70 BAYLOR AVE", "city": "WINNIPEG", "province": "MB", "country": "CA", "postalCode": "R3T3K1", "twitter": "None", "instagram": "None", "facebook": "None", "youtube": "None", "website": "None", "summary": "None", "logo": "None", "latitude": 49.78662944214888, "longitude": -97.15354414224707}, "808688451RR0001": {"name": "New Covenant Fellowship Inc.", "designationCode": "C", "categoryCode": "39", "address": "713 LALONDE ST                PO BOX 64", "city": "WHITEWOOD", "province": "SK", "country": "CA", "postalCode": "S0G5C0", "twitter": "None", "instagram": "None", "facebook": "None", "youtube": "None", "website": "None", "summary": "None", "logo": "None", "latitude": 50.33011843841361, "longitude": -102.26670355348723}, "828062505RR0001": {"name": "New Creation Church Inc.", "designationCode": "C", "categoryCode": "39", "address": "47 MANSARD CLOSE", "city": "WINNIPEG", "province": "MB", "country": "CA", "postalCode": "R2P0C4", "twitter": "None", "instagram": "None", "facebook": "None", "youtube": "None", "website": "None", "summary": "None", "logo": "None", "latitude": 49.94653619565478, "longitude": -97.16547943548379}, "816424923RR0001": {"name": "New Creation Church, Christian Fellowship", "designationCode": "C", "categoryCode": "39", "address": "1430 49TH E AVE", "city": "VANCOUVER", "province": "BC", "country": "CA", "postalCode": "V5P1S3", "twitter": "None", "instagram": "None", "facebook": "None", "youtube": "None", "website": "None", "summary": "None", "logo": "None", "latitude": 49.22526654674263, "longitude": -123.07662440700571}, "805583838RR0001": {"name": "New Creation House Ministry Church", "designationCode": "C", "categoryCode": "39", "address": "15810 98 AVE", "city": "SURREY", "province": "BC", "country": "CA", "postalCode": "V4N2V3", "twitter": "None", "instagram": "None", "facebook": "None", "youtube": "None", "website": "None", "summary": "None", "logo": "None", "latitude": 49.18058849235397, "longitude": -122.78444391618098}, "107497950RR0001": {"name": "New Creation Hungarian Church", "designationCode": "C", "categoryCode": "39", "address": "51 SCARLETT RD.", "city": "TORONTO", "province": "ON", "country": "CA", "postalCode": "M6N4J8", "twitter": "None", "instagram": "None", "facebook": "None", "youtube": "None", "website": "None", "summary": "None", "logo": "None", "latitude": 43.66756517014824, "longitude": -79.50001881568485}, "839628096RR0001": {"name": "New Creation Reformed Presbyterian Church", "designationCode": "C", "categoryCode": "39", "address": "154 MARTINGLEN CRESCENT", "city": "KITCHENER", "province": "ON", "country": "CA", "postalCode": "N2E2A1", "twitter": "None", "instagram": "None", "facebook": "None", "youtube": "None", "website": "None", "summary": "None", "logo": "None", "latitude": 43.41066871106247, "longitude": -80.4656567714524}, "843795477RR0001": {"name": "New Day in the Peace Ministries", "designationCode": "C", "categoryCode": "57", "address": "RURAL ROUTE 1, SITE 5         COMP 22, STATION MAIN", "city": "FORT ST JOHN", "province": "BC", "country": "CA", "postalCode": "V1J4M6", "twitter": "None", "instagram": "None", "facebook": "None", "youtube": "None", "website": "None", "summary": "None", "logo": "None", "latitude": 56.25253500000005, "longitude": -120.84748099999993}, "891281982RR0001": {"name": "New Destiny Church of Edmonton", "designationCode": "C", "categoryCode": "39", "address": "PO BOX 324  MAIN POST OFFICE", "city": "EDMONTON", "province": "AB", "country": "CA", "postalCode": "T5J2J6", "twitter": "None", "instagram": "None", "facebook": "None", "youtube": "None", "website": "None", "summary": "None", "logo": "None", "latitude": 53.54623500000005, "longitude": -113.49037249999994}, "786792127RR0001": {"name": "New Directions Ministries of Trout Lake", "designationCode": "C", "categoryCode": "39", "address": "PO BOX 65", "city": "TROUT LAKE", "province": "AB", "country": "CA", "postalCode": "T0G2N0", "twitter": "None", "instagram": "None", "facebook": "None", "youtube": "None", "website": "None", "summary": "None", "logo": "None", "latitude": 56.49720000000008, "longitude": -114.55625999999995}, "757493291RR0001": {"name": "New Dream Foundation", "designationCode": "B", "categoryCode": "21", "address": "69 STEPPINGSTONE TRAIL", "city": "SCARBOROUGH", "province": "ON", "country": "CA", "postalCode": "M1X2B5", "twitter": "None", "instagram": "None", "facebook": "None", "youtube": "None", "website": "None", "summary": "None", "logo": "None", "latitude": 43.83660959285007, "longitude": -79.22836233625706}}