{"873236731RR0001": {"name": "THE PARISH OF ST. MARGARET", "designationCode": "C", "categoryCode": "39", "address": "1530 EAST 22ND AVENUE", "city": "VANCOUVER", "province": "BC", "country": "CA", "postalCode": "V5N2P1", "twitter": "None", "instagram": "None", "facebook": "None", "youtube": "None", "website": "None", "summary": "None", "logo": "None", "latitude": 49.250375488458815, "longitude": -123.07284330544174}, "119110450RR0043": {"name": "THE PARISH OF ST. PAUL THE APOSTLE", "designationCode": "C", "categoryCode": "38", "address": "2265 HEADON ROAD", "city": "BURLINGTON", "province": "ON", "country": "CA", "postalCode": "L7M4E2", "twitter": "None", "instagram": "None", "facebook": "None", "youtube": "None", "website": "None", "summary": "None", "logo": "None", "latitude": 43.381538359166576, "longitude": -79.8201435356341}, "119079531RR0001": {"name": "THE PARISH OF ST. PAUL, VANCOUVER", "designationCode": "C", "categoryCode": "30", "address": "1130 JERVIS ST", "city": "VANCOUVER", "province": "BC", "country": "CA", "postalCode": "V6E2C7", "twitter": "None", "instagram": "None", "facebook": "None", "youtube": "None", "website": "None", "summary": "None", "logo": "None", "latitude": 49.283277580616385, "longitude": -123.13412745002607}, "108084658RR0094": {"name": "THE PARISH OF ST. PAUL'S COMBERMERE", "designationCode": "C", "categoryCode": "30", "address": "PO BOX 1141", "city": "BARRYS BAY", "province": "ON", "country": "CA", "postalCode": "K0J1B0", "twitter": "None", "instagram": "None", "facebook": "None", "youtube": "None", "website": "None", "summary": "None", "logo": "None", "latitude": 45.488410000000044, "longitude": -77.67828999999995}, "119079671RR0001": {"name": "THE PARISH OF ST. PHILIP'S VANCOUVER", "designationCode": "C", "categoryCode": "30", "address": "3737 WEST 27TH AVENUE", "city": "VANCOUVER", "province": "BC", "country": "CA", "postalCode": "V6S1R2", "twitter": "None", "instagram": "None", "facebook": "None", "youtube": "None", "website": "None", "summary": "None", "logo": "None", "latitude": 49.248131467684104, "longitude": -123.18747177407812}, "860778737RR0001": {"name": "THE PARISH OF ST. STEPHEN", "designationCode": "C", "categoryCode": "39", "address": "P.O. BOX 221                  1148, HIGHWAY 141", "city": "ROSSEAU", "province": "ON", "country": "CA", "postalCode": "P0C1J0", "twitter": "None", "instagram": "None", "facebook": "None", "youtube": "None", "website": "None", "summary": "None", "logo": "None", "latitude": 45.25653101007673, "longitude": -79.63965223176461}, "108084658RR0041": {"name": "THE PARISH OF STITTSVILLE, (ST. THOMAS)", "designationCode": "C", "categoryCode": "30", "address": "1619 MAIN STREET P.O.BOX 1064", "city": "STITTSVILLE", "province": "ON", "country": "CA", "postalCode": "K2S1B2", "twitter": "None", "instagram": "None", "facebook": "None", "youtube": "None", "website": "None", "summary": "None", "logo": "None", "latitude": 45.264669000000055, "longitude": -75.92809399999993}, "141014787RR0001": {"name": "THE PARISH OF STONEY LAKE", "designationCode": "C", "categoryCode": "30", "address": "PO BOX 177", "city": "BUCKHORN", "province": "ON", "country": "CA", "postalCode": "K0L1J0", "twitter": "None", "instagram": "None", "facebook": "None", "youtube": "None", "website": "None", "summary": "None", "logo": "None", "latitude": 44.48705137608182, "longitude": -78.32754554956726}, "119250116RR0001": {"name": "THE PARISH OF TEMISCAMING HOLY TRINITY", "designationCode": "C", "categoryCode": "30", "address": "BOX 220", "city": "TEMISCAMING", "province": "QC", "country": "CA", "postalCode": "J0Z3R0", "twitter": "None", "instagram": "None", "facebook": "None", "youtube": "None", "website": "None", "summary": "None", "logo": "None", "latitude": 46.74185700000005, "longitude": -79.06862149999994}, "889927646RR0002": {"name": "THE PARISH OF THE CHURCH OF THE ASCENSION", "designationCode": "C", "categoryCode": "30", "address": "P O BOX 10", "city": "BARRINGTON", "province": "NS", "country": "CA", "postalCode": "B0W1E0", "twitter": "None", "instagram": "None", "facebook": "None", "youtube": "None", "website": "None", "summary": "None", "logo": "None", "latitude": 44.107428523541074, "longitude": -66.06027088088527}, "132931759RR0002": {"name": "THE PARISH OF THE CHURCH OF THE GOOD SHEPHERD, BEAVER BANK", "designationCode": "C", "categoryCode": "30", "address": "28 TRINITY LANE", "city": "BEAVER BANK", "province": "NS", "country": "CA", "postalCode": "B4G1C1", "twitter": "None", "instagram": "None", "facebook": "None", "youtube": "None", "website": "None", "summary": "None", "logo": "None", "latitude": 44.8252674826591, "longitude": -63.67871635697353}, "132121856RR0001": {"name": "THE PARISH OF THE CREE PEOPLE", "designationCode": "C", "categoryCode": "30", "address": "BOX 281", "city": "PUNNICHY", "province": "SK", "country": "CA", "postalCode": "S0A3C0", "twitter": "None", "instagram": "None", "facebook": "None", "youtube": "None", "website": "None", "summary": "None", "logo": "None", "latitude": 51.38337000000007, "longitude": -104.30108999999999}, "107977241RR0001": {"name": "THE PARK PENTECOSTAL CHURCH OF SHERWOOD PARK", "designationCode": "C", "categoryCode": "36", "address": "1 BROWER DR", "city": "SHERWOOD PARK", "province": "AB", "country": "CA", "postalCode": "T8H1Y7", "twitter": "None", "instagram": "None", "facebook": "None", "youtube": "None", "website": "None", "summary": "None", "logo": "None", "latitude": 53.54264632944776, "longitude": -113.28675727402081}, "119250173RR0001": {"name": "THE PARK VALLEY LOCAL CHURCH", "designationCode": "C", "categoryCode": "39", "address": "BOX 593", "city": "DEBDEN", "province": "SK", "country": "CA", "postalCode": "S0J0S0", "twitter": "None", "instagram": "None", "facebook": "None", "youtube": "None", "website": "None", "summary": "None", "logo": "None", "latitude": 53.516800000000046, "longitude": -106.88443999999998}, "119250181RR0001": {"name": "THE PARKWOOD FOUNDATION", "designationCode": "C", "categoryCode": "52", "address": "270 SIMCOE STREET NORTH", "city": "OSHAWA", "province": "ON", "country": "CA", "postalCode": "L1G4T5", "twitter": "None", "instagram": "None", "facebook": "None", "youtube": "None", "website": "None", "summary": "None", "logo": "None", "latitude": 43.904612714669135, "longitude": -78.8667871055451}, "867527947RR0001": {"name": "THE PARTICIPATE COMMUNITY ARTS PROGRAM", "designationCode": "C", "categoryCode": "22", "address": "POST OFFICE BOX 46            GD", "city": "LORING", "province": "ON", "country": "CA", "postalCode": "P0H1S0", "twitter": "None", "instagram": "None", "facebook": "None", "youtube": "None", "website": "None", "summary": "None", "logo": "None", "latitude": 45.93285000000003, "longitude": -79.99535999999995}, "119250199RR0001": {"name": "THE PARTICIPATION HOUSE PROJECT (DURHAM REGION)", "designationCode": "C", "categoryCode": "01", "address": "55 GORDON STREET              SUITE 1 EAST ADMIN TOWER", "city": "WHITBY", "province": "ON", "country": "CA", "postalCode": "L1N0J2", "twitter": "None", "instagram": "None", "facebook": "None", "youtube": "None", "website": "None", "summary": "None", "logo": "None", "latitude": 43.86260400000006, "longitude": -78.94538899999993}, "120717129RR0001": {"name": "THE PAS ACTION CENTER INC.", "designationCode": "C", "categoryCode": "09", "address": "P.O. BOX 4285", "city": "THE PAS", "province": "MB", "country": "CA", "postalCode": "R9A1R2", "twitter": "None", "instagram": "None", "facebook": "None", "youtube": "None", "website": "None", "summary": "None", "logo": "None", "latitude": 53.81342700000006, "longitude": -101.25038149999993}, "108077090RR0001": {"name": "THE PAS ALLIANCE CHURCH", "designationCode": "C", "categoryCode": "39", "address": "PO BOX 385", "city": "THE PAS", "province": "MB", "country": "CA", "postalCode": "R9A1K5", "twitter": "None", "instagram": "None", "facebook": "None", "youtube": "None", "website": "None", "summary": "None", "logo": "None", "latitude": 53.81342700000006, "longitude": -101.25038149999993}, "119250223RR0001": {"name": "THE PAS ARTS COUNCIL INC", "designationCode": "C", "categoryCode": "22", "address": "BOX 1409", "city": "THE PAS", "province": "MB", "country": "CA", "postalCode": "R9A1L2", "twitter": "None", "instagram": "None", "facebook": "None", "youtube": "None", "website": "None", "summary": "None", "logo": "None", "latitude": 53.81342700000006, "longitude": -101.25038149999993}, "119250231RR0001": {"name": "THE PAS ASSOCIATION FOR HUMAN DEVELOPMENT INC", "designationCode": "C", "categoryCode": "11", "address": "PO BOX 32  STN MAIN", "city": "THE PAS", "province": "MB", "country": "CA", "postalCode": "R9A1K3", "twitter": "None", "instagram": "None", "facebook": "None", "youtube": "None", "website": "None", "summary": "None", "logo": "None", "latitude": 53.81342700000006, "longitude": -101.25038149999993}, "887988558RR0001": {"name": "THE PAS CHILDREN IN CRISIS FUND INC.", "designationCode": "C", "categoryCode": "09", "address": "PO BOX 1365 STN MAIN", "city": "THE PAS", "province": "MB", "country": "CA", "postalCode": "R9A1L3", "twitter": "None", "instagram": "None", "facebook": "None", "youtube": "None", "website": "None", "summary": "None", "logo": "None", "latitude": 53.81342700000006, "longitude": -101.25038149999993}, "107443400RR0001": {"name": "THE PAS CHRISTIAN FELLOWSHIP", "designationCode": "C", "categoryCode": "36", "address": "BOX 4030", "city": "THE PAS", "province": "MB", "country": "CA", "postalCode": "R9A1S5", "twitter": "None", "instagram": "None", "facebook": "None", "youtube": "None", "website": "None", "summary": "None", "logo": "None", "latitude": 53.81342700000006, "longitude": -101.25038149999993}, "119250264RR0001": {"name": "THE PAS COMMITTEE FOR WOMEN IN CRISIS, INC", "designationCode": "C", "categoryCode": "09", "address": "PO BOX 3779  STN MAIN", "city": "THE PAS", "province": "MB", "country": "CA", "postalCode": "R9A1S4", "twitter": "None", "instagram": "None", "facebook": "None", "youtube": "None", "website": "None", "summary": "None", "logo": "None", "latitude": 53.81342700000006, "longitude": -101.25038149999993}, "897068854RR0001": {"name": "THE PAS FAMILY RESOURCE CENTRE INC.", "designationCode": "C", "categoryCode": "09", "address": "PO BOX 97 -", "city": "THE PAS", "province": "MB", "country": "CA", "postalCode": "R9A1K3", "twitter": "None", "instagram": "None", "facebook": "None", "youtube": "None", "website": "None", "summary": "None", "logo": "None", "latitude": 53.81342700000006, "longitude": -101.25038149999993}, "122471162RR0001": {"name": "THE PAS FRIENDSHIP CENTRE", "designationCode": "C", "categoryCode": "56", "address": "PO BOX 2638", "city": "THE PAS", "province": "MB", "country": "CA", "postalCode": "R9A1M3", "twitter": "None", "instagram": "None", "facebook": "None", "youtube": "None", "website": "None", "summary": "None", "logo": "None", "latitude": 53.81342700000006, "longitude": -101.25038149999993}, "896965902RR0001": {"name": "THE PAS GOLDEN AGE GROUP INCORPORATED", "designationCode": "C", "categoryCode": "56", "address": "PO BOX 1138", "city": "THE PAS", "province": "MB", "country": "CA", "postalCode": "R9A1L1", "twitter": "None", "instagram": "None", "facebook": "None", "youtube": "None", "website": "None", "summary": "None", "logo": "None", "latitude": 53.81342700000006, "longitude": -101.25038149999993}, "119250280RR0001": {"name": "THE PAS HANDI-VAN INC", "designationCode": "C", "categoryCode": "09", "address": "BOX 3028", "city": "THE PAS", "province": "MB", "country": "CA", "postalCode": "R9A1R7", "twitter": "None", "instagram": "None", "facebook": "None", "youtube": "None", "website": "None", "summary": "None", "logo": "None", "latitude": 53.81342700000006, "longitude": -101.25038149999993}, "882208184RR0001": {"name": "THE PAS HEALTH COMPLEX FOUNDATION, INC.", "designationCode": "A", "categoryCode": "13", "address": "PO BOX 541", "city": "THE PAS", "province": "MB", "country": "CA", "postalCode": "R9A1K6", "twitter": "None", "instagram": "None", "facebook": "None", "youtube": "None", "website": "None", "summary": "None", "logo": "None", "latitude": 53.81342700000006, "longitude": -101.25038149999993}, "119288918RR0142": {"name": "THE PAS MANITOBA CONGREGATION OF JEHOVAH'S WITNESSES", "designationCode": "C", "categoryCode": "61", "address": "BOX 607", "city": "THE PAS", "province": "MB", "country": "CA", "postalCode": "R9A1K7", "twitter": "None", "instagram": "None", "facebook": "None", "youtube": "None", "website": "None", "summary": "None", "logo": "None", "latitude": 53.81342700000006, "longitude": -101.25038149999993}, "119250330RR0001": {"name": "THE PAS MUSIC AND FINE ARTS FESTIVAL", "designationCode": "C", "categoryCode": "22", "address": "PO BOX 3434", "city": "THE PAS", "province": "MB", "country": "CA", "postalCode": "R9A1S2", "twitter": "None", "instagram": "None", "facebook": "None", "youtube": "None", "website": "None", "summary": "None", "logo": "None", "latitude": 53.81342700000006, "longitude": -101.25038149999993}, "105240170RR0001": {"name": "THE PAS PRE SCHOOL ACTIVITY CENTRE INC.", "designationCode": "C", "categoryCode": "20", "address": "PO BOX 2397 STN MAIN", "city": "THE PAS", "province": "MB", "country": "CA", "postalCode": "R9A1M2", "twitter": "None", "instagram": "None", "facebook": "None", "youtube": "None", "website": "None", "summary": "None", "logo": "None", "latitude": 53.81342700000006, "longitude": -101.25038149999993}, "129915203RR0001": {"name": "THE PAS REGIONAL LIBRARY", "designationCode": "C", "categoryCode": "50", "address": "BOX 4100", "city": "THE PAS", "province": "MB", "country": "CA", "postalCode": "R9A1R2", "twitter": "None", "instagram": "None", "facebook": "None", "youtube": "None", "website": "None", "summary": "None", "logo": "None", "latitude": 53.81342700000006, "longitude": -101.25038149999993}, "888743945RR0001": {"name": "THE PASSION OF CHRIST (CANORA) GROUP", "designationCode": "C", "categoryCode": "47", "address": "P.O. BOX 875", "city": "CANORA", "province": "SK", "country": "CA", "postalCode": "S0A0L0", "twitter": "None", "instagram": "None", "facebook": "None", "youtube": "None", "website": "None", "summary": "None", "logo": "None", "latitude": 51.62535661313478, "longitude": -102.4443087080291}, "119250355RR0001": {"name": "THE PASSIONIST COMMUNITY OF CANADA", "designationCode": "C", "categoryCode": "46", "address": "670 SHEPPARD AVE EAST", "city": "WILLOWDALE", "province": "ON", "country": "CA", "postalCode": "M2K1B7", "twitter": "None", "instagram": "None", "facebook": "None", "youtube": "None", "website": "None", "summary": "None", "logo": "None", "latitude": 43.7683871830448, "longitude": -79.38061593456014}, "119145043RR0001": {"name": "THE PATERSON FOUNDATION", "designationCode": "B", "categoryCode": "03", "address": "1918 YONGE ST", "city": "THUNDER BAY", "province": "ON", "country": "CA", "postalCode": "P7E6T9", "twitter": "None", "instagram": "None", "facebook": "None", "youtube": "None", "website": "None", "summary": "None", "logo": "None", "latitude": 48.35995199999999, "longitude": -89.2876686727453}, "119250439RR0001": {"name": "THE PATH OF LIFE", "designationCode": "C", "categoryCode": "47", "address": "1795 STONEY ISLAND ROAD", "city": "SHELBURNE CO.", "province": "NS", "country": "CA", "postalCode": "B0W3J0", "twitter": "None", "instagram": "None", "facebook": "None", "youtube": "None", "website": "None", "summary": "None", "logo": "None", "latitude": 43.473632648883516, "longitude": -65.58972467069648}, "891496242RR0001": {"name": "THE PATHFINDER FOUNDATION", "designationCode": "B", "categoryCode": "03", "address": "20 TINY BEACHES RD. N.", "city": "TINY", "province": "ON", "country": "CA", "postalCode": "L0L2J0", "twitter": "None", "instagram": "None", "facebook": "None", "youtube": "None", "website": "None", "summary": "None", "logo": "None", "latitude": 44.694069151249444, "longitude": -80.00029067877523}, "871959847RR0001": {"name": "THE PATRICIA MCAULIFFE EDUCATIONAL ORGANIZATION", "designationCode": "C", "categoryCode": "20", "address": "90 BOWOOD AVENUE", "city": "TORONTO", "province": "ON", "country": "CA", "postalCode": "M4N1Y5", "twitter": "None", "instagram": "None", "facebook": "None", "youtube": "None", "website": "None", "summary": "None", "logo": "None", "latitude": 43.72919922344038, "longitude": -79.40008514960466}, "816634943RR0001": {"name": "THE PATRICK AND FREDA HART GREEN FOUNDATION", "designationCode": "B", "categoryCode": "03", "address": "380 WELLINGTON STREET         12TH FLOOR", "city": "LONDON", "province": "ON", "country": "CA", "postalCode": "N6A5B5", "twitter": "None", "instagram": "None", "facebook": "None", "youtube": "None", "website": "None", "summary": "None", "logo": "None", "latitude": 42.98403487844074, "longitude": -81.24475227780037}, "872692496RR0001": {"name": "THE PATRICK HODGSON FAMILY FOUNDATION", "designationCode": "B", "categoryCode": "03", "address": "233 HYMAN ST", "city": "LONDON", "province": "ON", "country": "CA", "postalCode": "N6A1N6", "twitter": "None", "instagram": "None", "facebook": "None", "youtube": "None", "website": "None", "summary": "None", "logo": "None", "latitude": 42.99154107908718, "longitude": -81.25038589410819}, "892673047RR0001": {"name": "THE PATTERSON SETTLEMENT HISTORICAL SOCIETY INC", "designationCode": "C", "categoryCode": "50", "address": "6051 ROUTE 101", "city": "HOYT", "province": "NB", "country": "CA", "postalCode": "E5L1Z5", "twitter": "None", "instagram": "None", "facebook": "None", "youtube": "None", "website": "None", "summary": "None", "logo": "None", "latitude": 45.58813880988217, "longitude": -66.55381306506631}, "133832345RR0001": {"name": "THE PAUKTUUTIT CHARITABLE TRUST", "designationCode": "C", "categoryCode": "09", "address": "1 NICHOLAS STREET             SUITE #520", "city": "OTTAWA", "province": "ON", "country": "CA", "postalCode": "K1N7B7", "twitter": "None", "instagram": "None", "facebook": "None", "youtube": "None", "website": "None", "summary": "None", "logo": "None", "latitude": 45.42648117597662, "longitude": -75.69036778544643}, "866644719RR0001": {"name": "THE PAUL ALBRECHTSEN FOUNDATION INC.", "designationCode": "B", "categoryCode": "03", "address": "250 OAK POINT HIGHWAY", "city": "WINNIPEG", "province": "MB", "country": "CA", "postalCode": "R2R1V1", "twitter": "None", "instagram": "None", "facebook": "None", "youtube": "None", "website": "None", "summary": "None", "logo": "None", "latitude": 49.933592814559674, "longitude": -97.2171365880313}, "867370793RR0001": {"name": "THE PAUL AND LEA REICHMANN FOUNDATION", "designationCode": "B", "categoryCode": "03", "address": "22 ST. CLAIR AVENUE EAST      SUITE 1200", "city": "TORONTO", "province": "ON", "country": "CA", "postalCode": "M4T2S3", "twitter": "None", "instagram": "None", "facebook": "None", "youtube": "None", "website": "None", "summary": "None", "logo": "None", "latitude": 43.688336132408, "longitude": -79.39301839967676}, "887955649RR0001": {"name": "THE PAUL MULVIHILL CHARITABLE FOUNDATION", "designationCode": "A", "categoryCode": "03", "address": "55 ST.CLAIR AVE W.,SUITE 403", "city": "TORONTO", "province": "ON", "country": "CA", "postalCode": "M4V2Y7", "twitter": "None", "instagram": "None", "facebook": "None", "youtube": "None", "website": "None", "summary": "None", "logo": "None", "latitude": 43.68741483484344, "longitude": -79.39685706327546}, "867364705RR0001": {"name": "THE PAUL MYERS FAMILY FOUNDATION", "designationCode": "B", "categoryCode": "03", "address": "2900-550 BURRARD STREET", "city": "VANCOUVER", "province": "BC", "country": "CA", "postalCode": "V6C0A3", "twitter": "None", "instagram": "None", "facebook": "None", "youtube": "None", "website": "None", "summary": "None", "logo": "None", "latitude": 49.28596391921073, "longitude": -123.11870289255033}, "119250462RR0001": {"name": "THE PAULA ROSS DANCE SOCIETY", "designationCode": "C", "categoryCode": "22", "address": "PO BOX 185", "city": "UCLUELET", "province": "BC", "country": "CA", "postalCode": "V0R3A0", "twitter": "None", "instagram": "None", "facebook": "None", "youtube": "None", "website": "None", "summary": "None", "logo": "None", "latitude": 48.938210000000026, "longitude": -125.54276999999996}, "892400847RR0001": {"name": "THE PAVILION FOOD BANK", "designationCode": "C", "categoryCode": "09", "address": "14 TAPIOLA CRESCENT", "city": "OTTAWA", "province": "ON", "country": "CA", "postalCode": "K1T1W9", "twitter": "None", "instagram": "None", "facebook": "None", "youtube": "None", "website": "None", "summary": "None", "logo": "None", "latitude": 45.36331449257018, "longitude": -75.64706034925702}, "892232240RR0001": {"name": "THE PEACE FOUNDATION", "designationCode": "B", "categoryCode": "03", "address": "1487 OUELLETTE AVE", "city": "WINDSOR", "province": "ON", "country": "CA", "postalCode": "N8X1K1", "twitter": "None", "instagram": "None", "facebook": "None", "youtube": "None", "website": "None", "summary": "None", "logo": "None", "latitude": 42.300660227855104, "longitude": -83.02822012187639}, "876557802RR0001": {"name": "THE PEACE KOREAN BAPTIST CHURCH", "designationCode": "B", "categoryCode": "31", "address": "20025 91A AVE", "city": "LANGLEY", "province": "BC", "country": "CA", "postalCode": "V1M3A2", "twitter": "None", "instagram": "None", "facebook": "None", "youtube": "None", "website": "None", "summary": "None", "logo": "None", "latitude": 49.169069496537546, "longitude": -122.66775352553523}, "125136481RR0001": {"name": "THE PEACE RIVER BIBLE INSTITUTE", "designationCode": "C", "categoryCode": "20", "address": "BOX 99", "city": "SEXSMITH", "province": "AB", "country": "CA", "postalCode": "T0H3C0", "twitter": "None", "instagram": "None", "facebook": "None", "youtube": "None", "website": "None", "summary": "None", "logo": "None", "latitude": 55.350749579063, "longitude": -118.78465014660391}, "890849144RR0001": {"name": "THE PEACHLAND SENIOR CITIZENS' HOUSING SOCIETY", "designationCode": "C", "categoryCode": "01", "address": "4451 5TH STREET", "city": "P.O BOX 1148", "province": "BC", "country": "CA", "postalCode": "V0H1X0", "twitter": "None", "instagram": "None", "facebook": "None", "youtube": "None", "website": "None", "summary": "None", "logo": "None", "latitude": 49.776116574788006, "longitude": -119.73618569859764}, "139244974RR0001": {"name": "THE PEEL ADDICTION ASSESSMENT AND REFERRAL CENTRE", "designationCode": "C", "categoryCode": "57", "address": "5170 DIXIE RD SUITE 302", "city": "MISSISSAUGA", "province": "ON", "country": "CA", "postalCode": "L4W1E3", "twitter": "None", "instagram": "None", "facebook": "None", "youtube": "None", "website": "None", "summary": "None", "logo": "None", "latitude": 43.63910564415167, "longitude": -79.62556922361325}, "119250553RR0001": {"name": "THE PEEL MULTICULTURAL COUNCIL", "designationCode": "C", "categoryCode": "22", "address": "6630 TURNER VALLEY RD", "city": "MISSISSAUGA", "province": "ON", "country": "CA", "postalCode": "L5N2P1", "twitter": "None", "instagram": "None", "facebook": "None", "youtube": "None", "website": "None", "summary": "None", "logo": "None", "latitude": 43.5978327976228, "longitude": -79.74209964920064}, "891184541RR0001": {"name": "THE PEKARSKY FAMILY FOUNDATION", "designationCode": "B", "categoryCode": "03", "address": "800 - 1030 WEST GEORGIA STREET", "city": "VANCOUVER", "province": "BC", "country": "CA", "postalCode": "V6E3B9", "twitter": "None", "instagram": "None", "facebook": "None", "youtube": "None", "website": "None", "summary": "None", "logo": "None", "latitude": 49.28473454397265, "longitude": -123.12168753944235}, "119250561RR0001": {"name": "THE PELHAM HISTORICAL SOCIETY", "designationCode": "C", "categoryCode": "50", "address": "PO BOX 903", "city": "FONTHILL", "province": "ON", "country": "CA", "postalCode": "L0S1E0", "twitter": "None", "instagram": "None", "facebook": "None", "youtube": "None", "website": "None", "summary": "None", "logo": "None", "latitude": 43.04568000000006, "longitude": -79.28625999999997}, "875787913RR0001": {"name": "THE PEMBINA FOUNDATION FOR ENVIRONMENTAL RESEARCH AND EDUCATION", "designationCode": "C", "categoryCode": "50", "address": "200-219 19 ST NW", "city": "CALGARY", "province": "AB", "country": "CA", "postalCode": "T2N2H9", "twitter": "None", "instagram": "None", "facebook": "None", "youtube": "None", "website": "None", "summary": "None", "logo": "None", "latitude": 51.053631642757004, "longitude": -114.1056462751187}, "136554698RR0001": {"name": "THE PEMBINA VALLEY MUSIC FESTIVAL", "designationCode": "C", "categoryCode": "22", "address": "PO BOX 309", "city": "MANITOU", "province": "MB", "country": "CA", "postalCode": "R0G1G0", "twitter": "None", "instagram": "None", "facebook": "None", "youtube": "None", "website": "None", "summary": "None", "logo": "None", "latitude": 49.23673000000008, "longitude": -98.53495999999996}, "119088359RR0001": {"name": "THE PEMBROKE AREA FIELD NATURALISTS", "designationCode": "C", "categoryCode": "52", "address": "375 DORAN ST", "city": "PEMBROKE", "province": "ON", "country": "CA", "postalCode": "K8A4N3", "twitter": "None", "instagram": "None", "facebook": "None", "youtube": "None", "website": "None", "summary": "None", "logo": "None", "latitude": 45.820114805940065, "longitude": -77.1199983879939}, "834423402RR0001": {"name": "THE PEMSEL CASE FOUNDATION", "designationCode": "B", "categoryCode": "21", "address": "10060 JASPER AVE              SUITE 1150", "city": "EDMONTON", "province": "AB", "country": "CA", "postalCode": "T5J3R8", "twitter": "None", "instagram": "None", "facebook": "None", "youtube": "None", "website": "None", "summary": "None", "logo": "None", "latitude": 53.54109443104039, "longitude": -113.49265311379764}, "139906705RR0001": {"name": "THE PENDER HARBOUR MUSIC SOCIETY", "designationCode": "C", "categoryCode": "22", "address": "PO BOX 95", "city": "MADEIRA PARK", "province": "BC", "country": "CA", "postalCode": "V0N2H0", "twitter": "None", "instagram": "None", "facebook": "None", "youtube": "None", "website": "None", "summary": "None", "logo": "None", "latitude": 49.61982063633974, "longitude": -124.0231710391864}, "869692939RR0001": {"name": "THE PENDER ISLAND BETHESDA FOUNDATION", "designationCode": "B", "categoryCode": "03", "address": "3205 6TH STREET SOUTH", "city": "CRANBROOK", "province": "BC", "country": "CA", "postalCode": "V1C6K1", "twitter": "None", "instagram": "None", "facebook": "None", "youtube": "None", "website": "None", "summary": "None", "logo": "None", "latitude": 49.503335481245465, "longitude": -115.73558002553523}, "119250629RR0001": {"name": "THE PENDER ISLANDS SENIORS HOUSING SOCIETY", "designationCode": "C", "categoryCode": "09", "address": "7-5719 CANAL ROAD", "city": "PENDER ISLAND", "province": "BC", "country": "CA", "postalCode": "V0N2M1", "twitter": "None", "instagram": "None", "facebook": "None", "youtube": "None", "website": "None", "summary": "None", "logo": "None"}, "834582074RR0001": {"name": "THE PENGROWTH NOVA SCOTIA ENERGY SCHOLARSHIP TRUST", "designationCode": "B", "categoryCode": "25", "address": "1690 HOLLIS STREET            PO BOX 2664", "city": "HALIFAX", "province": "NS", "country": "CA", "postalCode": "B3J3P7", "twitter": "None", "instagram": "None", "facebook": "None", "youtube": "None", "website": "None", "summary": "None", "logo": "None", "latitude": 44.64735081043339, "longitude": -63.572755252582276}, "119250645RR0001": {"name": "THE PENINSULA FIELD NATURALISTS' CLUB", "designationCode": "C", "categoryCode": "54", "address": "BOX 23031 CARLTON RPO", "city": "ST CATHARINES", "province": "ON", "country": "CA", "postalCode": "L2R7P6", "twitter": "None", "instagram": "None", "facebook": "None", "youtube": "None", "website": "None", "summary": "None", "logo": "None", "latitude": 43.17136311061295, "longitude": -79.25275170007224}, "119250652RR0001": {"name": "THE PENINSULA HERITAGE INC", "designationCode": "C", "categoryCode": "52", "address": "\"CARTER HOUSE\"                874 ROUTE 845", "city": "KINGSTON", "province": "NB", "country": "CA", "postalCode": "E5N1V3", "twitter": "None", "instagram": "None", "facebook": "None", "youtube": "None", "website": "None", "summary": "None", "logo": "None", "latitude": 45.50425335314696, "longitude": -65.97484276042792}, "131639098RR0001": {"name": "THE PENNSYLVANIA GERMAN FOLKLORE SOCIETY OF ONTARIO", "designationCode": "C", "categoryCode": "50", "address": "10292 MCCOWAN RD", "city": "MARKHAM", "province": "ON", "country": "CA", "postalCode": "L3P3J3", "twitter": "None", "instagram": "None", "facebook": "None", "youtube": "None", "website": "None", "summary": "None", "logo": "None", "latitude": 43.9103217418778, "longitude": -79.29479036418688}, "890472772RR0001": {"name": "THE PENNY AND GORDON ECHENBERG FAMILY FOUNDATION/LA FONDATION DE LA FMILLE PENNY ET GORDON ECHENBERG", "designationCode": "B", "categoryCode": "53", "address": "116 ABERDEEN AVENUE", "city": "WESTMOUNT", "province": "QC", "country": "CA", "postalCode": "H3V3E7", "twitter": "None", "instagram": "None", "facebook": "None", "youtube": "None", "website": "None", "summary": "None", "logo": "None", "latitude": 45.48821864360338, "longitude": -73.60422164129477}, "119250728RR0001": {"name": "THE PENTECOSTAL ASSEMBLIES OF CANADA B C AND YUKON DISTRICT", "designationCode": "C", "categoryCode": "36", "address": "20411 DOUGLAS CRES", "city": "LANGLEY", "province": "BC", "country": "CA", "postalCode": "V3A4B6", "twitter": "None", "instagram": "None", "facebook": "None", "youtube": "None", "website": "None", "summary": "None", "logo": "None", "latitude": 49.10360045726032, "longitude": -122.65630487164188}, "871594941RR0001": {"name": "THE PENTECOSTAL ASSEMBLIES OF CANADA SUNSET POINT PENTECOSTAL CAMP", "designationCode": "C", "categoryCode": "56", "address": "BOX 797", "city": "MAYERTHORPE", "province": "AB", "country": "CA", "postalCode": "T0E1N0", "twitter": "None", "instagram": "None", "facebook": "None", "youtube": "None", "website": "None", "summary": "None", "logo": "None", "latitude": 53.952450000000056, "longitude": -115.13884999999999}, "107833295RR0374": {"name": "THE PENTECOSTAL ASSEMBLIES OF CANADA/LES ASSEMBLEES DE LA PENTECOTE DU CANADA", "designationCode": "C", "categoryCode": "36", "address": "2450 MILLTOWER COURT", "city": "MISSISSAUGA", "province": "ON", "country": "CA", "postalCode": "L5N5Z6", "twitter": "None", "instagram": "None", "facebook": "None", "youtube": "None", "website": "None", "summary": "None", "logo": "None", "latitude": 43.59753944771745, "longitude": -79.75686307989524}, "108092107RR0001": {"name": "THE PENTECOSTAL ASSEMBLIES OF CANADA, MANITOBA AND NORTHWESTERN ONTARIO DISTRICT", "designationCode": "C", "categoryCode": "36", "address": "PENTECOSTAL ASSEMBLIES OF CDA 187 HENLOW BAY", "city": "WINNIPEG", "province": "MB", "country": "CA", "postalCode": "R3Y1G4", "twitter": "None", "instagram": "None", "facebook": "None", "youtube": "None", "website": "None", "summary": "None", "logo": "None", "latitude": 49.8154349212013, "longitude": -97.19183723639614}, "890172240RR0001": {"name": "THE PENTECOSTAL ASSEMBLY", "designationCode": "C", "categoryCode": "36", "address": "BOX 229", "city": "FORT RESOLUTION", "province": "NT", "country": "CA", "postalCode": "X0E0M0", "twitter": "None", "instagram": "None", "facebook": "None", "youtube": "None", "website": "None", "summary": "None", "logo": "None", "latitude": 60.82776852376575, "longitude": -114.33980745902062}, "869538355RR0001": {"name": "THE PENTECOSTAL ASSEMBLY OF SEMANS", "designationCode": "C", "categoryCode": "36", "address": "PO BOX 248", "city": "SEMANS", "province": "SK", "country": "CA", "postalCode": "S0A3S0", "twitter": "None", "instagram": "None", "facebook": "None", "youtube": "None", "website": "None", "summary": "None", "logo": "None", "latitude": 51.40640655802995, "longitude": -104.725602}, "867967739RR0001": {"name": "THE PENTECOSTAL CHURCH OF STURGEON FALLS", "designationCode": "C", "categoryCode": "36", "address": "620 DUTRISAC ROAD", "city": "STURGEON FALLS", "province": "ON", "country": "CA", "postalCode": "P2B2K1", "twitter": "None", "instagram": "None", "facebook": "None", "youtube": "None", "website": "None", "summary": "None", "logo": "None", "latitude": 46.36472352844942, "longitude": -79.90381118971176}, "108079245RR0001": {"name": "THE PENTECOSTAL COUNTRY CHURCH", "designationCode": "C", "categoryCode": "36", "address": "BOX 985", "city": "LIONS HEAD", "province": "ON", "country": "CA", "postalCode": "N0H1W0", "twitter": "None", "instagram": "None", "facebook": "None", "youtube": "None", "website": "None", "summary": "None", "logo": "None", "latitude": 44.98728998889153, "longitude": -81.25250001889873}, "119090405RR0001": {"name": "THE PENTECOSTAL EVANGELICAL CHURCH", "designationCode": "C", "categoryCode": "39", "address": "PO BOX 34012", "city": "SURREY", "province": "BC", "country": "CA", "postalCode": "V3S8C4", "twitter": "None", "instagram": "None", "facebook": "None", "youtube": "None", "website": "None", "summary": "None", "logo": "None", "latitude": 49.13065500000006, "longitude": -122.81165449999993}, "889130845RR0001": {"name": "THE PENTECOSTAL HOLINESS CHURCH OF CANADA", "designationCode": "C", "categoryCode": "39", "address": "16293 104TH AVENUE", "city": "SURREY", "province": "BC", "country": "CA", "postalCode": "V4N1Z7", "twitter": "None", "instagram": "None", "facebook": "None", "youtube": "None", "website": "None", "summary": "None", "logo": "None", "latitude": 49.19159902347501, "longitude": -122.77007446438485}, "119090462RR0001": {"name": "THE PENTECOSTAL HOLINESS CHURCH ONTARIO CONFERENCE", "designationCode": "C", "categoryCode": "36", "address": "16293 104 AVE", "city": "SURREY", "province": "BC", "country": "CA", "postalCode": "V4N1Z7", "twitter": "None", "instagram": "None", "facebook": "None", "youtube": "None", "website": "None", "summary": "None", "logo": "None", "latitude": 49.19159902347501, "longitude": -122.77007446438485}, "119250819RR0001": {"name": "THE PENTECOSTAL TABERNACLE", "designationCode": "C", "categoryCode": "36", "address": "BOX 245", "city": "PEMBROKE", "province": "ON", "country": "CA", "postalCode": "K8A6X3", "twitter": "None", "instagram": "None", "facebook": "None", "youtube": "None", "website": "None", "summary": "None", "logo": "None", "latitude": 45.826494000000054, "longitude": -77.11217449999994}, "893476929RR0001": {"name": "THE PENTECOSTAL TABERNACLE", "designationCode": "C", "categoryCode": "36", "address": "PO BOX 1509", "city": "BANCROFT", "province": "ON", "country": "CA", "postalCode": "K0L1C0", "twitter": "None", "instagram": "None", "facebook": "None", "youtube": "None", "website": "None", "summary": "None", "logo": "None", "latitude": 45.03567300000006, "longitude": -77.98000849999994}, "826449969RR0001": {"name": "THE PENTECOSTALS OF CHATHAM", "designationCode": "C", "categoryCode": "39", "address": "P.O. BOX 733", "city": "CHATHAM", "province": "ON", "country": "CA", "postalCode": "N7M5L1", "twitter": "None", "instagram": "None", "facebook": "None", "youtube": "None", "website": "None", "summary": "None", "logo": "None", "latitude": 42.404613000000055, "longitude": -82.18960099999994}, "852075720RR0001": {"name": "THE PENTECOSTALS OF FORT ST JOHN", "designationCode": "C", "categoryCode": "36", "address": "10507 101 AVE", "city": "FORT ST.JOHN", "province": "BC", "country": "CA", "postalCode": "V1J2B7", "twitter": "None", "instagram": "None", "facebook": "None", "youtube": "None", "website": "None", "summary": "None", "logo": "None", "latitude": 56.2474194740321, "longitude": -120.85614352553523}, "830994695RR0001": {"name": "THE PENTECOSTALS OF PETERBOROUGH CHURCH", "designationCode": "C", "categoryCode": "36", "address": "POST OFFICE BOX 2048", "city": "PETERBOROUGH", "province": "ON", "country": "CA", "postalCode": "K9J7Y4", "twitter": "None", "instagram": "None", "facebook": "None", "youtube": "None", "website": "None", "summary": "None", "logo": "None", "latitude": 44.30591700000005, "longitude": -78.31950199999993}, "119250827RR0001": {"name": "THE PENTICTON AND DISTRICT COMMUNITY ARTS COUNCIL", "designationCode": "C", "categoryCode": "22", "address": "220 MANOR PARK AVE", "city": "PENTICTON", "province": "BC", "country": "CA", "postalCode": "V2A2R2", "twitter": "None", "instagram": "None", "facebook": "None", "youtube": "None", "website": "None", "summary": "None", "logo": "None", "latitude": 49.48479958728147, "longitude": -119.58426815153788}, "119250835RR0001": {"name": "THE PENTICTON AND DISTRICT HOSPICE SOCIETY", "designationCode": "C", "categoryCode": "09", "address": "PO BOX 1105 STN MAIN", "city": "PENTICTON", "province": "BC", "country": "CA", "postalCode": "V2A6J9", "twitter": "None", "instagram": "None", "facebook": "None", "youtube": "None", "website": "None", "summary": "None", "logo": "None", "latitude": 49.48779893232429, "longitude": -119.58722160008561}, "869790766RR0001": {"name": "THE PEOPLE BRIDGE CHARITABLE FOUNDATION", "designationCode": "C", "categoryCode": "09", "address": "922 EGLINTON AVE. WEST        PO BOX 85536", "city": "TORONTO", "province": "ON", "country": "CA", "postalCode": "M5N2C2", "twitter": "None", "instagram": "None", "facebook": "None", "youtube": "None", "website": "None", "summary": "None", "logo": "None", "latitude": 43.70114421747563, "longitude": -79.42516825996285}, "839116944RR0001": {"name": "THE PEOPLE-CENTRED HEALTH INSTITUTE", "designationCode": "C", "categoryCode": "11", "address": "4 ARTHUR STREET", "city": "ARNPRIOR", "province": "ON", "country": "CA", "postalCode": "K7S1A2", "twitter": "None", "instagram": "None", "facebook": "None", "youtube": "None", "website": "None", "summary": "None", "logo": "None", "latitude": 45.42538549154588, "longitude": -76.36422068968218}, "108092271RR0001": {"name": "THE PEOPLE'S CHURCH", "designationCode": "C", "categoryCode": "36", "address": "BOX 338", "city": "KIPLING", "province": "SK", "country": "CA", "postalCode": "S0G2S0", "twitter": "None", "instagram": "None", "facebook": "None", "youtube": "None", "website": "None", "summary": "None", "logo": "None", "latitude": 50.94214200000001, "longitude": -104.50606274999998}, "804751873RR0001": {"name": "THE PEOPLE'S PENTECOSTAL ASSEMBLY", "designationCode": "C", "categoryCode": "36", "address": "262121 POPLAR HILL DR", "city": "CALGARY", "province": "AB", "country": "CA", "postalCode": "T3R1C7", "twitter": "None", "instagram": "None", "facebook": "None", "youtube": "None", "website": "None", "summary": "None", "logo": "None", "latitude": 51.21911700000001, "longitude": -114.29233484860539}, "138546692RR0001": {"name": "THE PEOPLE'S THEATRE KINGSTON INC", "designationCode": "C", "categoryCode": "22", "address": "111 - 370 KING ST W", "city": "KINGSTON", "province": "ON", "country": "CA", "postalCode": "K7L2X4", "twitter": "None", "instagram": "None", "facebook": "None", "youtube": "None", "website": "None", "summary": "None", "logo": "None", "latitude": 44.22159855612038, "longitude": -76.5061289121416}, "119250900RR0001": {"name": "THE PEOPLES CHURCH", "designationCode": "C", "categoryCode": "36", "address": "510 MOHAWK RD W.", "city": "HAMILTON", "province": "ON", "country": "CA", "postalCode": "L9C1X4", "twitter": "None", "instagram": "None", "facebook": "None", "youtube": "None", "website": "None", "summary": "None", "logo": "None", "latitude": 43.23221401584036, "longitude": -79.90606292977097}, "129878435RR0001": {"name": "THE PEOPLES CHURCH", "designationCode": "C", "categoryCode": "39", "address": "15 ELM STREET", "city": "TRURO", "province": "NS", "country": "CA", "postalCode": "B2N3H5", "twitter": "None", "instagram": "None", "facebook": "None", "youtube": "None", "website": "None", "summary": "None", "logo": "None", "latitude": 45.3684546253102, "longitude": -63.28672572159403}, "108092305RR0001": {"name": "THE PEOPLES GOSPEL HOUR INC.", "designationCode": "C", "categoryCode": "47", "address": "P.O. BOX 1660", "city": "HALIFAX", "province": "NS", "country": "CA", "postalCode": "B3J3A1", "twitter": "None", "instagram": "None", "facebook": "None", "youtube": "None", "website": "None", "summary": "None", "logo": "None", "latitude": 44.645478000000054, "longitude": -63.576552499999934}, "119250884RR0001": {"name": "THE PEOPLES' CHURCH", "designationCode": "C", "categoryCode": "39", "address": "2608 ROUTE 103", "city": "SOMERVILLE", "province": "NB", "country": "CA", "postalCode": "E7P3A9", "twitter": "None", "instagram": "None", "facebook": "None", "youtube": "None", "website": "None", "summary": "None", "logo": "None", "latitude": 46.28924102504022, "longitude": -67.53166270085961}, "890776438RR0001": {"name": "THE PERCY LANHAM FOUNDATION INC", "designationCode": "B", "categoryCode": "23", "address": "9TH FLOOR, 1661 PORTAGE AVENUE", "city": "WINNIPEG", "province": "MB", "country": "CA", "postalCode": "R3J3T7", "twitter": "None", "instagram": "None", "facebook": "None", "youtube": "None", "website": "None", "summary": "None", "logo": "None", "latitude": 49.88011529788166, "longitude": -97.20276621723661}, "888553591RR0001": {"name": "THE PEREZ F AND FREIDA FRIEDBERG FOUNDATION", "designationCode": "B", "categoryCode": "43", "address": "BCE PLACE, 181 BAY STREET     SUITE 250, PO BOX 866", "city": "TORONTO", "province": "ON", "country": "CA", "postalCode": "M5J2T3", "twitter": "None", "instagram": "None", "facebook": "None", "youtube": "None", "website": "None", "summary": "None", "logo": "None", "latitude": 43.64715006939234, "longitude": -79.3795999811012}, "888194990RR0001": {"name": "THE PERKINS BULL COLLECTION", "designationCode": "B", "categoryCode": "52", "address": "361 PARK STREET NORTH", "city": "PETERBOROUGH", "province": "ON", "country": "CA", "postalCode": "K9H4P7", "twitter": "None", "instagram": "None", "facebook": "None", "youtube": "None", "website": "None", "summary": "None", "logo": "None", "latitude": 44.30423081903174, "longitude": -78.32979303583565}, "119250959RR0001": {"name": "THE PERLEY AND RIDEAU VETERANS' HEALTH CENTRE", "designationCode": "C", "categoryCode": "10", "address": "1750 RUSSELL RD", "city": "OTTAWA", "province": "ON", "country": "CA", "postalCode": "K1G5Z6", "twitter": "None", "instagram": "None", "facebook": "None", "youtube": "None", "website": "None", "summary": "None", "logo": "None", "latitude": 45.40545686727489, "longitude": -75.63413763685045}}