{"889973392RR0001": {"name": "COMITE CANADIEN DE LA FEDERATION INTERNATIONALE D'ACTION FAMILIALE", "designationCode": "C", "categoryCode": "19", "address": "151 AVENUE HOLLAND", "city": "OTTAWA", "province": "ON", "country": "CA", "postalCode": "K1Y0Y2", "twitter": "None", "instagram": "None", "facebook": "None", "youtube": "None", "website": "None", "summary": "None", "logo": "None", "latitude": 45.398598662790626, "longitude": -75.73128426002678}, "897927836RR0001": {"name": "COMITE CANADIEN DES REFUGIES DE LA MER", "designationCode": "C", "categoryCode": "09", "address": "1172 ALEXIS-NIHON", "city": "SAINT-LAURENT", "province": "QC", "country": "CA", "postalCode": "H4R1S2", "twitter": "None", "instagram": "None", "facebook": "None", "youtube": "None", "website": "None", "summary": "None", "logo": "None", "latitude": 45.50794105799534, "longitude": -73.6951599363205}, "118868868RR0001": {"name": "COMITE CHRETIEN POUR LES DROITS HUMAINS EN AMERIQUE LATINE", "designationCode": "C", "categoryCode": "59", "address": "1425 BOUL. REN\u00c9-L\u00c9VESQUE O    3E \u00c9TAGE", "city": "MONTREAL", "province": "QC", "country": "CA", "postalCode": "H3G1T7", "twitter": "None", "instagram": "None", "facebook": "None", "youtube": "None", "website": "None", "summary": "None", "logo": "None", "latitude": 45.495059310866075, "longitude": -73.57396546367339}, "896226925RR0001": {"name": "COMITE CULTUREL DE PIOPOLIS INC.", "designationCode": "C", "categoryCode": "22", "address": "403 RUE PRINCIPALE            C.P. #3", "city": "PIOPOLIS", "province": "QC", "country": "CA", "postalCode": "G0Y1H0", "twitter": "None", "instagram": "None", "facebook": "None", "youtube": "None", "website": "None", "summary": "None", "logo": "None"}, "872780796RR0001": {"name": "COMITE D'ACCUEIL INTERNATIONAL DES BOIS-FRANCS", "designationCode": "C", "categoryCode": "09", "address": "208A-59 RUE MONFETTE", "city": "VICTORIAVILLE", "province": "QC", "country": "CA", "postalCode": "G6P1J8", "twitter": "None", "instagram": "None", "facebook": "None", "youtube": "None", "website": "None", "summary": "None", "logo": "None", "latitude": 46.06164779188039, "longitude": -71.9668892342031}, "120813266RR0001": {"name": "COMITE D'ACTION BENEVOLE DE SAINT-EUSEBE INC.", "designationCode": "C", "categoryCode": "09", "address": "67 RTE PRINCIPALE", "city": "SAINT-EUSEBE", "province": "QC", "country": "CA", "postalCode": "G0L2Y0", "twitter": "None", "instagram": "None", "facebook": "None", "youtube": "None", "website": "None", "summary": "None", "logo": "None", "latitude": 47.57650335247283, "longitude": -68.890595382567}, "120596671RR0001": {"name": "COMITE D'ACTION BENEVOLE DE ST-MARC-DU-LAC-LONG", "designationCode": "C", "categoryCode": "09", "address": "124, ROBINSON", "city": "ST-MARC LAC LONG", "province": "QC", "country": "CA", "postalCode": "G0L1T0", "twitter": "None", "instagram": "None", "facebook": "None", "youtube": "None", "website": "None", "summary": "None", "logo": "None", "latitude": 47.39298000000005, "longitude": -68.89575499999994}, "894699172RR0001": {"name": "COMITE D'ACTION CULTURELLE C.A.C. INC.", "designationCode": "C", "categoryCode": "22", "address": "95, RUE MERRY NORD", "city": "MAGOG", "province": "QC", "country": "CA", "postalCode": "J1X2E7", "twitter": "None", "instagram": "None", "facebook": "None", "youtube": "None", "website": "None", "summary": "None", "logo": "None", "latitude": 45.26782226172889, "longitude": -72.15544128440722}, "131746927RR0001": {"name": "COMITE D'ACTION DE PARC EXTENSION", "designationCode": "C", "categoryCode": "09", "address": "419 ST ROCH SS3", "city": "MONTREAL", "province": "QC", "country": "CA", "postalCode": "H3N1K2", "twitter": "None", "instagram": "None", "facebook": "None", "youtube": "None", "website": "None", "summary": "None", "logo": "None", "latitude": 45.53121014293955, "longitude": -73.62847271830448}, "120044227RR0001": {"name": "COMITE D'ACTION DES CITOYENNES ET CITOYENS DE VERDUN INC.", "designationCode": "C", "categoryCode": "59", "address": "3972 RUE DE VERDUN", "city": "VERDUN", "province": "QC", "country": "CA", "postalCode": "H4G1K9", "twitter": "None", "instagram": "None", "facebook": "None", "youtube": "None", "website": "None", "summary": "None", "logo": "None", "latitude": 45.46414575797798, "longitude": -73.57127526002678}, "120398490RR0001": {"name": "COMITE D'ACTION SOCIALE ST-JOSEPH-DU-LAC", "designationCode": "C", "categoryCode": "09", "address": "1028A, RUE PRINCIPALE", "city": "SAINT JOSEPH DU LAC", "province": "QC", "country": "CA", "postalCode": "J0N1M0", "twitter": "None", "instagram": "None", "facebook": "None", "youtube": "None", "website": "None", "summary": "None", "logo": "None", "latitude": 45.533117464249564, "longitude": -74.00569176957931}, "889508941RR0001": {"name": "COMITE D'AIDE ALIMENTAIRE DES PATRIOTES INC", "designationCode": "C", "categoryCode": "09", "address": "95 RUE PRINCIPALE", "city": "ST-JOSEPH DU LAC", "province": "QC", "country": "CA", "postalCode": "J0N1M0", "twitter": "None", "instagram": "None", "facebook": "None", "youtube": "None", "website": "None", "summary": "None", "logo": "None", "latitude": 45.51453359230182, "longitude": -73.97960641185313}, "880121470RR0001": {"name": "COMITE D'AIDE AUX PLAINOIS", "designationCode": "C", "categoryCode": "09", "address": "5611 BOUL LAURIER", "city": "TERREBONNE", "province": "QC", "country": "CA", "postalCode": "J7M1T7", "twitter": "None", "instagram": "None", "facebook": "None", "youtube": "None", "website": "None", "summary": "None", "logo": "None", "latitude": 45.755127898724496, "longitude": -73.711535676756}, "893346254RR0001": {"name": "COMITE D'AIDE BEAUCEVILLE C.A.B.", "designationCode": "C", "categoryCode": "09", "address": "116 ROUTE FRASER", "city": "BEAUCEVILLE", "province": "QC", "country": "CA", "postalCode": "G5X3R2", "twitter": "None", "instagram": "None", "facebook": "None", "youtube": "None", "website": "None", "summary": "None", "logo": "None", "latitude": 46.20496786929412, "longitude": -70.76793988484602}, "870954617RR0001": {"name": "COMITE D'AIDE LACHENOIS", "designationCode": "C", "categoryCode": "09", "address": "104 - 1345 GRANDE ALLEE", "city": "TERREBONNE", "province": "QC", "country": "CA", "postalCode": "J6W4K6", "twitter": "None", "instagram": "None", "facebook": "None", "youtube": "None", "website": "None", "summary": "None", "logo": "None", "latitude": 45.709504890905535, "longitude": -73.62492141496888}, "889887972RR0001": {"name": "COMITE D'AIDE POUR HAITI", "designationCode": "C", "categoryCode": "09", "address": "583B RUE PRINCIPALE", "city": "SAINT-FERDINAND", "province": "QC", "country": "CA", "postalCode": "G0N1N0", "twitter": "None", "instagram": "None", "facebook": "None", "youtube": "None", "website": "None", "summary": "None", "logo": "None", "latitude": 46.10807977565957, "longitude": -71.5720048889603}, "118868934RR0001": {"name": "COMITE D'ANIMATION DU TROISIEME AGE DE LAVAL", "designationCode": "C", "categoryCode": "09", "address": "140 RUE NADON", "city": "LAVAL", "province": "QC", "country": "CA", "postalCode": "H7L1T5", "twitter": "None", "instagram": "None", "facebook": "None", "youtube": "None", "website": "None", "summary": "None", "logo": "None", "latitude": 45.61517062277138, "longitude": -73.78131945308449}, "137757134RR0001": {"name": "COMITE D'APPUI AUX TRAVAILLEURS ET TRAVAILLEUSES ACCIDENTES DE LA REGION DE L'AMIANTE", "designationCode": "C", "categoryCode": "59", "address": "37 NOTRE-DAME OUEST           LOCAL 102", "city": "THETFORD-MINES", "province": "QC", "country": "CA", "postalCode": "G6G1J1", "twitter": "None", "instagram": "None", "facebook": "None", "youtube": "None", "website": "None", "summary": "None", "logo": "None", "latitude": 46.090591542068076, "longitude": -71.30077859677387}, "889691465RR0001": {"name": "COMITE D'ENTRAIDE D'ALLARDVILLE", "designationCode": "C", "categoryCode": "09", "address": "4777 ROUTE 134", "city": "ALLARDVILLE", "province": "NB", "country": "CA", "postalCode": "E8L1C7", "twitter": "None", "instagram": "None", "facebook": "None", "youtube": "None", "website": "None", "summary": "None", "logo": "None", "latitude": 47.4587528648599, "longitude": -65.48344058234969}, "890922198RR0001": {"name": "COMITE D'ENTRAIDE DE SULLY", "designationCode": "C", "categoryCode": "09", "address": "550, DE LA FABRIQUE", "city": "POH\u00c9N\u00c9GAMOOK", "province": "QC", "country": "CA", "postalCode": "G0L1J0", "twitter": "None", "instagram": "None", "facebook": "None", "youtube": "None", "website": "None", "summary": "None", "logo": "None", "latitude": 47.4567227082925, "longitude": -69.14973660323741}, "136209475RR0001": {"name": "COMITE D'ORGANISATION DES SERVICES POUR PERSONNES AGEES DE PRICE (C O S P A P )", "designationCode": "C", "categoryCode": "01", "address": "4 RUE DE CENTRE CP 40", "city": "PRICE", "province": "QC", "country": "CA", "postalCode": "G0J1Z0", "twitter": "None", "instagram": "None", "facebook": "None", "youtube": "None", "website": "None", "summary": "None", "logo": "None", "latitude": 48.60398327087548, "longitude": -68.12732532601396}, "888642865RR0001": {"name": "COMITE D'URGENCE \"LA RUCHE\"", "designationCode": "C", "categoryCode": "09", "address": "581 RUE ROYALE", "city": "MALARTIC", "province": "QC", "country": "CA", "postalCode": "J0Y1Z0", "twitter": "None", "instagram": "None", "facebook": "None", "youtube": "None", "website": "None", "summary": "None", "logo": "None", "latitude": 48.13417284869325, "longitude": -78.12054736360997}, "877339275RR0001": {"name": "COMITE DE BENEVOLES BERGERONNES", "designationCode": "C", "categoryCode": "09", "address": "102 - 48 RUE PRINCIPALE", "city": "LES BERGERONNES", "province": "QC", "country": "CA", "postalCode": "G0T1G0", "twitter": "None", "instagram": "None", "facebook": "None", "youtube": "None", "website": "None", "summary": "None", "logo": "None", "latitude": 48.24648048456367, "longitude": -69.54786160796927}, "899621833RR0001": {"name": "COMITE DE BENEVOLES DE SAINT-ALEXANDRE", "designationCode": "C", "categoryCode": "09", "address": "410 AV SAINT-CLOVIS", "city": "SAINT-ALEXANDRE-DE-KAMOURASKA", "province": "QC", "country": "CA", "postalCode": "G0L2G0", "twitter": "None", "instagram": "None", "facebook": "None", "youtube": "None", "website": "None", "summary": "None", "logo": "None", "latitude": 47.68699174132956, "longitude": -69.62185248793921}, "118868967RR0001": {"name": "COMITE DE BENEVOLES L'ENTRE-DEUX INC.", "designationCode": "C", "categoryCode": "09", "address": "742, 14E AVENUE", "city": "LA GUADELOUPE", "province": "QC", "country": "CA", "postalCode": "G0M1G0", "twitter": "None", "instagram": "None", "facebook": "None", "youtube": "None", "website": "None", "summary": "None", "logo": "None", "latitude": 45.96726241522868, "longitude": -70.94103058500245}, "877338673RR0001": {"name": "COMITE DE BENEVOLES SACRE-COEUR", "designationCode": "C", "categoryCode": "09", "address": "336, CHEMIN DE L'ANSE", "city": "SACR\u00c9-COEUR", "province": "QC", "country": "CA", "postalCode": "G0T1Y0", "twitter": "None", "instagram": "None", "facebook": "None", "youtube": "None", "website": "None", "summary": "None", "logo": "None", "latitude": 48.22256978766813, "longitude": -69.87254746225975}, "101064061RR0001": {"name": "COMITE DE BIENFAISANCE DE ST-ROBERT DE RIMOUSKI INC.", "designationCode": "C", "categoryCode": "09", "address": "C.P. 144", "city": "RIMOUSKI", "province": "QC", "country": "CA", "postalCode": "G5L7B7", "twitter": "None", "instagram": "None", "facebook": "None", "youtube": "None", "website": "None", "summary": "None", "logo": "None", "latitude": 48.44933700000006, "longitude": -68.52474349999993}, "118868983RR0001": {"name": "COMITE DE BOURSES MMFR", "designationCode": "C", "categoryCode": "21", "address": "49, RUE DU COLLEGE, UNITE 1   ECOLE MGR-M.-F.-RICHARD", "city": "SAINT-LOUIS-DE-KENT", "province": "NB", "country": "CA", "postalCode": "E4X1C2", "twitter": "None", "instagram": "None", "facebook": "None", "youtube": "None", "website": "None", "summary": "None", "logo": "None", "latitude": 46.739661000000055, "longitude": -64.97465299999993}, "892270364RR0001": {"name": "COMITE DE BOURSES THOMAS-ALBERT", "designationCode": "C", "categoryCode": "21", "address": "215 RUE GUIMONT", "city": "GRAND-SAULT", "province": "NB", "country": "CA", "postalCode": "E3Y1C7", "twitter": "None", "instagram": "None", "facebook": "None", "youtube": "None", "website": "None", "summary": "None", "logo": "None", "latitude": 47.05555938924566, "longitude": -67.72940035634083}, "872037957RR0001": {"name": "COMITE DE DIFFUSION DES CELEBRATIONS LITURGIQUES", "designationCode": "C", "categoryCode": "47", "address": "1340 BOUL ST-JOSEPH EST", "city": "MONTREAL", "province": "QC", "country": "CA", "postalCode": "H2J1M3", "twitter": "None", "instagram": "None", "facebook": "None", "youtube": "None", "website": "None", "summary": "None", "logo": "None", "latitude": 45.53273500998332, "longitude": -73.58173038799134}, "887934446RR0001": {"name": "COMITE DE FONDS DE BOURSES DE GRANDE-DIGUE INC", "designationCode": "C", "categoryCode": "21", "address": "3872 ROUTE 134", "city": "SHEDIAC BRIDGE", "province": "NB", "country": "CA", "postalCode": "E4R1V2", "twitter": "None", "instagram": "None", "facebook": "None", "youtube": "None", "website": "None", "summary": "None", "logo": "None", "latitude": 46.27392783349717, "longitude": -64.57587925607466}, "872619077RR0001": {"name": "COMITE DE FONDS DE CHARITE DES USS SAINT-JEAN ET MONTREAL", "designationCode": "C", "categoryCode": "51", "address": "CP 100 SUCCURSALE BUREAU-CHEF", "city": "RICHELAIN", "province": "QC", "country": "CA", "postalCode": "J0J1R0", "twitter": "None", "instagram": "None", "facebook": "None", "youtube": "None", "website": "None", "summary": "None", "logo": "None", "latitude": 45.04602300000006, "longitude": -72.80493649999994}, "106970288RR0001": {"name": "COMITE DE GESTION DE LA TAXE SCOLAIRE DE L'ILE DE MONTREAL", "designationCode": "C", "categoryCode": "21", "address": "500 BOUL CREMAZIE EST", "city": "MONTREAL", "province": "QC", "country": "CA", "postalCode": "H2P1E7", "twitter": "None", "instagram": "None", "facebook": "None", "youtube": "None", "website": "None", "summary": "None", "logo": "None", "latitude": 45.54613655617769, "longitude": -73.63778793929295}, "891331589RR0001": {"name": "COMITE DE JUMELAGE DES MAINS POUR DEMAIN", "designationCode": "C", "categoryCode": "09", "address": "2270 RUE PRINCIPALE", "city": "STE-ELISABETH", "province": "QC", "country": "CA", "postalCode": "J0K2J0", "twitter": "None", "instagram": "None", "facebook": "None", "youtube": "None", "website": "None", "summary": "None", "logo": "None", "latitude": 46.09527016631039, "longitude": -73.35016723033661}, "818401077RR0001": {"name": "COMITE DE JUMELAGE ST-FELIX COEURS SOLIDAIRES", "designationCode": "C", "categoryCode": "09", "address": "4650 RUE PRINCIPALE", "city": "ST-FELIX-DE-VALOIS", "province": "QC", "country": "CA", "postalCode": "J0K2M0", "twitter": "None", "instagram": "None", "facebook": "None", "youtube": "None", "website": "None", "summary": "None", "logo": "None", "latitude": 46.16980572638324, "longitude": -73.42502691900825}, "120587704RR0001": {"name": "COMITE DE LA CULTURE DE COWANSVILLE INC", "designationCode": "C", "categoryCode": "22", "address": "608 RUE DU SUD", "city": "COWANSVILLE", "province": "QC", "country": "CA", "postalCode": "J2K2Y1", "twitter": "None", "instagram": "None", "facebook": "None", "youtube": "None", "website": "None", "summary": "None", "logo": "None", "latitude": 45.202600822378606, "longitude": -72.74736627122125}, "892155250RR0001": {"name": "COMITE DE LA VIERGE DU ROCHER DE PENTECOTE INC", "designationCode": "C", "categoryCode": "49", "address": "5178 RUE DES PIONNIERS", "city": "RIVIERE-PENTECOTE", "province": "QC", "country": "CA", "postalCode": "G0H1R0", "twitter": "None", "instagram": "None", "facebook": "None", "youtube": "None", "website": "None", "summary": "None", "logo": "None", "latitude": 49.81770484205679, "longitude": -67.12990549526813}, "118869031RR0001": {"name": "COMITE DE LOGEMENT ROSEMONT", "designationCode": "C", "categoryCode": "59", "address": "5350 LAFOND                   R-145", "city": "MONTREAL", "province": "QC", "country": "CA", "postalCode": "H1X2X2", "twitter": "None", "instagram": "None", "facebook": "None", "youtube": "None", "website": "None", "summary": "None", "logo": "None", "latitude": 45.55238905297504, "longitude": -73.5710193212821}, "891375149RR0001": {"name": "COMITE DE NUTRITION OEUFS-LAIT-ORANGES", "designationCode": "C", "categoryCode": "09", "address": "380, BD BASE DE ROC", "city": "JOLIETTE", "province": "QC", "country": "CA", "postalCode": "J6E9J6", "twitter": "None", "instagram": "None", "facebook": "None", "youtube": "None", "website": "None", "summary": "None", "logo": "None", "latitude": 46.01895068333419, "longitude": -73.4374029884588}, "871590402RR0001": {"name": "COMITE DE PARRAINAGE DE L'ECOLE HOCHELAGA", "designationCode": "C", "categoryCode": "21", "address": "1717, RUE DU HAVRE", "city": "MONTREAL", "province": "QC", "country": "CA", "postalCode": "H2K2X3", "twitter": "None", "instagram": "None", "facebook": "None", "youtube": "None", "website": "None", "summary": "None", "logo": "None", "latitude": 45.531803510184865, "longitude": -73.54768035674331}, "138436498RR0001": {"name": "COMITE DE PREVENTION DU SUICIDE DU TEMISCAMINGUE", "designationCode": "C", "categoryCode": "09", "address": "1, RUE INDUSTRIELLE", "city": "VILLE-MARIE", "province": "QC", "country": "CA", "postalCode": "J9V1S3", "twitter": "None", "instagram": "None", "facebook": "None", "youtube": "None", "website": "None", "summary": "None", "logo": "None", "latitude": 47.32990178963004, "longitude": -79.43533674337834}, "889299871RR0001": {"name": "COMITE DE PREVENTION ET DE CONCERTATION JEUNESSE DE LA MRC D'ASBESTOS", "designationCode": "C", "categoryCode": "09", "address": "309 CHASSE BUREAU 222", "city": "ASBESTOS", "province": "QC", "country": "CA", "postalCode": "J1T2B4", "twitter": "None", "instagram": "None", "facebook": "None", "youtube": "None", "website": "None", "summary": "None", "logo": "None", "latitude": 45.771445287004305, "longitude": -71.93578212556999}, "887624732RR0001": {"name": "COMITE DE PROMOTION DE H.L.M. A STE-ROSE", "designationCode": "C", "categoryCode": "09", "address": "1255 NICOLET", "city": "LAVAL", "province": "QC", "country": "CA", "postalCode": "H7L2P3", "twitter": "None", "instagram": "None", "facebook": "None", "youtube": "None", "website": "None", "summary": "None", "logo": "None", "latitude": 45.61488342630853, "longitude": -73.78311681545371}, "118869064RR0001": {"name": "COMITE DE PROTECTION DES OEUVRES D'OZIAS LEDUC DE SHAWINIGAN-SUD INC.", "designationCode": "C", "categoryCode": "52", "address": "825 AV OZIAS-LEDUC", "city": "SHAWINIGAN", "province": "QC", "country": "CA", "postalCode": "G9P1E1", "twitter": "None", "instagram": "None", "facebook": "None", "youtube": "None", "website": "None", "summary": "None", "logo": "None", "latitude": 46.52769290853064, "longitude": -72.75071992975516}, "101065571RR0001": {"name": "COMITE DE SANTE BENEVOLE DE LEJEUNE INC.", "designationCode": "C", "categoryCode": "09", "address": "198 RUE DE L'EGLISE", "city": "LEJEUNE", "province": "QC", "country": "CA", "postalCode": "G0L1S0", "twitter": "None", "instagram": "None", "facebook": "None", "youtube": "None", "website": "None", "summary": "None", "logo": "None", "latitude": 47.766688291707496, "longitude": -68.57515376796128}, "865416077RR0001": {"name": "COMITE DE SAUVEGARDE DU PONT COUVERT DROUIN", "designationCode": "C", "categoryCode": "52", "address": "3, CHEMIN DE HATLEY", "city": "COMPTON", "province": "QC", "country": "CA", "postalCode": "J0B1L0", "twitter": "None", "instagram": "None", "facebook": "None", "youtube": "None", "website": "None", "summary": "None", "logo": "None", "latitude": 45.24217078380164, "longitude": -71.8271980437415}, "891499147RR0001": {"name": "COMITE DE SOUTIEN A LA PEDIATRIE DE L'ABITIBI-TEMISCAMINGUE INC", "designationCode": "C", "categoryCode": "11", "address": "90 MURDOCH CP 2204", "city": "ROUYN-NORANDA", "province": "QC", "country": "CA", "postalCode": "J9X1C7", "twitter": "None", "instagram": "None", "facebook": "None", "youtube": "None", "website": "None", "summary": "None", "logo": "None", "latitude": 48.2465424884588, "longitude": -79.01426452706443}, "878860014RR0001": {"name": "COMITE DE VIE DE QUARTIER DUFF-COURT (COVIQ)", "designationCode": "C", "categoryCode": "09", "address": "1830 RUE DUFF-COURT           LOCAL 103", "city": "LACHINE", "province": "QC", "country": "CA", "postalCode": "H8S1C8", "twitter": "None", "instagram": "None", "facebook": "None", "youtube": "None", "website": "None", "summary": "None", "logo": "None", "latitude": 45.44600148268776, "longitude": -73.68039047155058}, "120496492RR0001": {"name": "COMITE DE VOLONTARIAT DE QUARTIER-LIMOILOU SUD", "designationCode": "C", "categoryCode": "09", "address": "1575 3E AV", "city": "QUEBEC", "province": "QC", "country": "CA", "postalCode": "G1L2Y4", "twitter": "None", "instagram": "None", "facebook": "None", "youtube": "None", "website": "None", "summary": "None", "logo": "None", "latitude": 46.830070017196675, "longitude": -71.23317675370745}, "132646274RR0001": {"name": "COMITE DES APOTRES DE MARIE INC", "designationCode": "C", "categoryCode": "49", "address": "225 RANG SAINTE-MARIE", "city": "DOLBEAU-MISTASSINI", "province": "QC", "country": "CA", "postalCode": "G8L5Z3", "twitter": "None", "instagram": "None", "facebook": "None", "youtube": "None", "website": "None", "summary": "None", "logo": "None", "latitude": 48.901828763026955, "longitude": -72.19382754628033}, "890648744RR0001": {"name": "COMITE DES BENEFICIAIRES DE L'HOPITAL STE-ANNE DE BELLEVUE.", "designationCode": "C", "categoryCode": "09", "address": "305 BL DES ANCIENS-COMBATTANTS", "city": "STE-ANNE-DE-BELLEVUE", "province": "QC", "country": "CA", "postalCode": "H9X1Y9", "twitter": "None", "instagram": "None", "facebook": "None", "youtube": "None", "website": "None", "summary": "None", "logo": "None", "latitude": 45.41136111988779, "longitude": -73.950986561564}, "886094358RR0001": {"name": "COMITE DES BENEVOLES \"SANTE ET JOIE\" INC", "designationCode": "C", "categoryCode": "09", "address": "1255 C, RANG 5", "city": "GUYENNE", "province": "QC", "country": "CA", "postalCode": "J0Y1L0", "twitter": "None", "instagram": "None", "facebook": "None", "youtube": "None", "website": "None", "summary": "None", "logo": "None", "latitude": 48.77805300000006, "longitude": -78.45187399999993}, "866447758RR0001": {"name": "COMITE DES BENEVOLES LES JARDINS DU HAUT ST-LAURENT", "designationCode": "C", "categoryCode": "56", "address": "4770 RUE ST-FELIX", "city": "ST-AUGUSTIN", "province": "QC", "country": "CA", "postalCode": "G3A0K9", "twitter": "None", "instagram": "None", "facebook": "None", "youtube": "None", "website": "None", "summary": "None", "logo": "None", "latitude": 46.736106540978675, "longitude": -71.3790608528209}, "118869163RR0001": {"name": "COMITE DES CITOYENS DU QUARTIER SAINT-SAUVEUR", "designationCode": "C", "categoryCode": "59", "address": "301 RUE CARILLON", "city": "QUEBEC", "province": "QC", "country": "CA", "postalCode": "G1K5B3", "twitter": "None", "instagram": "None", "facebook": "None", "youtube": "None", "website": "None", "summary": "None", "logo": "None", "latitude": 46.81151905689884, "longitude": -71.23715662155928}, "893014266RR0001": {"name": "COMITE DES CITOYENS DU VIEUX QUEBEC INC", "designationCode": "C", "categoryCode": "59", "address": "5 - 35 RUE DE LA PORTE", "city": "QUEBEC", "province": "QC", "country": "CA", "postalCode": "G1R4N2", "twitter": "None", "instagram": "None", "facebook": "None", "youtube": "None", "website": "None", "summary": "None", "logo": "None", "latitude": 46.81048198513791, "longitude": -71.2059585738381}, "131161598RR0001": {"name": "COMITE DES FEMMES ACTIVES DE MONTREAL", "designationCode": "C", "categoryCode": "56", "address": "1801 BOUL DE MAISONNEUVE O    BUREAU 600", "city": "MONTREAL", "province": "QC", "country": "CA", "postalCode": "H3H1J9", "twitter": "None", "instagram": "None", "facebook": "None", "youtube": "None", "website": "None", "summary": "None", "logo": "None", "latitude": 45.49442262643538, "longitude": -73.58077007718259}, "118869197RR0001": {"name": "COMITE DES JEUNES DE LA LOUISIANE", "designationCode": "C", "categoryCode": "56", "address": "8582 RUE DE REIMS", "city": "MONTREAL", "province": "QC", "country": "CA", "postalCode": "H2P2P7", "twitter": "None", "instagram": "None", "facebook": "None", "youtube": "None", "website": "None", "summary": "None", "logo": "None", "latitude": 45.53934606076531, "longitude": -73.6402997663165}, "892051442RR0001": {"name": "COMITE DES LOISIRS DE ST-MARCEL DE RICHELIEU", "designationCode": "C", "categoryCode": "56", "address": "500, RUE DE L'\u00c9COLE", "city": "ST-MARCEL SUR LE RICHELIEU", "province": "QC", "country": "CA", "postalCode": "J0H1T0", "twitter": "None", "instagram": "None", "facebook": "None", "youtube": "None", "website": "None", "summary": "None", "logo": "None", "latitude": 45.86143200000005, "longitude": -72.89816299999994}, "118869221RR0001": {"name": "COMITE DES LOISIRS ET AIDE AUX MALADES - CENTRE HOSPITALIER DE LA PIETA", "designationCode": "C", "categoryCode": "19", "address": "273 RUE LAURIER", "city": "GATINEAU", "province": "QC", "country": "CA", "postalCode": "J8X3W8", "twitter": "None", "instagram": "None", "facebook": "None", "youtube": "None", "website": "None", "summary": "None", "logo": "None", "latitude": 45.439202084655754, "longitude": -75.70832787292946}, "890542467RR0001": {"name": "COMITE DES OEUVERS CHARITABLES DU CONSEIL MANSEAU 3317", "designationCode": "C", "categoryCode": "65", "address": "574 ROUTE #265", "city": "STE-FRAN\u00c7OISE-DE-LOTBINI\u00c8RE", "province": "QC", "country": "CA", "postalCode": "G0S2N0", "twitter": "None", "instagram": "None", "facebook": "None", "youtube": "None", "website": "None", "summary": "None", "logo": "None", "latitude": 46.44181338664093, "longitude": -71.980438001498}, "890772593RR0001": {"name": "COMITE DES OEUVRES CHARITABLES DE L'ASSEMBLEE ABBE ALEXIS-LOUIS MANGIN 1698", "designationCode": "C", "categoryCode": "65", "address": "5 CHEMIN LEVESQUE", "city": "LAC DES PLAGES", "province": "QC", "country": "CA", "postalCode": "J0T1K0", "twitter": "None", "instagram": "None", "facebook": "None", "youtube": "None", "website": "None", "summary": "None", "logo": "None", "latitude": 45.982059437967784, "longitude": -74.88765399636779}, "890608599RR0001": {"name": "COMITE DES OEUVRES CHARITABLES DE L'ASSEMBLEE CURE-MAURICE-CHOUINARD 1705", "designationCode": "C", "categoryCode": "65", "address": "155 DES OPTIMISTES", "city": "AMQUI", "province": "QC", "country": "CA", "postalCode": "G5J2S2", "twitter": "None", "instagram": "None", "facebook": "None", "youtube": "None", "website": "None", "summary": "None", "logo": "None", "latitude": 48.47109922424843, "longitude": -67.42115066123276}, "886204999RR0001": {"name": "COMITE DES OEUVRES CHARITABLES DE L'ASSEMBLEE EVEQUE BRUNO DESROCHERS 1033", "designationCode": "C", "categoryCode": "65", "address": "623 ELGIN SUD", "city": "ST-PAMPHINE", "province": "QC", "country": "CA", "postalCode": "G0R3X0", "twitter": "None", "instagram": "None", "facebook": "None", "youtube": "None", "website": "None", "summary": "None", "logo": "None", "latitude": 46.95104016792652, "longitude": -69.76349464749853}, "890823594RR0001": {"name": "COMITE DES OEUVRES CHARITABLES DE L'ASSEMBLEE EVEQUE N A LABRIE 1035-11", "designationCode": "C", "categoryCode": "65", "address": "76B AV LAVAL", "city": "BAIE-COMEAU", "province": "QC", "country": "CA", "postalCode": "G4Z1R2", "twitter": "None", "instagram": "None", "facebook": "None", "youtube": "None", "website": "None", "summary": "None", "logo": "None", "latitude": 49.21462055651923, "longitude": -68.1552930425009}, "886254796RR0001": {"name": "COMITE DES OEUVRES CHARITABLES DE L'ASSEMBLEE EVEQUE RACINE 1024", "designationCode": "C", "categoryCode": "65", "address": "194 RANG 10", "city": "ST GEDEON", "province": "QC", "country": "CA", "postalCode": "G0W2P0", "twitter": "None", "instagram": "None", "facebook": "None", "youtube": "None", "website": "None", "summary": "None", "logo": "None", "latitude": 48.551147570084815, "longitude": -71.72849823400061}, "890164395RR0001": {"name": "COMITE DES OEUVRES CHARITABLES DE L'ASSEMBLEE J ADRIAN CHABASSOL NO: 2252", "designationCode": "A", "categoryCode": "65", "address": "5341 JULES-FOURNIER ST.", "city": "MONTREAL-N", "province": "QC", "country": "CA", "postalCode": "H1G2W9", "twitter": "None", "instagram": "None", "facebook": "None", "youtube": "None", "website": "None", "summary": "None", "logo": "None", "latitude": 45.60419479851685, "longitude": -73.62391644437058}, "886049394RR0001": {"name": "COMITE DES OEUVRES CHARITABLES DE L'ASSEMBLEE MGR C A BILODEAU 1735", "designationCode": "C", "categoryCode": "65", "address": "89 RUE DES ECOLIERS", "city": "PORTNEUF", "province": "QC", "country": "CA", "postalCode": "G0A2Y0", "twitter": "None", "instagram": "None", "facebook": "None", "youtube": "None", "website": "None", "summary": "None", "logo": "None", "latitude": 46.69436022038196, "longitude": -71.88570308185713}, "889183398RR0001": {"name": "COMITE DES OEUVRES CHARITABLES DE L'ASSEMBLEE MGR FELIX-ANTOINE SAVARD 1997", "designationCode": "C", "categoryCode": "65", "address": "115, ROUTE 138", "city": "SAINT-HILARION", "province": "QC", "country": "CA", "postalCode": "G0A3V0", "twitter": "None", "instagram": "None", "facebook": "None", "youtube": "None", "website": "None", "summary": "None", "logo": "None", "latitude": 47.563304871147416, "longitude": -70.44877287830562}, "890279243RR0001": {"name": "COMITE DES OEUVRES CHARITABLES DE L'ASSEMBLEE MGR J -MARIE FORTIER 1522", "designationCode": "C", "categoryCode": "65", "address": "121 AVENUE DES \u00c9RABLES        APP#19", "city": "NEW-RICHMOND", "province": "QC", "country": "CA", "postalCode": "G0C2B0", "twitter": "None", "instagram": "None", "facebook": "None", "youtube": "None", "website": "None", "summary": "None", "logo": "None", "latitude": 48.166356060765324, "longitude": -65.85491926201733}, "892083247RR0001": {"name": "COMITE DES OEUVRES CHARITABLES DE L'ASSEMBLEE PHILIBERT CLICHE 2067-1", "designationCode": "C", "categoryCode": "65", "address": "7516 CH DU BARRAGE", "city": "FRONTENAC", "province": "QC", "country": "CA", "postalCode": "G6B2S3", "twitter": "None", "instagram": "None", "facebook": "None", "youtube": "None", "website": "None", "summary": "None", "logo": "None", "latitude": 45.58827541107373, "longitude": -70.85383872113177}, "890824246RR0001": {"name": "COMITE DES OEUVRES CHARITABLES DE L'ASSEMBLEE REVEREND LUC SIROIS-1846-11", "designationCode": "C", "categoryCode": "65", "address": "14 RUE ROBIN", "city": "FORESTVILLE", "province": "QC", "country": "CA", "postalCode": "G0T1E0", "twitter": "None", "instagram": "None", "facebook": "None", "youtube": "None", "website": "None", "summary": "None", "logo": "None", "latitude": 48.735521684719174, "longitude": -69.09647421790044}, "888941796RR0001": {"name": "COMITE DES OEUVRES CHARITABLES DE L'ASSEMBLEE REVEREND LUCIEN BELLEMARE 1053", "designationCode": "C", "categoryCode": "65", "address": "221 DE LA FABRIQUE", "city": "MATANE", "province": "QC", "country": "CA", "postalCode": "G4W1Z6", "twitter": "None", "instagram": "None", "facebook": "None", "youtube": "None", "website": "None", "summary": "None", "logo": "None", "latitude": 48.847802819262874, "longitude": -67.53575556699772}, "133552190RR0001": {"name": "COMITE DES OEUVRES CHARITABLES DE L'ASSEMBLEE ST-GERMAIN 1025", "designationCode": "C", "categoryCode": "65", "address": "863 RUE DES SAPINS", "city": "RIMOUSKI", "province": "QC", "country": "CA", "postalCode": "G5L3Y8", "twitter": "None", "instagram": "None", "facebook": "None", "youtube": "None", "website": "None", "summary": "None", "logo": "None", "latitude": 48.42516146404878, "longitude": -68.58979814611355}, "890806441RR0001": {"name": "COMITE DES OEUVRES CHARITABLES DE L'ASSEMBLEE SUZOR-COTE 1646", "designationCode": "C", "categoryCode": "65", "address": "15 DUNANT", "city": "VICTORIAVILLE", "province": "QC", "country": "CA", "postalCode": "G6P1Z5", "twitter": "None", "instagram": "None", "facebook": "None", "youtube": "None", "website": "None", "summary": "None", "logo": "None", "latitude": 46.05787791508444, "longitude": -71.97839932540838}, "891536468RR0001": {"name": "COMITE DES OEUVRES CHARITABLES DU CONSEIL ACTON VALE NO 2825", "designationCode": "C", "categoryCode": "65", "address": "1060 RUE SAINT-ANDRE", "city": "ACTON VALE", "province": "QC", "country": "CA", "postalCode": "J0H1A0", "twitter": "None", "instagram": "None", "facebook": "None", "youtube": "None", "website": "None", "summary": "None", "logo": "None", "latitude": 45.6491962559005, "longitude": -72.56463481375162}, "889230637RR0001": {"name": "COMITE DES OEUVRES CHARITABLES DU CONSEIL ALMA 2722", "designationCode": "C", "categoryCode": "65", "address": "195 BEGIN SUD", "city": "ALMA", "province": "QC", "country": "CA", "postalCode": "G8B2W6", "twitter": "None", "instagram": "None", "facebook": "None", "youtube": "None", "website": "None", "summary": "None", "logo": "None", "latitude": 48.54612394725611, "longitude": -71.64701124796599}, "885874438RR0001": {"name": "COMITE DES OEUVRES CHARITABLES DU CONSEIL AMOS NO 2218", "designationCode": "C", "categoryCode": "65", "address": "171 RUE PRINCIPALE N", "city": "AMOS", "province": "QC", "country": "CA", "postalCode": "J9T2L1", "twitter": "None", "instagram": "None", "facebook": "None", "youtube": "None", "website": "None", "summary": "None", "logo": "None", "latitude": 48.57499766472387, "longitude": -78.11603451710977}, "888201241RR0001": {"name": "COMITE DES OEUVRES CHARITABLES DU CONSEIL ARTHABASKA NO 6230", "designationCode": "C", "categoryCode": "65", "address": "193, BOUL. BOIS-FRANCS SUD    LOCAL 103", "city": "VICTORIAVILLE", "province": "QC", "country": "CA", "postalCode": "G6P8L7", "twitter": "None", "instagram": "None", "facebook": "None", "youtube": "None", "website": "None", "summary": "None", "logo": "None", "latitude": 46.055991303047136, "longitude": -71.94602419931879}, "846314359RR0001": {"name": "COMITE DES OEUVRES CHARITABLES DU CONSEIL ASBESTOS NO 2823", "designationCode": "C", "categoryCode": "65", "address": "217 CHASS\u00c9", "city": "ASBESTOS", "province": "QC", "country": "CA", "postalCode": "J1T2B1", "twitter": "None", "instagram": "None", "facebook": "None", "youtube": "None", "website": "None", "summary": "None", "logo": "None", "latitude": 45.77293128310916, "longitude": -71.93916126865378}, "889199048RR0001": {"name": "COMITE DES OEUVRES CHARITABLES DU CONSEIL AUDET 9812", "designationCode": "C", "categoryCode": "65", "address": "83 CH BOUCHARD", "city": "AUDET", "province": "QC", "country": "CA", "postalCode": "G0Y1A0", "twitter": "None", "instagram": "None", "facebook": "None", "youtube": "None", "website": "None", "summary": "None", "logo": "None", "latitude": 45.67860716406004, "longitude": -70.73753174790774}, "888223443RR0001": {"name": "COMITE DES OEUVRES CHARITABLES DU CONSEIL BAIE COMEAU NO. 3094", "designationCode": "C", "categoryCode": "65", "address": "10 RUE ROMEO-VEZINA", "city": "BAIE COMEAU", "province": "QC", "country": "CA", "postalCode": "G4Z2W2", "twitter": "None", "instagram": "None", "facebook": "None", "youtube": "None", "website": "None", "summary": "None", "logo": "None", "latitude": 49.213588749062495, "longitude": -68.19174078388856}, "891601643RR0001": {"name": "COMITE DES OEUVRES CHARITABLES DU CONSEIL BAIE DES CHALEURS 10394", "designationCode": "C", "categoryCode": "65", "address": "143B BOUL PERRON O", "city": "SAINT-SIMEON-DE-BONAVENTURE", "province": "QC", "country": "CA", "postalCode": "G0C3A0", "twitter": "None", "instagram": "None", "facebook": "None", "youtube": "None", "website": "None", "summary": "None", "logo": "None", "latitude": 48.071363161586596, "longitude": -65.57526668339392}, "886785997RR0001": {"name": "COMITE DES OEUVRES CHARITABLES DU CONSEIL BAIE ST-PAUL 3233", "designationCode": "C", "categoryCode": "65", "address": "3 RUE ROY-COMEAU              LOCAL 201", "city": "BAIE SAINT-PAUL", "province": "QC", "country": "CA", "postalCode": "G3Z1W5", "twitter": "None", "instagram": "None", "facebook": "None", "youtube": "None", "website": "None", "summary": "None", "logo": "None", "latitude": 47.44770129390053, "longitude": -70.52264978908177}, "888209442RR0001": {"name": "COMITE DES OEUVRES CHARITABLES DU CONSEIL BARRAUTE NO 3490", "designationCode": "C", "categoryCode": "65", "address": "660 RUE PRINCIPALE            CP 237", "city": "BARRAUTE", "province": "QC", "country": "CA", "postalCode": "J0Y1A0", "twitter": "None", "instagram": "None", "facebook": "None", "youtube": "None", "website": "None", "summary": "None", "logo": "None", "latitude": 48.440708319175975, "longitude": -77.63482898912264}, "891476749RR0001": {"name": "COMITE DES OEUVRES CHARITABLES DU CONSEIL BEAUCEVILLE 2910-7", "designationCode": "C", "categoryCode": "65", "address": "436A BOULEVARD RENAULT", "city": "BEAUCEVILLE", "province": "QC", "country": "CA", "postalCode": "G5X1N5", "twitter": "None", "instagram": "None", "facebook": "None", "youtube": "None", "website": "None", "summary": "None", "logo": "None", "latitude": 46.222772722739116, "longitude": -70.79494426964006}, "891511545RR0001": {"name": "COMITE DES OEUVRES CHARITABLES DU CONSEIL BEDFORD 2038-30", "designationCode": "C", "categoryCode": "65", "address": "14 RUE PHILIPPE-COTE C.P. 1598", "city": "BEDFORD", "province": "QC", "country": "CA", "postalCode": "J0J1A0", "twitter": "None", "instagram": "None", "facebook": "None", "youtube": "None", "website": "None", "summary": "None", "logo": "None", "latitude": 45.11958274854291, "longitude": -72.99145240761128}, "885505982RR0001": {"name": "COMITE DES OEUVRES CHARITABLES DU CONSEIL BELOEIL 2905", "designationCode": "C", "categoryCode": "65", "address": "250 HUBERT", "city": "BELOEIL", "province": "QC", "country": "CA", "postalCode": "J3G2S9", "twitter": "None", "instagram": "None", "facebook": "None", "youtube": "None", "website": "None", "summary": "None", "logo": "None", "latitude": 45.569597323879165, "longitude": -73.20431777840595}, "887419794RR0001": {"name": "COMITE DES OEUVRES CHARITABLES DU CONSEIL BERNIERES/ST-NICOLAS 9896-20", "designationCode": "C", "categoryCode": "65", "address": "624 DE CALAIS", "city": "ST-NICOLAS", "province": "QC", "country": "CA", "postalCode": "G7A1M3", "twitter": "None", "instagram": "None", "facebook": "None", "youtube": "None", "website": "None", "summary": "None", "logo": "None", "latitude": 46.71062061117194, "longitude": -71.30497999668178}, "890835440RR0001": {"name": "COMITE DES OEUVRES CHARITABLES DU CONSEIL BERTHIERVILLE NO 2928", "designationCode": "C", "categoryCode": "65", "address": "588 MONTCALM LOCAL 303", "city": "BERTHIERVILLE", "province": "QC", "country": "CA", "postalCode": "J0K1A0", "twitter": "None", "instagram": "None", "facebook": "None", "youtube": "None", "website": "None", "summary": "None", "logo": "None", "latitude": 46.083804284782595, "longitude": -73.17541070335815}, "887959047RR0001": {"name": "COMITE DES OEUVRES CHARITABLES DU CONSEIL BLACK LAKE 5167-28", "designationCode": "C", "categoryCode": "65", "address": "951 RUE CHRISTOPHE-COLOMB", "city": "THEDFORD", "province": "QC", "country": "CA", "postalCode": "G6H1B5", "twitter": "None", "instagram": "None", "facebook": "None", "youtube": "None", "website": "None", "summary": "None", "logo": "None", "latitude": 46.053938072190945, "longitude": -71.36736003202743}, "886329390RR0001": {"name": "COMITE DES OEUVRES CHARITABLES DU CONSEIL BOIS-DES-FILION NO 5661", "designationCode": "C", "categoryCode": "65", "address": "2195, RUE BOISVERT", "city": "TERREBONNE", "province": "QC", "country": "CA", "postalCode": "J6Y1J7", "twitter": "None", "instagram": "None", "facebook": "None", "youtube": "None", "website": "None", "summary": "None", "logo": "None", "latitude": 45.6862805923018, "longitude": -73.7887163280341}, "891558942RR0001": {"name": "COMITE DES OEUVRES CHARITABLES DU CONSEIL BROMPTONVILLE 6849", "designationCode": "C", "categoryCode": "65", "address": "95, RUE SAINT-JOSEPH          CASE POSTALE 456", "city": "SHERBROOKE", "province": "QC", "country": "CA", "postalCode": "J1C0P6", "twitter": "None", "instagram": "None", "facebook": "None", "youtube": "None", "website": "None", "summary": "None", "logo": "None", "latitude": 45.474572786023344, "longitude": -71.93944388827981}, "885024984RR0001": {"name": "COMITE DES OEUVRES CHARITABLES DU CONSEIL CADILLAC 5908-13", "designationCode": "C", "categoryCode": "65", "address": "17 RUE DE CADILLAC            C.P. 201", "city": "ROUYN-NORANDA", "province": "QC", "country": "CA", "postalCode": "J0Y1C0", "twitter": "None", "instagram": "None", "facebook": "None", "youtube": "None", "website": "None", "summary": "None", "logo": "None", "latitude": 48.2226526505856, "longitude": -78.38186433233328}, "885492785RR0001": {"name": "COMITE DES OEUVRES CHARITABLES DU CONSEIL CAP CHAT NO 3765", "designationCode": "C", "categoryCode": "65", "address": "235 RUE NOTRE-DAME OUEST      C.P. 736", "city": "CAP-CHAT", "province": "QC", "country": "CA", "postalCode": "G0J1E0", "twitter": "None", "instagram": "None", "facebook": "None", "youtube": "None", "website": "None", "summary": "None", "logo": "None", "latitude": 49.09020728504239, "longitude": -66.71797491257429}, "886300797RR0001": {"name": "COMITE DES OEUVRES CHARITABLES DU CONSEIL CARLETON 3462", "designationCode": "C", "categoryCode": "65", "address": "A-629 BOULEVARD PERRON", "city": "CARLETON SUR MER", "province": "QC", "country": "CA", "postalCode": "G0C1J0", "twitter": "None", "instagram": "None", "facebook": "None", "youtube": "None", "website": "None", "summary": "None", "logo": "None", "latitude": 48.101826060765305, "longitude": -66.12189951056024}, "889159794RR0001": {"name": "COMITE DES OEUVRES CHARITABLES DU CONSEIL CHARLESBOURG NO 6289", "designationCode": "C", "categoryCode": "65", "address": "4205-C RUE DES ROSES", "city": "CHARLESBOURG", "province": "QC", "country": "CA", "postalCode": "G1G1N9", "twitter": "None", "instagram": "None", "facebook": "None", "youtube": "None", "website": "None", "summary": "None", "logo": "None", "latitude": 46.88134428310917, "longitude": -71.28616203387377}, "889111431RR0001": {"name": "COMITE DES OEUVRES CHARITABLES DU CONSEIL CHICOUTIMI 1989-12 (ARBRE DU PARTAGE)", "designationCode": "C", "categoryCode": "65", "address": "2 - 2226 RUE SAUCIER", "city": "JONQUIERE", "province": "QC", "country": "CA", "postalCode": "G7S3T6", "twitter": "None", "instagram": "None", "facebook": "None", "youtube": "None", "website": "None", "summary": "None", "logo": "None", "latitude": 48.41324123091353, "longitude": -71.17237808840666}, "884885385RR0001": {"name": "COMITE DES OEUVRES CHARITABLES DU CONSEIL CHUTES-AUX-OUTARDE", "designationCode": "C", "categoryCode": "65", "address": "18 RUE DU GOLF", "city": "CHUTE-AUX-OUTARDES", "province": "QC", "country": "CA", "postalCode": "G0H1C0", "twitter": "None", "instagram": "None", "facebook": "None", "youtube": "None", "website": "None", "summary": "None", "logo": "None", "latitude": 49.12924449653757, "longitude": -68.39670307660568}, "886217199RR0001": {"name": "COMITE DES OEUVRES CHARITABLES DU CONSEIL COATICOOK NO 2106", "designationCode": "C", "categoryCode": "65", "address": "87 RUE MAIN O", "city": "COATICOOK", "province": "QC", "country": "CA", "postalCode": "J1A1P3", "twitter": "None", "instagram": "None", "facebook": "None", "youtube": "None", "website": "None", "summary": "None", "logo": "None", "latitude": 45.132549975619916, "longitude": -71.80669296709866}, "889281242RR0001": {"name": "COMITE DES OEUVRES CHARITABLES DU CONSEIL COTE DE BEAUPRE NO 2896", "designationCode": "C", "categoryCode": "65", "address": "1 CHEMIN DE LA RIVIERE", "city": "BEAUPRE", "province": "QC", "country": "CA", "postalCode": "G0A1E0", "twitter": "None", "instagram": "None", "facebook": "None", "youtube": "None", "website": "None", "summary": "None", "logo": "None", "latitude": 47.05907317317798, "longitude": -70.88802055164736}}