{"139265821RR0001": {"name": "ENDING VIOLENCE ASSOCIATION OF BRITISH COLUMBIA", "designationCode": "C", "categoryCode": "09", "address": "1404-510 WEST HASTINGS ST", "city": "VANCOUVER", "province": "BC", "country": "CA", "postalCode": "V6B1L8", "twitter": "None", "instagram": "None", "facebook": "None", "youtube": "None", "website": "None", "summary": "None", "logo": "None", "latitude": 49.28421262779169, "longitude": -123.11218934918325}, "119239564RR0001": {"name": "ENDLA & JOHN GILMOUR FOUNDATION", "designationCode": "B", "categoryCode": "53", "address": "PO BOX 1172 STN TORONTO DOM", "city": "TORONTO", "province": "ON", "country": "CA", "postalCode": "M5K1P2", "twitter": "None", "instagram": "None", "facebook": "None", "youtube": "None", "website": "None", "summary": "None", "logo": "None", "latitude": 43.64868300000006, "longitude": -79.38544399999994}, "891603847RR0001": {"name": "ENDOMETRIOSIS ASSOCIATION (CANADA), INCOPORATED", "designationCode": "C", "categoryCode": "11", "address": "PO BOX 3743", "city": "SMITHERS", "province": "BC", "country": "CA", "postalCode": "V0J2N0", "twitter": "None", "instagram": "None", "facebook": "None", "youtube": "None", "website": "None", "summary": "None", "logo": "None", "latitude": 54.78312000000005, "longitude": -127.16847999999999}, "890418593RR0001": {"name": "ENDOWMENT SOCIETY OF THE CALGARY REGISTERED MUSIC TEACHERS", "designationCode": "C", "categoryCode": "22", "address": "3 RANCH ESTATES DR. NW", "city": "CALGARY", "province": "AB", "country": "CA", "postalCode": "T3G1J9", "twitter": "None", "instagram": "None", "facebook": "None", "youtube": "None", "website": "None", "summary": "None", "logo": "None", "latitude": 51.115796077990666, "longitude": -114.17525451985107}, "887811404RR0001": {"name": "ENDS OF THE EARTH COURIER FOR CHRIST INC.", "designationCode": "C", "categoryCode": "39", "address": "PO BOX 1471", "city": "OUTLOOK", "province": "SK", "country": "CA", "postalCode": "S0L2N0", "twitter": "None", "instagram": "None", "facebook": "None", "youtube": "None", "website": "None", "summary": "None", "logo": "None", "latitude": 51.5306764246367, "longitude": -107.23731016398128}, "889129144RR0001": {"name": "ENDSWELL FOUNDATION", "designationCode": "B", "categoryCode": "03", "address": "500-163 HASTINGS STREET WEST", "city": "VANCOUVER", "province": "BC", "country": "CA", "postalCode": "V6B1H5", "twitter": "None", "instagram": "None", "facebook": "None", "youtube": "None", "website": "None", "summary": "None", "logo": "None", "latitude": 49.28265478836331, "longitude": -123.10975395924528}, "889500302RR0001": {"name": "ENDTIME HARVEST FOR CHRIST INTERNATIONAL MINISTRIES", "designationCode": "C", "categoryCode": "39", "address": "421 NUGGET DRIVE              UNIT 9A", "city": "SCARBOROUGH", "province": "ON", "country": "CA", "postalCode": "M1S4L8", "twitter": "None", "instagram": "None", "facebook": "None", "youtube": "None", "website": "None", "summary": "None", "logo": "None", "latitude": 43.798058721017135, "longitude": -79.2438190681229}, "825722879RR0001": {"name": "ENERGY SAFETY CANADA", "designationCode": "C", "categoryCode": "20", "address": "5055 11TH STREET NE", "city": "CALGARY", "province": "AB", "country": "CA", "postalCode": "T2E8N4", "twitter": "None", "instagram": "None", "facebook": "None", "youtube": "None", "website": "None", "summary": "None", "logo": "None", "latitude": 51.09822067055225, "longitude": -114.0364942213629}, "877417519RR0001": {"name": "ENFANCE LIBRE LANAUDI\u00c8RE", "designationCode": "C", "categoryCode": "59", "address": "1208 RUE DE LANAUDIERE", "city": "JOLIETTE", "province": "QC", "country": "CA", "postalCode": "J6E3P1", "twitter": "None", "instagram": "None", "facebook": "None", "youtube": "None", "website": "None", "summary": "None", "logo": "None", "latitude": 46.01429249737427, "longitude": -73.44989157995255}, "866226921RR0001": {"name": "ENFANT D'ABORD", "designationCode": "C", "categoryCode": "09", "address": "3781 BLVD LEVESQUE OUEST      BUREAU 207", "city": "LAVAL", "province": "QC", "country": "CA", "postalCode": "H7V1G5", "twitter": "None", "instagram": "None", "facebook": "None", "youtube": "None", "website": "None", "summary": "None", "logo": "None", "latitude": 45.534696252870724, "longitude": -73.73858697475323}, "866531627RR0001": {"name": "ENFANTS DE BOLIVIE", "designationCode": "C", "categoryCode": "09", "address": "1101 BOUL LUCILLE-TEASDALE    UNITE 403", "city": "TERREBONNE", "province": "QC", "country": "CA", "postalCode": "J6V0B1", "twitter": "None", "instagram": "None", "facebook": "None", "youtube": "None", "website": "None", "summary": "None", "logo": "None", "latitude": 45.72537953952925, "longitude": -73.50635219608748}, "859630840RR0001": {"name": "ENFANTS DE SAN ANDRES-LIMA", "designationCode": "C", "categoryCode": "09", "address": "10730 BOUL OLYMPIA", "city": "MONTREAL", "province": "QC", "country": "CA", "postalCode": "H2C2W5", "twitter": "None", "instagram": "None", "facebook": "None", "youtube": "None", "website": "None", "summary": "None", "logo": "None", "latitude": 45.56348503523007, "longitude": -73.66270051485941}, "138351507RR0001": {"name": "ENFANTS TIERS-MONDE (555)", "designationCode": "C", "categoryCode": "49", "address": "7385, BOUL. PARENT", "city": "TROIS-RIVIERES", "province": "QC", "country": "CA", "postalCode": "G9A5E1", "twitter": "None", "instagram": "None", "facebook": "None", "youtube": "None", "website": "None", "summary": "None", "logo": "None", "latitude": 46.36327706520871, "longitude": -72.6256077571699}, "854284924RR0001": {"name": "ENGAGE NOVA SCOTIA CIVIC ENGAGEMENT SOCIETY", "designationCode": "C", "categoryCode": "20", "address": "601 - 1800 ARGYLE ST", "city": "HALIFAX", "province": "NS", "country": "CA", "postalCode": "B3J3N8", "twitter": "None", "instagram": "None", "facebook": "None", "youtube": "None", "website": "None", "summary": "None", "logo": "None", "latitude": 44.64853451511921, "longitude": -63.575583425096426}, "858558919RR0001": {"name": "ENGAGED LEADERSHIP FOUNDATION", "designationCode": "C", "categoryCode": "21", "address": "BOX 62 SUITE 1250             1500 GEORGIA ST WEST", "city": "VANCOUVER", "province": "BC", "country": "CA", "postalCode": "V6G2Z6", "twitter": "None", "instagram": "None", "facebook": "None", "youtube": "None", "website": "None", "summary": "None", "logo": "None", "latitude": 49.29013479542975, "longitude": -123.1300069287031}, "119298420RR0001": {"name": "ENGELITE CHARITABLE FOUNDATION", "designationCode": "B", "categoryCode": "03", "address": "4190 BATHURST ST.             SUITE 907", "city": "TORONTO", "province": "ON", "country": "CA", "postalCode": "M3H3P9", "twitter": "None", "instagram": "None", "facebook": "None", "youtube": "None", "website": "None", "summary": "None", "logo": "None", "latitude": 43.74862796197131, "longitude": -79.4368489523051}, "899801815RR0001": {"name": "ENGINEERS WITHOUT BORDERS (CANADA) ORGANIZATION/INGENIEURS SANS FRONTIERES (CANADA) ORGANISATION", "designationCode": "C", "categoryCode": "09", "address": "2000 - 365 BLOOR ST E", "city": "TORONTO", "province": "ON", "country": "CA", "postalCode": "M4W3L4", "twitter": "None", "instagram": "None", "facebook": "None", "youtube": "None", "website": "None", "summary": "None", "logo": "None", "latitude": 43.67244585876691, "longitude": -79.37634608562912}, "891000184RR0001": {"name": "ENGLEE PASTORAL CHARGE", "designationCode": "C", "categoryCode": "44", "address": "ROUTE 430 VIKING TRIAL        PO BOX 88", "city": "SANDY COVE", "province": "NL", "country": "CA", "postalCode": "A0K5C0", "twitter": "None", "instagram": "None", "facebook": "None", "youtube": "None", "website": "None", "summary": "None", "logo": "None", "latitude": 49.74068400000006, "longitude": -55.957309999999936}, "118900190RR0001": {"name": "ENGLEFELD AND DISTRICT DONOR'S CHOICE", "designationCode": "C", "categoryCode": "05", "address": "BOX 184", "city": "ENGLEFELD", "province": "SK", "country": "CA", "postalCode": "S0K1N0", "twitter": "None", "instagram": "None", "facebook": "None", "youtube": "None", "website": "None", "summary": "None", "logo": "None", "latitude": 52.15925000000004, "longitude": -104.65563999999995}, "118900208RR0001": {"name": "ENGLEFELD GOOD NEIGHBORS CLUB", "designationCode": "C", "categoryCode": "56", "address": "BOX 155", "city": "ENGLEFELD", "province": "SK", "country": "CA", "postalCode": "S0K1N0", "twitter": "None", "instagram": "None", "facebook": "None", "youtube": "None", "website": "None", "summary": "None", "logo": "None", "latitude": 52.15925000000004, "longitude": -104.65563999999995}, "890625775RR0001": {"name": "ENGLEFELD UNION CEMETERY ASSOCIATION", "designationCode": "C", "categoryCode": "59", "address": "PO BOX 19", "city": "ENGLEFIELD", "province": "SK", "country": "CA", "postalCode": "S0K1N0", "twitter": "None", "instagram": "None", "facebook": "None", "youtube": "None", "website": "None", "summary": "None", "logo": "None", "latitude": 52.15925000000004, "longitude": -104.65563999999995}, "871712378RR0001": {"name": "ENGLEHART & DISTRICT WHEELCHAIR BUS FUNDRAISING", "designationCode": "C", "categoryCode": "09", "address": "P.O. BOX 914", "city": "ENGLEHART", "province": "ON", "country": "CA", "postalCode": "P0J1H0", "twitter": "None", "instagram": "None", "facebook": "None", "youtube": "None", "website": "None", "summary": "None", "logo": "None", "latitude": 47.81686000000008, "longitude": -79.86639999999994}, "897509964RR0001": {"name": "ENGLEHART AND AREA CHILD CARE CENTRE", "designationCode": "C", "categoryCode": "01", "address": "BOX 659", "city": "ENGLEHART", "province": "ON", "country": "CA", "postalCode": "P0J1H0", "twitter": "None", "instagram": "None", "facebook": "None", "youtube": "None", "website": "None", "summary": "None", "logo": "None", "latitude": 47.81686000000008, "longitude": -79.86639999999994}, "107305385RR0001": {"name": "ENGLEHART AND DISTRICT HOSPITAL INC.", "designationCode": "C", "categoryCode": "10", "address": "BOX 69                        61  5TH STREET", "city": "ENGLEHART", "province": "ON", "country": "CA", "postalCode": "P0J1H0", "twitter": "None", "instagram": "None", "facebook": "None", "youtube": "None", "website": "None", "summary": "None", "logo": "None", "latitude": 47.82279383809328, "longitude": -79.87861342780499}, "107305369RR0001": {"name": "ENGLEHART BAPTIST CHURCH", "designationCode": "C", "categoryCode": "31", "address": "BOX 101", "city": "ENGLEHART", "province": "ON", "country": "CA", "postalCode": "P0J1H0", "twitter": "None", "instagram": "None", "facebook": "None", "youtube": "None", "website": "None", "summary": "None", "logo": "None", "latitude": 47.81686000000008, "longitude": -79.86639999999994}, "119288918RR0501": {"name": "ENGLEHART ONTARIO CONGREGATION OF JEHOVAH'S WITNESSES", "designationCode": "C", "categoryCode": "61", "address": "BOX 218", "city": "ENGLEHART", "province": "ON", "country": "CA", "postalCode": "P0J1H0", "twitter": "None", "instagram": "None", "facebook": "None", "youtube": "None", "website": "None", "summary": "None", "logo": "None", "latitude": 47.81686000000008, "longitude": -79.86639999999994}, "107305401RR0001": {"name": "ENGLEHART PASTORAL CHARGE", "designationCode": "C", "categoryCode": "44", "address": "BOX 53", "city": "ENGLEHART", "province": "ON", "country": "CA", "postalCode": "P0J1H0", "twitter": "None", "instagram": "None", "facebook": "None", "youtube": "None", "website": "None", "summary": "None", "logo": "None", "latitude": 47.81686000000008, "longitude": -79.86639999999994}, "882988140RR0001": {"name": "ENGLISH AT FIRST", "designationCode": "C", "categoryCode": "20", "address": "16 WILLIAM ST W", "city": "WATERLOO", "province": "ON", "country": "CA", "postalCode": "N2L1J3", "twitter": "None", "instagram": "None", "facebook": "None", "youtube": "None", "website": "None", "summary": "None", "logo": "None", "latitude": 43.46151167889079, "longitude": -80.52166247657091}, "119288918RR1049": {"name": "ENGLISH BAY CONGREGATION OF JEHOVAH'S WITNESSES, VANCOUVER BRITISH COLUMBIA", "designationCode": "C", "categoryCode": "61", "address": "1526 ROBSON ST", "city": "VANCOUVER", "province": "BC", "country": "CA", "postalCode": "V6G1C2", "twitter": "None", "instagram": "None", "facebook": "None", "youtube": "None", "website": "None", "summary": "None", "logo": "None", "latitude": 49.289024704397356, "longitude": -123.1317181078537}, "118900273RR0001": {"name": "ENGLISH DISTRICT OF THE LUTHERAN CHURCH - MISSOURI SYNOD", "designationCode": "C", "categoryCode": "32", "address": "15 ALLSTATE PARKWAY, SUITE 200", "city": "MARKHAM", "province": "ON", "country": "CA", "postalCode": "L3R5B4", "twitter": "None", "instagram": "None", "facebook": "None", "youtube": "None", "website": "None", "summary": "None", "logo": "None", "latitude": 43.84981236029176, "longitude": -79.36490088758826}, "829853878RR0001": {"name": "ENGLISH HARBOUR ARTS ASSOCIATION LTD.", "designationCode": "C", "categoryCode": "22", "address": "98 CASTLEFIELD AVE", "city": "TORONTO", "province": "ON", "country": "CA", "postalCode": "M4R1G4", "twitter": "None", "instagram": "None", "facebook": "None", "youtube": "None", "website": "None", "summary": "None", "logo": "None", "latitude": 43.71084415794321, "longitude": -79.40416906440065}, "131666448RR0001": {"name": "ENGLISH LANGUAGE TUTORING FOR THE OTTAWA COMMUNITY", "designationCode": "C", "categoryCode": "21", "address": "108 - 404 MCARTHUR AVE", "city": "OTTAWA", "province": "ON", "country": "CA", "postalCode": "K1K1G8", "twitter": "None", "instagram": "None", "facebook": "None", "youtube": "None", "website": "None", "summary": "None", "logo": "None", "latitude": 45.43209152120739, "longitude": -75.64884963765944}, "142423896RR0001": {"name": "ENGLISH-MONTREAL SCHOOL BOARD/COMMISSION SCOLAIRE ENGLISH-MO", "designationCode": "C", "categoryCode": "20", "address": "6000, AV. FIELDING            RM 19", "city": "MONTREAL", "province": "QC", "country": "CA", "postalCode": "H3X1T4", "twitter": "None", "instagram": "None", "facebook": "None", "youtube": "None", "website": "None", "summary": "None", "logo": "None", "latitude": 45.476401685238784, "longitude": -73.63671108682013}, "107608176RR0001": {"name": "ENGLISH-SPEAKING CATHOLIC COUNCIL INC./CONSEIL CATHOLIQUE DE L'EXPRESSION ANGLAISE INC.", "designationCode": "C", "categoryCode": "59", "address": "2005 ST-MARC STREET", "city": "MONTREAL", "province": "QC", "country": "CA", "postalCode": "H3H2G8", "twitter": "None", "instagram": "None", "facebook": "None", "youtube": "None", "website": "None", "summary": "None", "logo": "None", "latitude": 45.49373016071316, "longitude": -73.58184715762609}, "883492969RR0001": {"name": "ENGLISHTOWN AUXILIARY FIRE DEPARTMENT", "designationCode": "C", "categoryCode": "59", "address": "P.O. BOX 30", "city": "ENGLISHTOWN", "province": "NS", "country": "CA", "postalCode": "B0C1H0", "twitter": "None", "instagram": "None", "facebook": "None", "youtube": "None", "website": "None", "summary": "None", "logo": "None", "latitude": 46.28038000000004, "longitude": -60.54481999999996}, "107305609RR0001": {"name": "ENJEU ET ENVIRONNEMENT JEUNESSE INC.", "designationCode": "C", "categoryCode": "52", "address": "50 RUE SAINTE-CATHERINE O     BUREAU 340", "city": "MONTREAL", "province": "QC", "country": "CA", "postalCode": "H2X3V4", "twitter": "None", "instagram": "None", "facebook": "None", "youtube": "None", "website": "None", "summary": "None", "logo": "None", "latitude": 45.50894347293556, "longitude": -73.56455956090953}, "118900307RR0001": {"name": "ENNERDALE ROAD BAPTIST CHURCH, INC.", "designationCode": "C", "categoryCode": "31", "address": "228 ENNERDALE ROAD", "city": "TORONTO", "province": "ON", "country": "CA", "postalCode": "M6E4E2", "twitter": "None", "instagram": "None", "facebook": "None", "youtube": "None", "website": "None", "summary": "None", "logo": "None", "latitude": 43.694396654452085, "longitude": -79.45329472566206}, "107305666RR0001": {"name": "ENNISKILLEN TYRONE PASTORAL CHARGE", "designationCode": "C", "categoryCode": "44", "address": "26 JOHN SCOTT AVE", "city": "BOWMANVILLE", "province": "ON", "country": "CA", "postalCode": "L1C4K9", "twitter": "None", "instagram": "None", "facebook": "None", "youtube": "None", "website": "None", "summary": "None", "logo": "None", "latitude": 43.899470139621336, "longitude": -78.68772690397594}, "118900331RR0001": {"name": "ENNOTVILLE HISTORICAL LIBRARY", "designationCode": "C", "categoryCode": "50", "address": "7722 SIXTH LINE               NICHOL TOWNSHIP RR2", "city": "ELORA", "province": "ON", "country": "CA", "postalCode": "N0B1S0", "twitter": "None", "instagram": "None", "facebook": "None", "youtube": "None", "website": "None", "summary": "None", "logo": "None", "latitude": 43.65647938080667, "longitude": -80.33188057703836}, "886121805RR0001": {"name": "ENRICH MINISTRIES INC.", "designationCode": "C", "categoryCode": "39", "address": "10 STANFORD BAY", "city": "WINNIPEG", "province": "MB", "country": "CA", "postalCode": "R3P0T4", "twitter": "None", "instagram": "None", "facebook": "None", "youtube": "None", "website": "None", "summary": "None", "logo": "None", "latitude": 49.85629449567217, "longitude": -97.22462314071787}, "705606697RR0001": {"name": "ENS FAMILY FOUNDATION INC.", "designationCode": "B", "categoryCode": "03", "address": "100 - 728 SPADINA CRES E", "city": "SASKATOON", "province": "SK", "country": "CA", "postalCode": "S7K3H2", "twitter": "None", "instagram": "None", "facebook": "None", "youtube": "None", "website": "None", "summary": "None", "logo": "None", "latitude": 52.12775160646608, "longitude": -106.65757978092643}, "886411420RR0001": {"name": "ENSEMBLE ANTOINE-PERREAULT", "designationCode": "C", "categoryCode": "22", "address": "22 RUE SAINTE-MARIE", "city": "RIMOUSKI", "province": "QC", "country": "CA", "postalCode": "G5L4E2", "twitter": "None", "instagram": "None", "facebook": "None", "youtube": "None", "website": "None", "summary": "None", "logo": "None", "latitude": 48.449124721911176, "longitude": -68.52907603401799}, "118900349RR0001": {"name": "ENSEMBLE ARION", "designationCode": "C", "categoryCode": "22", "address": "3950 SAINT-DENIS", "city": "MONTREAL", "province": "QC", "country": "CA", "postalCode": "H2W2M2", "twitter": "None", "instagram": "None", "facebook": "None", "youtube": "None", "website": "None", "summary": "None", "logo": "None", "latitude": 45.52015184788518, "longitude": -73.57461548669845}, "856907688RR0001": {"name": "ENSEMBLE CAPRICE", "designationCode": "C", "categoryCode": "22", "address": "4043, RUE MARLOWE", "city": "MONTR\u00c9AL", "province": "QC", "country": "CA", "postalCode": "H4A3M3", "twitter": "None", "instagram": "None", "facebook": "None", "youtube": "None", "website": "None", "summary": "None", "logo": "None", "latitude": 45.47871228310916, "longitude": -73.61515141075661}, "129696274RR0001": {"name": "ENSEMBLE CONTEMPORAIN DE MONTREAL", "designationCode": "C", "categoryCode": "22", "address": "3890 RUE CLARK", "city": "MONTREAL", "province": "QC", "country": "CA", "postalCode": "H2W1W6", "twitter": "None", "instagram": "None", "facebook": "None", "youtube": "None", "website": "None", "summary": "None", "logo": "None", "latitude": 45.51567558921472, "longitude": -73.57819341147776}, "872424569RR0001": {"name": "ENSEMBLE FOLKLORIQUE LES BONS DIABLES", "designationCode": "C", "categoryCode": "22", "address": "90 AV DU PACIFIQUE", "city": "LAVAL", "province": "QC", "country": "CA", "postalCode": "H7N3X8", "twitter": "None", "instagram": "None", "facebook": "None", "youtube": "None", "website": "None", "summary": "None", "logo": "None", "latitude": 45.55409070024242, "longitude": -73.70563347420497}, "875792020RR0001": {"name": "ENSEMBLE MUSICA ORBIUM", "designationCode": "C", "categoryCode": "22", "address": "4466, RUE MIGNAULT", "city": "MONTREAL", "province": "QC", "country": "CA", "postalCode": "H1M1Y7", "twitter": "None", "instagram": "None", "facebook": "None", "youtube": "None", "website": "None", "summary": "None", "logo": "None", "latitude": 45.58407622840339, "longitude": -73.54474140703437}, "873973168RR0001": {"name": "ENSEMBLE MUSICAL MARGUERITE-DE lajemmerais", "designationCode": "C", "categoryCode": "21", "address": "5555 RUE SHERBROOKE EST", "city": "MONTREAL", "province": "QC", "country": "CA", "postalCode": "H1N1A2", "twitter": "None", "instagram": "None", "facebook": "None", "youtube": "None", "website": "None", "summary": "None", "logo": "None", "latitude": 45.57112605303235, "longitude": -73.55066876706631}, "892419946RR0001": {"name": "ENSEMBLE POUR LE RESPECT DE LA DIVERSIT\u00c9 / ENSEMBLE FOR THE RESPECT OF DIVERSITY", "designationCode": "C", "categoryCode": "99", "address": "180,BLV RENE-LEVESQUE EST     SUITE 420", "city": "MONTREAL", "province": "QC", "country": "CA", "postalCode": "H2X1N6", "twitter": "None", "instagram": "None", "facebook": "None", "youtube": "None", "website": "None", "summary": "None", "logo": "None", "latitude": 45.510225653615365, "longitude": -73.5601951219633}, "128991684RR0001": {"name": "ENSEMBLE THEATRAL DE MONTREAL/MONTREAL THEATRE ENSEMBLE", "designationCode": "C", "categoryCode": "22", "address": "262, RUE CRESCENT", "city": "ROSEMERE", "province": "QC", "country": "CA", "postalCode": "J7A3H8", "twitter": "None", "instagram": "None", "facebook": "None", "youtube": "None", "website": "None", "summary": "None", "logo": "None", "latitude": 45.64407922621033, "longitude": -73.78973592019167}, "853757441RR0001": {"name": "ENSEMBLE VOCAL ARCANTIA", "designationCode": "C", "categoryCode": "22", "address": "3786 RUE MURIELLE", "city": "LAVAL", "province": "QC", "country": "CA", "postalCode": "H7P1N6", "twitter": "None", "instagram": "None", "facebook": "None", "youtube": "None", "website": "None", "summary": "None", "logo": "None", "latitude": 45.57572449930751, "longitude": -73.82080206644946}, "895579373RR0001": {"name": "ENSEMBLE VOCAL DE SAINT-LAURENT", "designationCode": "C", "categoryCode": "22", "address": "1375 RUE GRENET               CASA POSTALE 8", "city": "SAINT-LAURENT", "province": "QC", "country": "CA", "postalCode": "H4L5K3", "twitter": "None", "instagram": "None", "facebook": "None", "youtube": "None", "website": "None", "summary": "None", "logo": "None", "latitude": 45.51392004082733, "longitude": -73.69102675627587}, "118900414RR0001": {"name": "ENSEMBLE VOCAL MUSICA VIVA", "designationCode": "C", "categoryCode": "22", "address": "7501, RUE FRANCOIS-PERRAULT", "city": "MONTREAL", "province": "QC", "country": "CA", "postalCode": "H2A1M1", "twitter": "None", "instagram": "None", "facebook": "None", "youtube": "None", "website": "None", "summary": "None", "logo": "None", "latitude": 45.562085873449064, "longitude": -73.60221909267717}, "101644110RR0001": {"name": "ENSEMBLE VOCAL POLYMNIE", "designationCode": "C", "categoryCode": "22", "address": "CENTRE CULTUREL JACQUES FERRON100 RUE ST LAURENT OUEST", "city": "LONGUEUIL", "province": "QC", "country": "CA", "postalCode": "J4H1M1", "twitter": "None", "instagram": "None", "facebook": "None", "youtube": "None", "website": "None", "summary": "None", "logo": "None", "latitude": 45.53799995556603, "longitude": -73.5062199838425}, "815371349RR0001": {"name": "ENSEMBLE, COURONS VERS LA GUERISON", "designationCode": "C", "categoryCode": "19", "address": "CASE POSTALE 75", "city": "SALABERRY-DE-VALLEYFIELD", "province": "QC", "country": "CA", "postalCode": "J6S4V5", "twitter": "None", "instagram": "None", "facebook": "None", "youtube": "None", "website": "None", "summary": "None", "logo": "None", "latitude": 45.25893600000006, "longitude": -74.10716449999994}, "120495403RR0001": {"name": "ENSOLEILVENT", "designationCode": "C", "categoryCode": "09", "address": "490, RUE BROCK", "city": "DRUMMONDVILLE", "province": "QC", "country": "CA", "postalCode": "J2B1E4", "twitter": "None", "instagram": "None", "facebook": "None", "youtube": "None", "website": "None", "summary": "None", "logo": "None", "latitude": 45.88017260144839, "longitude": -72.48094560476662}, "118900430RR0001": {"name": "ENTERPRISE FREE METHODIST CHURCH", "designationCode": "C", "categoryCode": "39", "address": "3935 GREENFIELD RD", "city": "INVERARY", "province": "ON", "country": "CA", "postalCode": "K0H1X0", "twitter": "None", "instagram": "None", "facebook": "None", "youtube": "None", "website": "None", "summary": "None", "logo": "None", "latitude": 44.39914296231242, "longitude": -76.48712603957811}, "861280428RR0001": {"name": "ENTERTAINMENT AND MEDIA ARTS SOCIETY", "designationCode": "C", "categoryCode": "22", "address": "661 E 15TH AVE", "city": "VANCOUVER", "province": "BC", "country": "CA", "postalCode": "V5T2R6", "twitter": "None", "instagram": "None", "facebook": "None", "youtube": "None", "website": "None", "summary": "None", "logo": "None", "latitude": 49.257310552891525, "longitude": -123.0900918961364}, "107305971RR0001": {"name": "ENTHEOS LODGE FOUNDATION", "designationCode": "C", "categoryCode": "49", "address": "242032  RR 40", "city": "CALGARY", "province": "AB", "country": "CA", "postalCode": "T3Z2W8", "twitter": "None", "instagram": "None", "facebook": "None", "youtube": "None", "website": "None", "summary": "None", "logo": "None", "latitude": 51.037906990226936, "longitude": -114.42027002314431}, "891640575RR0001": {"name": "ENTOMOFAUNE DU QUEBEC (EQ) INC", "designationCode": "C", "categoryCode": "21", "address": "108 - 637 BOUL TALBOT", "city": "CHICOUTIMI", "province": "QC", "country": "CA", "postalCode": "G7H6A4", "twitter": "None", "instagram": "None", "facebook": "None", "youtube": "None", "website": "None", "summary": "None", "logo": "None", "latitude": 48.41925892143243, "longitude": -71.04392059261986}, "118900463RR0001": {"name": "ENTOMOLOGICAL SOCIETY OF CANADA SCHOLARSHIP FUND", "designationCode": "C", "categoryCode": "21", "address": "503 - 386 BROADWAY", "city": "WINNIPEG", "province": "MB", "country": "CA", "postalCode": "R3C3R6", "twitter": "None", "instagram": "None", "facebook": "None", "youtube": "None", "website": "None", "summary": "None", "logo": "None", "latitude": 49.88653076545114, "longitude": -97.14461727517464}, "118900471RR0001": {"name": "ENTOMOLOGICAL SOCIETY OF MANITOBA INC.", "designationCode": "C", "categoryCode": "21", "address": "214 ANIMAL SCIENCE BUILDING   UNIVERSITY OF MANITOBA", "city": "WINNIPEG", "province": "MB", "country": "CA", "postalCode": "R3T2N2", "twitter": "None", "instagram": "None", "facebook": "None", "youtube": "None", "website": "None", "summary": "None", "logo": "None", "latitude": 49.809599923394394, "longitude": -97.13332993277201}, "118900489RR0001": {"name": "ENTOMOLOGICAL SOCIETY OF SASKATCHEWAN INC.", "designationCode": "C", "categoryCode": "21", "address": "107 SCIENCE PLACE", "city": "SASKATOON", "province": "SK", "country": "CA", "postalCode": "S7N0X2", "twitter": "None", "instagram": "None", "facebook": "None", "youtube": "None", "website": "None", "summary": "None", "logo": "None", "latitude": 52.13302504206655, "longitude": -106.63512399716636}, "140525551RR0001": {"name": "ENTR'ACTES, PRODUCTIONS ARTISTIQUES", "designationCode": "C", "categoryCode": "22", "address": "870 DE SALABERRY              BUREAU 109", "city": "QUEBEC", "province": "QC", "country": "CA", "postalCode": "G1R2T9", "twitter": "None", "instagram": "None", "facebook": "None", "youtube": "None", "website": "None", "summary": "None", "logo": "None", "latitude": 46.80589182679337, "longitude": -71.22672208246271}, "892443045RR0001": {"name": "ENTR'AIDE", "designationCode": "C", "categoryCode": "09", "address": "801 ROUTE 135", "city": "HACHEYVILLE", "province": "NB", "country": "CA", "postalCode": "E8M1J7", "twitter": "None", "instagram": "None", "facebook": "None", "youtube": "None", "website": "None", "summary": "None", "logo": "None", "latitude": 47.5892541747263, "longitude": -65.06439699407505}, "132116971RR0001": {"name": "ENTR'ELLES GRANBY INC", "designationCode": "C", "categoryCode": "09", "address": "321 - 170 RUE SAINT-ANTOINE N", "city": "GRANBY", "province": "QC", "country": "CA", "postalCode": "J2G5G8", "twitter": "None", "instagram": "None", "facebook": "None", "youtube": "None", "website": "None", "summary": "None", "logo": "None", "latitude": 45.406239965715216, "longitude": -72.72721565888182}, "887598894RR0001": {"name": "ENTRAIDE - BENEVOLE DU HAUT-PAYS", "designationCode": "C", "categoryCode": "09", "address": "39 CH DU NORD-DU-LAC", "city": "LAC-DES-AIGLES", "province": "QC", "country": "CA", "postalCode": "G0K1V0", "twitter": "None", "instagram": "None", "facebook": "None", "youtube": "None", "website": "None", "summary": "None", "logo": "None", "latitude": 47.97696101413827, "longitude": -68.69943388923211}, "118869767RR0001": {"name": "ENTRAIDE AGAP\u00c8", "designationCode": "C", "categoryCode": "59", "address": "3148 CH. ROYAL", "city": "QUEBEC", "province": "QC", "country": "CA", "postalCode": "G1E1V2", "twitter": "None", "instagram": "None", "facebook": "None", "youtube": "None", "website": "None", "summary": "None", "logo": "None", "latitude": 46.850034270038755, "longitude": -71.21110028778371}, "101645612RR0001": {"name": "ENTRAIDE AHUNTSIC-NORD", "designationCode": "C", "categoryCode": "09", "address": "10780 RUE LAVERDURE", "city": "MONTREAL", "province": "QC", "country": "CA", "postalCode": "H3L2L9", "twitter": "None", "instagram": "None", "facebook": "None", "youtube": "None", "website": "None", "summary": "None", "logo": "None", "latitude": 45.55253309351391, "longitude": -73.67173931738695}, "134129691RR0001": {"name": "ENTRAIDE AU MASCULIN COTE-SUD", "designationCode": "C", "categoryCode": "09", "address": "62 LAMARTINE OUEST", "city": "ST-EUGENE", "province": "QC", "country": "CA", "postalCode": "G0R1X0", "twitter": "None", "instagram": "None", "facebook": "None", "youtube": "None", "website": "None", "summary": "None", "logo": "None", "latitude": 47.085086034393385, "longitude": -70.33778423977168}, "889953238RR0001": {"name": "ENTRAIDE BECANCOUR INC.", "designationCode": "C", "categoryCode": "09", "address": "3050 AV. NICOLAS-PERROT", "city": "BECANCOUR", "province": "QC", "country": "CA", "postalCode": "G9H3B9", "twitter": "None", "instagram": "None", "facebook": "None", "youtube": "None", "website": "None", "summary": "None", "logo": "None", "latitude": 46.339735872323885, "longitude": -72.4363274509201}, "135091866RR0001": {"name": "ENTRAIDE BENEVOLE DES PAYS D'EN HAUT INC", "designationCode": "C", "categoryCode": "09", "address": "1013 RUE VALIQUETTE", "city": "STE-AD\u00c8LE", "province": "QC", "country": "CA", "postalCode": "J8B2M4", "twitter": "None", "instagram": "None", "facebook": "None", "youtube": "None", "website": "None", "summary": "None", "logo": "None", "latitude": 45.950606716082774, "longitude": -74.13491470716733}, "886848753RR0001": {"name": "ENTRAIDE BENEVOLE KOUZIN KOUZIN' DE MONTREAL-METROPOLITAIN", "designationCode": "C", "categoryCode": "20", "address": "1495 VAN HORNE                C P 48642", "city": "OUTREMONT", "province": "QC", "country": "CA", "postalCode": "H2V4T8", "twitter": "None", "instagram": "None", "facebook": "None", "youtube": "None", "website": "None", "summary": "None", "logo": "None", "latitude": 45.5193374871025, "longitude": -73.61598641745037}, "107306029RR0001": {"name": "ENTRAIDE BENEVOLE METRO INC.", "designationCode": "C", "categoryCode": "01", "address": "1801 BOUL DE MAISONNEUVE OUESTSUITE 750", "city": "MONTREAL", "province": "QC", "country": "CA", "postalCode": "H3H1J9", "twitter": "None", "instagram": "None", "facebook": "None", "youtube": "None", "website": "None", "summary": "None", "logo": "None", "latitude": 45.49442262643538, "longitude": -73.58077007718259}, "894619154RR0001": {"name": "ENTRAIDE COMMUNAUTAIRE DES \u00ceLES INC.", "designationCode": "C", "categoryCode": "09", "address": "1 - 500 CH PRINCIPAL", "city": "CAP-AUX-MEULES", "province": "QC", "country": "CA", "postalCode": "G4T1E5", "twitter": "None", "instagram": "None", "facebook": "None", "youtube": "None", "website": "None", "summary": "None", "logo": "None", "latitude": 47.37531361417303, "longitude": -61.87127108503112}, "890056179RR0001": {"name": "ENTRAIDE DES AINES DE SILLERY", "designationCode": "C", "categoryCode": "09", "address": "1229 AV DU CHANOINE-MOREL", "city": "QUEBEC", "province": "QC", "country": "CA", "postalCode": "G1S4B1", "twitter": "None", "instagram": "None", "facebook": "None", "youtube": "None", "website": "None", "summary": "None", "logo": "None", "latitude": 46.78552808546382, "longitude": -71.24941376412346}, "809076193RR0001": {"name": "ENTRAIDE DES FAMILLES (ENFAM-QU\u00c9BEC)", "designationCode": "C", "categoryCode": "09", "address": "6735 BOUL PIE-IX", "city": "MONTREAL", "province": "QC", "country": "CA", "postalCode": "H1X2C7", "twitter": "None", "instagram": "None", "facebook": "None", "youtube": "None", "website": "None", "summary": "None", "logo": "None", "latitude": 45.564100888164255, "longitude": -73.58425458866647}, "137493987RR0001": {"name": "ENTRAIDE DIABETIQUE DU QUEBEC INC", "designationCode": "A", "categoryCode": "11", "address": "8550 BLVD. PIE IX             SUITE 300", "city": "MONTREAL", "province": "QC", "country": "CA", "postalCode": "H1Z4G2", "twitter": "None", "instagram": "None", "facebook": "None", "youtube": "None", "website": "None", "summary": "None", "logo": "None", "latitude": 45.57520768746048, "longitude": -73.61121331614619}, "107306037RR0001": {"name": "ENTRAIDE DU FAUBOURG INC.", "designationCode": "C", "categoryCode": "09", "address": "369 RUE SAINT-JEAN", "city": "QUEBEC", "province": "QC", "country": "CA", "postalCode": "G1R1N8", "twitter": "None", "instagram": "None", "facebook": "None", "youtube": "None", "website": "None", "summary": "None", "logo": "None", "latitude": 46.808801665820404, "longitude": -71.22285011114326}, "107306045RR0001": {"name": "ENTRAIDE FAMILIALE DE L'OUTAOUAIS INC.", "designationCode": "C", "categoryCode": "09", "address": "396, RUE NOTRE-DAME", "city": "GATINEAU", "province": "QC", "country": "CA", "postalCode": "J8P1L5", "twitter": "None", "instagram": "None", "facebook": "None", "youtube": "None", "website": "None", "summary": "None", "logo": "None", "latitude": 45.481301550637774, "longitude": -75.6404547799065}, "853279743RR0001": {"name": "ENTRAIDE GRANDS BRULES", "designationCode": "C", "categoryCode": "11", "address": "2575 PLACE CHASS\u00c9, SUITE 200", "city": "MONTR\u00c9AL", "province": "QC", "country": "CA", "postalCode": "H1Y2C3", "twitter": "None", "instagram": "None", "facebook": "None", "youtube": "None", "website": "None", "summary": "None", "logo": "None", "latitude": 45.54298945573888, "longitude": -73.57012421689083}, "893859082RR0001": {"name": "ENTRAIDE JALOISE INC.", "designationCode": "C", "categoryCode": "09", "address": "570 RUE DES PIONNIERS", "city": "AUCLAIR", "province": "QC", "country": "CA", "postalCode": "G0L1A0", "twitter": "None", "instagram": "None", "facebook": "None", "youtube": "None", "website": "None", "summary": "None", "logo": "None", "latitude": 47.72673903246013, "longitude": -68.64722698415963}, "129894150RR0001": {"name": "ENTRAIDE JEUNESSE QUEBEC", "designationCode": "C", "categoryCode": "09", "address": "571 3E AV", "city": "QUEBEC", "province": "QC", "country": "CA", "postalCode": "G1L2W4", "twitter": "None", "instagram": "None", "facebook": "None", "youtube": "None", "website": "None", "summary": "None", "logo": "None", "latitude": 46.82365106826713, "longitude": -71.22728467710178}, "138575949RR0001": {"name": "ENTRAIDE LE RAMEAU DE RIMOUSKI", "designationCode": "C", "categoryCode": "09", "address": "364 RUE BERNIER", "city": "RIMOUSKI", "province": "QC", "country": "CA", "postalCode": "G5L6E7", "twitter": "None", "instagram": "None", "facebook": "None", "youtube": "None", "website": "None", "summary": "None", "logo": "None", "latitude": 48.43631261977027, "longitude": -68.5274770069249}, "866296999RR0001": {"name": "ENTRAIDE LEO THEORET", "designationCode": "C", "categoryCode": "09", "address": "2000, ALEXANDRE-DE-SEVE", "city": "MONTREAL", "province": "QC", "country": "CA", "postalCode": "H2L2W4", "twitter": "None", "instagram": "None", "facebook": "None", "youtube": "None", "website": "None", "summary": "None", "logo": "None", "latitude": 45.52447748375561, "longitude": -73.56087128810083}, "127665552RR0001": {"name": "ENTRAIDE LOGEMENT HOCHELAGA MAISONNEUVE", "designationCode": "C", "categoryCode": "59", "address": "1475 AVE. BENNETT             SUITE 2", "city": "MONTREAL", "province": "QC", "country": "CA", "postalCode": "H1V2S5", "twitter": "None", "instagram": "None", "facebook": "None", "youtube": "None", "website": "None", "summary": "None", "logo": "None", "latitude": 45.5534988259853, "longitude": -73.53362429724743}, "120284310RR0001": {"name": "ENTRAIDE MERCIER", "designationCode": "C", "categoryCode": "01", "address": "959 ST-JOSEPH", "city": "MERCIER", "province": "QC", "country": "CA", "postalCode": "J6R2K9", "twitter": "None", "instagram": "None", "facebook": "None", "youtube": "None", "website": "None", "summary": "None", "logo": "None", "latitude": 45.30796810796928, "longitude": -73.74580726245003}, "107306102RR0001": {"name": "ENTRAIDE NATURO-LAIT", "designationCode": "C", "categoryCode": "09", "address": "841 AV MARGUERITE-BOURGEOYS", "city": "QUEBEC", "province": "QC", "country": "CA", "postalCode": "G1S3W7", "twitter": "None", "instagram": "None", "facebook": "None", "youtube": "None", "website": "None", "summary": "None", "logo": "None", "latitude": 46.793269549829695, "longitude": -71.2550022450518}, "119013522RR0001": {"name": "ENTRAIDE POUR LA DEFICIENCE INTELLECTUELLE DU JOLIETTE METROPOLITAIN INC.", "designationCode": "C", "categoryCode": "11", "address": "144-RUE ST-JOSEPH", "city": "JOLIETTE", "province": "QC", "country": "CA", "postalCode": "J6E5C4", "twitter": "None", "instagram": "None", "facebook": "None", "youtube": "None", "website": "None", "summary": "None", "logo": "None", "latitude": 46.026606530122855, "longitude": -73.44158207325879}, "889869061RR0001": {"name": "ENTRAIDE POUR MONOPARENTALES ET FAMILLES RECOMPOSEES DU SUROIT", "designationCode": "C", "categoryCode": "09", "address": "489 CHEMIN LAROCQUE", "city": "SALABERRY-DE-VALLEYFIELD", "province": "QC", "country": "CA", "postalCode": "J6T4C8", "twitter": "None", "instagram": "None", "facebook": "None", "youtube": "None", "website": "None", "summary": "None", "logo": "None", "latitude": 45.23861742881869, "longitude": -74.12288756422775}, "888144557RR0001": {"name": "ENTRAIDE ROSEMERE", "designationCode": "C", "categoryCode": "09", "address": "100 RUE CHARBONNEAU", "city": "ROSEMERE", "province": "QC", "country": "CA", "postalCode": "J7A3W1", "twitter": "None", "instagram": "None", "facebook": "None", "youtube": "None", "website": "None", "summary": "None", "logo": "None", "latitude": 45.63747905041958, "longitude": -73.78352512293635}, "830815528RR0001": {"name": "ENTRAIDE SANS FRONTIERES", "designationCode": "C", "categoryCode": "09", "address": "131 RUE ALBERT", "city": "SCOTSTOWN", "province": "QC", "country": "CA", "postalCode": "J0B3B0", "twitter": "None", "instagram": "None", "facebook": "None", "youtube": "None", "website": "None", "summary": "None", "logo": "None", "latitude": 45.526080616134934, "longitude": -71.28395807784642}, "889058053RR0001": {"name": "ENTRAIDE SOLIDARITE BELLECHASSE", "designationCode": "C", "categoryCode": "56", "address": "116-C, RUE DE LA FABRIQUE", "city": "SAINT-LAZARE-DE-BELLECHASSE", "province": "QC", "country": "CA", "postalCode": "G0R3J0", "twitter": "None", "instagram": "None", "facebook": "None", "youtube": "None", "website": "None", "summary": "None", "logo": "None", "latitude": 46.65595802991924, "longitude": -70.79813314660761}, "894873850RR0001": {"name": "ENTRAIDE ST-EUGENE", "designationCode": "C", "categoryCode": "09", "address": "215 RUE ROBINSON S", "city": "GRANBY", "province": "QC", "country": "CA", "postalCode": "J2G7M4", "twitter": "None", "instagram": "None", "facebook": "None", "youtube": "None", "website": "None", "summary": "None", "logo": "None", "latitude": 45.40069179739166, "longitude": -72.74180523117333}, "865507297RR0001": {"name": "ENTRAIDE ST-MICHEL", "designationCode": "C", "categoryCode": "09", "address": "3565 RUE JARRY E.             LOCAL 102", "city": "MONTREAL", "province": "QC", "country": "CA", "postalCode": "H1Z4K6", "twitter": "None", "instagram": "None", "facebook": "None", "youtube": "None", "website": "None", "summary": "None", "logo": "None", "latitude": 45.56670971360127, "longitude": -73.6070061527204}, "132399148RR0001": {"name": "ENTRAIDE UKRAINIENNE DE MONTREAL INC - UKRAINIAN MUTUAL AID OF MONTREAL INC", "designationCode": "C", "categoryCode": "09", "address": "3244 BEAUBIEN EST", "city": "MONTREAL", "province": "QC", "country": "CA", "postalCode": "H1Y1H7", "twitter": "None", "instagram": "None", "facebook": "None", "youtube": "None", "website": "None", "summary": "None", "logo": "None", "latitude": 45.554875429078486, "longitude": -73.58636772465246}, "899688840RR0001": {"name": "ENTRAIDE-DEUIL DE L'OUTAOUAIS", "designationCode": "C", "categoryCode": "09", "address": "202-115 BOUL SACRE-COEUR", "city": "GATINEAU", "province": "QC", "country": "CA", "postalCode": "J8X1C5", "twitter": "None", "instagram": "None", "facebook": "None", "youtube": "None", "website": "None", "summary": "None", "logo": "None", "latitude": 45.43728742829908, "longitude": -75.71438591341101}, "118900588RR0001": {"name": "ENTRAIDE-PARENTS COMPLEXE BELLEVUE", "designationCode": "C", "categoryCode": "59", "address": "H - 1450 BOUL PERE-LELIEVRE", "city": "QUEBEC", "province": "QC", "country": "CA", "postalCode": "G1M1N9", "twitter": "None", "instagram": "None", "facebook": "None", "youtube": "None", "website": "None", "summary": "None", "logo": "None", "latitude": 46.810616373045036, "longitude": -71.27858394162928}, "138985981RR0001": {"name": "ENTRE DEUX ROUES", "designationCode": "C", "categoryCode": "09", "address": "124 RUE SAINTE-MARIE", "city": "GATINEAU", "province": "QC", "country": "CA", "postalCode": "J8Y2B1", "twitter": "None", "instagram": "None", "facebook": "None", "youtube": "None", "website": "None", "summary": "None", "logo": "None", "latitude": 45.44148644936225, "longitude": -75.74025144754457}, "128556974RR0001": {"name": "ENTRE NOUS FEMMES HOUSING SOCIETY", "designationCode": "C", "categoryCode": "09", "address": "21-3550 S.E. MARINE DR", "city": "VANCOUVER", "province": "BC", "country": "CA", "postalCode": "V5S4R3", "twitter": "None", "instagram": "None", "facebook": "None", "youtube": "None", "website": "None", "summary": "None", "logo": "None", "latitude": 49.20817050000001, "longitude": -123.02358075000001}}