{"119269850RR0001": {"name": "TRINITY EVANGELICAL LUTHERAN CHURCH", "designationCode": "C", "categoryCode": "32", "address": "10014 - 81 AVENUE", "city": "EDMONTON", "province": "AB", "country": "CA", "postalCode": "T6E1W8", "twitter": "None", "instagram": "None", "facebook": "None", "youtube": "None", "website": "None", "summary": "None", "logo": "None", "latitude": 53.51708247157926, "longitude": -113.48921241618096}, "132200759RR0001": {"name": "TRINITY EVANGELICAL LUTHERAN CHURCH", "designationCode": "C", "categoryCode": "32", "address": "10214 102 AVE", "city": "WESTLOCK", "province": "AB", "country": "CA", "postalCode": "T7P2H9", "twitter": "None", "instagram": "None", "facebook": "None", "youtube": "None", "website": "None", "summary": "None", "logo": "None", "latitude": 54.15447991530978, "longitude": -113.85388796703471}, "886956192RR0001": {"name": "TRINITY EVANGELICAL LUTHERAN CHURCH", "designationCode": "C", "categoryCode": "39", "address": "189 REGENT ST", "city": "SUDBURY", "province": "ON", "country": "CA", "postalCode": "P3C4C4", "twitter": "None", "instagram": "None", "facebook": "None", "youtube": "None", "website": "None", "summary": "None", "logo": "None", "latitude": 46.48878937911091, "longitude": -81.00718981333628}, "893247577RR0001": {"name": "TRINITY EVANGELICAL LUTHERAN CHURCH", "designationCode": "C", "categoryCode": "32", "address": "1215 PARENT AVE", "city": "WINDSOR", "province": "ON", "country": "CA", "postalCode": "N8X4J1", "twitter": "None", "instagram": "None", "facebook": "None", "youtube": "None", "website": "None", "summary": "None", "logo": "None", "latitude": 42.31000484733693, "longitude": -83.01837097838857}, "129485330RR0001": {"name": "TRINITY EVANGELICAL LUTHERAN CHURCH OF LEMBERG, SASKATCHEWAN", "designationCode": "C", "categoryCode": "32", "address": "PO BOX 142", "city": "LEMBERG", "province": "SK", "country": "CA", "postalCode": "S0A2B0", "twitter": "None", "instagram": "None", "facebook": "None", "youtube": "None", "website": "None", "summary": "None", "logo": "None", "latitude": 50.725130000000036, "longitude": -103.20305999999994}, "108140351RR0001": {"name": "TRINITY EVANGELICAL LUTHERAN CHURCH OF NEW HAMBURG", "designationCode": "C", "categoryCode": "32", "address": "23 CHURCH ST", "city": "NEW HAMBURG", "province": "ON", "country": "CA", "postalCode": "N3A1J1", "twitter": "None", "instagram": "None", "facebook": "None", "youtube": "None", "website": "None", "summary": "None", "logo": "None", "latitude": 43.37563820803548, "longitude": -80.70720458883086}, "108140377RR0001": {"name": "TRINITY EVANGELICAL LUTHERAN CHURCH OF THE REFORMATION", "designationCode": "C", "categoryCode": "32", "address": "BOX 357", "city": "COURTLAND", "province": "ON", "country": "CA", "postalCode": "N0J1E0", "twitter": "None", "instagram": "None", "facebook": "None", "youtube": "None", "website": "None", "summary": "None", "logo": "None", "latitude": 38.330820000000074, "longitude": -121.57087999999999}, "119269793RR0001": {"name": "TRINITY EVANGELICAL LUTHERAN CHURCH,", "designationCode": "C", "categoryCode": "32", "address": "171 BERTIE ST", "city": "FORT ERIE", "province": "ON", "country": "CA", "postalCode": "L2A1Y9", "twitter": "None", "instagram": "None", "facebook": "None", "youtube": "None", "website": "None", "summary": "None", "logo": "None", "latitude": 42.913056472733096, "longitude": -78.91536349570083}, "108140427RR0001": {"name": "TRINITY EVANGELICAL LUTHERAN CHURCH, PONOKA, ALBERTA", "designationCode": "C", "categoryCode": "32", "address": "5501 54 AVE", "city": "PONOKA", "province": "AB", "country": "CA", "postalCode": "T4J1L8", "twitter": "None", "instagram": "None", "facebook": "None", "youtube": "None", "website": "None", "summary": "None", "logo": "None", "latitude": 52.68158853563411, "longitude": -113.585193}, "861238913RR0001": {"name": "TRINITY EVANGELICAL MISSIONARY CHURCH", "designationCode": "C", "categoryCode": "39", "address": "330 CONSERVATION DR", "city": "WATERLOO", "province": "ON", "country": "CA", "postalCode": "N2V2E8", "twitter": "None", "instagram": "None", "facebook": "None", "youtube": "None", "website": "None", "summary": "None", "logo": "None", "latitude": 43.49397569224967, "longitude": -80.57037974288741}, "836291369RR0001": {"name": "TRINITY FELLOWSHIP CHURCH", "designationCode": "C", "categoryCode": "39", "address": "399 WORTH BLVD", "city": "THORNHILL", "province": "ON", "country": "CA", "postalCode": "L4J8B5", "twitter": "None", "instagram": "None", "facebook": "None", "youtube": "None", "website": "None", "summary": "None", "logo": "None", "latitude": 43.82137191476733, "longitude": -79.4578836330718}, "119269884RR0001": {"name": "TRINITY FULL GOSPEL CHURCH", "designationCode": "C", "categoryCode": "36", "address": "6645 HIGHWAY #35", "city": "COBOCONK", "province": "ON", "country": "CA", "postalCode": "K0M1K0", "twitter": "None", "instagram": "None", "facebook": "None", "youtube": "None", "website": "None", "summary": "None", "logo": "None", "latitude": 44.6576401402659, "longitude": -78.79558210584649}, "861950392RR0001": {"name": "TRINITY GOSPEL MINISTRIES INT'L", "designationCode": "C", "categoryCode": "39", "address": "330 AYLESWORTH AVENUE", "city": "SCARBOROUGH", "province": "ON", "country": "CA", "postalCode": "M1N2K2", "twitter": "None", "instagram": "None", "facebook": "None", "youtube": "None", "website": "None", "summary": "None", "logo": "None", "latitude": 43.707412309192634, "longitude": -79.26049140801531}, "888898079RR0001": {"name": "TRINITY INDEPENDENT ANGLICAN CHURCH", "designationCode": "C", "categoryCode": "39", "address": "BOX 2532", "city": "NEW LISKEARD", "province": "ON", "country": "CA", "postalCode": "P0J1P0", "twitter": "None", "instagram": "None", "facebook": "None", "youtube": "None", "website": "None", "summary": "None", "logo": "None", "latitude": 47.50254600000005, "longitude": -79.69562449999994}, "864714597RR0001": {"name": "TRINITY JUBILEE FOUNDATION, INC.", "designationCode": "A", "categoryCode": "03", "address": "1099 MAITLAND AVE", "city": "OTTAWA", "province": "ON", "country": "CA", "postalCode": "K2C2B8", "twitter": "None", "instagram": "None", "facebook": "None", "youtube": "None", "website": "None", "summary": "None", "logo": "None", "latitude": 45.36655179935355, "longitude": -75.75124908933029}, "107488231RR0001": {"name": "TRINITY LUTHERAN CHURCH", "designationCode": "C", "categoryCode": "32", "address": "53 MILLER PARK AVENUE", "city": "BRADFORD WEST GWILLIMBURY", "province": "ON", "country": "CA", "postalCode": "L3Z1M7", "twitter": "None", "instagram": "None", "facebook": "None", "youtube": "None", "website": "None", "summary": "None", "logo": "None", "latitude": 44.11047965612555, "longitude": -79.57497576210424}, "108140583RR0001": {"name": "TRINITY LUTHERAN CHURCH", "designationCode": "C", "categoryCode": "32", "address": "611 COLBORNE ST               PO BOX 938", "city": "WALKERTON", "province": "ON", "country": "CA", "postalCode": "N0G2V0", "twitter": "None", "instagram": "None", "facebook": "None", "youtube": "None", "website": "None", "summary": "None", "logo": "None", "latitude": 44.12632074577296, "longitude": -81.15080508177022}, "108140625RR0001": {"name": "TRINITY LUTHERAN CHURCH", "designationCode": "C", "categoryCode": "32", "address": "560 N MAY ST", "city": "THUNDER BAY", "province": "ON", "country": "CA", "postalCode": "P7C3R6", "twitter": "None", "instagram": "None", "facebook": "None", "youtube": "None", "website": "None", "summary": "None", "logo": "None", "latitude": 48.39326336614941, "longitude": -89.24547270578606}, "108140641RR0001": {"name": "TRINITY LUTHERAN CHURCH", "designationCode": "C", "categoryCode": "32", "address": "BOX 884                       201 DIXIE ROAD", "city": "SWAN RIVER", "province": "MB", "country": "CA", "postalCode": "R0L1Z0", "twitter": "None", "instagram": "None", "facebook": "None", "youtube": "None", "website": "None", "summary": "None", "logo": "None", "latitude": 52.10451237755556, "longitude": -101.27687879169437}, "108140708RR0001": {"name": "TRINITY LUTHERAN CHURCH", "designationCode": "C", "categoryCode": "32", "address": "PO BOX 1191", "city": "CARLYLE", "province": "SK", "country": "CA", "postalCode": "S0C0R0", "twitter": "None", "instagram": "None", "facebook": "None", "youtube": "None", "website": "None", "summary": "None", "logo": "None", "latitude": 49.628016, "longitude": -102.26315694795335}, "108140724RR0001": {"name": "TRINITY LUTHERAN CHURCH", "designationCode": "C", "categoryCode": "32", "address": "PO BOX 672", "city": "LANIGAN", "province": "SK", "country": "CA", "postalCode": "S0K2M0", "twitter": "None", "instagram": "None", "facebook": "None", "youtube": "None", "website": "None", "summary": "None", "logo": "None", "latitude": 51.84617000000003, "longitude": -105.03797999999995}, "108140773RR0001": {"name": "TRINITY LUTHERAN CHURCH", "designationCode": "C", "categoryCode": "32", "address": "BOX 295", "city": "FOREMOST", "province": "AB", "country": "CA", "postalCode": "T0K0X0", "twitter": "None", "instagram": "None", "facebook": "None", "youtube": "None", "website": "None", "summary": "None", "logo": "None", "latitude": 49.48335000000003, "longitude": -111.41839999999996}, "108140807RR0001": {"name": "TRINITY LUTHERAN CHURCH", "designationCode": "C", "categoryCode": "32", "address": "840 3 AVE SW", "city": "CALGARY", "province": "AB", "country": "CA", "postalCode": "T2P0G9", "twitter": "None", "instagram": "None", "facebook": "None", "youtube": "None", "website": "None", "summary": "None", "logo": "None", "latitude": 51.05077551875454, "longitude": -114.08068002692019}, "108140880RR0001": {"name": "TRINITY LUTHERAN CHURCH", "designationCode": "C", "categoryCode": "32", "address": "375 HARTLEY STREET", "city": "QUESNEL", "province": "BC", "country": "CA", "postalCode": "V2J1W5", "twitter": "None", "instagram": "None", "facebook": "None", "youtube": "None", "website": "None", "summary": "None", "logo": "None", "latitude": 52.9779427543713, "longitude": -122.50705860202531}, "108140898RR0001": {"name": "TRINITY LUTHERAN CHURCH", "designationCode": "C", "categoryCode": "32", "address": "3845 GLADWIN RD", "city": "ABBOTSFORD", "province": "BC", "country": "CA", "postalCode": "V2S7A1", "twitter": "None", "instagram": "None", "facebook": "None", "youtube": "None", "website": "None", "summary": "None", "logo": "None", "latitude": 49.071562575076456, "longitude": -122.31615539566607}, "119270296RR0001": {"name": "TRINITY LUTHERAN CHURCH", "designationCode": "C", "categoryCode": "32", "address": "BOX 187", "city": "SANGUDO", "province": "AB", "country": "CA", "postalCode": "T0E2A0", "twitter": "None", "instagram": "None", "facebook": "None", "youtube": "None", "website": "None", "summary": "None", "logo": "None", "latitude": 53.88934000000006, "longitude": -114.90204999999997}, "119270304RR0001": {"name": "TRINITY LUTHERAN CHURCH", "designationCode": "C", "categoryCode": "32", "address": "BOX 733", "city": "FAIRVIEW", "province": "AB", "country": "CA", "postalCode": "T0H1L0", "twitter": "None", "instagram": "None", "facebook": "None", "youtube": "None", "website": "None", "summary": "None", "logo": "None", "latitude": 56.06862000000007, "longitude": -118.39200999999997}, "119270379RR0001": {"name": "TRINITY LUTHERAN CHURCH", "designationCode": "C", "categoryCode": "32", "address": "9929 105 AVE", "city": "GRANDE PRAIRIE", "province": "AB", "country": "CA", "postalCode": "T8V1G7", "twitter": "None", "instagram": "None", "facebook": "None", "youtube": "None", "website": "None", "summary": "None", "logo": "None", "latitude": 55.1751578300349, "longitude": -118.79262033098497}, "125595652RR0001": {"name": "TRINITY LUTHERAN CHURCH", "designationCode": "C", "categoryCode": "32", "address": "R.R. #1", "city": "SLEEMAN", "province": "ON", "country": "CA", "postalCode": "P0W1M0", "twitter": "None", "instagram": "None", "facebook": "None", "youtube": "None", "website": "None", "summary": "None", "logo": "None", "latitude": 43.9201690757818, "longitude": -78.78817928203276}, "131523516RR0001": {"name": "TRINITY LUTHERAN CHURCH", "designationCode": "C", "categoryCode": "32", "address": "BOX 39", "city": "TORRINGTON", "province": "AB", "country": "CA", "postalCode": "T0M2B0", "twitter": "None", "instagram": "None", "facebook": "None", "youtube": "None", "website": "None", "summary": "None", "logo": "None", "latitude": 51.79455000000007, "longitude": -113.60697999999996}, "132075573RR0001": {"name": "TRINITY LUTHERAN CHURCH", "designationCode": "C", "categoryCode": "32", "address": "BOX 1959", "city": "PINCHER CREEK", "province": "AB", "country": "CA", "postalCode": "T0K1W0", "twitter": "None", "instagram": "None", "facebook": "None", "youtube": "None", "website": "None", "summary": "None", "logo": "None", "latitude": 49.48739000000006, "longitude": -113.9366800732874}, "873626626RR0001": {"name": "TRINITY LUTHERAN CHURCH", "designationCode": "C", "categoryCode": "39", "address": "PO BOX 282", "city": "LOUGHEED", "province": "AB", "country": "CA", "postalCode": "T0B2V0", "twitter": "None", "instagram": "None", "facebook": "None", "youtube": "None", "website": "None", "summary": "None", "logo": "None", "latitude": 52.6714013175275, "longitude": -112.22238202605135}, "889271573RR0001": {"name": "TRINITY LUTHERAN CHURCH", "designationCode": "C", "categoryCode": "32", "address": "BOX 222", "city": "RAYMORE", "province": "SK", "country": "CA", "postalCode": "S0A3J0", "twitter": "None", "instagram": "None", "facebook": "None", "youtube": "None", "website": "None", "summary": "None", "logo": "None", "latitude": 51.409260000000074, "longitude": -104.52537999999998}, "108140914RR0001": {"name": "TRINITY LUTHERAN CHURCH - RICHMOND", "designationCode": "C", "categoryCode": "32", "address": "7100 GRANVILLE AVE", "city": "RICHMOND", "province": "BC", "country": "CA", "postalCode": "V6Y1N8", "twitter": "None", "instagram": "None", "facebook": "None", "youtube": "None", "website": "None", "summary": "None", "logo": "None", "latitude": 49.16265450230862, "longitude": -123.14618010935425}, "890096647RR0001": {"name": "TRINITY LUTHERAN CHURCH CADILLAC SASK.", "designationCode": "C", "categoryCode": "39", "address": "BOX 668", "city": "PONTEIX", "province": "SK", "country": "CA", "postalCode": "S0N1Z0", "twitter": "None", "instagram": "None", "facebook": "None", "youtube": "None", "website": "None", "summary": "None", "logo": "None", "latitude": 49.746290000000045, "longitude": -107.49463999999995}, "113997506RR0001": {"name": "TRINITY LUTHERAN CHURCH OF LACOMBE, ALBERTA", "designationCode": "C", "categoryCode": "32", "address": "5227 C & E TRAIL", "city": "LACOMBE", "province": "AB", "country": "CA", "postalCode": "T4L1J7", "twitter": "None", "instagram": "None", "facebook": "None", "youtube": "None", "website": "None", "summary": "None", "logo": "None", "latitude": 52.46621201022322, "longitude": -113.73773927713653}, "119269926RR0001": {"name": "TRINITY LUTHERAN CHURCH OF LEADER", "designationCode": "C", "categoryCode": "32", "address": "BOX 477", "city": "LEADER", "province": "SK", "country": "CA", "postalCode": "S0N1H0", "twitter": "None", "instagram": "None", "facebook": "None", "youtube": "None", "website": "None", "summary": "None", "logo": "None", "latitude": 50.883410000000026, "longitude": -109.55153999999999}, "108087560RR0001": {"name": "TRINITY LUTHERAN CHURCH OF MOOSOMIN", "designationCode": "C", "categoryCode": "32", "address": "BOX 797", "city": "MOOSOMIN", "province": "SK", "country": "CA", "postalCode": "S0G3N0", "twitter": "None", "instagram": "None", "facebook": "None", "youtube": "None", "website": "None", "summary": "None", "logo": "None", "latitude": 50.14728000000008, "longitude": -101.66300999999999}, "118858760RR0001": {"name": "TRINITY LUTHERAN CHURCH OF PORT ALBERNI", "designationCode": "C", "categoryCode": "32", "address": "4766 ANGUS STREET", "city": "PORT ALBERNI", "province": "BC", "country": "CA", "postalCode": "V9Y1S9", "twitter": "None", "instagram": "None", "facebook": "None", "youtube": "None", "website": "None", "summary": "None", "logo": "None", "latitude": 49.23332948845882, "longitude": -124.80431344463038}, "119269934RR0001": {"name": "TRINITY LUTHERAN CHURCH OF ST. WALBURG", "designationCode": "C", "categoryCode": "32", "address": "BOX 148", "city": "ST. WALBURG", "province": "SK", "country": "CA", "postalCode": "S0M2T0", "twitter": "None", "instagram": "None", "facebook": "None", "youtube": "None", "website": "None", "summary": "None", "logo": "None", "latitude": 53.63522000000006, "longitude": -109.20051999999998}, "119269918RR0001": {"name": "TRINITY LUTHERAN CHURCH OF THE DEAF, VANCOUVER, B.C.", "designationCode": "C", "categoryCode": "32", "address": "3022 49 AVE E", "city": "VANCOUVER", "province": "BC", "country": "CA", "postalCode": "V5S1K9", "twitter": "None", "instagram": "None", "facebook": "None", "youtube": "None", "website": "None", "summary": "None", "logo": "None", "latitude": 49.22472152842077, "longitude": -123.04237402553522}, "119269942RR0001": {"name": "TRINITY LUTHERAN CHURCH OF WILKIE INC.", "designationCode": "C", "categoryCode": "32", "address": "BOX 178", "city": "WILKIE", "province": "SK", "country": "CA", "postalCode": "S0K4W0", "twitter": "None", "instagram": "None", "facebook": "None", "youtube": "None", "website": "None", "summary": "None", "logo": "None", "latitude": 52.410810000000026, "longitude": -108.70070999999996}, "119269967RR0001": {"name": "TRINITY LUTHERAN CHURCH,", "designationCode": "C", "categoryCode": "32", "address": "RR#3, #5961-HIGHWAY #10", "city": "NEW GERMANY LUN CO", "province": "NS", "country": "CA", "postalCode": "B0R1E0", "twitter": "None", "instagram": "None", "facebook": "None", "youtube": "None", "website": "None", "summary": "None", "logo": "None", "latitude": 44.54015267813681, "longitude": -64.71382223926982}, "119270031RR0001": {"name": "TRINITY LUTHERAN CHURCH,", "designationCode": "C", "categoryCode": "32", "address": "23 MARGARET ST                BOX 737", "city": "HARRISTON", "province": "ON", "country": "CA", "postalCode": "N0G1Z0", "twitter": "None", "instagram": "None", "facebook": "None", "youtube": "None", "website": "None", "summary": "None", "logo": "None", "latitude": 43.961266980669265, "longitude": -81.1879131424063}, "119270148RR0001": {"name": "TRINITY LUTHERAN CHURCH,", "designationCode": "C", "categoryCode": "32", "address": "16 KIRBY AV E", "city": "DAUPHIN", "province": "MB", "country": "CA", "postalCode": "R7N0E7", "twitter": "None", "instagram": "None", "facebook": "None", "youtube": "None", "website": "None", "summary": "None", "logo": "None", "latitude": 51.157005525967904, "longitude": -100.03869068595992}, "119270197RR0001": {"name": "TRINITY LUTHERAN CHURCH,", "designationCode": "C", "categoryCode": "32", "address": "PO BOX 262", "city": "TORQUAY", "province": "SK", "country": "CA", "postalCode": "S0C2L0", "twitter": "None", "instagram": "None", "facebook": "None", "youtube": "None", "website": "None", "summary": "None", "logo": "None", "latitude": 49.15007000000003, "longitude": -103.50095999999996}, "119270221RR0001": {"name": "TRINITY LUTHERAN CHURCH,", "designationCode": "C", "categoryCode": "32", "address": "PO BOX 264", "city": "GRAVELBOURG", "province": "SK", "country": "CA", "postalCode": "S0H1X0", "twitter": "None", "instagram": "None", "facebook": "None", "youtube": "None", "website": "None", "summary": "None", "logo": "None", "latitude": 49.87668000000008, "longitude": -106.55736999999999}, "119270254RR0001": {"name": "TRINITY LUTHERAN CHURCH,", "designationCode": "C", "categoryCode": "32", "address": "BOX 447", "city": "ROSTHERN", "province": "SK", "country": "CA", "postalCode": "S0K3R0", "twitter": "None", "instagram": "None", "facebook": "None", "youtube": "None", "website": "None", "summary": "None", "logo": "None", "latitude": 52.663230000000055, "longitude": -106.32952999999998}, "119270288RR0001": {"name": "TRINITY LUTHERAN CHURCH,", "designationCode": "C", "categoryCode": "32", "address": "1909 OTTAWA ST", "city": "REGINA", "province": "SK", "country": "CA", "postalCode": "S4P1P7", "twitter": "None", "instagram": "None", "facebook": "None", "youtube": "None", "website": "None", "summary": "None", "logo": "None", "latitude": 50.44820433527613, "longitude": -104.60055682093632}, "119270387RR0001": {"name": "TRINITY LUTHERAN CHURCH,", "designationCode": "C", "categoryCode": "32", "address": "1 ALBERTA DRIVE", "city": "FORT MCMURRAY", "province": "AB", "country": "CA", "postalCode": "T9H1P3", "twitter": "None", "instagram": "None", "facebook": "None", "youtube": "None", "website": "None", "summary": "None", "logo": "None", "latitude": 56.72017858782974, "longitude": -111.36297084814497}, "119270395RR0001": {"name": "TRINITY LUTHERAN CHURCH,", "designationCode": "C", "categoryCode": "32", "address": "BOX 85", "city": "GOLDEN", "province": "BC", "country": "CA", "postalCode": "V0A1H0", "twitter": "None", "instagram": "None", "facebook": "None", "youtube": "None", "website": "None", "summary": "None", "logo": "None", "latitude": 51.30019925579286, "longitude": -117.05412925860504}, "119270445RR0001": {"name": "TRINITY LUTHERAN CHURCH,", "designationCode": "C", "categoryCode": "32", "address": "11040 RIVER ROAD", "city": "DELTA", "province": "BC", "country": "CA", "postalCode": "V4C2S2", "twitter": "None", "instagram": "None", "facebook": "None", "youtube": "None", "website": "None", "summary": "None", "logo": "None", "latitude": 49.17036865029716, "longitude": -122.91535317993}, "119270460RR0001": {"name": "TRINITY LUTHERAN CHURCH,", "designationCode": "C", "categoryCode": "32", "address": "2704 JAMES ST", "city": "DUNCAN", "province": "BC", "country": "CA", "postalCode": "V9L2X7", "twitter": "None", "instagram": "None", "facebook": "None", "youtube": "None", "website": "None", "summary": "None", "logo": "None", "latitude": 48.78205853952925, "longitude": -123.7049235}, "129853859RR0001": {"name": "TRINITY LUTHERAN CHURCH,", "designationCode": "C", "categoryCode": "32", "address": "BOX 118", "city": "STARBUCK", "province": "MB", "country": "CA", "postalCode": "R0G2P0", "twitter": "None", "instagram": "None", "facebook": "None", "youtube": "None", "website": "None", "summary": "None", "logo": "None", "latitude": 49.77049000000005, "longitude": -97.61840999999998}, "129929154RR0001": {"name": "TRINITY LUTHERAN CHURCH,", "designationCode": "C", "categoryCode": "32", "address": "PO BOX 500", "city": "CHURCH BRIDGE", "province": "SK", "country": "CA", "postalCode": "S0A0M0", "twitter": "None", "instagram": "None", "facebook": "None", "youtube": "None", "website": "None", "summary": "None", "logo": "None", "latitude": 51.353442048589685, "longitude": -102.19475249999999}, "130399520RR0001": {"name": "TRINITY LUTHERAN CHURCH,", "designationCode": "C", "categoryCode": "32", "address": "BOX 113", "city": "INGLIS", "province": "MB", "country": "CA", "postalCode": "R0J0X0", "twitter": "None", "instagram": "None", "facebook": "None", "youtube": "None", "website": "None", "summary": "None", "logo": "None", "latitude": 50.94838000000004, "longitude": -101.25137999999998}, "132350810RR0001": {"name": "TRINITY LUTHERAN CHURCH,", "designationCode": "C", "categoryCode": "32", "address": "619 SHERBOURNE ST", "city": "TORONTO", "province": "ON", "country": "CA", "postalCode": "M4X1L7", "twitter": "None", "instagram": "None", "facebook": "None", "youtube": "None", "website": "None", "summary": "None", "logo": "None", "latitude": 43.67169151846608, "longitude": -79.37657917591929}, "133327403RR0001": {"name": "TRINITY LUTHERAN CHURCH,", "designationCode": "C", "categoryCode": "32", "address": "PO BOX 101", "city": "FISHERVILLE", "province": "ON", "country": "CA", "postalCode": "N0A1G0", "twitter": "None", "instagram": "None", "facebook": "None", "youtube": "None", "website": "None", "summary": "None", "logo": "None", "latitude": 42.8874604434364, "longitude": -79.79444627212135}, "888314861RR0001": {"name": "TRINITY LUTHERAN CHURCH,", "designationCode": "C", "categoryCode": "32", "address": "P.O. BOX 257", "city": "TROUT CREEK", "province": "ON", "country": "CA", "postalCode": "P0H2L0", "twitter": "None", "instagram": "None", "facebook": "None", "youtube": "None", "website": "None", "summary": "None", "logo": "None", "latitude": 45.988230000000044, "longitude": -79.35940999999997}, "891640682RR0001": {"name": "TRINITY LUTHERAN CHURCH,", "designationCode": "C", "categoryCode": "32", "address": "2027 NIAGARA-ON-THE-LAKE      PO BOX 1901", "city": "NIAGARA ON THE LAKE", "province": "ON", "country": "CA", "postalCode": "L0S1J0", "twitter": "None", "instagram": "None", "facebook": "None", "youtube": "None", "website": "None", "summary": "None", "logo": "None", "latitude": 43.25318003000732, "longitude": -79.071010022217}, "888453594RR0001": {"name": "TRINITY LUTHERAN MOSSBANK EVANGELICAL LUTHERAN CHURCH IN CANADA", "designationCode": "C", "categoryCode": "32", "address": "BOX 114", "city": "MOSSBANK", "province": "SK", "country": "CA", "postalCode": "S0H3G0", "twitter": "None", "instagram": "None", "facebook": "None", "youtube": "None", "website": "None", "summary": "None", "logo": "None", "latitude": 49.93336000000005, "longitude": -105.96785999999997}, "888659067RR0001": {"name": "TRINITY MANDARIN PRESBYTERIAN CHURCH", "designationCode": "C", "categoryCode": "44", "address": "1080 FINCH AVE E", "city": "TORONTO", "province": "ON", "country": "CA", "postalCode": "M2J2X2", "twitter": "None", "instagram": "None", "facebook": "None", "youtube": "None", "website": "None", "summary": "None", "logo": "None", "latitude": 43.79049314019826, "longitude": -79.36472849169012}, "140326786RR0001": {"name": "TRINITY MANOR UXBRIDGE INC", "designationCode": "C", "categoryCode": "09", "address": "10 FIRST AVE", "city": "UXBRIDGE", "province": "ON", "country": "CA", "postalCode": "L9P1J6", "twitter": "None", "instagram": "None", "facebook": "None", "youtube": "None", "website": "None", "summary": "None", "logo": "None", "latitude": 44.11001428884006, "longitude": -79.1192297271371}, "132433186RR0001": {"name": "TRINITY MAR THOMA CHURCH, EDMONTON", "designationCode": "C", "categoryCode": "39", "address": "7120 98 AVE. NW", "city": "EDMONTON", "province": "AB", "country": "CA", "postalCode": "T6A0A7", "twitter": "None", "instagram": "None", "facebook": "None", "youtube": "None", "website": "None", "summary": "None", "logo": "None", "latitude": 53.53771193923468, "longitude": -113.43794247639802}, "887059921RR0001": {"name": "TRINITY MARTHOMA CHURCH (FORT MCMURRAY)", "designationCode": "C", "categoryCode": "39", "address": "181 SANDSTONE LANE", "city": "FORT MCMURRAY", "province": "AB", "country": "CA", "postalCode": "T9K0T1", "twitter": "None", "instagram": "None", "facebook": "None", "youtube": "None", "website": "None", "summary": "None", "logo": "None", "latitude": 56.761313731057754, "longitude": -111.43566184052759}, "130488935RR0002": {"name": "TRINITY MEMORIAL CHURCH", "designationCode": "C", "categoryCode": "30", "address": "1444 AV UNION", "city": "MONTREAL", "province": "QC", "country": "CA", "postalCode": "H3A2B8", "twitter": "None", "instagram": "None", "facebook": "None", "youtube": "None", "website": "None", "summary": "None", "logo": "None", "latitude": 45.50443994281272, "longitude": -73.57068662060699}, "118776095RR0001": {"name": "TRINITY MEMORIAL UNITED CHURCH", "designationCode": "C", "categoryCode": "44", "address": "33737 GEORGE FERGUSON WAY", "city": "ABBOTSFORD", "province": "BC", "country": "CA", "postalCode": "V2S2M4", "twitter": "None", "instagram": "None", "facebook": "None", "youtube": "None", "website": "None", "summary": "None", "logo": "None", "latitude": 49.05024015661287, "longitude": -122.29116241784456}, "119270494RR0001": {"name": "TRINITY MENNONITE CHURCH", "designationCode": "C", "categoryCode": "34", "address": "32023 232 AVE W", "city": "FOOTHILLS", "province": "AB", "country": "CA", "postalCode": "T1S4A9", "twitter": "None", "instagram": "None", "facebook": "None", "youtube": "None", "website": "None", "summary": "None", "logo": "None", "latitude": 50.84313850562684, "longitude": -114.05070072300768}, "119270502RR0001": {"name": "TRINITY MENNONITE FELLOWSHIP", "designationCode": "C", "categoryCode": "34", "address": "PO BOX 33", "city": "MATHER", "province": "MB", "country": "CA", "postalCode": "R0K1L0", "twitter": "None", "instagram": "None", "facebook": "None", "youtube": "None", "website": "None", "summary": "None", "logo": "None", "latitude": 49.09916000000004, "longitude": -99.19090999999997}, "878111418RR0001": {"name": "TRINITY MISSIONS", "designationCode": "C", "categoryCode": "47", "address": "64 ROMAN AVENUE", "city": "ELLIOT LAKE", "province": "ON", "country": "CA", "postalCode": "P5A1S1", "twitter": "None", "instagram": "None", "facebook": "None", "youtube": "None", "website": "None", "summary": "None", "logo": "None", "latitude": 46.37831867277396, "longitude": -82.65601016668577}, "119271922RR0001": {"name": "TRINITY PACIFIC CHURCH", "designationCode": "C", "categoryCode": "49", "address": "10011- 5 ROAD", "city": "RICHMOND", "province": "BC", "country": "CA", "postalCode": "V7A4E4", "twitter": "None", "instagram": "None", "facebook": "None", "youtube": "None", "website": "None", "summary": "None", "logo": "None", "latitude": 49.14032439800334, "longitude": -123.09178236017618}, "883233009RR0001": {"name": "TRINITY PACIFIC FOUNDATION", "designationCode": "B", "categoryCode": "03", "address": "2200 - 1021 HASTINGS ST W", "city": "VANCOUVER", "province": "BC", "country": "CA", "postalCode": "V6E0C3", "twitter": "None", "instagram": "None", "facebook": "None", "youtube": "None", "website": "None", "summary": "None", "logo": "None", "latitude": 49.28734898309179, "longitude": -123.1177059128341}, "118786797RR0001": {"name": "TRINITY PARISH", "designationCode": "C", "categoryCode": "30", "address": "PO BOX 51", "city": "CAMDEN EAST", "province": "ON", "country": "CA", "postalCode": "K0K1J0", "twitter": "None", "instagram": "None", "facebook": "None", "youtube": "None", "website": "None", "summary": "None", "logo": "None", "latitude": 44.3229690560032, "longitude": -76.87207729713941}, "108141078RR0001": {"name": "TRINITY PENTECOSTAL CHURCH", "designationCode": "C", "categoryCode": "36", "address": "23 MAIN ST", "city": "MEADOWVALE", "province": "NS", "country": "CA", "postalCode": "B0P1R0", "twitter": "None", "instagram": "None", "facebook": "None", "youtube": "None", "website": "None", "summary": "None", "logo": "None", "latitude": 44.95543327892556, "longitude": -64.96151991191046}, "119270569RR0001": {"name": "TRINITY PENTECOSTAL CHURCH", "designationCode": "C", "categoryCode": "36", "address": "900 KING ST E", "city": "OSHAWA", "province": "ON", "country": "CA", "postalCode": "L1H1H2", "twitter": "None", "instagram": "None", "facebook": "None", "youtube": "None", "website": "None", "summary": "None", "logo": "None", "latitude": 43.90517476657105, "longitude": -78.83093682161063}, "871889341RR0001": {"name": "TRINITY PENTECOSTAL CHURCH", "designationCode": "C", "categoryCode": "36", "address": "1050 BOUL. SHEVCHENKO", "city": "LASALLE", "province": "QC", "country": "CA", "postalCode": "H8N1N6", "twitter": "None", "instagram": "None", "facebook": "None", "youtube": "None", "website": "None", "summary": "None", "logo": "None", "latitude": 45.43034770269527, "longitude": -73.61191781530948}, "844411397RR0001": {"name": "TRINITY PENTECOSTAL TABERNACLE SOCIETY", "designationCode": "C", "categoryCode": "36", "address": "PO BOX 835", "city": "FERNIE", "province": "BC", "country": "CA", "postalCode": "V0B1M0", "twitter": "None", "instagram": "None", "facebook": "None", "youtube": "None", "website": "None", "summary": "None", "logo": "None", "latitude": 49.499960000000044, "longitude": -115.06870999999995}, "119270585RR0001": {"name": "TRINITY PLACE FOUNDATION OF ALBERTA", "designationCode": "C", "categoryCode": "59", "address": "602 1 ST SE", "city": "CALGARY", "province": "AB", "country": "CA", "postalCode": "T2G4W4", "twitter": "None", "instagram": "None", "facebook": "None", "youtube": "None", "website": "None", "summary": "None", "logo": "None", "latitude": 51.0470896275319, "longitude": -114.06040940963145}, "108141110RR0001": {"name": "TRINITY PLACENTIA STADIUM COMMISSION", "designationCode": "C", "categoryCode": "56", "address": "BOX 59", "city": "WHITBOURNE", "province": "NL", "country": "CA", "postalCode": "A0B3K0", "twitter": "None", "instagram": "None", "facebook": "None", "youtube": "None", "website": "None", "summary": "None", "logo": "None", "latitude": 47.40984600000006, "longitude": -53.53934299999993}, "118891159RR0001": {"name": "TRINITY PRESBYTERIAN CHURCH", "designationCode": "C", "categoryCode": "37", "address": "720 NINTH AVE", "city": "HAMILTON", "province": "ON", "country": "CA", "postalCode": "L8T2A3", "twitter": "None", "instagram": "None", "facebook": "None", "youtube": "None", "website": "None", "summary": "None", "logo": "None", "latitude": 43.222939317323345, "longitude": -79.83883989250911}, "119270601RR0001": {"name": "TRINITY PRESBYTERIAN CHURCH", "designationCode": "C", "categoryCode": "37", "address": "1817 RICHARDSON SIDE RD", "city": "CARP", "province": "ON", "country": "CA", "postalCode": "K0A1L0", "twitter": "None", "instagram": "None", "facebook": "None", "youtube": "None", "website": "None", "summary": "None", "logo": "None", "latitude": 45.30757420125202, "longitude": -75.94951812424232}, "119270650RR0001": {"name": "TRINITY PRESBYTERIAN CHURCH", "designationCode": "C", "categoryCode": "37", "address": "2964 TILLICUM RD.", "city": "VICTORIA", "province": "BC", "country": "CA", "postalCode": "V9A2A8", "twitter": "None", "instagram": "None", "facebook": "None", "youtube": "None", "website": "None", "summary": "None", "logo": "None", "latitude": 48.44919885957061, "longitude": -123.39892209452351}, "119270668RR0001": {"name": "TRINITY PRESBYTERIAN CHURCH", "designationCode": "C", "categoryCode": "37", "address": "145 SIMMS RD", "city": "CAMPBELL RIVER", "province": "BC", "country": "CA", "postalCode": "V9W1N9", "twitter": "None", "instagram": "None", "facebook": "None", "youtube": "None", "website": "None", "summary": "None", "logo": "None", "latitude": 49.975175769074035, "longitude": -125.22210599511277}, "129942744RR0001": {"name": "TRINITY PRESBYTERIAN CHURCH", "designationCode": "C", "categoryCode": "37", "address": "590 GAINSBOROUGH ROAD", "city": "LONDON", "province": "ON", "country": "CA", "postalCode": "N6G3S1", "twitter": "None", "instagram": "None", "facebook": "None", "youtube": "None", "website": "None", "summary": "None", "logo": "None", "latitude": 43.00539908961876, "longitude": -81.30906452218835}, "137981189RR0001": {"name": "TRINITY PRESBYTERIAN CHURCH", "designationCode": "C", "categoryCode": "37", "address": "BOX 730", "city": "GRENFELL", "province": "SK", "country": "CA", "postalCode": "S0G2B0", "twitter": "None", "instagram": "None", "facebook": "None", "youtube": "None", "website": "None", "summary": "None", "logo": "None", "latitude": 50.411193000000054, "longitude": -102.92259049999993}, "137268637RR0001": {"name": "TRINITY PRESBYTERIAN CHURCH INC", "designationCode": "C", "categoryCode": "37", "address": "PO BOX 4354", "city": "WOODSTOCK", "province": "NB", "country": "CA", "postalCode": "E7M1B7", "twitter": "None", "instagram": "None", "facebook": "None", "youtube": "None", "website": "None", "summary": "None", "logo": "None", "latitude": 46.14331200000005, "longitude": -67.58105749999993}, "131290090RR0001": {"name": "TRINITY PRESBYTERIAN CHURCH,", "designationCode": "C", "categoryCode": "37", "address": "2737 BAYVIEW AVE", "city": "NORTH YORK", "province": "ON", "country": "CA", "postalCode": "M2L1C5", "twitter": "None", "instagram": "None", "facebook": "None", "youtube": "None", "website": "None", "summary": "None", "logo": "None", "latitude": 43.76093574937962, "longitude": -79.3865960629297}, "131589434RR0001": {"name": "TRINITY PRESBYTERIAN CHURCH,", "designationCode": "C", "categoryCode": "37", "address": "9 MANITOU CR W", "city": "AMHERSTVIEW", "province": "ON", "country": "CA", "postalCode": "K7N1Y2", "twitter": "None", "instagram": "None", "facebook": "None", "youtube": "None", "website": "None", "summary": "None", "logo": "None", "latitude": 44.219755917017686, "longitude": -76.64485864585374}, "136917051RR0001": {"name": "TRINITY REFORMED CHURCH OF LETHBRIDGE", "designationCode": "C", "categoryCode": "39", "address": "1100 40 AVE N", "city": "LETHBRIDGE", "province": "AB", "country": "CA", "postalCode": "T1H6B7", "twitter": "None", "instagram": "None", "facebook": "None", "youtube": "None", "website": "None", "summary": "None", "logo": "None", "latitude": 49.737817523948706, "longitude": -112.82812272300768}, "119270684RR0001": {"name": "TRINITY SQUARE CAFE", "designationCode": "C", "categoryCode": "01", "address": "6 TRINITY SQUARE", "city": "TORONTO", "province": "ON", "country": "CA", "postalCode": "M5G1B1", "twitter": "None", "instagram": "None", "facebook": "None", "youtube": "None", "website": "None", "summary": "None", "logo": "None", "latitude": 43.65442107219094, "longitude": -79.38162013901575}, "108141201RR0001": {"name": "TRINITY SQUARE VIDEO", "designationCode": "C", "categoryCode": "22", "address": "121 - 401 RICHMOND ST W", "city": "TORONTO", "province": "ON", "country": "CA", "postalCode": "M5V3A8", "twitter": "None", "instagram": "None", "facebook": "None", "youtube": "None", "website": "None", "summary": "None", "logo": "None", "latitude": 43.64792255983254, "longitude": -79.39538964100468}, "129595476RR0001": {"name": "TRINITY TELEVISION INC", "designationCode": "C", "categoryCode": "47", "address": "400 - 10 HILL GROVE PT", "city": "WINNIPEG", "province": "MB", "country": "CA", "postalCode": "R3Y0V6", "twitter": "None", "instagram": "None", "facebook": "None", "youtube": "None", "website": "None", "summary": "None", "logo": "None", "latitude": 49.7985808618536, "longitude": -97.19214906361574}, "119270759RR0001": {"name": "TRINITY THEATRE TORONTO", "designationCode": "C", "categoryCode": "22", "address": "1904 - 655 BROADVIEW AVE", "city": "TORONTO", "province": "ON", "country": "CA", "postalCode": "M4K2P3", "twitter": "None", "instagram": "None", "facebook": "None", "youtube": "None", "website": "None", "summary": "None", "logo": "None", "latitude": 43.673711760776605, "longitude": -79.35653022990391}, "108141359RR0001": {"name": "TRINITY UNITED CHURCH", "designationCode": "C", "categoryCode": "44", "address": "220 RICHMOND ST", "city": "CHARLOTTETOWN", "province": "PE", "country": "CA", "postalCode": "C1A1J5", "twitter": "None", "instagram": "None", "facebook": "None", "youtube": "None", "website": "None", "summary": "None", "logo": "None", "latitude": 46.23590684318197, "longitude": -63.12348553774024}, "108141367RR0001": {"name": "TRINITY UNITED CHURCH", "designationCode": "C", "categoryCode": "44", "address": "90 SPRING STREET", "city": "SUMMERSIDE", "province": "PE", "country": "CA", "postalCode": "C1N3E4", "twitter": "None", "instagram": "None", "facebook": "None", "youtube": "None", "website": "None", "summary": "None", "logo": "None", "latitude": 46.39459015903974, "longitude": -63.7891279224707}, "108141383RR0001": {"name": "TRINITY UNITED CHURCH", "designationCode": "C", "categoryCode": "44", "address": "536 PLEASANT DRIVE", "city": "MINTO", "province": "NB", "country": "CA", "postalCode": "E4B2T5", "twitter": "None", "instagram": "None", "facebook": "None", "youtube": "None", "website": "None", "summary": "None", "logo": "None", "latitude": 46.0739031597213, "longitude": -66.05653800964615}, "108141490RR0001": {"name": "TRINITY UNITED CHURCH", "designationCode": "C", "categoryCode": "44", "address": "360 REID ST", "city": "PETERBOROUGH", "province": "ON", "country": "CA", "postalCode": "K9H7G6", "twitter": "None", "instagram": "None", "facebook": "None", "youtube": "None", "website": "None", "summary": "None", "logo": "None", "latitude": 44.30435423036527, "longitude": -78.3277937224021}, "108141532RR0001": {"name": "TRINITY UNITED CHURCH", "designationCode": "C", "categoryCode": "44", "address": "15 PINE ST SOUTH", "city": "THOROLD", "province": "ON", "country": "CA", "postalCode": "L2V3L1", "twitter": "None", "instagram": "None", "facebook": "None", "youtube": "None", "website": "None", "summary": "None", "logo": "None", "latitude": 43.1240234539953, "longitude": -79.20323662342177}, "108141557RR0001": {"name": "TRINITY UNITED CHURCH", "designationCode": "C", "categoryCode": "44", "address": "461 PARK AVENUE", "city": "NEWMARKET", "province": "ON", "country": "CA", "postalCode": "L3Y1V9", "twitter": "None", "instagram": "None", "facebook": "None", "youtube": "None", "website": "None", "summary": "None", "logo": "None", "latitude": 44.05368912129947, "longitude": -79.45857902054355}, "108141573RR0001": {"name": "TRINITY UNITED CHURCH", "designationCode": "C", "categoryCode": "44", "address": "1250 MCCRANEY ST EAST", "city": "OAKVILLE", "province": "ON", "country": "CA", "postalCode": "L6H3K3", "twitter": "None", "instagram": "None", "facebook": "None", "youtube": "None", "website": "None", "summary": "None", "logo": "None", "latitude": 43.46515746681872, "longitude": -79.693011}}