{"119030971RR0001": {"name": "MANITOULIN STUDENT AID FUND", "designationCode": "C", "categoryCode": "21", "address": "P.O. BOX 307", "city": "M CHIGEENG", "province": "ON", "country": "CA", "postalCode": "P0P1G0", "twitter": "None", "instagram": "None", "facebook": "None", "youtube": "None", "website": "None", "summary": "None", "logo": "None", "latitude": 45.828160000000025, "longitude": -82.16273999999999}, "894405174RR0001": {"name": "MANITOULIN-NORTH SHORE VICTIM CRISIS ASSISTANCE REFERRAL SERVICES", "designationCode": "C", "categoryCode": "59", "address": "2-15 WATER STREET             PO BOX 702", "city": "LITTLE CURRENT", "province": "ON", "country": "CA", "postalCode": "P0P1K0", "twitter": "None", "instagram": "None", "facebook": "None", "youtube": "None", "website": "None", "summary": "None", "logo": "None", "latitude": 45.981027125454425, "longitude": -81.92649474456086}, "107661209RR0001": {"name": "MANITOUWADGE GENERAL HOSPITAL", "designationCode": "C", "categoryCode": "10", "address": "1 HEALTHCARE CRESCENT", "city": "MANITOUWADGE", "province": "ON", "country": "CA", "postalCode": "P0T2C0", "twitter": "None", "instagram": "None", "facebook": "None", "youtube": "None", "website": "None", "summary": "None", "logo": "None", "latitude": 49.12396800000006, "longitude": -85.83205399999993}, "893512236RR0001": {"name": "MANITOUWADGE GOLDEN AGE CENTRE", "designationCode": "C", "categoryCode": "56", "address": "BOX 2079", "city": "MANITOUWADGE", "province": "ON", "country": "CA", "postalCode": "P0T2C0", "twitter": "None", "instagram": "None", "facebook": "None", "youtube": "None", "website": "None", "summary": "None", "logo": "None", "latitude": 49.12397000000004, "longitude": -85.83204999999998}, "899459671RR0001": {"name": "MANITOUWADGE HANDI-ACTION GROUP", "designationCode": "C", "categoryCode": "09", "address": "BOX 804", "city": "MANITOUWADGE", "province": "ON", "country": "CA", "postalCode": "P0T2C0", "twitter": "None", "instagram": "None", "facebook": "None", "youtube": "None", "website": "None", "summary": "None", "logo": "None", "latitude": 49.12397000000004, "longitude": -85.83204999999998}, "897902821RR0001": {"name": "MANITOUWADGE HIGH SCHOOL FUNDS R US COMMITTEE", "designationCode": "C", "categoryCode": "21", "address": "200 MANITOU RD.W. PO BOX 40", "city": "MANITOUWADGE", "province": "ON", "country": "CA", "postalCode": "P0T2C0", "twitter": "None", "instagram": "None", "facebook": "None", "youtube": "None", "website": "None", "summary": "None", "logo": "None", "latitude": 49.13016366151448, "longitude": -85.8078728081564}, "119031029RR0001": {"name": "MANITOUWADGE NURSERY SCHOOL", "designationCode": "C", "categoryCode": "20", "address": "BOX 1193", "city": "MANITOUWADGE", "province": "ON", "country": "CA", "postalCode": "P0T2C0", "twitter": "None", "instagram": "None", "facebook": "None", "youtube": "None", "website": "None", "summary": "None", "logo": "None", "latitude": 49.12397000000004, "longitude": -85.83204999999998}, "119031052RR0001": {"name": "MANITOWANING-TEHKUMMAH PASTORAL CHARGE", "designationCode": "C", "categoryCode": "44", "address": "P.O. BOX 13", "city": "MANITOWANING", "province": "ON", "country": "CA", "postalCode": "P0P1N0", "twitter": "None", "instagram": "None", "facebook": "None", "youtube": "None", "website": "None", "summary": "None", "logo": "None", "latitude": 45.975226935529044, "longitude": -81.92327500984123}, "890024995RR0001": {"name": "MANJARI SANKURATHRI MEMORIAL FOUNDATION", "designationCode": "B", "categoryCode": "01", "address": "23 MARY DRIVE", "city": "GLOUCESTER", "province": "ON", "country": "CA", "postalCode": "K1V1G9", "twitter": "None", "instagram": "None", "facebook": "None", "youtube": "None", "website": "None", "summary": "None", "logo": "None", "latitude": 45.32111423593384, "longitude": -75.69240251653285}, "883064776RR0001": {"name": "MANJUSHRI BUDDHIST CENTRE INC.", "designationCode": "C", "categoryCode": "35", "address": "502 - 175 BAMBURGH CIR", "city": "SCARBOROUGH", "province": "ON", "country": "CA", "postalCode": "M1W3X8", "twitter": "None", "instagram": "None", "facebook": "None", "youtube": "None", "website": "None", "summary": "None", "logo": "None", "latitude": 43.811442999249266, "longitude": -79.32424751641729}, "893040568RR0001": {"name": "MANKOTA AND DISTRICT HEALTH AUXILIARY", "designationCode": "C", "categoryCode": "19", "address": "BOX 231", "city": "MANKOTA", "province": "SK", "country": "CA", "postalCode": "S0H2W0", "twitter": "None", "instagram": "None", "facebook": "None", "youtube": "None", "website": "None", "summary": "None", "logo": "None", "latitude": 49.421700000000044, "longitude": -107.06683999999996}, "119031078RR0001": {"name": "MANKOTA CALVARY UNITED CHURCH", "designationCode": "C", "categoryCode": "44", "address": "PO BOX 296", "city": "MANKOTA", "province": "SK", "country": "CA", "postalCode": "S0H2W0", "twitter": "None", "instagram": "None", "facebook": "None", "youtube": "None", "website": "None", "summary": "None", "logo": "None", "latitude": 49.421700000000044, "longitude": -107.06683999999996}, "895815512RR0001": {"name": "MANNA CARE FOUNDATION INC.", "designationCode": "B", "categoryCode": "47", "address": "1135 HANWELL ROAD", "city": "FREDERICTON", "province": "NB", "country": "CA", "postalCode": "E3C1A5", "twitter": "None", "instagram": "None", "facebook": "None", "youtube": "None", "website": "None", "summary": "None", "logo": "None", "latitude": 45.94778152290951, "longitude": -66.69265134681731}, "865605695RR0001": {"name": "MANNA COUNSELING AND EDUCATIONAL CENTER", "designationCode": "C", "categoryCode": "49", "address": "340-39 AVENUE SE", "city": "CALGARY", "province": "AB", "country": "CA", "postalCode": "T2G1X6", "twitter": "None", "instagram": "None", "facebook": "None", "youtube": "None", "website": "None", "summary": "None", "logo": "None", "latitude": 51.01796505969744, "longitude": -114.0604052808588}, "890072390RR0001": {"name": "MANNA FOOD BANK OF BRACEBRIDGE INC", "designationCode": "C", "categoryCode": "09", "address": "P.O. BOX 462", "city": "BRACEBRIDGE", "province": "ON", "country": "CA", "postalCode": "P1L1T8", "twitter": "None", "instagram": "None", "facebook": "None", "youtube": "None", "website": "None", "summary": "None", "logo": "None", "latitude": 45.055572000000055, "longitude": -79.28863099999994}, "837473941RR0001": {"name": "MANNA HOUSE MINISTRIES", "designationCode": "C", "categoryCode": "39", "address": "34 DENALI CRESCENT", "city": "BRAMPTON", "province": "ON", "country": "CA", "postalCode": "L6P3X1", "twitter": "None", "instagram": "None", "facebook": "None", "youtube": "None", "website": "None", "summary": "None", "logo": "None", "latitude": 43.79543905799534, "longitude": -79.66958700830988}, "119031136RR0001": {"name": "MANNA: THE CANADIAN REFORMED SOCIETY FOR WORLD RELIEF", "designationCode": "C", "categoryCode": "09", "address": "8-51317 HIGHWAY 60", "city": "SPRUCE GROVE", "province": "AB", "country": "CA", "postalCode": "T7Y1C4", "twitter": "None", "instagram": "None", "facebook": "None", "youtube": "None", "website": "None", "summary": "None", "logo": "None", "latitude": 53.417918707792126, "longitude": -113.76276372022694}, "141469973RR0001": {"name": "MANNE DU JOUR", "designationCode": "C", "categoryCode": "09", "address": "386 RUE H\u00c9BERT", "city": "MONT-LAURIER", "province": "QC", "country": "CA", "postalCode": "J9L2X2", "twitter": "None", "instagram": "None", "facebook": "None", "youtube": "None", "website": "None", "summary": "None", "logo": "None", "latitude": 46.55232959645674, "longitude": -75.49148581277066}, "892518440RR0001": {"name": "MANNE VERDUN/MANNA VERDUN", "designationCode": "C", "categoryCode": "09", "address": "666 RUE WOODLAND", "city": "VERDUN", "province": "QC", "country": "CA", "postalCode": "H4H1V8", "twitter": "None", "instagram": "None", "facebook": "None", "youtube": "None", "website": "None", "summary": "None", "logo": "None", "latitude": 45.45254551399404, "longitude": -73.57391094754458}, "119031144RR0001": {"name": "MANNHEIM MENNONITE CHURCH", "designationCode": "C", "categoryCode": "34", "address": "1494 BLEAMS ROAD", "city": "PETERSBURG", "province": "ON", "country": "CA", "postalCode": "N0B2H0", "twitter": "None", "instagram": "None", "facebook": "None", "youtube": "None", "website": "None", "summary": "None", "logo": "None", "latitude": 43.3946663351023, "longitude": -80.56794703499894}, "873475677RR0001": {"name": "MANNING AND DISTRICT PALLIATIVE CARE SOCIETY", "designationCode": "C", "categoryCode": "11", "address": "PO BOX 1260", "city": "MANNING", "province": "AB", "country": "CA", "postalCode": "T0H2M0", "twitter": "None", "instagram": "None", "facebook": "None", "youtube": "None", "website": "None", "summary": "None", "logo": "None", "latitude": 56.92804794843537, "longitude": -117.62848367126821}, "822467478RR0001": {"name": "MANNING FOUNDATION FOR DEMOCRATIC EDUCATION", "designationCode": "C", "categoryCode": "21", "address": "514 11TH AVE SW", "city": "CALGARY", "province": "AB", "country": "CA", "postalCode": "T2R0C8", "twitter": "None", "instagram": "None", "facebook": "None", "youtube": "None", "website": "None", "summary": "None", "logo": "None", "latitude": 51.04266952596792, "longitude": -114.07248038773155}, "107661431RR0001": {"name": "MANNING HOSPITAL AUXILIARY", "designationCode": "C", "categoryCode": "19", "address": "BOX 1335", "city": "MANNING", "province": "AB", "country": "CA", "postalCode": "T0H2M0", "twitter": "None", "instagram": "None", "facebook": "None", "youtube": "None", "website": "None", "summary": "None", "logo": "None", "latitude": 56.92804794843537, "longitude": -117.62848367126821}, "140768136RR0001": {"name": "MANNVILLE CHARITABLE TRUST", "designationCode": "B", "categoryCode": "39", "address": "3425-2ND AVENUE SOUTH", "city": "LETHBRIDGE", "province": "AB", "country": "CA", "postalCode": "T1J4V1", "twitter": "None", "instagram": "None", "facebook": "None", "youtube": "None", "website": "None", "summary": "None", "logo": "None", "latitude": 49.696839530439966, "longitude": -112.78914308381903}, "897698825RR0001": {"name": "MANNVILLE EDUCATIONAL FUND ASSOCIATION", "designationCode": "C", "categoryCode": "21", "address": "BOX 30", "city": "MANNVILLE", "province": "AB", "country": "CA", "postalCode": "T0B2W0", "twitter": "None", "instagram": "None", "facebook": "None", "youtube": "None", "website": "None", "summary": "None", "logo": "None", "latitude": 53.332431971080155, "longitude": -111.14717836552201}, "896408622RR0001": {"name": "MANNVILLE HISTORICAL SOCIETY", "designationCode": "C", "categoryCode": "50", "address": "PO BOX 67", "city": "MANNVILLE", "province": "AB", "country": "CA", "postalCode": "T0B2W0", "twitter": "None", "instagram": "None", "facebook": "None", "youtube": "None", "website": "None", "summary": "None", "logo": "None", "latitude": 53.332431971080155, "longitude": -111.14717836552201}, "857281935RR0001": {"name": "MANOIR \"LES MESANGES\" DE SAINT-COME", "designationCode": "C", "categoryCode": "09", "address": "1101, RANG DES VENNE", "city": "SAINT-COME", "province": "QC", "country": "CA", "postalCode": "J0K2B0", "twitter": "None", "instagram": "None", "facebook": "None", "youtube": "None", "website": "None", "summary": "None", "logo": "None", "latitude": 46.297502634456784, "longitude": -73.7829440671706}, "119031284RR0001": {"name": "MANOIR CARTIER MANOR (1972) INC.", "designationCode": "C", "categoryCode": "59", "address": "BOX 378", "city": "ELIE", "province": "MB", "country": "CA", "postalCode": "R0H0H0", "twitter": "None", "instagram": "None", "facebook": "None", "youtube": "None", "website": "None", "summary": "None", "logo": "None", "latitude": 49.90010894942103, "longitude": -97.75774884595309}, "145199352RR0001": {"name": "MANOIR DES SEIGNEURS", "designationCode": "C", "categoryCode": "09", "address": "101-301 BOUL. J.-A.-PARE", "city": "LE GARDEUR", "province": "QC", "country": "CA", "postalCode": "J5Z5E3", "twitter": "None", "instagram": "None", "facebook": "None", "youtube": "None", "website": "None", "summary": "None", "logo": "None", "latitude": 45.76801629193865, "longitude": -73.477795517254}, "897748141RR0001": {"name": "MANOIR DU CHEMIN POUR LA SOBRIETE", "designationCode": "C", "categoryCode": "57", "address": "160, 13IEME AVENUE", "city": "SENNETERRE", "province": "QC", "country": "CA", "postalCode": "J0Y2M0", "twitter": "None", "instagram": "None", "facebook": "None", "youtube": "None", "website": "None", "summary": "None", "logo": "None", "latitude": 48.39344652178432, "longitude": -77.227713}, "107589707RR0001": {"name": "MANOIR DU LAC INKERMAN INCORPOREE", "designationCode": "C", "categoryCode": "11", "address": "733 RTE 113", "city": "INKERMAN", "province": "NB", "country": "CA", "postalCode": "E8P1E4", "twitter": "None", "instagram": "None", "facebook": "None", "youtube": "None", "website": "None", "summary": "None", "logo": "None", "latitude": 47.67073151427711, "longitude": -64.832198885719}, "107661704RR0001": {"name": "MANOIR EDITH B. PINET INC.", "designationCode": "C", "categoryCode": "01", "address": "1189 RUE DES FONDATEURS", "city": "PAQUETVILLE", "province": "NB", "country": "CA", "postalCode": "E8R1A9", "twitter": "None", "instagram": "None", "facebook": "None", "youtube": "None", "website": "None", "summary": "None", "logo": "None", "latitude": 47.668557159097034, "longitude": -65.10652747685936}, "855811584RR0001": {"name": "MANOIR LABELLOIS", "designationCode": "C", "categoryCode": "09", "address": "27 RUE DU COUVENT", "city": "LABELLE", "province": "QC", "country": "CA", "postalCode": "J0T1H0", "twitter": "None", "instagram": "None", "facebook": "None", "youtube": "None", "website": "None", "summary": "None", "logo": "None", "latitude": 46.27864153621103, "longitude": -74.7344835}, "890474398RR0001": {"name": "MANOIR MARIAN INC-MARIAN HALL INC", "designationCode": "C", "categoryCode": "01", "address": "151-HYMUS BLVD.", "city": "POINT CLAIRE", "province": "QC", "country": "CA", "postalCode": "H9R1E9", "twitter": "None", "instagram": "None", "facebook": "None", "youtube": "None", "website": "None", "summary": "None", "logo": "None", "latitude": 45.463551857954485, "longitude": -73.81334472681591}, "107611295RR0001": {"name": "MANOIR SAINT-JEAN-BAPTISTE INC.", "designationCode": "B", "categoryCode": "01", "address": "5 AVENUE RICHARD", "city": "BOUCTOUCHE", "province": "NB", "country": "CA", "postalCode": "E4S3T2", "twitter": "None", "instagram": "None", "facebook": "None", "youtube": "None", "website": "None", "summary": "None", "logo": "None", "latitude": 46.47695351218074, "longitude": -64.72063305756919}, "119031375RR0001": {"name": "MANOIR WESTMOUNT INC.", "designationCode": "C", "categoryCode": "01", "address": "4646 SHERBROOKE STREET WEST", "city": "WESTMOUNT", "province": "QC", "country": "CA", "postalCode": "H3Z2Z8", "twitter": "None", "instagram": "None", "facebook": "None", "youtube": "None", "website": "None", "summary": "None", "logo": "None", "latitude": 45.48116860612294, "longitude": -73.60091342596273}, "888340460RR0001": {"name": "MANOLA CEMETERY COMMITTEE", "designationCode": "C", "categoryCode": "59", "address": "RR 1", "city": "BARRHEAD", "province": "AB", "country": "CA", "postalCode": "T7N1N2", "twitter": "None", "instagram": "None", "facebook": "None", "youtube": "None", "website": "None", "summary": "None", "logo": "None", "latitude": 54.12098400000005, "longitude": -114.40600999999992}, "889818449RR0001": {"name": "MANOR COMMUNITY CEMETERY", "designationCode": "C", "categoryCode": "59", "address": "BOX 100", "city": "MANOR", "province": "SK", "country": "CA", "postalCode": "S0C1R0", "twitter": "None", "instagram": "None", "facebook": "None", "youtube": "None", "website": "None", "summary": "None", "logo": "None", "latitude": 49.62837457609388, "longitude": -102.25942378665967}, "119031391RR0001": {"name": "MANOR GOSPEL CHURCH", "designationCode": "C", "categoryCode": "39", "address": "BOX 545", "city": "THREE HILLS", "province": "AB", "country": "CA", "postalCode": "T0M2A0", "twitter": "None", "instagram": "None", "facebook": "None", "youtube": "None", "website": "None", "summary": "None", "logo": "None", "latitude": 51.704029948352684, "longitude": -113.26741999999996}, "889676441RR0001": {"name": "MANOR KNOX UNITED CHURCH", "designationCode": "C", "categoryCode": "44", "address": "BOX 76", "city": "MANOR", "province": "SK", "country": "CA", "postalCode": "S0C1R0", "twitter": "None", "instagram": "None", "facebook": "None", "youtube": "None", "website": "None", "summary": "None", "logo": "None", "latitude": 49.62837457609388, "longitude": -102.25942378665967}, "119031417RR0001": {"name": "MANOR OVER SIXTY CLUB", "designationCode": "C", "categoryCode": "56", "address": "BOX 254", "city": "MANOR", "province": "SK", "country": "CA", "postalCode": "S0C1R0", "twitter": "None", "instagram": "None", "facebook": "None", "youtube": "None", "website": "None", "summary": "None", "logo": "None", "latitude": 49.62837457609388, "longitude": -102.25942378665967}, "107662025RR0001": {"name": "MANOR ROAD CO-OPERATIVE NURSERY SCHOOL INC.", "designationCode": "C", "categoryCode": "20", "address": "111 MANOR RD E", "city": "TORONTO", "province": "ON", "country": "CA", "postalCode": "M4S1R4", "twitter": "None", "instagram": "None", "facebook": "None", "youtube": "None", "website": "None", "summary": "None", "logo": "None", "latitude": 43.70370286701511, "longitude": -79.39137811766413}, "119031433RR0001": {"name": "MANOR ROAD UNITED CHURCH", "designationCode": "C", "categoryCode": "44", "address": "240 MANOR RD E", "city": "TORONTO", "province": "ON", "country": "CA", "postalCode": "M4S1R8", "twitter": "None", "instagram": "None", "facebook": "None", "youtube": "None", "website": "None", "summary": "None", "logo": "None", "latitude": 43.704961227335524, "longitude": -79.38532600320265}, "107662041RR0001": {"name": "MANOTICK CO-OPERATIVE NURSERY SCHOOL INC.", "designationCode": "C", "categoryCode": "20", "address": "3 - 5572 DOCTOR LEACH DR", "city": "MANOTICK", "province": "ON", "country": "CA", "postalCode": "K4M1E1", "twitter": "None", "instagram": "None", "facebook": "None", "youtube": "None", "website": "None", "summary": "None", "logo": "None", "latitude": 45.221735179773916, "longitude": -75.68575975804866}, "822529475RR0001": {"name": "MANOTICK COMMUNITY FELINE RESCUE", "designationCode": "C", "categoryCode": "54", "address": "35 SMITH RD", "city": "OXFORD STATION", "province": "ON", "country": "CA", "postalCode": "K0G1T0", "twitter": "None", "instagram": "None", "facebook": "None", "youtube": "None", "website": "None", "summary": "None", "logo": "None", "latitude": 44.92124354602238, "longitude": -75.58647712566545}, "119031441RR0001": {"name": "MANOTICK UNITED CHURCH", "designationCode": "C", "categoryCode": "44", "address": "BOX 459", "city": "MANOTICK", "province": "ON", "country": "CA", "postalCode": "K4M1A5", "twitter": "None", "instagram": "None", "facebook": "None", "youtube": "None", "website": "None", "summary": "None", "logo": "None", "latitude": 45.226293000000055, "longitude": -75.68602099999994}, "892679184RR0001": {"name": "MANOTSAYWIN NANOTOOJIG INC", "designationCode": "C", "categoryCode": "19", "address": "PO BOX 40", "city": "NAUGHTON", "province": "ON", "country": "CA", "postalCode": "P0M2M0", "twitter": "None", "instagram": "None", "facebook": "None", "youtube": "None", "website": "None", "summary": "None", "logo": "None", "latitude": 46.403140000000064, "longitude": -81.19010999999995}, "107662082RR0001": {"name": "MANRESA-JESUIT SPIRITUAL RENEWAL CENTRE (THE JESUIT FATHERS OF UPPER CANADA)", "designationCode": "C", "categoryCode": "38", "address": "2325 LIVERPOOL RD", "city": "PICKERING", "province": "ON", "country": "CA", "postalCode": "L1X1V4", "twitter": "None", "instagram": "None", "facebook": "None", "youtube": "None", "website": "None", "summary": "None", "logo": "None", "latitude": 43.85404702637746, "longitude": -79.09870264409625}, "119031466RR0001": {"name": "MANSE TRUST FUND OF THE RICHMOND BAY WEST CONGREGATION", "designationCode": "C", "categoryCode": "45", "address": "PO BOX 65", "city": "TYNE VALLEY", "province": "PE", "country": "CA", "postalCode": "C0B2C0", "twitter": "None", "instagram": "None", "facebook": "None", "youtube": "None", "website": "None", "summary": "None", "logo": "None", "latitude": 46.58344000000005, "longitude": -63.93202999999994}, "890747843RR0001": {"name": "MANSON CREEK HISTORICAL SOCIETY", "designationCode": "C", "categoryCode": "52", "address": "P.O. BOX 520", "city": "FORT ST.JAMES", "province": "BC", "country": "CA", "postalCode": "V0J1P0", "twitter": "None", "instagram": "None", "facebook": "None", "youtube": "None", "website": "None", "summary": "None", "logo": "None", "latitude": 54.44540000000006, "longitude": -124.25099999999998}, "119031474RR0001": {"name": "MANSONVILLE BAPTIST CHURCH", "designationCode": "C", "categoryCode": "31", "address": "84 WEST HILL RD", "city": "MANSONVILLE", "province": "QC", "country": "CA", "postalCode": "J0E1X0", "twitter": "None", "instagram": "None", "facebook": "None", "youtube": "None", "website": "None", "summary": "None", "logo": "None", "latitude": 45.06826490156574, "longitude": -72.41095974850333}, "119031482RR0001": {"name": "MANSONVILLE CEMETERY COMPANY", "designationCode": "C", "categoryCode": "59", "address": "PO BOX 235", "city": "MANSONVILLE", "province": "QC", "country": "CA", "postalCode": "J0E1X0", "twitter": "None", "instagram": "None", "facebook": "None", "youtube": "None", "website": "None", "summary": "None", "logo": "None", "latitude": 45.10755705165745, "longitude": -72.3931084549433}, "131719973RR0001": {"name": "MANUELS RIVER NATURAL HERITAGE SOCIETY INC", "designationCode": "C", "categoryCode": "52", "address": "7 CONCEPTION BAY HIGHWAY", "city": "CONCEPTION BAY SOUTH", "province": "NL", "country": "CA", "postalCode": "A1W3A2", "twitter": "None", "instagram": "None", "facebook": "None", "youtube": "None", "website": "None", "summary": "None", "logo": "None", "latitude": 47.52039598363182, "longitude": -52.94621857130661}, "888788668RR0001": {"name": "MANVERS TOWNSHIP HISTORICAL SOCIETY", "designationCode": "C", "categoryCode": "50", "address": "1480 HWY 7A, P.O. BOX 173", "city": "BETHANY", "province": "ON", "country": "CA", "postalCode": "L0A1A0", "twitter": "None", "instagram": "None", "facebook": "None", "youtube": "None", "website": "None", "summary": "None", "logo": "None", "latitude": 44.182145727900945, "longitude": -78.5670588867746}, "131878233RR0001": {"name": "MANY ISLAND RECREATIONAL DEVELOPMENT SOCIETY", "designationCode": "C", "categoryCode": "56", "address": "BOX 152", "city": "WORSLEY", "province": "AB", "country": "CA", "postalCode": "T0H3W0", "twitter": "None", "instagram": "None", "facebook": "None", "youtube": "None", "website": "None", "summary": "None", "logo": "None", "latitude": 56.508710000000065, "longitude": -119.13987999999995}, "108228933RR0001": {"name": "MANY RIVERS COUNSELLING AND SUPPORT SERVICES SOCIETY", "designationCode": "C", "categoryCode": "09", "address": "4071 4TH AVE", "city": "WHITEHORSE", "province": "YT", "country": "CA", "postalCode": "Y1A1H3", "twitter": "None", "instagram": "None", "facebook": "None", "youtube": "None", "website": "None", "summary": "None", "logo": "None", "latitude": 60.71592682082464, "longitude": -135.05385877599164}, "862602273RR0001": {"name": "MANZAL HUMANITARIAN FOUNDATION", "designationCode": "C", "categoryCode": "10", "address": "518 EVANS AVE", "city": "TORONTO", "province": "ON", "country": "CA", "postalCode": "M8W2V4", "twitter": "None", "instagram": "None", "facebook": "None", "youtube": "None", "website": "None", "summary": "None", "logo": "None", "latitude": 43.612603100236306, "longitude": -79.54047879421766}, "888776945RR0001": {"name": "MAON NOAM CONGREGATION OF CANADA", "designationCode": "C", "categoryCode": "42", "address": "910 RUTHERFORD RD", "city": "MAPLE", "province": "ON", "country": "CA", "postalCode": "L6A1S2", "twitter": "None", "instagram": "None", "facebook": "None", "youtube": "None", "website": "None", "summary": "None", "logo": "None", "latitude": 43.846559180160206, "longitude": -79.46399747045406}, "119031516RR0001": {"name": "MAOR: AN ORGANIZATION TO PROMOTE STUDIES OF JEWISH LIFE", "designationCode": "C", "categoryCode": "20", "address": "7 ARGONNE CRESCENT", "city": "TORONTO", "province": "ON", "country": "CA", "postalCode": "M2K2P6", "twitter": "None", "instagram": "None", "facebook": "None", "youtube": "None", "website": "None", "summary": "None", "logo": "None", "latitude": 43.794309699953956, "longitude": -79.39295762738766}, "778352690RR0001": {"name": "MAOZ CANADA", "designationCode": "C", "categoryCode": "47", "address": "33 KATHERINE CRES", "city": "STOUFFVILLE", "province": "ON", "country": "CA", "postalCode": "L4A1K4", "twitter": "None", "instagram": "None", "facebook": "None", "youtube": "None", "website": "None", "summary": "None", "logo": "None", "latitude": 43.97157705969746, "longitude": -79.2292966439205}, "890138142RR0001": {"name": "MAPES BAPTIST CHURCH OF VANDERHOOF, BRITISH COLUMBIA", "designationCode": "C", "categoryCode": "31", "address": "11054 BLACKWATER ROAD", "city": "VANDERHOOF", "province": "BC", "country": "CA", "postalCode": "V0J3A1", "twitter": "None", "instagram": "None", "facebook": "None", "youtube": "None", "website": "None", "summary": "None", "logo": "None", "latitude": 53.77473188426427, "longitude": -123.61653645985685}, "119031532RR0001": {"name": "MAPLE ARBOR FOUNDATION TRUST", "designationCode": "C", "categoryCode": "21", "address": "PO BOX 26028 RPO TERRACE HILL", "city": "BRANTFORD", "province": "ON", "country": "CA", "postalCode": "N3R7X4", "twitter": "None", "instagram": "None", "facebook": "None", "youtube": "None", "website": "None", "summary": "None", "logo": "None", "latitude": 43.152027552898105, "longitude": -80.27417324899059}, "107662751RR0001": {"name": "MAPLE AVENUE BAPTIST CHURCH", "designationCode": "C", "categoryCode": "31", "address": "177 MAPLE AVE", "city": "GEORGETOWN", "province": "ON", "country": "CA", "postalCode": "L7G1X6", "twitter": "None", "instagram": "None", "facebook": "None", "youtube": "None", "website": "None", "summary": "None", "logo": "None", "latitude": 43.650273018581665, "longitude": -79.91625170119471}, "804869881RR0001": {"name": "MAPLE CITY BAPTIST CHURCH", "designationCode": "C", "categoryCode": "31", "address": "500 INDIAN CREEK ROAD W", "city": "CHATHAM", "province": "ON", "country": "CA", "postalCode": "N7M0P4", "twitter": "None", "instagram": "None", "facebook": "None", "youtube": "None", "website": "None", "summary": "None", "logo": "None", "latitude": 42.377543479831814, "longitude": -82.18017457793333}, "107662827RR0001": {"name": "MAPLE CITY CENTRE FOR OLDER ADULTS", "designationCode": "C", "categoryCode": "01", "address": "20 MERRITT AVENUE", "city": "CHATHAM", "province": "ON", "country": "CA", "postalCode": "N7M6G9", "twitter": "None", "instagram": "None", "facebook": "None", "youtube": "None", "website": "None", "summary": "None", "logo": "None", "latitude": 42.39911395389257, "longitude": -82.20544804893473}, "863556551RR0001": {"name": "MAPLE COMMUNITY CHURCH", "designationCode": "C", "categoryCode": "36", "address": "67 RODINEA RD. UNIT 18", "city": "MAPLE", "province": "ON", "country": "CA", "postalCode": "L6A1R3", "twitter": "None", "instagram": "None", "facebook": "None", "youtube": "None", "website": "None", "summary": "None", "logo": "None", "latitude": 43.873306300882774, "longitude": -79.51014093536914}, "107662900RR0001": {"name": "MAPLE CREEK & DISTRICT OPPORTUNITIES INC.", "designationCode": "C", "categoryCode": "59", "address": "BOX 1346", "city": "MAPLE CREEK", "province": "SK", "country": "CA", "postalCode": "S0N1N0", "twitter": "None", "instagram": "None", "facebook": "None", "youtube": "None", "website": "None", "summary": "None", "logo": "None", "latitude": 49.91416000000004, "longitude": -109.46959999999996}, "119031581RR0001": {"name": "MAPLE CREEK AND AREA SENIOR CITIZENS CLUB", "designationCode": "C", "categoryCode": "56", "address": "BOX 614", "city": "MAPLE CREEK", "province": "SK", "country": "CA", "postalCode": "S0N1N0", "twitter": "None", "instagram": "None", "facebook": "None", "youtube": "None", "website": "None", "summary": "None", "logo": "None", "latitude": 49.91416000000004, "longitude": -109.46959999999996}, "119031649RR0001": {"name": "MAPLE CREEK AND DISTRICT MUSIC FESTIVAL ASSOCIATION", "designationCode": "C", "categoryCode": "22", "address": "112 MYERS CRESCENT            POST OFFICE BOX 880", "city": "MAPLE CREEK", "province": "SK", "country": "CA", "postalCode": "S0N1N0", "twitter": "None", "instagram": "None", "facebook": "None", "youtube": "None", "website": "None", "summary": "None", "logo": "None", "latitude": 49.89940480933693, "longitude": -109.48528910998468}, "131555492RR0001": {"name": "MAPLE CREEK ASSEMBLY OF GOD", "designationCode": "C", "categoryCode": "36", "address": "PO BOX 2067", "city": "MAPLE CREEK", "province": "SK", "country": "CA", "postalCode": "S0N1N0", "twitter": "None", "instagram": "None", "facebook": "None", "youtube": "None", "website": "None", "summary": "None", "logo": "None", "latitude": 49.91416000000004, "longitude": -109.46959999999996}, "129397659RR0001": {"name": "MAPLE CREEK COMMUNITY CHURCH", "designationCode": "C", "categoryCode": "39", "address": "110 INMAN RD", "city": "DUNNVILLE", "province": "ON", "country": "CA", "postalCode": "N1A3B8", "twitter": "None", "instagram": "None", "facebook": "None", "youtube": "None", "website": "None", "summary": "None", "logo": "None", "latitude": 42.90826742431796, "longitude": -79.58538310369876}, "107662975RR0001": {"name": "MAPLE CREEK PASTORAL CHARGE", "designationCode": "C", "categoryCode": "44", "address": "BOX 1708", "city": "MAPLE CREEK", "province": "SK", "country": "CA", "postalCode": "S0N1N0", "twitter": "None", "instagram": "None", "facebook": "None", "youtube": "None", "website": "None", "summary": "None", "logo": "None", "latitude": 49.91416000000004, "longitude": -109.46959999999996}, "119030666RR0009": {"name": "MAPLE CREEK SEVENTH-DAY ADVENTIST CHURCH", "designationCode": "C", "categoryCode": "41", "address": "1004 VICTORIA AVENUE", "city": "SASKATOON", "province": "SK", "country": "CA", "postalCode": "S7N0Z8", "twitter": "None", "instagram": "None", "facebook": "None", "youtube": "None", "website": "None", "summary": "None", "logo": "None", "latitude": 52.115409, "longitude": -106.66240826773014}, "889721460RR0001": {"name": "MAPLE GLEN COMMUNITY CEMETERY ORGANIZATION", "designationCode": "C", "categoryCode": "59", "address": "731 ROUTE 435 HWY", "city": "MAPLE GLEN", "province": "NB", "country": "CA", "postalCode": "E1V4X6", "twitter": "None", "instagram": "None", "facebook": "None", "youtube": "None", "website": "None", "summary": "None", "logo": "None", "latitude": 47.02581804363476, "longitude": -65.72661823910154}, "119031706RR0001": {"name": "MAPLE GROVE CEMETERY", "designationCode": "C", "categoryCode": "59", "address": "R.R.#1-1198 P-LINE", "city": "HILTON BEACH", "province": "ON", "country": "CA", "postalCode": "P0R1G0", "twitter": "None", "instagram": "None", "facebook": "None", "youtube": "None", "website": "None", "summary": "None", "logo": "None", "latitude": 46.25289041946738, "longitude": -83.86479036475423}, "119031698RR0001": {"name": "MAPLE GROVE CEMETERY COMPANY, LIMITED", "designationCode": "C", "categoryCode": "59", "address": "330 ROUTE 776", "city": "GRAND MANAN", "province": "NB", "country": "CA", "postalCode": "E5G1C8", "twitter": "None", "instagram": "None", "facebook": "None", "youtube": "None", "website": "None", "summary": "None", "logo": "None", "latitude": 44.74982681747335, "longitude": -66.7640331276561}, "118827195RR0001": {"name": "MAPLE GROVE CHRISTIAN RETREAT CENTRE INC.", "designationCode": "C", "categoryCode": "56", "address": "194936 19TH LINE", "city": "THAMESFORD", "province": "ON", "country": "CA", "postalCode": "N0M2M0", "twitter": "None", "instagram": "None", "facebook": "None", "youtube": "None", "website": "None", "summary": "None", "logo": "None", "latitude": 43.05442798118721, "longitude": -80.9894217391365}, "119031714RR0001": {"name": "MAPLE GROVE UNITED CEMETARY", "designationCode": "C", "categoryCode": "59", "address": "BOX 946", "city": "SHAWVILLE", "province": "QC", "country": "CA", "postalCode": "J0X2Y0", "twitter": "None", "instagram": "None", "facebook": "None", "youtube": "None", "website": "None", "summary": "None", "logo": "None", "latitude": 45.599560000000054, "longitude": -76.49331999999998}, "119031722RR0001": {"name": "MAPLE GROVE UNITED CHURCH", "designationCode": "C", "categoryCode": "44", "address": "2197 MAPLE GROVE ROAD", "city": "BOWMANVILLE", "province": "ON", "country": "CA", "postalCode": "L1C3K7", "twitter": "None", "instagram": "None", "facebook": "None", "youtube": "None", "website": "None", "summary": "None", "logo": "None", "latitude": 43.912473886779026, "longitude": -78.72403203107594}, "119031730RR0001": {"name": "MAPLE GROVE UNITED CHURCH", "designationCode": "C", "categoryCode": "44", "address": "346 MAPLE GROVE DRIVE", "city": "OAKVILLE", "province": "ON", "country": "CA", "postalCode": "L6J4V5", "twitter": "None", "instagram": "None", "facebook": "None", "youtube": "None", "website": "None", "summary": "None", "logo": "None", "latitude": 43.474870639679594, "longitude": -79.65176008987761}, "119031755RR0001": {"name": "MAPLE HILL BAPTIST CHURCH", "designationCode": "C", "categoryCode": "31", "address": "215 GLENWOODS AVE", "city": "KESWICK", "province": "ON", "country": "CA", "postalCode": "L4P2W6", "twitter": "None", "instagram": "None", "facebook": "None", "youtube": "None", "website": "None", "summary": "None", "logo": "None", "latitude": 44.21258287812361, "longitude": -79.46337705938033}, "107663072RR0001": {"name": "MAPLE HILL MANOR SOCIETY", "designationCode": "C", "categoryCode": "09", "address": "700 KING STREET", "city": "NEW WATERFORD", "province": "NS", "country": "CA", "postalCode": "B1H3Z5", "twitter": "None", "instagram": "None", "facebook": "None", "youtube": "None", "website": "None", "summary": "None", "logo": "None", "latitude": 46.240859149027735, "longitude": -60.08612753615372}, "888115391RR0001": {"name": "MAPLE LAKE UNITED CHURCH", "designationCode": "C", "categoryCode": "44", "address": "1343 SCOTCH LINE RD", "city": "MINDEN", "province": "ON", "country": "CA", "postalCode": "K0M2K0", "twitter": "None", "instagram": "None", "facebook": "None", "youtube": "None", "website": "None", "summary": "None", "logo": "None", "latitude": 44.941562484618906, "longitude": -78.7725196838277}, "119031813RR0001": {"name": "MAPLE LEAF CEMETERY", "designationCode": "C", "categoryCode": "59", "address": "18 COVE ROAD", "city": "CONQUERAL BANK", "province": "NS", "country": "CA", "postalCode": "B4V0T4", "twitter": "None", "instagram": "None", "facebook": "None", "youtube": "None", "website": "None", "summary": "None", "logo": "None", "latitude": 44.36222031689696, "longitude": -64.46365587183294}, "119031805RR0001": {"name": "MAPLE LEAF CEMETERY INC.", "designationCode": "C", "categoryCode": "59", "address": "67 RUE ROBERT PEEL", "city": "SHERBROOKE", "province": "QC", "country": "CA", "postalCode": "J1M1X5", "twitter": "None", "instagram": "None", "facebook": "None", "youtube": "None", "website": "None", "summary": "None", "logo": "None", "latitude": 45.36341055063776, "longitude": -71.86660080544173}, "888472040RR0001": {"name": "MAPLE LEAF CEMETERY TILBURY", "designationCode": "C", "categoryCode": "59", "address": "62 CANAL STREET WEST,         P.O. BOX 63", "city": "TILBURY", "province": "ON", "country": "CA", "postalCode": "N0P2L0", "twitter": "None", "instagram": "None", "facebook": "None", "youtube": "None", "website": "None", "summary": "None", "logo": "None", "latitude": 42.256963476282465, "longitude": -82.43836100389514}, "831018072RR0001": {"name": "MAPLE LEAF CHRISTIAN CHURCH", "designationCode": "C", "categoryCode": "39", "address": "97 ANNETTE ST", "city": "TORONTO", "province": "ON", "country": "CA", "postalCode": "M6P1N7", "twitter": "None", "instagram": "None", "facebook": "None", "youtube": "None", "website": "None", "summary": "None", "logo": "None", "latitude": 43.663477820416716, "longitude": -79.46314618526743}, "119031839RR0001": {"name": "MAPLE LEAF CONSTRUCTION 1978 CHARITY FUND", "designationCode": "C", "categoryCode": "75", "address": "777 ERIN ST", "city": "WINNIPEG", "province": "MB", "country": "CA", "postalCode": "R3G2W2", "twitter": "None", "instagram": "None", "facebook": "None", "youtube": "None", "website": "None", "summary": "None", "logo": "None", "latitude": 49.88844620260835, "longitude": -97.1847907684809}, "133043943RR0001": {"name": "MAPLE LEAF KIDS KORNER BEFORE & AFTER SCHOOL PROGRAM INC", "designationCode": "C", "categoryCode": "01", "address": "251 MCIVOR AVE UNIT A", "city": "WINNIPEG", "province": "MB", "country": "CA", "postalCode": "R2G0Z7", "twitter": "None", "instagram": "None", "facebook": "None", "youtube": "None", "website": "None", "summary": "None", "logo": "None", "latitude": 49.951792495181245, "longitude": -97.070608957355}, "119031870RR0001": {"name": "MAPLE LEAF THEATRE FOR SOCIAL RESPONSIBILITY", "designationCode": "C", "categoryCode": "22", "address": "206 - 157 CARLTON ST", "city": "TORONTO", "province": "ON", "country": "CA", "postalCode": "M5A2K3", "twitter": "None", "instagram": "None", "facebook": "None", "youtube": "None", "website": "None", "summary": "None", "logo": "None", "latitude": 43.663294834843455, "longitude": -79.37244587301637}, "875341927RR0001": {"name": "MAPLE LEAVES FOREVER", "designationCode": "C", "categoryCode": "50", "address": "46 MODERN RD", "city": "TORONTO", "province": "ON", "country": "CA", "postalCode": "M1R3B6", "twitter": "None", "instagram": "None", "facebook": "None", "youtube": "None", "website": "None", "summary": "None", "logo": "None", "latitude": 43.74366218016022, "longitude": -79.28550785680063}, "890629538RR0001": {"name": "MAPLE LODGE FARMS FOUNDATION", "designationCode": "B", "categoryCode": "23", "address": "8301 WINSTON CHURCHILL BLVD", "city": "BRAMPTON", "province": "ON", "country": "CA", "postalCode": "L6Y0A2", "twitter": "None", "instagram": "None", "facebook": "None", "youtube": "None", "website": "None", "summary": "None", "logo": "None", "latitude": 43.613406768883976, "longitude": -79.80571507969367}, "107663288RR0001": {"name": "MAPLE PARK ALLIANCE CHURCH", "designationCode": "C", "categoryCode": "39", "address": "2075 BALSAM AVE", "city": "QUESNEL", "province": "BC", "country": "CA", "postalCode": "V2J5J3", "twitter": "None", "instagram": "None", "facebook": "None", "youtube": "None", "website": "None", "summary": "None", "logo": "None", "latitude": 52.96748253837542, "longitude": -122.44958002553523}, "118952365RR0001": {"name": "MAPLE RIDGE ALLIANCE CHURCH", "designationCode": "C", "categoryCode": "39", "address": "20399 DEWDNEY TRUNK RD", "city": "MAPLE RIDGE", "province": "BC", "country": "CA", "postalCode": "V2X3E2", "twitter": "None", "instagram": "None", "facebook": "None", "youtube": "None", "website": "None", "summary": "None", "logo": "None", "latitude": 49.22143350490475, "longitude": -122.65565022300768}, "107663312RR0001": {"name": "MAPLE RIDGE AND PITT MEADOWS ARTS COUNCIL", "designationCode": "C", "categoryCode": "21", "address": "11944 HANEY PLACE", "city": "MAPLE RIDGE", "province": "BC", "country": "CA", "postalCode": "V2X6G1", "twitter": "None", "instagram": "None", "facebook": "None", "youtube": "None", "website": "None", "summary": "None", "logo": "None", "latitude": 49.21911634860633, "longitude": -122.59914064663316}, "107663320RR0001": {"name": "MAPLE RIDGE BAPTIST CHURCH", "designationCode": "C", "categoryCode": "31", "address": "22155 LOUGHEED HWY", "city": "MAPLE RIDGE", "province": "BC", "country": "CA", "postalCode": "V2X5V3", "twitter": "None", "instagram": "None", "facebook": "None", "youtube": "None", "website": "None", "summary": "None", "logo": "None", "latitude": 49.216911525967916, "longitude": -122.60841258090484}, "890217573RR0001": {"name": "MAPLE RIDGE CEMETERY", "designationCode": "C", "categoryCode": "59", "address": "1167, ROUTE 605", "city": "MAPLE RIDGE", "province": "NB", "country": "CA", "postalCode": "E6E1W5", "twitter": "None", "instagram": "None", "facebook": "None", "youtube": "None", "website": "None", "summary": "None", "logo": "None", "latitude": 46.10263536259273, "longitude": -67.21317525193655}, "894113372RR0015": {"name": "MAPLE RIDGE CHURCH OF THE NAZARENE", "designationCode": "C", "categoryCode": "39", "address": "21467 DEWDNEY TRUNK RD", "city": "MAPLE RIDGE", "province": "BC", "country": "CA", "postalCode": "V2X3G5", "twitter": "None", "instagram": "None", "facebook": "None", "youtube": "None", "website": "None", "summary": "None", "logo": "None", "latitude": 49.220625453834316, "longitude": -122.62633127699232}, "864553763RR0001": {"name": "MAPLE RIDGE COMMUNITY CHURCH", "designationCode": "C", "categoryCode": "34", "address": "301 20450 DEWDNEY TRUNK RD", "city": "MAPLE RIDGE", "province": "BC", "country": "CA", "postalCode": "V2X3E3", "twitter": "None", "instagram": "None", "facebook": "None", "youtube": "None", "website": "None", "summary": "None", "logo": "None", "latitude": 49.22137552063049, "longitude": -122.65378102553522}, "892457367RR0001": {"name": "MAPLE RIDGE CONCERT BAND ASSOCIATION", "designationCode": "C", "categoryCode": "22", "address": "PO BOX 21075                  MAPLE RIDGE SQUARE RPO", "city": "MAPLE RIDGE", "province": "BC", "country": "CA", "postalCode": "V2X1P7", "twitter": "None", "instagram": "None", "facebook": "None", "youtube": "None", "website": "None", "summary": "None", "logo": "None", "latitude": 49.21686600000005, "longitude": -122.60537449999993}}