{"747332724RR0001": {"name": "Robinson Outreach at RiverCross Ranch", "designationCode": "C", "categoryCode": "56", "address": "1000 - 888 3 ST SW", "city": "CALGARY", "province": "AB", "country": "CA", "postalCode": "T2P5C5", "twitter": "None", "instagram": "None", "facebook": "None", "youtube": "None", "website": "None", "summary": "None", "logo": "None", "latitude": 51.04810324127135, "longitude": -114.07018760690465}, "833132608RR0001": {"name": "Roblin & District Health Care Auxiliary", "designationCode": "C", "categoryCode": "19", "address": "PO BOX 395", "city": "ROBLIN", "province": "MB", "country": "CA", "postalCode": "R0L1P0", "twitter": "None", "instagram": "None", "facebook": "None", "youtube": "None", "website": "None", "summary": "None", "logo": "None", "latitude": 51.22816000000006, "longitude": -101.35248999999999}, "119121788RR0001": {"name": "Roblin-Enterprise Pastoral Charge", "designationCode": "C", "categoryCode": "44", "address": "105 DAFOE ST", "city": "ROBLIN", "province": "ON", "country": "CA", "postalCode": "K0K2W0", "twitter": "None", "instagram": "None", "facebook": "None", "youtube": "None", "website": "None", "summary": "None", "logo": "None", "latitude": 44.38127695531035, "longitude": -77.10374184981063}, "829385806RR0001": {"name": "Robotique First Qu\u00e9bec - First Robotics Qu\u00e9bec", "designationCode": "C", "categoryCode": "21", "address": "2821 - 1 PLACE VILLE-MARIE", "city": "MONTREAL", "province": "QC", "country": "CA", "postalCode": "H3B4R4", "twitter": "None", "instagram": "None", "facebook": "None", "youtube": "None", "website": "None", "summary": "None", "logo": "None", "latitude": 45.50188724476333, "longitude": -73.56787382018557}, "848916920RR0001": {"name": "Robson Valley Arts and Culture Council", "designationCode": "C", "categoryCode": "22", "address": "261 DOMINION AVE              BOX 909", "city": "MCBRIDE", "province": "BC", "country": "CA", "postalCode": "V0J2E0", "twitter": "None", "instagram": "None", "facebook": "None", "youtube": "None", "website": "None", "summary": "None", "logo": "None", "latitude": 53.300773320706455, "longitude": -120.15851090056337}, "136574738RR0001": {"name": "Robson Valley Support Society", "designationCode": "C", "categoryCode": "11", "address": "PO BOX 430", "city": "MCBRIDE", "province": "BC", "country": "CA", "postalCode": "V0J2E0", "twitter": "None", "instagram": "None", "facebook": "None", "youtube": "None", "website": "None", "summary": "None", "logo": "None", "latitude": 54.383929956832056, "longitude": -128.54401829340847}, "132244351RR0001": {"name": "Roche View Lodge Society", "designationCode": "C", "categoryCode": "09", "address": "PO BOX 444", "city": "NEW HAZELTON", "province": "BC", "country": "CA", "postalCode": "V0J2J0", "twitter": "None", "instagram": "None", "facebook": "None", "youtube": "None", "website": "None", "summary": "None", "logo": "None", "latitude": 55.246710000000064, "longitude": -127.58310999999998}, "833460298RR0001": {"name": "Rock of Faith Worship Centre Church of God", "designationCode": "C", "categoryCode": "39", "address": "750 OAKDALE ROAD              UNIT 40-41", "city": "NORTH YORK", "province": "ON", "country": "CA", "postalCode": "M3N2Z4", "twitter": "None", "instagram": "None", "facebook": "None", "youtube": "None", "website": "None", "summary": "None", "logo": "None", "latitude": 43.75193318399804, "longitude": -79.52640657839375}, "835603036RR0001": {"name": "Rock of Victory Ministries Int'l Canada", "designationCode": "C", "categoryCode": "39", "address": "264 TORYORK DR", "city": "NORTH YORK", "province": "ON", "country": "CA", "postalCode": "M9L1Y1", "twitter": "None", "instagram": "None", "facebook": "None", "youtube": "None", "website": "None", "summary": "None", "logo": "None", "latitude": 43.76228821039864, "longitude": -79.56364158560804}, "843267808RR0001": {"name": "Rock Community Christian School", "designationCode": "C", "categoryCode": "20", "address": "249 CLARENCE STREET,", "city": "VAUGHAN", "province": "ON", "country": "CA", "postalCode": "L4L1L6", "twitter": "None", "instagram": "None", "facebook": "None", "youtube": "None", "website": "None", "summary": "None", "logo": "None", "latitude": 43.792138570921516, "longitude": -79.59457747983181}, "806948808RR0001": {"name": "Rock Generation Christian Fellowship", "designationCode": "C", "categoryCode": "39", "address": "5719 CLARENDON ST", "city": "VANCOUVER", "province": "BC", "country": "CA", "postalCode": "V5R3K4", "twitter": "None", "instagram": "None", "facebook": "None", "youtube": "None", "website": "None", "summary": "None", "logo": "None", "latitude": 49.23239863113859, "longitude": -123.05535404013484}, "808810139RR0001": {"name": "Rock Lake Manitoba Charitable Trust", "designationCode": "B", "categoryCode": "45", "address": "2500-201 PORTAGE AVENUE", "city": "WINNIPEG", "province": "MB", "country": "CA", "postalCode": "R3B3K6", "twitter": "None", "instagram": "None", "facebook": "None", "youtube": "None", "website": "None", "summary": "None", "logo": "None", "latitude": 49.895359615067065, "longitude": -97.13919299627776}, "100960863RR0001": {"name": "Rock Lake Ministries Inc.", "designationCode": "C", "categoryCode": "47", "address": "BOX 22", "city": "PILOT MOUND", "province": "MB", "country": "CA", "postalCode": "R0G1P0", "twitter": "None", "instagram": "None", "facebook": "None", "youtube": "None", "website": "None", "summary": "None", "logo": "None", "latitude": 49.20280000000008, "longitude": -98.89433999999994}, "118880574RR0001": {"name": "Rock Lake Pastoral Charge", "designationCode": "C", "categoryCode": "44", "address": "P.O. BOX 261", "city": "CRYSTAL CITY", "province": "MB", "country": "CA", "postalCode": "R0K0N0", "twitter": "None", "instagram": "None", "facebook": "None", "youtube": "None", "website": "None", "summary": "None", "logo": "None", "latitude": 49.146274354951295, "longitude": -98.94961515158063}, "842892051RR0001": {"name": "Rock Out Youth Foundation", "designationCode": "C", "categoryCode": "21", "address": "340 - 600 CROWFOOT CRES NW", "city": "CALGARY", "province": "AB", "country": "CA", "postalCode": "T3G0B4", "twitter": "None", "instagram": "None", "facebook": "None", "youtube": "None", "website": "None", "summary": "None", "logo": "None", "latitude": 51.129057037480436, "longitude": -114.20317967528412}, "844068569RR0001": {"name": "Rockbridge Church", "designationCode": "C", "categoryCode": "39", "address": "407 - 10092 148 ST", "city": "SURREY", "province": "BC", "country": "CA", "postalCode": "V3R4G7", "twitter": "None", "instagram": "None", "facebook": "None", "youtube": "None", "website": "None", "summary": "None", "logo": "None", "latitude": 49.185666, "longitude": -122.81199947276268}, "816961973RR0001": {"name": "Rockets Alumni Foundation", "designationCode": "A", "categoryCode": "53", "address": "101-1223 WATER ST", "city": "KELOWNA", "province": "BC", "country": "CA", "postalCode": "V1Y9V1", "twitter": "None", "instagram": "None", "facebook": "None", "youtube": "None", "website": "None", "summary": "None", "logo": "None", "latitude": 49.89324508189265, "longitude": -119.49610051636293}, "119122117RR0001": {"name": "Rockwell Automation Canadian Trust", "designationCode": "B", "categoryCode": "05", "address": "135 DUNDAS STREET", "city": "CAMBRIDGE", "province": "ON", "country": "CA", "postalCode": "N1R5X1", "twitter": "None", "instagram": "None", "facebook": "None", "youtube": "None", "website": "None", "summary": "None", "logo": "None", "latitude": 43.36016813575486, "longitude": -80.29658518549857}, "803545383RR0001": {"name": "Rockwood Cares Torah", "designationCode": "C", "categoryCode": "42", "address": "102 - 3845 BATHURST ST", "city": "NORTH YORK", "province": "ON", "country": "CA", "postalCode": "M3H3N2", "twitter": "None", "instagram": "None", "facebook": "None", "youtube": "None", "website": "None", "summary": "None", "logo": "None", "latitude": 43.74047087039064, "longitude": -79.43473796055765}, "119288918RR0740": {"name": "Rocky Harbour Congregation of Jehovah's Witnesses, Rocky Harbour, Newfoundland", "designationCode": "C", "categoryCode": "61", "address": "POST OFFICE BOX 291", "city": "ROCKY HARBOUR", "province": "NL", "country": "CA", "postalCode": "A0K4N0", "twitter": "None", "instagram": "None", "facebook": "None", "youtube": "None", "website": "None", "summary": "None", "logo": "None", "latitude": 49.59388000000007, "longitude": -57.912769999999966}, "843450883RR0001": {"name": "Rocky Mountain Adaptive Sports Centre", "designationCode": "C", "categoryCode": "56", "address": "UNIT 2, 201 CAREY", "city": "CANMORE", "province": "AB", "country": "CA", "postalCode": "T1W2R7", "twitter": "None", "instagram": "None", "facebook": "None", "youtube": "None", "website": "None", "summary": "None", "logo": "None", "latitude": 51.076231691565596, "longitude": -115.3640353598813}, "809473499RR0001": {"name": "Rocky Mountain Animal Rescue Foundation", "designationCode": "C", "categoryCode": "54", "address": "P.O. BOX 8111", "city": "CANMORE", "province": "AB", "country": "CA", "postalCode": "T1W3G7", "twitter": "None", "instagram": "None", "facebook": "None", "youtube": "None", "website": "None", "summary": "None", "logo": "None", "latitude": 51.05835600000006, "longitude": -115.32754699999992}, "830635819RR0001": {"name": "Rocky Mountain House and District Community Connections Society", "designationCode": "C", "categoryCode": "01", "address": "PO BOX 575 STN MAIN", "city": "ROCKY MOUNTAIN HOUSE", "province": "AB", "country": "CA", "postalCode": "T4T1A4", "twitter": "None", "instagram": "None", "facebook": "None", "youtube": "None", "website": "None", "summary": "None", "logo": "None", "latitude": 52.37758500000005, "longitude": -114.93030049999993}, "119288918RR1417": {"name": "Rocky Mountain Mandarin Congregation of Jehovah's Witnesses, Calgary, Alberta", "designationCode": "C", "categoryCode": "61", "address": "3102 CENTRE STREET NE", "city": "CALGARY", "province": "AB", "country": "CA", "postalCode": "T2E2X4", "twitter": "None", "instagram": "None", "facebook": "None", "youtube": "None", "website": "None", "summary": "None", "logo": "None", "latitude": 51.09141146728742, "longitude": -114.06104612441015}, "863622437RR0001": {"name": "Rocky Organization for Animal Rescue Society", "designationCode": "C", "categoryCode": "54", "address": "PO BOX 2098 STN MAIN", "city": "ROCKY MOUNTAIN HOUSE", "province": "AB", "country": "CA", "postalCode": "T4T1B5", "twitter": "None", "instagram": "None", "facebook": "None", "youtube": "None", "website": "None", "summary": "None", "logo": "None", "latitude": 52.37758500000005, "longitude": -114.93030049999993}, "119288918RR1564": {"name": "Rocky Ridge Congregation of Jehovah's Witnesses, Calgary, Alberta", "designationCode": "C", "categoryCode": "61", "address": "13A TUSSELWOOD DRIVE NW", "city": "CALGARY", "province": "AB", "country": "CA", "postalCode": "T3J3R4", "twitter": "None", "instagram": "None", "facebook": "None", "youtube": "None", "website": "None", "summary": "None", "logo": "None", "latitude": 51.13779541860703, "longitude": -114.25365936344558}, "119122257RR0001": {"name": "Rocky Support Services Society", "designationCode": "C", "categoryCode": "20", "address": "BOX 1120", "city": "ROCKY MOUNTAIN HOUSE", "province": "AB", "country": "CA", "postalCode": "T4T1A8", "twitter": "None", "instagram": "None", "facebook": "None", "youtube": "None", "website": "None", "summary": "None", "logo": "None", "latitude": 52.37758500000005, "longitude": -114.93030049999993}, "868080979RR0001": {"name": "Roe Lake and District Recreation Commission", "designationCode": "C", "categoryCode": "56", "address": "7592 HIGHWAY 24", "city": "LONE BUTTE", "province": "BC", "country": "CA", "postalCode": "V0K1X2", "twitter": "None", "instagram": "None", "facebook": "None", "youtube": "None", "website": "None", "summary": "None", "logo": "None", "latitude": 51.518484040434714, "longitude": -120.83848254400914}, "847010899RR0001": {"name": "Roebuck Pastoral Charge", "designationCode": "C", "categoryCode": "44", "address": "7025 CNTY RD 18, RR 2", "city": "SPENCERVILLE", "province": "ON", "country": "CA", "postalCode": "K0E1X0", "twitter": "None", "instagram": "None", "facebook": "None", "youtube": "None", "website": "None", "summary": "None", "logo": "None", "latitude": 44.7993606748342, "longitude": -75.60607294781212}, "834362055RR0001": {"name": "Rofeh Cholim Cancer Society", "designationCode": "C", "categoryCode": "59", "address": "147 SHELBOURNE ST", "city": "TORONTO", "province": "ON", "country": "CA", "postalCode": "M6B2M8", "twitter": "None", "instagram": "None", "facebook": "None", "youtube": "None", "website": "None", "summary": "None", "logo": "None", "latitude": 43.715386856483526, "longitude": -79.43144451941838}, "827972563RR0001": {"name": "Rofeh Wellness Foundation", "designationCode": "B", "categoryCode": "11", "address": "250 - 181 BAY ST", "city": "TORONTO", "province": "ON", "country": "CA", "postalCode": "M5J2T3", "twitter": "None", "instagram": "None", "facebook": "None", "youtube": "None", "website": "None", "summary": "None", "logo": "None", "latitude": 43.64715434416293, "longitude": -79.37959157588452}, "807412655RR0001": {"name": "Roger Dootson Charitable Foundation", "designationCode": "B", "categoryCode": "03", "address": "50 BEST ESTATES               51309 RANGE ROAD 225", "city": "SHERWOOD PARK", "province": "AB", "country": "CA", "postalCode": "T8C1H3", "twitter": "None", "instagram": "None", "facebook": "None", "youtube": "None", "website": "None", "summary": "None", "logo": "None", "latitude": 53.412016533758184, "longitude": -113.21451980682671}, "887600195RR0001": {"name": "Rokpa Canada", "designationCode": "C", "categoryCode": "09", "address": "5TH FLOOR                     55 UNION STEET", "city": "SAINT JOHN", "province": "NB", "country": "CA", "postalCode": "E2L5B7", "twitter": "None", "instagram": "None", "facebook": "None", "youtube": "None", "website": "None", "summary": "None", "logo": "None", "latitude": 45.274123256188965, "longitude": -66.06469612406943}, "811079169RR0001": {"name": "Rolling Acres Charitable Trust", "designationCode": "B", "categoryCode": "45", "address": "780 SASKATCHEWAN AVE W", "city": "PORTAGE LA PRAIRIE", "province": "MB", "country": "CA", "postalCode": "R1N0M7", "twitter": "None", "instagram": "None", "facebook": "None", "youtube": "None", "website": "None", "summary": "None", "logo": "None", "latitude": 49.97373494820344, "longitude": -98.30132080652011}, "863110615RR0001": {"name": "Roman Catholic Community of Saint John Paul II", "designationCode": "C", "categoryCode": "38", "address": "P.O. BOX 15", "city": "OAKBANK", "province": "MB", "country": "CA", "postalCode": "R0E1J0", "twitter": "None", "instagram": "None", "facebook": "None", "youtube": "None", "website": "None", "summary": "None", "logo": "None", "latitude": 49.93758600000005, "longitude": -96.84243349999993}, "107307191RR0060": {"name": "Roman Catholic Parish of Immaculate Heart of Mary", "designationCode": "C", "categoryCode": "38", "address": "BOX 684", "city": "MARTENSVILLE", "province": "SK", "country": "CA", "postalCode": "S0K2T0", "twitter": "None", "instagram": "None", "facebook": "None", "youtube": "None", "website": "None", "summary": "None", "logo": "None", "latitude": 52.28949000000006, "longitude": -106.66201999999998}, "824775555RR0001": {"name": "Romanian Apostolic Church Calgary", "designationCode": "C", "categoryCode": "39", "address": "23 MORGANS COURT", "city": "CALGARY", "province": "AB", "country": "CA", "postalCode": "T3Z0A1", "twitter": "None", "instagram": "None", "facebook": "None", "youtube": "None", "website": "None", "summary": "None", "logo": "None", "latitude": 51.054209135912856, "longitude": -114.30700374337256}, "826993362RR0001": {"name": "Romanian Christian Fellowship Inc.", "designationCode": "C", "categoryCode": "39", "address": "P.O.BOX 20063 STN PIONEER PARK", "city": "KITCHENER", "province": "ON", "country": "CA", "postalCode": "N2P2B4", "twitter": "None", "instagram": "None", "facebook": "None", "youtube": "None", "website": "None", "summary": "None", "logo": "None", "latitude": 43.39898000000005, "longitude": -80.43291999999997}, "802511428RR0001": {"name": "Romanian Orthodox Church \" Dormition of the Mother of God\"", "designationCode": "C", "categoryCode": "39", "address": "31-3360 COUNCIL RING RD", "city": "MISSISSAUGA", "province": "ON", "country": "CA", "postalCode": "L5L2E4", "twitter": "None", "instagram": "None", "facebook": "None", "youtube": "None", "website": "None", "summary": "None", "logo": "None", "latitude": 43.54087979164926, "longitude": -79.69075838695215}, "108094517RR0001": {"name": "Romanian Orthodox Church of Edmonton Saints Constantine & Elena", "designationCode": "C", "categoryCode": "39", "address": "9005 - 132 AVENUE", "city": "EDMONTON", "province": "AB", "country": "CA", "postalCode": "T5E0Y1", "twitter": "None", "instagram": "None", "facebook": "None", "youtube": "None", "website": "None", "summary": "None", "logo": "None", "latitude": 53.59199153952925, "longitude": -113.48018983236193}, "842473035RR0001": {"name": "Ron Dunkley Memorial Society", "designationCode": "A", "categoryCode": "13", "address": "20532-42A AVENUE", "city": "LANGLEY", "province": "BC", "country": "CA", "postalCode": "V3A3B7", "twitter": "None", "instagram": "None", "facebook": "None", "youtube": "None", "website": "None", "summary": "None", "logo": "None", "latitude": 49.079209487881876, "longitude": -122.65487991618096}, "822342093RR0001": {"name": "Ron W. Cameron Charitable Foundation", "designationCode": "A", "categoryCode": "03", "address": "SUITE 1165                    5328 CALGARY TRAIL NW", "city": "EDMONTON", "province": "AB", "country": "CA", "postalCode": "T6H4J8", "twitter": "None", "instagram": "None", "facebook": "None", "youtube": "None", "website": "None", "summary": "None", "logo": "None", "latitude": 53.49123769080735, "longitude": -113.49539595798925}, "817342025RR0001": {"name": "Ron White Foundation", "designationCode": "A", "categoryCode": "03", "address": "1020 LAWRENCE AVENUE WEST     SUITE 201", "city": "TORONTO", "province": "ON", "country": "CA", "postalCode": "M6A1C8", "twitter": "None", "instagram": "None", "facebook": "None", "youtube": "None", "website": "None", "summary": "None", "logo": "None", "latitude": 43.71258715072983, "longitude": -79.46181920358929}, "815274725RR0001": {"name": "Ronald and Carmella Vincelli Family Foundation", "designationCode": "B", "categoryCode": "03", "address": "4737, THE BOULEVARD", "city": "WESTMOUNT", "province": "QC", "country": "CA", "postalCode": "H3Y1V2", "twitter": "None", "instagram": "None", "facebook": "None", "youtube": "None", "website": "None", "summary": "None", "logo": "None", "latitude": 45.48450534999132, "longitude": -73.61405511685606}, "847328796RR0001": {"name": "Ronald Kimel Foundation Trust", "designationCode": "B", "categoryCode": "05", "address": "35 LESMILL ROAD", "city": "TORONTO", "province": "ON", "country": "CA", "postalCode": "M3B2T3", "twitter": "None", "instagram": "None", "facebook": "None", "youtube": "None", "website": "None", "summary": "None", "logo": "None", "latitude": 43.75751944659229, "longitude": -79.35325657519203}, "850502865RR0001": {"name": "Ronald McDonald House of Newfoundland and Labrador Inc.", "designationCode": "C", "categoryCode": "11", "address": "150 CLINCH CRESCENT           P.O. BOX 28091", "city": "ST.JOHN'S", "province": "NL", "country": "CA", "postalCode": "A1B4J8", "twitter": "None", "instagram": "None", "facebook": "None", "youtube": "None", "website": "None", "summary": "None", "logo": "None", "latitude": 47.57013021256302, "longitude": -52.74624338475911}, "133475368RR0001": {"name": "Ronald McDonald House Charities of Northern Alberta, An Alberta Society", "designationCode": "C", "categoryCode": "19", "address": "2900 - 10180 101 ST NW", "city": "EDMONTON", "province": "AB", "country": "CA", "postalCode": "T5J3V5", "twitter": "None", "instagram": "None", "facebook": "None", "youtube": "None", "website": "None", "summary": "None", "logo": "None", "latitude": 53.54247641909515, "longitude": -113.49376771934274}, "118932490RR0001": {"name": "Ronald McDonald House Charities Atlantic Association", "designationCode": "C", "categoryCode": "11", "address": "1133 TOWER ROAD", "city": "HALIFAX", "province": "NS", "country": "CA", "postalCode": "B3H2Y7", "twitter": "None", "instagram": "None", "facebook": "None", "youtube": "None", "website": "None", "summary": "None", "logo": "None", "latitude": 44.636515585348256, "longitude": -63.57853691199737}, "119157402RR0001": {"name": "Ronald McDonald House Charities Southern & Central Alberta", "designationCode": "C", "categoryCode": "01", "address": "111 WEST CAMPUS PL NW", "city": "CALGARY", "province": "AB", "country": "CA", "postalCode": "T3B2R6", "twitter": "None", "instagram": "None", "facebook": "None", "youtube": "None", "website": "None", "summary": "None", "logo": "None", "latitude": 51.07332792783774, "longitude": -114.14377783345844}, "107303174RR0001": {"name": "Roncesvalles United Church", "designationCode": "C", "categoryCode": "44", "address": "214 WRIGHT AVE", "city": "TORONTO", "province": "ON", "country": "CA", "postalCode": "M6R1L3", "twitter": "None", "instagram": "None", "facebook": "None", "youtube": "None", "website": "None", "summary": "None", "logo": "None", "latitude": 43.6454341906918, "longitude": -79.44879717805408}, "824497614RR0001": {"name": "Rond-Point Lanaudi\u00e8re", "designationCode": "C", "categoryCode": "59", "address": "867, DE LANAUDI\u00c8RE", "city": "JOLIETTE", "province": "QC", "country": "CA", "postalCode": "J6E3N4", "twitter": "None", "instagram": "None", "facebook": "None", "youtube": "None", "website": "None", "summary": "None", "logo": "None", "latitude": 46.01869871743911, "longitude": -73.44375502980573}, "813510864RR0001": {"name": "Roof of Love (ROL) Cai Ran", "designationCode": "C", "categoryCode": "09", "address": "1 WINDHURST DRIVE", "city": "OTTAWA", "province": "ON", "country": "CA", "postalCode": "K2G6G7", "twitter": "None", "instagram": "None", "facebook": "None", "youtube": "None", "website": "None", "summary": "None", "logo": "None", "latitude": 45.28138756647813, "longitude": -75.71914659059969}, "893008961RR0001": {"name": "Rooh Haq Ministries Fellowship", "designationCode": "C", "categoryCode": "47", "address": "5239 MULLEN CREST", "city": "EDMONTON", "province": "AB", "country": "CA", "postalCode": "T6R0P9", "twitter": "None", "instagram": "None", "facebook": "None", "youtube": "None", "website": "None", "summary": "None", "logo": "None", "latitude": 53.434462856727286, "longitude": -113.56632195904986}, "850612417RR0001": {"name": "Room To Read Canada", "designationCode": "C", "categoryCode": "21", "address": "P.O. BOX 46877                2405 PINE STREET", "city": "VANCOUVER", "province": "BC", "country": "CA", "postalCode": "V6J3E9", "twitter": "None", "instagram": "None", "facebook": "None", "youtube": "None", "website": "None", "summary": "None", "logo": "None", "latitude": 49.26432770774426, "longitude": -123.14345192177821}, "857285092RR0001": {"name": "Room 217 Foundation", "designationCode": "C", "categoryCode": "11", "address": "PO BOX 145", "city": "PORT PERRY", "province": "ON", "country": "CA", "postalCode": "L9L1A2", "twitter": "None", "instagram": "None", "facebook": "None", "youtube": "None", "website": "None", "summary": "None", "logo": "None", "latitude": 44.10681900000006, "longitude": -78.94273399999993}, "809303282RR0001": {"name": "Room2Grow Pregnancy Centre", "designationCode": "C", "categoryCode": "09", "address": "9 RATTENBURY STREET           POST OFFICE BOX 1306", "city": "CLINTON", "province": "ON", "country": "CA", "postalCode": "N0M1L0", "twitter": "None", "instagram": "None", "facebook": "None", "youtube": "None", "website": "None", "summary": "None", "logo": "None", "latitude": 43.61803322482535, "longitude": -81.53924921328417}, "839039518RR0001": {"name": "Rooney Foundation", "designationCode": "A", "categoryCode": "03", "address": "SUITE 1165                    5328 CALGARY TRAIL NW", "city": "EDMONTON", "province": "AB", "country": "CA", "postalCode": "T6H4J8", "twitter": "None", "instagram": "None", "facebook": "None", "youtube": "None", "website": "None", "summary": "None", "logo": "None", "latitude": 53.49123769080735, "longitude": -113.49539595798925}, "849409578RR0001": {"name": "Rooted Community Foundation", "designationCode": "B", "categoryCode": "03", "address": "1250-1500 WEST GEORGIA STREET POST OFFICE BOX 62", "city": "VANCOUVER", "province": "BC", "country": "CA", "postalCode": "V6G2Z6", "twitter": "None", "instagram": "None", "facebook": "None", "youtube": "None", "website": "None", "summary": "None", "logo": "None", "latitude": 49.290187500000016, "longitude": -123.130035}, "826945487RR0001": {"name": "Roots to Harvest", "designationCode": "C", "categoryCode": "09", "address": "297 PARK AVE", "city": "THUNDER BAY", "province": "ON", "country": "CA", "postalCode": "P7B1C4", "twitter": "None", "instagram": "None", "facebook": "None", "youtube": "None", "website": "None", "summary": "None", "logo": "None", "latitude": 48.435820691355616, "longitude": -89.22493211047943}, "800687881RR0001": {"name": "Rory and Jane Young Foundation", "designationCode": "B", "categoryCode": "03", "address": "1937 ACADIA RD", "city": "VANCOUVER", "province": "BC", "country": "CA", "postalCode": "V6T1R4", "twitter": "None", "instagram": "None", "facebook": "None", "youtube": "None", "website": "None", "summary": "None", "logo": "None", "latitude": 49.268907961247024, "longitude": -123.24044898018269}, "843268004RR0001": {"name": "Rosa's Centre", "designationCode": "C", "categoryCode": "59", "address": "UNIT #10                      221 DEERHURST DRIVE", "city": "BRAMPTON", "province": "ON", "country": "CA", "postalCode": "L6T5L7", "twitter": "None", "instagram": "None", "facebook": "None", "youtube": "None", "website": "None", "summary": "None", "logo": "None", "latitude": 43.74549373829978, "longitude": -79.66926432996735}, "800794430RR0001": {"name": "Rosalind Charitable Trust", "designationCode": "B", "categoryCode": "45", "address": "3425 2ND AVENUE SOUTH", "city": "LETHBRIDGE", "province": "AB", "country": "CA", "postalCode": "T1J4V1", "twitter": "None", "instagram": "None", "facebook": "None", "youtube": "None", "website": "None", "summary": "None", "logo": "None", "latitude": 49.696839530439966, "longitude": -112.78914308381903}, "842010407RR0001": {"name": "Rosamunde Summer Music Academy Inc.", "designationCode": "C", "categoryCode": "22", "address": "39 EXBURY PL", "city": "WINNIPEG", "province": "MB", "country": "CA", "postalCode": "R3Y1C3", "twitter": "None", "instagram": "None", "facebook": "None", "youtube": "None", "website": "None", "summary": "None", "logo": "None", "latitude": 49.812084001096515, "longitude": -97.19959852718}, "848159265RR0001": {"name": "Rose of Sharon Foundation", "designationCode": "A", "categoryCode": "03", "address": "100-504 COTTONWOOD AVE", "city": "COQUITLAM", "province": "BC", "country": "CA", "postalCode": "V3J2R5", "twitter": "None", "instagram": "None", "facebook": "None", "youtube": "None", "website": "None", "summary": "None", "logo": "None", "latitude": 49.25887155063777, "longitude": -122.89243397307979}, "859442303RR0001": {"name": "Rose Charities", "designationCode": "C", "categoryCode": "09", "address": "1500 WEST GEORGIA STREET      SUITE 1250, P.O. BOX 62", "city": "VANCOUVER", "province": "BC", "country": "CA", "postalCode": "V6G2Z6", "twitter": "None", "instagram": "None", "facebook": "None", "youtube": "None", "website": "None", "summary": "None", "logo": "None", "latitude": 49.2900638104334, "longitude": -123.12989899362336}, "841901697RR0001": {"name": "Rose City - Kids Ministry", "designationCode": "C", "categoryCode": "49", "address": "97-99 EAST MAIN ST.", "city": "WELLAND", "province": "ON", "country": "CA", "postalCode": "L3B3W5", "twitter": "None", "instagram": "None", "facebook": "None", "youtube": "None", "website": "None", "summary": "None", "logo": "None", "latitude": 42.99208377527112, "longitude": -79.2482911981345}, "892198441RR0001": {"name": "Rose City Church", "designationCode": "C", "categoryCode": "39", "address": "6406 44B AVE", "city": "CAMROSE", "province": "AB", "country": "CA", "postalCode": "T4V0B6", "twitter": "None", "instagram": "None", "facebook": "None", "youtube": "None", "website": "None", "summary": "None", "logo": "None", "latitude": 53.01239951166277, "longitude": -112.85151333366865}, "835599499RR0001": {"name": "Rose Foundation", "designationCode": "A", "categoryCode": "05", "address": "VINTAGE TOWERS L SUITE 403    322-11TH AVE.SW", "city": "CALGARY", "province": "AB", "country": "CA", "postalCode": "T2R0C5", "twitter": "None", "instagram": "None", "facebook": "None", "youtube": "None", "website": "None", "summary": "None", "logo": "None", "latitude": 51.042551467684106, "longitude": -114.0685795269202}, "827178492RR0001": {"name": "Rose Garden Hospice Association Inc.", "designationCode": "C", "categoryCode": "11", "address": "PO BOX 2092", "city": "PRINCE ALBERT", "province": "SK", "country": "CA", "postalCode": "S6V5R3", "twitter": "None", "instagram": "None", "facebook": "None", "youtube": "None", "website": "None", "summary": "None", "logo": "None", "latitude": 53.199456000000055, "longitude": -105.74863099999993}, "119123693RR0001": {"name": "Rose Prairie Country Church", "designationCode": "C", "categoryCode": "36", "address": "BOX 36", "city": "ROSE PRAIRIE", "province": "BC", "country": "CA", "postalCode": "V0C2H0", "twitter": "None", "instagram": "None", "facebook": "None", "youtube": "None", "website": "None", "summary": "None", "logo": "None", "latitude": 56.512375996504986, "longitude": -120.82045049999999}, "896852969RR0001": {"name": "Roseau Crossing Heritage Park Inc.", "designationCode": "C", "categoryCode": "56", "address": "133 FRANKLIN AVENUE EST", "city": "DOMINION CITY", "province": "MB", "country": "CA", "postalCode": "R0A0H0", "twitter": "None", "instagram": "None", "facebook": "None", "youtube": "None", "website": "None", "summary": "None", "logo": "None", "latitude": 49.14121950000002, "longitude": -97.15809375}, "119123222RR0001": {"name": "Rosebud Church, An Evangelical Covenant Church", "designationCode": "C", "categoryCode": "31", "address": "BOX 663", "city": "ROSEBUD", "province": "AB", "country": "CA", "postalCode": "T0J2T0", "twitter": "None", "instagram": "None", "facebook": "None", "youtube": "None", "website": "None", "summary": "None", "logo": "None", "latitude": 51.299660000000074, "longitude": -112.94913999999994}, "107914244RR0001": {"name": "Roseland-Trinity United Church", "designationCode": "C", "categoryCode": "44", "address": "3919 HOWARD AVE", "city": "WINDSOR", "province": "ON", "country": "CA", "postalCode": "N9G1N9", "twitter": "None", "instagram": "None", "facebook": "None", "youtube": "None", "website": "None", "summary": "None", "logo": "None", "latitude": 42.25557614654624, "longitude": -82.99587003473914}, "792090516RR0001": {"name": "Rosemary McCain Charitable Foundation", "designationCode": "B", "categoryCode": "03", "address": "210-65 REGENT STREET          PO BOX 1205, STATION A", "city": "FREDERICTON", "province": "NB", "country": "CA", "postalCode": "E3B7H8", "twitter": "None", "instagram": "None", "facebook": "None", "youtube": "None", "website": "None", "summary": "None", "logo": "None", "latitude": 45.960827468780636, "longitude": -66.63899565779897}, "119288918RR0444": {"name": "Rosemont Congregation of Jehovah's Witnesses, Regina, Saskatchewan", "designationCode": "C", "categoryCode": "61", "address": "4720 DEWDNEY AVE", "city": "REGINA", "province": "SK", "country": "CA", "postalCode": "S4T1B5", "twitter": "None", "instagram": "None", "facebook": "None", "youtube": "None", "website": "None", "summary": "None", "logo": "None", "latitude": 50.45519247157925, "longitude": -104.64893019317329}, "826600454RR0001": {"name": "Rosen Family Foundation", "designationCode": "B", "categoryCode": "05", "address": "3240 WHARTON WAY", "city": "MISSISSAUGA", "province": "ON", "country": "CA", "postalCode": "L4X2C1", "twitter": "None", "instagram": "None", "facebook": "None", "youtube": "None", "website": "None", "summary": "None", "logo": "None", "latitude": 43.623425527584025, "longitude": -79.58009781894482}, "820833960RR0001": {"name": "Roseway Baptist Church", "designationCode": "C", "categoryCode": "39", "address": "POST OFFICE BOX 1202          224 MOWATT STREET", "city": "SHELBURNE", "province": "NS", "country": "CA", "postalCode": "B0T1W0", "twitter": "None", "instagram": "None", "facebook": "None", "youtube": "None", "website": "None", "summary": "None", "logo": "None", "latitude": 43.76894188288413, "longitude": -65.32550155242676}, "823670716RR0001": {"name": "Rosewood Charitable Foundation", "designationCode": "B", "categoryCode": "03", "address": "102 - 1621 HAMILTON AVE", "city": "NORTH VANCOUVER", "province": "BC", "country": "CA", "postalCode": "V7P0B6", "twitter": "None", "instagram": "None", "facebook": "None", "youtube": "None", "website": "None", "summary": "None", "logo": "None", "latitude": 49.32357729070387, "longitude": -123.09965017996797}, "773878327RR0001": {"name": "Rosewood Consort: An Early Music Ensemble", "designationCode": "C", "categoryCode": "22", "address": "2 - 334 WILSON ST W", "city": "ANCASTER", "province": "ON", "country": "CA", "postalCode": "L9G1N5", "twitter": "None", "instagram": "None", "facebook": "None", "youtube": "None", "website": "None", "summary": "None", "logo": "None", "latitude": 43.2125322965749, "longitude": -79.9953122044693}, "821147634RR0001": {"name": "Rosh Pinah", "designationCode": "C", "categoryCode": "39", "address": "102-55 CARSCADDEN DRIVE", "city": "TORONTO", "province": "ON", "country": "CA", "postalCode": "M2R2A6", "twitter": "None", "instagram": "None", "facebook": "None", "youtube": "None", "website": "None", "summary": "None", "logo": "None", "latitude": 43.76706263336027, "longitude": -79.44223396664583}, "832843734RR0001": {"name": "Ross Bay Villa Society", "designationCode": "C", "categoryCode": "50", "address": "1569 GREGORY PLACE", "city": "VICTORIA", "province": "BC", "country": "CA", "postalCode": "V8P2T7", "twitter": "None", "instagram": "None", "facebook": "None", "youtube": "None", "website": "None", "summary": "None", "logo": "None", "latitude": 48.46541153952926, "longitude": -123.33753291771018}, "821858909RR0001": {"name": "Ross Murray Hamilton Foundation", "designationCode": "B", "categoryCode": "05", "address": "PO BOX 150 STN 1ST CAN PLACE", "city": "TORONTO", "province": "ON", "country": "CA", "postalCode": "M5X1H3", "twitter": "None", "instagram": "None", "facebook": "None", "youtube": "None", "website": "None", "summary": "None", "logo": "None", "latitude": 43.64868300000006, "longitude": -79.38544399999994}, "835817198RR0001": {"name": "Ross Ulmer Family Foundation", "designationCode": "B", "categoryCode": "03", "address": "PO BOX 2643", "city": "LLOYDMINSTER", "province": "AB", "country": "CA", "postalCode": "T9V0Y4", "twitter": "None", "instagram": "None", "facebook": "None", "youtube": "None", "website": "None", "summary": "None", "logo": "None", "latitude": 53.27803500000006, "longitude": -110.00671099999994}, "850979386RR0001": {"name": "Rossburn Community Church", "designationCode": "C", "categoryCode": "39", "address": "8 MAIN ST                     P.O. BOX 282", "city": "ROSSBURN", "province": "MB", "country": "CA", "postalCode": "R0J1V0", "twitter": "None", "instagram": "None", "facebook": "None", "youtube": "None", "website": "None", "summary": "None", "logo": "None", "latitude": 50.66863445392219, "longitude": -100.81087077156974}, "819121484RR0001": {"name": "Rossini Opera Festival Nova Scotia", "designationCode": "C", "categoryCode": "22", "address": "PO BOX 309", "city": "LUNENBURG", "province": "NS", "country": "CA", "postalCode": "B0J2C0", "twitter": "None", "instagram": "None", "facebook": "None", "youtube": "None", "website": "None", "summary": "None", "logo": "None", "latitude": 44.37886006217898, "longitude": -64.31792993782098}, "859074718RR0001": {"name": "Rossland Skatepark Association", "designationCode": "C", "categoryCode": "56", "address": "PO BOX 1769", "city": "ROSSLAND", "province": "BC", "country": "CA", "postalCode": "V0G1Y0", "twitter": "None", "instagram": "None", "facebook": "None", "youtube": "None", "website": "None", "summary": "None", "logo": "None", "latitude": 49.07693000000006, "longitude": -117.79933999999997}, "119030666RR0048": {"name": "Rosthern Christian School", "designationCode": "C", "categoryCode": "20", "address": "1004 VICTORIA AVENUE", "city": "SASKATOON", "province": "SK", "country": "CA", "postalCode": "S7N0Z8", "twitter": "None", "instagram": "None", "facebook": "None", "youtube": "None", "website": "None", "summary": "None", "logo": "None", "latitude": 52.115409, "longitude": -106.66240826773014}, "823089594RR0001": {"name": "Rosthern District Food Bank", "designationCode": "C", "categoryCode": "09", "address": "22 SPRUCE RD.                 PO BOX 173", "city": "ROSTHERN", "province": "SK", "country": "CA", "postalCode": "S0K3R0", "twitter": "None", "instagram": "None", "facebook": "None", "youtube": "None", "website": "None", "summary": "None", "logo": "None", "latitude": 37.98821000028846, "longitude": -122.59243464669048}, "822055414RR0001": {"name": "Rotary Club of Avalon Northeast Foundation Inc.", "designationCode": "A", "categoryCode": "03", "address": "P.O. BOX 14245                MANUELS SUCC. MAIN", "city": "CONCEPTION BAY SOUTH", "province": "NL", "country": "CA", "postalCode": "A1W3J1", "twitter": "None", "instagram": "None", "facebook": "None", "youtube": "None", "website": "None", "summary": "None", "logo": "None", "latitude": 47.51259900000005, "longitude": -52.96882399999993}, "825254311RR0001": {"name": "Rotary Club of Brampton Community Charity", "designationCode": "A", "categoryCode": "63", "address": "PO BOX 92604 RPO BRAMPTON MALL", "city": "BRAMPTON", "province": "ON", "country": "CA", "postalCode": "L6W4R1", "twitter": "None", "instagram": "None", "facebook": "None", "youtube": "None", "website": "None", "summary": "None", "logo": "None", "latitude": 43.68430500000005, "longitude": -79.75872349999993}, "836055590RR0001": {"name": "Rotary Club of Calgary North Foundation", "designationCode": "A", "categoryCode": "03", "address": "199-130 5403 CROWCHILD TR NW", "city": "CALGARY", "province": "AB", "country": "CA", "postalCode": "T3B4Z1", "twitter": "None", "instagram": "None", "facebook": "None", "youtube": "None", "website": "None", "summary": "None", "logo": "None", "latitude": 51.10403341271852, "longitude": -114.16499926672053}, "848472791RR0001": {"name": "Rotary Club of Charleswood Charitable Foundation (RCCCF)Inc.", "designationCode": "C", "categoryCode": "03", "address": "787 HANEY ST", "city": "WINNIPEG", "province": "MB", "country": "CA", "postalCode": "R3R0Y7", "twitter": "None", "instagram": "None", "facebook": "None", "youtube": "None", "website": "None", "summary": "None", "logo": "None", "latitude": 49.84906900812525, "longitude": -97.2665887004252}, "820216455RR0001": {"name": "Rotary Club of Edmonton Northeast Foundation", "designationCode": "A", "categoryCode": "63", "address": "PO BOX 71160", "city": "EDMONTON", "province": "AB", "country": "CA", "postalCode": "T5E6J8", "twitter": "None", "instagram": "None", "facebook": "None", "youtube": "None", "website": "None", "summary": "None", "logo": "None", "latitude": 53.60030700000006, "longitude": -113.49197899999993}, "816928311RR0001": {"name": "Rotary Club of Gander Cobb's Pond Foundation Inc.", "designationCode": "A", "categoryCode": "53", "address": "100 TRANS CANADA HWY          HOTEL GANDER", "city": "GANDER", "province": "NL", "country": "CA", "postalCode": "A1V1P5", "twitter": "None", "instagram": "None", "facebook": "None", "youtube": "None", "website": "None", "summary": "None", "logo": "None", "latitude": 48.94671000000005, "longitude": -54.61137999999994}, "888832193RR0001": {"name": "Rotary Club of Havelock Charitable Trust,", "designationCode": "C", "categoryCode": "65", "address": "810 - 280 WENTWORTH ST W", "city": "OSHAWA", "province": "ON", "country": "CA", "postalCode": "L1J1N2", "twitter": "None", "instagram": "None", "facebook": "None", "youtube": "None", "website": "None", "summary": "None", "logo": "None", "latitude": 43.869694499999994, "longitude": -78.85277775}, "837631787RR0001": {"name": "Rotary Club of Kimberley, BC Trust Foundation", "designationCode": "C", "categoryCode": "65", "address": "PO BOX 13 STN MAIN", "city": "KIMBERLEY", "province": "BC", "country": "CA", "postalCode": "V1A2Y5", "twitter": "None", "instagram": "None", "facebook": "None", "youtube": "None", "website": "None", "summary": "None", "logo": "None", "latitude": 49.67002500000005, "longitude": -115.97810299999993}, "831177902RR0001": {"name": "Rotary Club of Medicine Hat Music Festival Society", "designationCode": "C", "categoryCode": "22", "address": "548 1 ST SW", "city": "MEDICINE HAT", "province": "AB", "country": "CA", "postalCode": "T1A3Z4", "twitter": "None", "instagram": "None", "facebook": "None", "youtube": "None", "website": "None", "summary": "None", "logo": "None", "latitude": 50.03923449653756, "longitude": -110.69980183236193}, "841615610RR0001": {"name": "Rotary Club of North Scarborough Foundation", "designationCode": "A", "categoryCode": "03", "address": "306-885 PROGRESS AVENUE", "city": "SCARBOROUGH", "province": "ON", "country": "CA", "postalCode": "M1H3G3", "twitter": "None", "instagram": "None", "facebook": "None", "youtube": "None", "website": "None", "summary": "None", "logo": "None", "latitude": 43.78130482705316, "longitude": -79.23596425255361}, "802401653RR0001": {"name": "Rotary Club of Orangeville Highlands Foundation", "designationCode": "A", "categoryCode": "03", "address": "P.O. BOX 21053                ORANGEVILLE MALL POST OFFICE", "city": "ORANGEVILLE", "province": "ON", "country": "CA", "postalCode": "L9W4S7", "twitter": "None", "instagram": "None", "facebook": "None", "youtube": "None", "website": "None", "summary": "None", "logo": "None", "latitude": 43.93178000000006, "longitude": -80.10058999999995}, "844430306RR0001": {"name": "Rotary Club of Port Elgin, N.B. Charities Inc.", "designationCode": "C", "categoryCode": "65", "address": "C.O S DEMPSEY, ACTUS LAW DROIT900 MAIN STREET", "city": "MONCTON", "province": "NB", "country": "CA", "postalCode": "E1C1G4", "twitter": "None", "instagram": "None", "facebook": "None", "youtube": "None", "website": "None", "summary": "None", "logo": "None", "latitude": 46.08872243840578, "longitude": -64.77642630797114}}