{"140249897RR0001": {"name": "PRAIRIE ROSE SCHOOL DIVISION NO. 8", "designationCode": "C", "categoryCode": "20", "address": "918 - 2ND AVENUE", "city": "DUNMORE", "province": "AB", "country": "CA", "postalCode": "T1B0K3", "twitter": "None", "instagram": "None", "facebook": "None", "youtube": "None", "website": "None", "summary": "None", "logo": "None", "latitude": 49.96954284595193, "longitude": -110.58708628336896}, "832465686RR0001": {"name": "PRAIRIE SKY EQUINE ASSISTED THERAPY ASSOCIATION", "designationCode": "C", "categoryCode": "56", "address": "SITE 8 COMP 10                RR 2 STN MAIN", "city": "COCHRANE", "province": "AB", "country": "CA", "postalCode": "T4C1A2", "twitter": "None", "instagram": "None", "facebook": "None", "youtube": "None", "website": "None", "summary": "None", "logo": "None", "latitude": 51.19089900000006, "longitude": -114.46804249999994}, "804910149RR0001": {"name": "PRAIRIE SOUTH SCHOOL DIVISION NO. 210 OF SASKATCHEWAN", "designationCode": "C", "categoryCode": "20", "address": "1075 9TH AVE NW", "city": "MOOSE JAW", "province": "SK", "country": "CA", "postalCode": "S6H1V7", "twitter": "None", "instagram": "None", "facebook": "None", "youtube": "None", "website": "None", "summary": "None", "logo": "None", "latitude": 50.40017427422497, "longitude": -105.55755422577502}, "842687949RR0001": {"name": "PRAIRIE SPIRIT SCHOOL DIVISION", "designationCode": "C", "categoryCode": "20", "address": "BOX 130", "city": "SWAN LAKE", "province": "MB", "country": "CA", "postalCode": "R0G2S0", "twitter": "None", "instagram": "None", "facebook": "None", "youtube": "None", "website": "None", "summary": "None", "logo": "None", "latitude": 49.41136000000006, "longitude": -98.79357999999996}, "119097947RR0001": {"name": "PRAIRIE SUNSET MUSIC FESTIVAL", "designationCode": "C", "categoryCode": "22", "address": "P.O. BOX 760", "city": "MACKLIN", "province": "SK", "country": "CA", "postalCode": "S0L2C0", "twitter": "None", "instagram": "None", "facebook": "None", "youtube": "None", "website": "None", "summary": "None", "logo": "None", "latitude": 52.33280000000008, "longitude": -109.93590999999998}, "119097954RR0001": {"name": "PRAIRIE TABERNACLE CONGREGATION", "designationCode": "C", "categoryCode": "39", "address": "BOX 2762", "city": "THREE HILLS", "province": "AB", "country": "CA", "postalCode": "T0M2A0", "twitter": "None", "instagram": "None", "facebook": "None", "youtube": "None", "website": "None", "summary": "None", "logo": "None", "latitude": 52.38329400000001, "longitude": -114.606927}, "865088439RR0001": {"name": "PRAIRIE THEATRE EXCHANGE FOUNDATION TRUST", "designationCode": "A", "categoryCode": "03", "address": "3RD FLOOR PORTAGE PLACE       UNIT Y300, 393 PORTAGE AVENUE", "city": "WINNIPEG", "province": "MB", "country": "CA", "postalCode": "R3B3H6", "twitter": "None", "instagram": "None", "facebook": "None", "youtube": "None", "website": "None", "summary": "None", "logo": "None", "latitude": 49.89219003332557, "longitude": -97.14776000779024}, "119097962RR0001": {"name": "PRAIRIE THEATRE EXCHANGE INC.", "designationCode": "C", "categoryCode": "22", "address": "UNIT Y300 - 393 PORTAGE AVENUE", "city": "WINNIPEG", "province": "MB", "country": "CA", "postalCode": "R3B3H6", "twitter": "None", "instagram": "None", "facebook": "None", "youtube": "None", "website": "None", "summary": "None", "logo": "None", "latitude": 49.89219673884805, "longitude": -97.14776200779028}, "137252367RR0001": {"name": "PRAIRIE TRACTOR & ENGINE MUSEUM SOCIETY", "designationCode": "C", "categoryCode": "52", "address": "POST OFFICE BOX 768", "city": "PICTURE BUTTE", "province": "AB", "country": "CA", "postalCode": "T0K1V0", "twitter": "None", "instagram": "None", "facebook": "None", "youtube": "None", "website": "None", "summary": "None", "logo": "None", "latitude": 49.88330000000008, "longitude": -112.78515999999996}, "107845968RR0001": {"name": "PRAIRIE VIEW COMMUNITY CHURCH A CHURCH OF THE NAZARENE INC.", "designationCode": "C", "categoryCode": "39", "address": "1054 DOROTHY ST", "city": "REGINA", "province": "SK", "country": "CA", "postalCode": "S4X1E7", "twitter": "None", "instagram": "None", "facebook": "None", "youtube": "None", "website": "None", "summary": "None", "logo": "None", "latitude": 50.47673332944774, "longitude": -104.6827166324653}, "119097970RR0001": {"name": "PRAIRIE VIEW LODGE", "designationCode": "C", "categoryCode": "01", "address": "26-424 BROADWAY", "city": "PILOT MOUND", "province": "MB", "country": "CA", "postalCode": "R0G1P0", "twitter": "None", "instagram": "None", "facebook": "None", "youtube": "None", "website": "None", "summary": "None", "logo": "None", "latitude": 49.20526250903103, "longitude": -98.90025952302506}, "858948888RR0001": {"name": "PRAIRIE VIEW LODGE FOUNDATION INC.", "designationCode": "A", "categoryCode": "53", "address": "APT 26 - 424 BROADWAY AVE", "city": "PILOT MOUND", "province": "MB", "country": "CA", "postalCode": "R0G1P0", "twitter": "None", "instagram": "None", "facebook": "None", "youtube": "None", "website": "None", "summary": "None", "logo": "None", "latitude": 49.20526250903103, "longitude": -98.90025952302506}, "884573528RR0001": {"name": "PRAIRIE VISION ARTS COUNCIL INC", "designationCode": "C", "categoryCode": "22", "address": "BOX 341", "city": "MELITA", "province": "MB", "country": "CA", "postalCode": "R0M1L0", "twitter": "None", "instagram": "None", "facebook": "None", "youtube": "None", "website": "None", "summary": "None", "logo": "None", "latitude": 49.26665000000003, "longitude": -100.96985999999998}, "821611670RR0001": {"name": "PRAIRIE VISION PASTORAL CHARGE", "designationCode": "C", "categoryCode": "44", "address": "BOX 252                       130 JAMES AVENUE", "city": "CYPRESS RIVER", "province": "MB", "country": "CA", "postalCode": "R0K0P0", "twitter": "None", "instagram": "None", "facebook": "None", "youtube": "None", "website": "None", "summary": "None", "logo": "None", "latitude": 49.556051999999994, "longitude": -99.09193716611271}, "865183685RR0001": {"name": "PRAIRIE VOICES INC.", "designationCode": "C", "categoryCode": "22", "address": "BOX 26052                     676 PORTAGE AVE", "city": "WINNIPEG", "province": "MB", "country": "CA", "postalCode": "R3G0M4", "twitter": "None", "instagram": "None", "facebook": "None", "youtube": "None", "website": "None", "summary": "None", "logo": "None", "latitude": 49.88795200190459, "longitude": -97.16036271867985}, "107855454RR0001": {"name": "PRAIRIE WEST HISTORICAL SOCIETY", "designationCode": "C", "categoryCode": "52", "address": "BOX 910", "city": "ESTON", "province": "SK", "country": "CA", "postalCode": "S0L1A0", "twitter": "None", "instagram": "None", "facebook": "None", "youtube": "None", "website": "None", "summary": "None", "logo": "None", "latitude": 51.15382000000005, "longitude": -108.75371999999999}, "826093155RR0001": {"name": "PRAIRIE WILDLIFE REHABILITATION CENTRE INC.", "designationCode": "C", "categoryCode": "54", "address": "P.O.BOX 48059 RPO LAKEWOOD", "city": "WINNIPEG", "province": "MB", "country": "CA", "postalCode": "R2J4A3", "twitter": "None", "instagram": "None", "facebook": "None", "youtube": "None", "website": "None", "summary": "None", "logo": "None", "latitude": 49.851379434602556, "longitude": -97.07791124848828}, "888616232RR0001": {"name": "PRAIRIE WIND & SILVER SAGE - FRIENDS OF GRASSLANDS INC.", "designationCode": "C", "categoryCode": "59", "address": "100 CENTRE STREET", "city": "VAL MARIE", "province": "SK", "country": "CA", "postalCode": "S0N2T0", "twitter": "None", "instagram": "None", "facebook": "None", "youtube": "None", "website": "None", "summary": "None", "logo": "None", "latitude": 50.619988370209185, "longitude": -108.45653972470075}, "892055211RR0001": {"name": "PRAIRIE WIND MENNONITE CHURCH", "designationCode": "C", "categoryCode": "39", "address": "BOX 131", "city": "BLUMENORT", "province": "MB", "country": "CA", "postalCode": "R0A0C0", "twitter": "None", "instagram": "None", "facebook": "None", "youtube": "None", "website": "None", "summary": "None", "logo": "None", "latitude": 49.604250000000036, "longitude": -96.69016999999997}, "854852373RR0001": {"name": "PRAIRIE WINDS CHURCH", "designationCode": "C", "categoryCode": "34", "address": "1141 5TH AVENUE NE", "city": "MOOSE JAW", "province": "SK", "country": "CA", "postalCode": "S6H1K7", "twitter": "None", "instagram": "None", "facebook": "None", "youtube": "None", "website": "None", "summary": "None", "logo": "None", "latitude": 50.401631069256226, "longitude": -105.52164422578521}, "893684522RR0001": {"name": "PRAIRIE WINDS CLUBHOUSE SOCIETY", "designationCode": "C", "categoryCode": "09", "address": "PO BOX 1354", "city": "CLARESHOLM", "province": "AB", "country": "CA", "postalCode": "T0L0T0", "twitter": "None", "instagram": "None", "facebook": "None", "youtube": "None", "website": "None", "summary": "None", "logo": "None", "latitude": 50.026080000000036, "longitude": -113.58213999999998}, "872206560RR0001": {"name": "PRAIRIEHOME CHARITABLE TRUST", "designationCode": "B", "categoryCode": "39", "address": "3425 2 AVENUE SOUTH", "city": "LETHBRIDGE", "province": "AB", "country": "CA", "postalCode": "T1J4V1", "twitter": "None", "instagram": "None", "facebook": "None", "youtube": "None", "website": "None", "summary": "None", "logo": "None", "latitude": 49.696839530439966, "longitude": -112.78914308381903}, "870061736RR0001": {"name": "PRAISE AND WORSHIP MINISTRIES INC.", "designationCode": "C", "categoryCode": "39", "address": "545 STEELES AVENUE WEST       P.O. BOX 38564", "city": "BRAMPTON", "province": "ON", "country": "CA", "postalCode": "L6Y4W5", "twitter": "None", "instagram": "None", "facebook": "None", "youtube": "None", "website": "None", "summary": "None", "logo": "None", "latitude": 43.65560207960679, "longitude": -79.74457052461251}, "862256096RR0001": {"name": "PRAISE CATHEDRAL WORSHIP CENTRE INC.", "designationCode": "C", "categoryCode": "36", "address": "6785 MILLCREEK DRIVE", "city": "MISSISSAUGA", "province": "ON", "country": "CA", "postalCode": "L5N5M4", "twitter": "None", "instagram": "None", "facebook": "None", "youtube": "None", "website": "None", "summary": "None", "logo": "None", "latitude": 43.595230490478045, "longitude": -79.75280997584976}, "107396905RR0065": {"name": "PRAISE CHRISTIAN FAMILY FOURSQUARE GOSPEL CHURCH", "designationCode": "C", "categoryCode": "39", "address": "251 BUR OAK AVENUE", "city": "MARKHAM", "province": "ON", "country": "CA", "postalCode": "L6C2L8", "twitter": "None", "instagram": "None", "facebook": "None", "youtube": "None", "website": "None", "summary": "None", "logo": "None", "latitude": 43.89114463890019, "longitude": -79.30666820009819}, "859170631RR0001": {"name": "PRAISE CHRISTIAN FELLOWSHIP", "designationCode": "C", "categoryCode": "39", "address": "8528 11TH AVE", "city": "BURNABY", "province": "BC", "country": "CA", "postalCode": "V3N2P7", "twitter": "None", "instagram": "None", "facebook": "None", "youtube": "None", "website": "None", "summary": "None", "logo": "None", "latitude": 49.2283641798431, "longitude": -122.91183750262573}, "893273961RR0001": {"name": "PRAISE CHRISTIAN FELLOWSHIP INC.", "designationCode": "C", "categoryCode": "39", "address": "378 BROAD ROAD", "city": "HANEYTOWN", "province": "NB", "country": "CA", "postalCode": "E2V3P6", "twitter": "None", "instagram": "None", "facebook": "None", "youtube": "None", "website": "None", "summary": "None", "logo": "None", "latitude": 45.80803550290731, "longitude": -66.47270635404551}, "107855496RR0001": {"name": "PRAISE FELLOWSHIP CHURCH CHATHAM", "designationCode": "C", "categoryCode": "39", "address": "165 PARK AVE EAST", "city": "CHATHAM", "province": "ON", "country": "CA", "postalCode": "N7M3V7", "twitter": "None", "instagram": "None", "facebook": "None", "youtube": "None", "website": "None", "summary": "None", "logo": "None", "latitude": 42.400009373016374, "longitude": -82.17254845539217}, "134073576RR0001": {"name": "PRAISE INTERNATIONAL CHURCH", "designationCode": "C", "categoryCode": "39", "address": "2937 WOODLAND DRIVE", "city": "VANCOUVER", "province": "BC", "country": "CA", "postalCode": "V5N3R2", "twitter": "None", "instagram": "None", "facebook": "None", "youtube": "None", "website": "None", "summary": "None", "logo": "None", "latitude": 49.25802695337296, "longitude": -123.07374445452679}, "119293025RR0012": {"name": "PRAISE INTERNATIONAL FELLOWSHIP", "designationCode": "C", "categoryCode": "39", "address": "205 COVENTRY CIRCLE N.E.", "city": "CALGARY", "province": "AB", "country": "CA", "postalCode": "T3K5E5", "twitter": "None", "instagram": "None", "facebook": "None", "youtube": "None", "website": "None", "summary": "None", "logo": "None", "latitude": 51.16039258728149, "longitude": -114.05088815153789}, "828523357RR0001": {"name": "PRAISE TEMPLE OF CHRIST INTERNATIONAL", "designationCode": "C", "categoryCode": "39", "address": "336 GARYRAY DRIVE", "city": "NORTH YORK", "province": "ON", "country": "CA", "postalCode": "M9L1P5", "twitter": "None", "instagram": "None", "facebook": "None", "youtube": "None", "website": "None", "summary": "None", "logo": "None", "latitude": 43.768392190691785, "longitude": -79.54257620358929}, "817013873RR0001": {"name": "PRAISE THE LORD CHURCH", "designationCode": "C", "categoryCode": "36", "address": "5765 YONGE ST. #101", "city": "TORONTO", "province": "ON", "country": "CA", "postalCode": "M2M4H9", "twitter": "None", "instagram": "None", "facebook": "None", "youtube": "None", "website": "None", "summary": "None", "logo": "None", "latitude": 43.7829695193028, "longitude": -79.41630623913744}, "877472712RR0001": {"name": "PRAISE TO VICTORY MINISTRY", "designationCode": "C", "categoryCode": "39", "address": "2973 JACKSON DR", "city": "BURLINGTON", "province": "ON", "country": "CA", "postalCode": "L7M4K7", "twitter": "None", "instagram": "None", "facebook": "None", "youtube": "None", "website": "None", "summary": "None", "logo": "None", "latitude": 43.39293246462569, "longitude": -79.82137269995395}, "867160657RR0001": {"name": "PRANAV HINDU MANDIR CULTURAL CENTRE", "designationCode": "C", "categoryCode": "48", "address": "102 RIVALDA ROAD", "city": "NORTH YORK", "province": "ON", "country": "CA", "postalCode": "M9M2M8", "twitter": "None", "instagram": "None", "facebook": "None", "youtube": "None", "website": "None", "summary": "None", "logo": "None", "latitude": 43.74189565805876, "longitude": -79.53580677647273}, "139462311RR0001": {"name": "PRANKARD EVANGELISTIC ASSOCIATION BILL", "designationCode": "C", "categoryCode": "47", "address": "BOX 7007 STATION V", "city": "OTTAWA", "province": "ON", "country": "CA", "postalCode": "K1L8E2", "twitter": "None", "instagram": "None", "facebook": "None", "youtube": "None", "website": "None", "summary": "None", "logo": "None", "latitude": 45.42177300000006, "longitude": -75.69115999999994}, "845281476RR0001": {"name": "PRATHAM BC FOUNDATION", "designationCode": "C", "categoryCode": "20", "address": "2236 SORRENTO DRIVE", "city": "COQUITLAM", "province": "BC", "country": "CA", "postalCode": "V3K6P3", "twitter": "None", "instagram": "None", "facebook": "None", "youtube": "None", "website": "None", "summary": "None", "logo": "None", "latitude": 49.237767556466146, "longitude": -122.83040969926147}, "852316348RR0001": {"name": "PRATHAM CANADA INC.", "designationCode": "C", "categoryCode": "21", "address": "54 BENNETT STREET", "city": "OTTAWA", "province": "ON", "country": "CA", "postalCode": "K1V9L4", "twitter": "None", "instagram": "None", "facebook": "None", "youtube": "None", "website": "None", "summary": "None", "logo": "None", "latitude": 45.34611607048884, "longitude": -75.67102916593596}, "136032026RR0001": {"name": "PRATIQUE DU ZEN DESHIMARU", "designationCode": "C", "categoryCode": "20", "address": "61 AV WILFRID-LAURIER", "city": "QUEBEC", "province": "QC", "country": "CA", "postalCode": "G1R2K6", "twitter": "None", "instagram": "None", "facebook": "None", "youtube": "None", "website": "None", "summary": "None", "logo": "None", "latitude": 46.80206741297832, "longitude": -71.22184890048484}, "141043927RR0001": {"name": "PRATT-JOHNSON FOUNDATION", "designationCode": "B", "categoryCode": "03", "address": "SUITE 1250 1500 W GEORGIA     BOX 62", "city": "VANCOUVER", "province": "BC", "country": "CA", "postalCode": "V6G2Z6", "twitter": "None", "instagram": "None", "facebook": "None", "youtube": "None", "website": "None", "summary": "None", "logo": "None"}, "135671253RR0001": {"name": "PRAXIS ART ACTUEL", "designationCode": "C", "categoryCode": "50", "address": "34, RUE BLANVILLE OUEST,      P.O. BOX 98549", "city": "SAINTE-TH\u00c9R\u00c8SE", "province": "QC", "country": "CA", "postalCode": "J7E1X1", "twitter": "None", "instagram": "None", "facebook": "None", "youtube": "None", "website": "None", "summary": "None", "logo": "None", "latitude": 45.639669456575604, "longitude": -73.84320868581568}, "859831638RR0001": {"name": "PRAXIS FOUNDATION", "designationCode": "B", "categoryCode": "03", "address": "1250-1500 WEST GEORGIA ST.    BOX 62", "city": "VANCOUVER", "province": "BC", "country": "CA", "postalCode": "V6G2Z6", "twitter": "None", "instagram": "None", "facebook": "None", "youtube": "None", "website": "None", "summary": "None", "logo": "None", "latitude": 49.290187500000016, "longitude": -123.130035}, "834717969RR0001": {"name": "PRAY WITHOUT CEASING MINISTRIES INT'L. INC.", "designationCode": "C", "categoryCode": "39", "address": "56 FINCHLEY CIRCLE", "city": "MARKHAM", "province": "ON", "country": "CA", "postalCode": "L3R8S3", "twitter": "None", "instagram": "None", "facebook": "None", "youtube": "None", "website": "None", "summary": "None", "logo": "None", "latitude": 43.83910091866248, "longitude": -79.29208459019567}, "875471062RR0001": {"name": "PRAYER BOOK SOCIETY OF CANADA - EASTERN NEWFOUNDLAND BRANCH", "designationCode": "C", "categoryCode": "49", "address": "13 FIRST AVENUE", "city": "ST. JOHN'S", "province": "NL", "country": "CA", "postalCode": "A1B1N3", "twitter": "None", "instagram": "None", "facebook": "None", "youtube": "None", "website": "None", "summary": "None", "logo": "None", "latitude": 47.57775976934627, "longitude": -52.712114789197344}, "890745946RR0001": {"name": "PRAYER BOOK SOCIETY OF CANADA GRAND VALLEY BRANCH", "designationCode": "C", "categoryCode": "49", "address": "508 - 258 WEST ST", "city": "BRANTFORD", "province": "ON", "country": "CA", "postalCode": "N3R6N1", "twitter": "None", "instagram": "None", "facebook": "None", "youtube": "None", "website": "None", "summary": "None", "logo": "None", "latitude": 43.15063347934087, "longitude": -80.26159664117921}, "132144742RR0001": {"name": "PRAYER BOOK SOCIETY OF CANADA-OTTAWA BRANCH", "designationCode": "C", "categoryCode": "49", "address": "303-3099 CARLING AVENUE", "city": "OTTAWA", "province": "ON", "country": "CA", "postalCode": "K2H5A6", "twitter": "None", "instagram": "None", "facebook": "None", "youtube": "None", "website": "None", "summary": "None", "logo": "None", "latitude": 45.35321626146908, "longitude": -75.80960148825632}, "890680796RR0001": {"name": "PRAYER BOOK SOCIETY OF CANADA, NORTH BAY BRANCH", "designationCode": "C", "categoryCode": "49", "address": "501-821 DOUGLAS ST", "city": "NORTH BAY", "province": "ON", "country": "CA", "postalCode": "P1B5P3", "twitter": "None", "instagram": "None", "facebook": "None", "youtube": "None", "website": "None", "summary": "None", "logo": "None", "latitude": 46.32320658090484, "longitude": -79.46261172300768}, "119098077RR0001": {"name": "PRAYER HOME SOCIETY OF DOUKHOBORS KAMSACK AND DISTRICT", "designationCode": "C", "categoryCode": "39", "address": "PO BOX 656", "city": "KAMSACK", "province": "SK", "country": "CA", "postalCode": "S0A1S0", "twitter": "None", "instagram": "None", "facebook": "None", "youtube": "None", "website": "None", "summary": "None", "logo": "None", "latitude": 51.63817289172365, "longitude": -101.65758543154911}, "891605776RR0001": {"name": "PRAYER OUTREACH MINISTRIES INTERNATIONAL", "designationCode": "C", "categoryCode": "47", "address": "587 OAKWOOD AVE", "city": "TORONTO", "province": "ON", "country": "CA", "postalCode": "M6E2X7", "twitter": "None", "instagram": "None", "facebook": "None", "youtube": "None", "website": "None", "summary": "None", "logo": "None", "latitude": 43.69615825451551, "longitude": -79.44226868662376}, "107856064RR0001": {"name": "PRE-MATERNELLE COMMUNAUTAIRE DE COWANSVILLE INC.", "designationCode": "C", "categoryCode": "20", "address": "317 RUE DU SUD", "city": "COWANSVILLE", "province": "QC", "country": "CA", "postalCode": "J2K2X6", "twitter": "None", "instagram": "None", "facebook": "None", "youtube": "None", "website": "None", "summary": "None", "logo": "None", "latitude": 45.2054924635005, "longitude": -72.74672999321933}, "107856114RR0001": {"name": "PRE-MATERNELLE LA COCCINELLE ASSOCIATION", "designationCode": "C", "categoryCode": "20", "address": "3303 CAPITAL HILL CRESCENT NW", "city": "CALGARY", "province": "AB", "country": "CA", "postalCode": "T2M2R2", "twitter": "None", "instagram": "None", "facebook": "None", "youtube": "None", "website": "None", "summary": "None", "logo": "None", "latitude": 51.08158548542906, "longitude": -114.12264141618097}, "107274474RR0001": {"name": "PRE-MATERNELLE POMME D'API", "designationCode": "C", "categoryCode": "01", "address": "2190 44TH AVENUE E", "city": "VANCOUVER", "province": "BC", "country": "CA", "postalCode": "V5P1N2", "twitter": "None", "instagram": "None", "facebook": "None", "youtube": "None", "website": "None", "summary": "None", "logo": "None", "latitude": 49.23033951788918, "longitude": -123.06246244463038}, "890253057RR0001": {"name": "PRE-MATERNELLE ROYAUME DES ENFANTS", "designationCode": "C", "categoryCode": "20", "address": "1800 BOUL GRAHAM", "city": "MONT ROYAL", "province": "QC", "country": "CA", "postalCode": "H3R1G9", "twitter": "None", "instagram": "None", "facebook": "None", "youtube": "None", "website": "None", "summary": "None", "logo": "None", "latitude": 45.51454337050622, "longitude": -73.64573261988583}, "118985209RR0002": {"name": "PREBYTERIAN WOMENS MISSIONARY SOCIETY, WESTERN DIVISION, MARGARET TAYLOR AFFILIATE", "designationCode": "C", "categoryCode": "47", "address": "461 ELIZABETH ST", "city": "BURLINGTON", "province": "ON", "country": "CA", "postalCode": "L7R4B1", "twitter": "None", "instagram": "None", "facebook": "None", "youtube": "None", "website": "None", "summary": "None", "logo": "None", "latitude": 43.32702228977427, "longitude": -79.7974642370017}, "136038221RR0001": {"name": "PRECEPT MINISTRIES INC.", "designationCode": "C", "categoryCode": "47", "address": "14 HOLIDAY DRIVE", "city": "BRANTFORD", "province": "ON", "country": "CA", "postalCode": "N3R7J4", "twitter": "None", "instagram": "None", "facebook": "None", "youtube": "None", "website": "None", "summary": "None", "logo": "None", "latitude": 43.16293025893025, "longitude": -80.241469310953}, "107876476RR0002": {"name": "PRECIOUS BLOOD CHURCH", "designationCode": "C", "categoryCode": "38", "address": "778 QUEEN ST E", "city": "SAULT STE MARIE", "province": "ON", "country": "CA", "postalCode": "P6A2B1", "twitter": "None", "instagram": "None", "facebook": "None", "youtube": "None", "website": "None", "summary": "None", "logo": "None", "latitude": 46.507093823244006, "longitude": -84.32594452259238}, "139275218RR0001": {"name": "PRECIOUS BLOOD CHURCH TRUST RE F P OCONNOR ESTATE", "designationCode": "B", "categoryCode": "45", "address": "EXCHANGE TOWER                130 KING STREET WEST 20TH FLR", "city": "TORONTO", "province": "ON", "country": "CA", "postalCode": "M5X1K1", "twitter": "None", "instagram": "None", "facebook": "None", "youtube": "None", "website": "None", "summary": "None", "logo": "None", "latitude": 43.64798216515656, "longitude": -79.38336717805407}, "118849470RR0070": {"name": "PRECIOUS BLOOD PARISH", "designationCode": "C", "categoryCode": "38", "address": "17475 59 AVE", "city": "SURREY", "province": "BC", "country": "CA", "postalCode": "V3S1P3", "twitter": "None", "instagram": "None", "facebook": "None", "youtube": "None", "website": "None", "summary": "None", "logo": "None", "latitude": 49.10962650764605, "longitude": -122.73920002553523}, "119109817RR0158": {"name": "PRECIOUS BLOOD PARISH", "designationCode": "C", "categoryCode": "38", "address": "69219 BRONSON LINE RR#8", "city": "PARKHILL", "province": "ON", "country": "CA", "postalCode": "N0M2K0", "twitter": "None", "instagram": "None", "facebook": "None", "youtube": "None", "website": "None", "summary": "None", "logo": "None", "latitude": 43.25500644633248, "longitude": -81.61578675598648}, "119122778RR0017": {"name": "PRECIOUS BLOOD PARISH", "designationCode": "C", "categoryCode": "38", "address": "18318 COUNTY RD. 2", "city": "CORNWALL", "province": "ON", "country": "CA", "postalCode": "K6H5R5", "twitter": "None", "instagram": "None", "facebook": "None", "youtube": "None", "website": "None", "summary": "None", "logo": "None", "latitude": 45.033150053098105, "longitude": -74.6380429734775}, "860323989RR0001": {"name": "PRECIOUS BUNDLES CHILDREN'S CLOTHING ASSISTANCE PROGRAM", "designationCode": "C", "categoryCode": "09", "address": "PO BOX 20063", "city": "THUNDER BAY", "province": "ON", "country": "CA", "postalCode": "P7E6P2", "twitter": "None", "instagram": "None", "facebook": "None", "youtube": "None", "website": "None", "summary": "None", "logo": "None", "latitude": 48.38168400000005, "longitude": -89.24550199999993}, "104287909RR0001": {"name": "PRECIOUS JEWELS DAY CARE CENTRE INC.", "designationCode": "C", "categoryCode": "20", "address": "9050 DIXIE ROAD", "city": "BRAMALEA", "province": "ON", "country": "CA", "postalCode": "L6S1J3", "twitter": "None", "instagram": "None", "facebook": "None", "youtube": "None", "website": "None", "summary": "None", "logo": "None", "latitude": 43.7153059938545, "longitude": -79.72875151462827}, "867476319RR0001": {"name": "PRECIOUS MINDS SUPPORT SERVICES", "designationCode": "C", "categoryCode": "09", "address": "21980 HIGHWAY 12", "city": "SUNDERLAND", "province": "ON", "country": "CA", "postalCode": "L0C1H0", "twitter": "None", "instagram": "None", "facebook": "None", "youtube": "None", "website": "None", "summary": "None", "logo": "None", "latitude": 44.17735002790195, "longitude": -79.02634770602735}, "119098168RR0001": {"name": "PREECEVILLE CEMETERY ASSOCIATION", "designationCode": "C", "categoryCode": "59", "address": "BOX 396", "city": "PREECEVILLE", "province": "SK", "country": "CA", "postalCode": "S0A3B0", "twitter": "None", "instagram": "None", "facebook": "None", "youtube": "None", "website": "None", "summary": "None", "logo": "None", "latitude": 51.95420000000007, "longitude": -102.64748999999995}, "887359008RR0001": {"name": "PREFIX INSTITUTE OF CONTEMPORARY ART, INC.", "designationCode": "C", "categoryCode": "50", "address": "401 RICHMOND STREET WEST      SUITE 124", "city": "TORONTO", "province": "ON", "country": "CA", "postalCode": "M5V3A8", "twitter": "None", "instagram": "None", "facebook": "None", "youtube": "None", "website": "None", "summary": "None", "logo": "None", "latitude": 43.64802194030256, "longitude": -79.39487429779568}, "119098218RR0001": {"name": "PREGNANCY COUNSELLING CENTRE (QUEBEC)/ CENTRE CONSEILS GROSSESSE (QUEBEC)", "designationCode": "C", "categoryCode": "09", "address": "7394 19E AVENUE", "city": "MONTREAL", "province": "QC", "country": "CA", "postalCode": "H2A2L7", "twitter": "None", "instagram": "None", "facebook": "None", "youtube": "None", "website": "None", "summary": "None", "logo": "None", "latitude": 45.56577274242608, "longitude": -73.59630181516525}, "896740768RR0001": {"name": "PREGNANCY HELP CENTRE OF DURHAM", "designationCode": "C", "categoryCode": "09", "address": "29 DREW ST", "city": "OSHAWA", "province": "ON", "country": "CA", "postalCode": "L1H4Z7", "twitter": "None", "instagram": "None", "facebook": "None", "youtube": "None", "website": "None", "summary": "None", "logo": "None", "latitude": 43.89840764807546, "longitude": -78.85589042365413}, "835559816RR0001": {"name": "PREGNANCY SUPPORT CENTRE OF THE SHUSWAP ASSOCIATION", "designationCode": "C", "categoryCode": "09", "address": "BOX 835", "city": "SALMON ARM", "province": "BC", "country": "CA", "postalCode": "V1E4N9", "twitter": "None", "instagram": "None", "facebook": "None", "youtube": "None", "website": "None", "summary": "None", "logo": "None", "latitude": 50.70318000000006, "longitude": -119.26884049999992}, "119098267RR0001": {"name": "PRELATE WELCOME INN SOCIETY", "designationCode": "C", "categoryCode": "56", "address": "PO BOX 66", "city": "PRELATE", "province": "SK", "country": "CA", "postalCode": "S0N2B0", "twitter": "None", "instagram": "None", "facebook": "None", "youtube": "None", "website": "None", "summary": "None", "logo": "None", "latitude": 50.851960000000076, "longitude": -109.39802999999995}, "886093798RR0001": {"name": "PRELATURE ARMENIENNE DU CANADA INC/ARMENIAN PRELACY OF CANADA INC", "designationCode": "C", "categoryCode": "39", "address": "3401 OLIVAR ASSELIN", "city": "MONTREAL", "province": "QC", "country": "CA", "postalCode": "H4J1L5", "twitter": "None", "instagram": "None", "facebook": "None", "youtube": "None", "website": "None", "summary": "None", "logo": "None", "latitude": 45.53229752873787, "longitude": -73.69718800790585}, "887919504RR0001": {"name": "PREMA-QUEBEC", "designationCode": "C", "categoryCode": "11", "address": "305-150 RUE GRANT", "city": "LONGUEUIL", "province": "QC", "country": "CA", "postalCode": "J4H3H6", "twitter": "None", "instagram": "None", "facebook": "None", "youtube": "None", "website": "None", "summary": "None", "logo": "None", "latitude": 45.53932343989851, "longitude": -73.50840163878462}, "119098291RR0001": {"name": "PREMI\u00c8RE \u00c9GLISE \u00c9VANG\u00c9LIQUE ARM\u00c9NIENNE/FIRST ARMENIAN EVANGELICAL CHURCH", "designationCode": "C", "categoryCode": "39", "address": "11455 RUE DROUART", "city": "MONTREAL", "province": "QC", "country": "CA", "postalCode": "H3M2S6", "twitter": "None", "instagram": "None", "facebook": "None", "youtube": "None", "website": "None", "summary": "None", "logo": "None", "latitude": 45.53627376908646, "longitude": -73.68714665875126}, "871279048RR0001": {"name": "PREMI\u00c8RE \u00c9GLISE BAPTISTE ROUMAINE DE MONTR\u00c9AL", "designationCode": "C", "categoryCode": "31", "address": "123 BOULEVARD CARTIER OUEST", "city": "LAVAL", "province": "QC", "country": "CA", "postalCode": "H7N2H7", "twitter": "None", "instagram": "None", "facebook": "None", "youtube": "None", "website": "None", "summary": "None", "logo": "None", "latitude": 45.558740495672176, "longitude": -73.691424}, "107385957RR0001": {"name": "PREMI\u00c8RE \u00c9GLISE DU CHRIST, SCIENTISTE, MONTR\u00c9AL / FIRST CHURCH, SCIENTIST, MONTREAL", "designationCode": "C", "categoryCode": "39", "address": "5715 MONKLAND AVENUE", "city": "MONTREAL", "province": "QC", "country": "CA", "postalCode": "H4A1E7", "twitter": "None", "instagram": "None", "facebook": "None", "youtube": "None", "website": "None", "summary": "None", "logo": "None", "latitude": 45.47421968027579, "longitude": -73.6241055749609}, "858495948RR0001": {"name": "PREMIER ACTE", "designationCode": "C", "categoryCode": "22", "address": "112-870 AV. DE SALABERRY", "city": "QUEBEC", "province": "QC", "country": "CA", "postalCode": "G1R2T9", "twitter": "None", "instagram": "None", "facebook": "None", "youtube": "None", "website": "None", "summary": "None", "logo": "None", "latitude": 46.80589182679337, "longitude": -71.22672208246271}, "809405475RR0001": {"name": "PREMIER ENVOL INC.", "designationCode": "C", "categoryCode": "09", "address": "1 - 20 RUE MARCELLE-FERRON", "city": "LOUISEVILLE", "province": "QC", "country": "CA", "postalCode": "J5V0A1", "twitter": "None", "instagram": "None", "facebook": "None", "youtube": "None", "website": "None", "summary": "None", "logo": "None", "latitude": 46.25154508967607, "longitude": -72.93880540270654}, "130310824RR0001": {"name": "PREMIER PERSONNEL CORP", "designationCode": "C", "categoryCode": "09", "address": "200 - 428 PORTAGE AVE", "city": "WINNIPEG", "province": "MB", "country": "CA", "postalCode": "R3C0E2", "twitter": "None", "instagram": "None", "facebook": "None", "youtube": "None", "website": "None", "summary": "None", "logo": "None", "latitude": 49.89145627947381, "longitude": -97.14926067816965}, "892409251RR0001": {"name": "PREMIERE EGLISE PENTECOSTAL ROCA DE SALVACION INC /PRIMERA IGLESIA PENTECOSTAL ROCA DE SALVACION INC", "designationCode": "C", "categoryCode": "36", "address": "11122 AV BRUNET", "city": "MONTREAL-NORD", "province": "QC", "country": "CA", "postalCode": "H1G5E7", "twitter": "None", "instagram": "None", "facebook": "None", "youtube": "None", "website": "None", "summary": "None", "logo": "None", "latitude": 45.600245120722576, "longitude": -73.62564434459561}, "886336197RR0001": {"name": "PREMIERE EGLISE SPIRITUELLE DE MONTREAL / FIRST SPIRITUAL CHURCH OF MONTREAL", "designationCode": "C", "categoryCode": "49", "address": "PO BOX 65078 MOZART", "city": "MONTREAL", "province": "QC", "country": "CA", "postalCode": "H2S0A3", "twitter": "None", "instagram": "None", "facebook": "None", "youtube": "None", "website": "None", "summary": "None", "logo": "None", "latitude": 45.5353885284048, "longitude": -73.61397674063973}, "893588434RR0001": {"name": "PREMIERS PAS CHAMPLAIN / HOME START CHAMPLAIN", "designationCode": "C", "categoryCode": "59", "address": "78 RUE ST-LOUIS", "city": "LEMOYNE", "province": "QC", "country": "CA", "postalCode": "J4R2L4", "twitter": "None", "instagram": "None", "facebook": "None", "youtube": "None", "website": "None", "summary": "None", "logo": "None", "latitude": 45.49727294587114, "longitude": -73.49760108560804}, "870294899RR0001": {"name": "PREMIERS REPONDANTS DES MOISSONS", "designationCode": "C", "categoryCode": "59", "address": "419 CHEMIN SAINT-LOUIS", "city": "BEAUHARNOIS", "province": "QC", "country": "CA", "postalCode": "J6N3E3", "twitter": "None", "instagram": "None", "facebook": "None", "youtube": "None", "website": "None", "summary": "None", "logo": "None", "latitude": 45.30069612906109, "longitude": -73.8809803482023}, "104294152RR0001": {"name": "PRENDERGAST CENTRE ASSOCIATION INC.", "designationCode": "C", "categoryCode": "56", "address": "906 COTTONWOOD ROAD", "city": "WINNIPEG", "province": "MB", "country": "CA", "postalCode": "R2J1G2", "twitter": "None", "instagram": "None", "facebook": "None", "youtube": "None", "website": "None", "summary": "None", "logo": "None", "latitude": 49.860868614981094, "longitude": -97.07997752579503}, "820813137RR0001": {"name": "PREPARE THE WAY MINISTRIES", "designationCode": "C", "categoryCode": "47", "address": "447 DIVISION ST.", "city": "KINGSTON", "province": "ON", "country": "CA", "postalCode": "K7K4A8", "twitter": "None", "instagram": "None", "facebook": "None", "youtube": "None", "website": "None", "summary": "None", "logo": "None", "latitude": 44.24154803941368, "longitude": -76.49488328668717}, "889175949RR0001": {"name": "PREPARE THE WAY MINISTRIES", "designationCode": "C", "categoryCode": "47", "address": "1355 LEAFIELD COURT", "city": "WINDSOR", "province": "ON", "country": "CA", "postalCode": "N8W5A2", "twitter": "None", "instagram": "None", "facebook": "None", "youtube": "None", "website": "None", "summary": "None", "logo": "None", "latitude": 42.278747532693295, "longitude": -82.99070700636048}, "844370726RR0001": {"name": "PRESBYTERE MAISON DU PARTAGE", "designationCode": "C", "categoryCode": "56", "address": "233 RUE COMMERCIALE", "city": "SAINT-LOUIS-DU-HA-HA", "province": "QC", "country": "CA", "postalCode": "G0L3S0", "twitter": "None", "instagram": "None", "facebook": "None", "youtube": "None", "website": "None", "summary": "None", "logo": "None", "latitude": 47.671433100727256, "longitude": -68.97967167389913}, "880417910RR0001": {"name": "PRESBYTERIAN CHURCH OF KOREA-CANADA", "designationCode": "C", "categoryCode": "37", "address": "175 ISLINGTON AVENUE", "city": "TORONTO", "province": "ON", "country": "CA", "postalCode": "M8V3B8", "twitter": "None", "instagram": "None", "facebook": "None", "youtube": "None", "website": "None", "summary": "None", "logo": "None", "latitude": 43.60237875742972, "longitude": -79.50588709850555}, "119106474RR0001": {"name": "PRESBYTERIAN CHURCH WOMEN OF ST. ANDREW'S, STRATFORD", "designationCode": "C", "categoryCode": "47", "address": "25 ST. ANDREW STREET", "city": "STRATFORD", "province": "ON", "country": "CA", "postalCode": "N5A1A2", "twitter": "None", "instagram": "None", "facebook": "None", "youtube": "None", "website": "None", "summary": "None", "logo": "None", "latitude": 43.37102267441875, "longitude": -80.98565663030185}, "119098408RR0001": {"name": "PRESBYTERIAN COLLEGE", "designationCode": "C", "categoryCode": "20", "address": "3495 UNIVERSITY STREET", "city": "MONTREAL", "province": "QC", "country": "CA", "postalCode": "H3A2A8", "twitter": "None", "instagram": "None", "facebook": "None", "youtube": "None", "website": "None", "summary": "None", "logo": "None", "latitude": 45.50631208661767, "longitude": -73.57614760141975}, "119098416RR0001": {"name": "PRESBYTERIAN EXTENSION FUND (B.C.) LIMITED", "designationCode": "C", "categoryCode": "49", "address": "2090 - 1055 WEST GEORGIA ST", "city": "VANCOUVER", "province": "BC", "country": "CA", "postalCode": "V6E3R5", "twitter": "None", "instagram": "None", "facebook": "None", "youtube": "None", "website": "None", "summary": "None", "logo": "None", "latitude": 49.28517985444869, "longitude": -123.1222083427792}, "878072925RR0001": {"name": "PRESBYTERIAN RECORD INC.", "designationCode": "C", "categoryCode": "47", "address": "50 WYNFORD DRIVE", "city": "TORONTO", "province": "ON", "country": "CA", "postalCode": "M3C1J7", "twitter": "None", "instagram": "None", "facebook": "None", "youtube": "None", "website": "None", "summary": "None", "logo": "None", "latitude": 43.72435963310046, "longitude": -79.3345945359799}, "107856767RR0001": {"name": "PRESBYTERIAN REFORMED CHURCH", "designationCode": "C", "categoryCode": "39", "address": "P.O. BOX 538", "city": "CHESLEY", "province": "ON", "country": "CA", "postalCode": "N0G1L0", "twitter": "None", "instagram": "None", "facebook": "None", "youtube": "None", "website": "None", "summary": "None", "logo": "None", "latitude": 44.30228000000005, "longitude": -81.09649999999993}, "887354660RR0001": {"name": "PRESBYTERIAN WMS WD RIPLEY EVENING AUXILIARY KNOX PRESBYTERIAN CHURCH", "designationCode": "C", "categoryCode": "47", "address": "BOX 95", "city": "RIPLEY", "province": "ON", "country": "CA", "postalCode": "N0G2R0", "twitter": "None", "instagram": "None", "facebook": "None", "youtube": "None", "website": "None", "summary": "None", "logo": "None", "latitude": 44.068873499999995, "longitude": -81.57846375}, "119102101RR0001": {"name": "PRESBYTERIAN WOMEN ST. ANDREW'S CHURCH WHITBY", "designationCode": "C", "categoryCode": "47", "address": "209 COCHRANE ST.", "city": "WHITBY", "province": "ON", "country": "CA", "postalCode": "L1N5H9", "twitter": "None", "instagram": "None", "facebook": "None", "youtube": "None", "website": "None", "summary": "None", "logo": "None", "latitude": 43.88017761783702, "longitude": -78.95289166908128}, "892239567RR0001": {"name": "PRESBYTERIAN WOMEN'S MISIONARY SOCIETY WESTERN DIVISION", "designationCode": "C", "categoryCode": "47", "address": "208 CAYLEY STREET             BOX 1632", "city": "WALKERTON", "province": "ON", "country": "CA", "postalCode": "N0G2V0", "twitter": "None", "instagram": "None", "facebook": "None", "youtube": "None", "website": "None", "summary": "None", "logo": "None", "latitude": 44.13110231115456, "longitude": -81.14963930223908}, "119106433RR0001": {"name": "PRESBYTERIAN WOMEN'S MISSIONARY SOCIETY, MARY WEATHERALL GROUP OF RUNNYMEDE PRESBYTERIAN CHURCH", "designationCode": "A", "categoryCode": "47", "address": "680 ANNETTE ST", "city": "TORONTO", "province": "ON", "country": "CA", "postalCode": "M6S2C8", "twitter": "None", "instagram": "None", "facebook": "None", "youtube": "None", "website": "None", "summary": "None", "logo": "None", "latitude": 43.65899009634118, "longitude": -79.48481680143101}, "107856619RR0002": {"name": "PRESBYTERIAN WOMEN'S MISSIONARY SOCIETY, WESTERN DIVISION", "designationCode": "C", "categoryCode": "47", "address": "849 CONCESSION ST             APT 3C", "city": "HAMILTON", "province": "ON", "country": "CA", "postalCode": "L8V1E3", "twitter": "None", "instagram": "None", "facebook": "None", "youtube": "None", "website": "None", "summary": "None", "logo": "None", "latitude": 43.238101136303115, "longitude": -79.8403073845289}, "119098358RR0001": {"name": "PRESBYTERIAN WOMEN'S MISSIONARY SOCIETY, WESTERN DIVISION", "designationCode": "C", "categoryCode": "47", "address": "81 CLOVERHILL ROAD", "city": "HAMILTON", "province": "ON", "country": "CA", "postalCode": "L9C3L7", "twitter": "None", "instagram": "None", "facebook": "None", "youtube": "None", "website": "None", "summary": "None", "logo": "None", "latitude": 43.240817003578016, "longitude": -79.88081977433792}, "119099422RR0001": {"name": "PRESBYTERIAN WOMEN'S MISSIONARY SOCIETY, WESTERN DIVISION", "designationCode": "C", "categoryCode": "47", "address": "120 MURRAY STREET", "city": "PETERBOROUGH", "province": "ON", "country": "CA", "postalCode": "K9H2S5", "twitter": "None", "instagram": "None", "facebook": "None", "youtube": "None", "website": "None", "summary": "None", "logo": "None", "latitude": 44.308459507646056, "longitude": -78.31889061226845}, "119099943RR0001": {"name": "PRESBYTERIAN WOMEN'S MISSIONARY SOCIETY, WESTERN DIVISION", "designationCode": "C", "categoryCode": "47", "address": "34 MONTROSE AVE", "city": "HAMILTON", "province": "ON", "country": "CA", "postalCode": "L8K4Y2", "twitter": "None", "instagram": "None", "facebook": "None", "youtube": "None", "website": "None", "summary": "None", "logo": "None", "latitude": 43.22686586037867, "longitude": -79.81178632015691}, "119099992RR0001": {"name": "PRESBYTERIAN WOMEN'S MISSIONARY SOCIETY, WESTERN DIVISION", "designationCode": "C", "categoryCode": "47", "address": "236 WEST AVE", "city": "HAMILTON", "province": "ON", "country": "CA", "postalCode": "L8V5C9", "twitter": "None", "instagram": "None", "facebook": "None", "youtube": "None", "website": "None", "summary": "None", "logo": "None", "latitude": 43.260266158751264, "longitude": -79.85499083885415}, "119100030RR0001": {"name": "PRESBYTERIAN WOMEN'S MISSIONARY SOCIETY, WESTERN DIVISION", "designationCode": "C", "categoryCode": "47", "address": "34 HILLSIDE AVE", "city": "DUNDAS", "province": "ON", "country": "CA", "postalCode": "L9H4H9", "twitter": "None", "instagram": "None", "facebook": "None", "youtube": "None", "website": "None", "summary": "None", "logo": "None", "latitude": 43.25828630529751, "longitude": -79.94547420985037}}