{"892313040RR0001": {"name": "LAMBTON EDUCATION FOUNDATION", "designationCode": "A", "categoryCode": "23", "address": "200 WELLINGTON STREET", "city": "SARNIA", "province": "ON", "country": "CA", "postalCode": "N7T7L2", "twitter": "None", "instagram": "None", "facebook": "None", "youtube": "None", "website": "None", "summary": "None", "logo": "None", "latitude": 42.968845094435466, "longitude": -82.40411398863674}, "107594202RR0001": {"name": "LAMBTON ELDERLY OUTREACH", "designationCode": "C", "categoryCode": "09", "address": "4486 LONDON LINE              RR 1", "city": "WYOMING", "province": "ON", "country": "CA", "postalCode": "N0N1T0", "twitter": "None", "instagram": "None", "facebook": "None", "youtube": "None", "website": "None", "summary": "None", "logo": "None", "latitude": 42.97977146436589, "longitude": -82.11890199708581}, "119065878RR0001": {"name": "LAMBTON HERITAGE MUSEUM", "designationCode": "A", "categoryCode": "50", "address": "789 BROADWAY STREET", "city": "WYOMING", "province": "ON", "country": "CA", "postalCode": "N0N1T0", "twitter": "None", "instagram": "None", "facebook": "None", "youtube": "None", "website": "None", "summary": "None", "logo": "None", "latitude": 42.9601242783773, "longitude": -82.11840445109488}, "118979749RR0002": {"name": "LAMBTON KENT DISTRICT SCHOOL BOARD", "designationCode": "C", "categoryCode": "20", "address": "476 MCNAUGHTON AVE E          BOX 1000", "city": "CHATHAM", "province": "ON", "country": "CA", "postalCode": "N7M5L7", "twitter": "None", "instagram": "None", "facebook": "None", "youtube": "None", "website": "None", "summary": "None", "logo": "None", "latitude": 42.42702541765288, "longitude": -82.18235683270865}, "107594269RR0001": {"name": "LAMBTON PRESBYTERY UNITED CHURCH CENTRE", "designationCode": "C", "categoryCode": "56", "address": "6602 LAKESHORE RD RR 13", "city": "LAMBTON SHORES", "province": "ON", "country": "CA", "postalCode": "N0N1J2", "twitter": "None", "instagram": "None", "facebook": "None", "youtube": "None", "website": "None", "summary": "None", "logo": "None", "latitude": 43.15891189730897, "longitude": -82.02151094191494}, "107594277RR0001": {"name": "LAMBTON RIGHT-TO-LIFE", "designationCode": "C", "categoryCode": "09", "address": "BOX 728", "city": "SARNIA", "province": "ON", "country": "CA", "postalCode": "N7T7J7", "twitter": "None", "instagram": "None", "facebook": "None", "youtube": "None", "website": "None", "summary": "None", "logo": "None", "latitude": 42.97877700000005, "longitude": -82.40368399999993}, "132032947RR0001": {"name": "LAMBTON RURAL CHILDCARE", "designationCode": "C", "categoryCode": "01", "address": "3958 PETROLIA LINE            P.O. BOX 1449", "city": "PETROLIA", "province": "ON", "country": "CA", "postalCode": "N0N1R0", "twitter": "None", "instagram": "None", "facebook": "None", "youtube": "None", "website": "None", "summary": "None", "logo": "None", "latitude": 42.88243957212199, "longitude": -82.16431551759186}, "862977212RR0001": {"name": "LAMBTON SAFE COMMUNITY COUNCIL", "designationCode": "C", "categoryCode": "59", "address": "8-113 1362 LAMBTON MALL ROAD", "city": "SARNIA", "province": "ON", "country": "CA", "postalCode": "N7S5A1", "twitter": "None", "instagram": "None", "facebook": "None", "youtube": "None", "website": "None", "summary": "None", "logo": "None", "latitude": 42.98309073078182, "longitude": -82.35505115255833}, "119004612RR0001": {"name": "LAMBTON SENIOR CITIZENS HOME CORPORATION", "designationCode": "C", "categoryCode": "01", "address": "41  MORRIS ST  BOX  811", "city": "FOREST", "province": "ON", "country": "CA", "postalCode": "N0N1J0", "twitter": "None", "instagram": "None", "facebook": "None", "youtube": "None", "website": "None", "summary": "None", "logo": "None", "latitude": 43.09197814972377, "longitude": -81.99294184755873}, "892532888RR0001": {"name": "LAMBTON SENIORS ASSOCIATION", "designationCode": "C", "categoryCode": "59", "address": "420 EAST ST. SUITE 9", "city": "SARNIA", "province": "ON", "country": "CA", "postalCode": "N7T6Y5", "twitter": "None", "instagram": "None", "facebook": "None", "youtube": "None", "website": "None", "summary": "None", "logo": "None", "latitude": 42.98260143694946, "longitude": -82.38619883831706}, "119004620RR0001": {"name": "LAMBTON WILDLIFE INCORPORATED", "designationCode": "C", "categoryCode": "54", "address": "PO BOX 681", "city": "SARNIA", "province": "ON", "country": "CA", "postalCode": "N7T7J7", "twitter": "None", "instagram": "None", "facebook": "None", "youtube": "None", "website": "None", "summary": "None", "logo": "None", "latitude": 42.97877700000005, "longitude": -82.40368399999993}, "119004745RR0001": {"name": "LAMONT ALLIANCE CHURCH", "designationCode": "C", "categoryCode": "39", "address": "PO BOX 87", "city": "LAMONT", "province": "AB", "country": "CA", "postalCode": "T0B2R0", "twitter": "None", "instagram": "None", "facebook": "None", "youtube": "None", "website": "None", "summary": "None", "logo": "None", "latitude": 53.759960000000035, "longitude": -112.77838999999994}, "107594491RR0001": {"name": "LAMONT COMMUNITY PLAYSCHOOL SOCIETY", "designationCode": "C", "categoryCode": "01", "address": "BOX 619", "city": "LAMONT", "province": "AB", "country": "CA", "postalCode": "T0B2R0", "twitter": "None", "instagram": "None", "facebook": "None", "youtube": "None", "website": "None", "summary": "None", "logo": "None", "latitude": 53.759960000000035, "longitude": -112.77838999999994}, "894400183RR0001": {"name": "LAMONT HAMPER COMMITTEE", "designationCode": "C", "categoryCode": "09", "address": "BOX 1187", "city": "LAMONT", "province": "AB", "country": "CA", "postalCode": "T0B2R0", "twitter": "None", "instagram": "None", "facebook": "None", "youtube": "None", "website": "None", "summary": "None", "logo": "None", "latitude": 53.759960000000035, "longitude": -112.77838999999994}, "118789106RR0001": {"name": "LAMONT HEALTH CARE CENTRE", "designationCode": "C", "categoryCode": "10", "address": "5216 - 53 STREET", "city": "LAMONT", "province": "AB", "country": "CA", "postalCode": "T0B2R0", "twitter": "None", "instagram": "None", "facebook": "None", "youtube": "None", "website": "None", "summary": "None", "logo": "None", "latitude": 53.761842839630624, "longitude": -112.78818339170584}, "107594525RR0001": {"name": "LAMONT UNITED CHURCH", "designationCode": "C", "categoryCode": "44", "address": "BOX 143", "city": "LAMONT", "province": "AB", "country": "CA", "postalCode": "T0B2R0", "twitter": "None", "instagram": "None", "facebook": "None", "youtube": "None", "website": "None", "summary": "None", "logo": "None"}, "107594582RR0001": {"name": "LAMPLIGHTER PRE-SCHOOL", "designationCode": "C", "categoryCode": "20", "address": "465 ADVANCE AVE", "city": "NAPANEE", "province": "ON", "country": "CA", "postalCode": "K7R4A7", "twitter": "None", "instagram": "None", "facebook": "None", "youtube": "None", "website": "None", "summary": "None", "logo": "None", "latitude": 44.26166975465975, "longitude": -76.95698199731694}, "119004893RR0001": {"name": "LANARK ANIMAL WELFARE SOCIETY", "designationCode": "C", "categoryCode": "54", "address": "BOX 156", "city": "SMITHS FALLS", "province": "ON", "country": "CA", "postalCode": "K7A4T1", "twitter": "None", "instagram": "None", "facebook": "None", "youtube": "None", "website": "None", "summary": "None", "logo": "None", "latitude": 44.90257200000005, "longitude": -76.02153199999994}, "118916162RR0001": {"name": "LANARK BAPTIST CHURCH", "designationCode": "C", "categoryCode": "31", "address": "77 YORK STREET                PO BOX 60", "city": "LANARK", "province": "ON", "country": "CA", "postalCode": "K0G1K0", "twitter": "None", "instagram": "None", "facebook": "None", "youtube": "None", "website": "None", "summary": "None", "logo": "None", "latitude": 45.020032296031665, "longitude": -76.36497719201411}, "868442310RR0001": {"name": "LANARK COUNTY COMMUNITY JUSTICE PROGRAM INC.", "designationCode": "C", "categoryCode": "59", "address": "10E - 8 HERRIOTT ST", "city": "PERTH", "province": "ON", "country": "CA", "postalCode": "K7H1S9", "twitter": "None", "instagram": "None", "facebook": "None", "youtube": "None", "website": "None", "summary": "None", "logo": "None", "latitude": 44.9025209486411, "longitude": -76.24608609212892}, "892308768RR0001": {"name": "LANARK COUNTY FOOD BANK INC", "designationCode": "C", "categoryCode": "01", "address": "5 ALLAN STREET", "city": "CARLETON PLACE", "province": "ON", "country": "CA", "postalCode": "K7C1T1", "twitter": "None", "instagram": "None", "facebook": "None", "youtube": "None", "website": "None", "summary": "None", "logo": "None", "latitude": 45.13975455899645, "longitude": -76.14622914166978}, "871716072RR0001": {"name": "LANARK COUNTY GENEALOGICAL SOCIETY", "designationCode": "C", "categoryCode": "50", "address": "47 LANSDOWNE AVENUE           PO BOX 20028", "city": "CARLETON PLACE", "province": "ON", "country": "CA", "postalCode": "K7C4K3", "twitter": "None", "instagram": "None", "facebook": "None", "youtube": "None", "website": "None", "summary": "None", "logo": "None", "latitude": 45.13568848185194, "longitude": -76.14056886537145}, "119004901RR0001": {"name": "LANARK COUNTY INTERVAL HOUSE", "designationCode": "C", "categoryCode": "01", "address": "PO BOX 107 STN MAIN", "city": "CARLETON PLACE", "province": "ON", "country": "CA", "postalCode": "K7C3P3", "twitter": "None", "instagram": "None", "facebook": "None", "youtube": "None", "website": "None", "summary": "None", "logo": "None", "latitude": 45.14044200000005, "longitude": -76.14679399999993}, "119004919RR0001": {"name": "LANARK FELLOWSHIP", "designationCode": "C", "categoryCode": "39", "address": "321 ROSEHILL WYND", "city": "DELTA", "province": "BC", "country": "CA", "postalCode": "V4M3L8", "twitter": "None", "instagram": "None", "facebook": "None", "youtube": "None", "website": "None", "summary": "None", "logo": "None", "latitude": 49.00800367415895, "longitude": -123.06951185668505}, "869259747RR0001": {"name": "LANARK HIGHLANDS FOOD PANTRY", "designationCode": "C", "categoryCode": "09", "address": "BOX 41", "city": "LANARK", "province": "ON", "country": "CA", "postalCode": "K0G1K0", "twitter": "None", "instagram": "None", "facebook": "None", "youtube": "None", "website": "None", "summary": "None", "logo": "None", "latitude": 45.05259300000006, "longitude": -76.40778049999993}, "107595092RR0002": {"name": "LANARK HIGHLANDS PUBLIC LIBRARY", "designationCode": "C", "categoryCode": "50", "address": "75 GEORGE STREET              PO BOX 249", "city": "LANARK", "province": "ON", "country": "CA", "postalCode": "K0G1K0", "twitter": "None", "instagram": "None", "facebook": "None", "youtube": "None", "website": "None", "summary": "None", "logo": "None", "latitude": 45.01808973129222, "longitude": -76.36507495578559}, "857509509RR0001": {"name": "LANARK HIGHLANDS YOUTH CENTRE INC", "designationCode": "C", "categoryCode": "09", "address": "PO BOX 85", "city": "LANARK", "province": "ON", "country": "CA", "postalCode": "K0G1K0", "twitter": "None", "instagram": "None", "facebook": "None", "youtube": "None", "website": "None", "summary": "None", "logo": "None", "latitude": 45.05259300000006, "longitude": -76.40778049999993}, "119004927RR0001": {"name": "LANARK HILLS FOUNDATION INC.", "designationCode": "A", "categoryCode": "49", "address": "796 BROOKE VALLEY RD", "city": "PERTH", "province": "ON", "country": "CA", "postalCode": "K7H3C6", "twitter": "None", "instagram": "None", "facebook": "None", "youtube": "None", "website": "None", "summary": "None", "logo": "None", "latitude": 44.8346005995226, "longitude": -76.4422192976746}, "881479315RR0001": {"name": "LANARK TRANSPORTATION ASSOCIATION", "designationCode": "C", "categoryCode": "09", "address": "40, SUNSET BLVD., STE 126", "city": "PERTH", "province": "ON", "country": "CA", "postalCode": "K7H2Y4", "twitter": "None", "instagram": "None", "facebook": "None", "youtube": "None", "website": "None", "summary": "None", "logo": "None", "latitude": 44.905064278405966, "longitude": -76.26737746696296}, "132460924RR0002": {"name": "LANARK, LEEDS AND GRENVILLE ADDICTIONS AND MENTAL HEALTH", "designationCode": "C", "categoryCode": "01", "address": "25 FRONT AVENUE WEST", "city": "BROCKVILLE", "province": "ON", "country": "CA", "postalCode": "K6V4J2", "twitter": "None", "instagram": "None", "facebook": "None", "youtube": "None", "website": "None", "summary": "None", "logo": "None", "latitude": 44.59801180515327, "longitude": -75.68906457755796}, "898437371RR0001": {"name": "LANAUDIERE: MEMOIRE ET RACINES", "designationCode": "C", "categoryCode": "22", "address": "144 RUE SAINT-JOSEPH", "city": "JOLIETTE", "province": "QC", "country": "CA", "postalCode": "J6E5C4", "twitter": "None", "instagram": "None", "facebook": "None", "youtube": "None", "website": "None", "summary": "None", "logo": "None", "latitude": 46.026606530122855, "longitude": -73.44158207325879}, "107595191RR0001": {"name": "LANCASTER BAPTIST CHURCH", "designationCode": "C", "categoryCode": "31", "address": "78 CLOVER CRT", "city": "SAINT JOHN", "province": "NB", "country": "CA", "postalCode": "E2M4M8", "twitter": "None", "instagram": "None", "facebook": "None", "youtube": "None", "website": "None", "summary": "None", "logo": "None", "latitude": 45.25446597945644, "longitude": -66.1058392739339}, "867756686RR0001": {"name": "LANCE KRASMAN MEMORIAL CENTRE FOR COMMUNITY MENTAL HEALTH", "designationCode": "C", "categoryCode": "11", "address": "KRASMAN CENTRE                10121 YONGE STREET", "city": "RICHMOND HILL", "province": "ON", "country": "CA", "postalCode": "L4C1T7", "twitter": "None", "instagram": "None", "facebook": "None", "youtube": "None", "website": "None", "summary": "None", "logo": "None", "latitude": 43.87420259339833, "longitude": -79.437795760171}, "858208101RR0001": {"name": "LANCEMORE CULTURAL CENTRE", "designationCode": "C", "categoryCode": "49", "address": "916 AVENUE ROAD", "city": "TORONTO", "province": "ON", "country": "CA", "postalCode": "M5P2K6", "twitter": "None", "instagram": "None", "facebook": "None", "youtube": "None", "website": "None", "summary": "None", "logo": "None", "latitude": 43.70094363613022, "longitude": -79.40706672234384}, "119004950RR0001": {"name": "LANCER PORTREEVE AND DISTRICT DONORS CHOICE", "designationCode": "A", "categoryCode": "05", "address": "BOX 15", "city": "LANCER", "province": "SK", "country": "CA", "postalCode": "S0N1G0", "twitter": "None", "instagram": "None", "facebook": "None", "youtube": "None", "website": "None", "summary": "None", "logo": "None"}, "864083746RR0001": {"name": "LAND CONSERVANCY FOR KINGSTON, FRONTENAC, LENNOX AND ADDINGTON", "designationCode": "C", "categoryCode": "52", "address": "P.O. BOX 825                  MAIN POST OFFICE", "city": "KINGSTON", "province": "ON", "country": "CA", "postalCode": "K7L4X6", "twitter": "None", "instagram": "None", "facebook": "None", "youtube": "None", "website": "None", "summary": "None", "logo": "None", "latitude": 44.23153200000006, "longitude": -76.47933049999993}, "119005023RR0001": {"name": "LAND O'LAKES COMMUNITY SERVICES", "designationCode": "C", "categoryCode": "11", "address": "12497A HIGHWAY 41             PO BOX 92", "city": "NORTHBROOK", "province": "ON", "country": "CA", "postalCode": "K0H2G0", "twitter": "None", "instagram": "None", "facebook": "None", "youtube": "None", "website": "None", "summary": "None", "logo": "None", "latitude": 44.74377798945198, "longitude": -77.1655042561509}, "107595456RR0001": {"name": "LAND O'LAKES PARISH", "designationCode": "C", "categoryCode": "30", "address": "22 PINEVIEW DR.", "city": "FLINTON", "province": "ON", "country": "CA", "postalCode": "K0H1P0", "twitter": "None", "instagram": "None", "facebook": "None", "youtube": "None", "website": "None", "summary": "None", "logo": "None", "latitude": 44.69272947071387, "longitude": -77.20504016241526}, "862415551RR0001": {"name": "LAND OF COMPASSION BUDDHA", "designationCode": "C", "categoryCode": "35", "address": "378-13988 CAMBIE ROAD", "city": "RICHMOND", "province": "BC", "country": "CA", "postalCode": "V6V2K4", "twitter": "None", "instagram": "None", "facebook": "None", "youtube": "None", "website": "None", "summary": "None", "logo": "None", "latitude": 49.18472150894506, "longitude": -123.06981120177163}, "889216297RR0001": {"name": "LAND STEWARDSHIP CENTRE OF CANADA", "designationCode": "C", "categoryCode": "59", "address": "17503-45 AVE", "city": "EDMONTON", "province": "AB", "country": "CA", "postalCode": "T6M2N3", "twitter": "None", "instagram": "None", "facebook": "None", "youtube": "None", "website": "None", "summary": "None", "logo": "None", "latitude": 53.483108524525626, "longitude": -113.63075091618097}, "888438827RR0001": {"name": "LAND'S END CHAMBER MUSIC SOCIETY OF CALGARY", "designationCode": "C", "categoryCode": "22", "address": "18 STRATHLEA CRESCENT SW", "city": "CALGARY", "province": "AB", "country": "CA", "postalCode": "T3H5A8", "twitter": "None", "instagram": "None", "facebook": "None", "youtube": "None", "website": "None", "summary": "None", "logo": "None", "latitude": 51.05148299999999, "longitude": -114.2057262897456}, "839156544RR0001": {"name": "LANDFALL TRUST INC.", "designationCode": "C", "categoryCode": "52", "address": "P.O. BOX 21378", "city": "ST. JOHN'S", "province": "NL", "country": "CA", "postalCode": "A1A5G6", "twitter": "None", "instagram": "None", "facebook": "None", "youtube": "None", "website": "None", "summary": "None", "logo": "None", "latitude": 47.600088000000056, "longitude": -52.692861499999935}, "893511865RR0001": {"name": "LANDIS SENIORS ASSOCIATION INC.", "designationCode": "C", "categoryCode": "56", "address": "BOX 122", "city": "LANDIS", "province": "SK", "country": "CA", "postalCode": "S0K2K0", "twitter": "None", "instagram": "None", "facebook": "None", "youtube": "None", "website": "None", "summary": "None", "logo": "None", "latitude": 52.19990000000007, "longitude": -108.45507999999995}, "119004984RR0001": {"name": "LANDIS UNITED CHURCH", "designationCode": "C", "categoryCode": "44", "address": "PO BOX 91", "city": "LANDIS", "province": "SK", "country": "CA", "postalCode": "S0K2K0", "twitter": "None", "instagram": "None", "facebook": "None", "youtube": "None", "website": "None", "summary": "None", "logo": "None", "latitude": 52.19990000000007, "longitude": -108.45507999999995}, "866523061RR0001": {"name": "LANDMARK CHRISTIAN FELLOWSHIP CHURCH INC.", "designationCode": "C", "categoryCode": "39", "address": "BOX 340                       172 MAIN STREET", "city": "LANDMARK", "province": "MB", "country": "CA", "postalCode": "R0A0X0", "twitter": "None", "instagram": "None", "facebook": "None", "youtube": "None", "website": "None", "summary": "None", "logo": "None", "latitude": 49.669394162614466, "longitude": -96.82140388152318}, "119005015RR0001": {"name": "LANDMARK EAST ASSOCIATION", "designationCode": "C", "categoryCode": "21", "address": "708 MAIN STREET", "city": "WOLFVILLE", "province": "NS", "country": "CA", "postalCode": "B4P1G4", "twitter": "None", "instagram": "None", "facebook": "None", "youtube": "None", "website": "None", "summary": "None", "logo": "None", "latitude": 45.087139097726165, "longitude": -64.37925526758592}, "814138475RR0001": {"name": "LANDMARK EAST FOUNDATION", "designationCode": "C", "categoryCode": "25", "address": "708 MAIN STREET", "city": "WOLFVILLE", "province": "NS", "country": "CA", "postalCode": "B4P1G4", "twitter": "None", "instagram": "None", "facebook": "None", "youtube": "None", "website": "None", "summary": "None", "logo": "None", "latitude": 45.087139097726165, "longitude": -64.37925526758592}, "857212682RR0001": {"name": "LANDMARK PARENT TEACHER ASSOCIATION", "designationCode": "C", "categoryCode": "21", "address": "BOX 468", "city": "LANDMARK", "province": "MB", "country": "CA", "postalCode": "R0A0X0", "twitter": "None", "instagram": "None", "facebook": "None", "youtube": "None", "website": "None", "summary": "None", "logo": "None", "latitude": 49.66416000000004, "longitude": -96.81997999999999}, "864103338RR0001": {"name": "LANDONVILLE CEMETARY COMPANY", "designationCode": "C", "categoryCode": "59", "address": "P.O. BOX 3360", "city": "VERMILION", "province": "AB", "country": "CA", "postalCode": "T9X2B3", "twitter": "None", "instagram": "None", "facebook": "None", "youtube": "None", "website": "None", "summary": "None", "logo": "None", "latitude": 53.35397700000006, "longitude": -110.85710299999994}, "866133606RR0001": {"name": "LANDRY FAMILY FOUNDATION INC.", "designationCode": "B", "categoryCode": "03", "address": "215 9TH ST", "city": "SASKATOON", "province": "SK", "country": "CA", "postalCode": "S7N0A3", "twitter": "None", "instagram": "None", "facebook": "None", "youtube": "None", "website": "None", "summary": "None", "logo": "None", "latitude": 52.11571347879262, "longitude": -106.6665507485429}, "119005056RR0001": {"name": "LANDS OF THE BIBLE ARCHAEOLOGY FOUNDATION", "designationCode": "C", "categoryCode": "49", "address": "40 KING STREET WEST           SUITE 5800", "city": "TORONTO", "province": "ON", "country": "CA", "postalCode": "M5H3S1", "twitter": "None", "instagram": "None", "facebook": "None", "youtube": "None", "website": "None", "summary": "None", "logo": "None", "latitude": 43.649634071037106, "longitude": -79.37885526054544}, "893208777RR0001": {"name": "LANDSCAPE ARCHITECTURE CANADA FOUNDATION/FONDATION D'ARCHITECTURE DE PAYSAGE DU CANADA", "designationCode": "C", "categoryCode": "23", "address": "102 - 1637 5TH AVE W", "city": "VANCOUVER", "province": "BC", "country": "CA", "postalCode": "V6J1N5", "twitter": "None", "instagram": "None", "facebook": "None", "youtube": "None", "website": "None", "summary": "None", "logo": "None", "latitude": 49.26711748600596, "longitude": -123.14183358090483}, "886917491RR0001": {"name": "LANDSCAPE MANITOBA HORTICULTURAL FOUNDATION INC", "designationCode": "C", "categoryCode": "23", "address": "PO BOX 1755", "city": "WINNIPEG", "province": "MB", "country": "CA", "postalCode": "R3C2Z6", "twitter": "None", "instagram": "None", "facebook": "None", "youtube": "None", "website": "None", "summary": "None", "logo": "None", "latitude": 49.899525000000054, "longitude": -97.14112999999993}, "119288918RR0807": {"name": "LANDSEND CONGREGATION OF JEHOVAH'S WITNESSES, SIDNEY, B C", "designationCode": "C", "categoryCode": "61", "address": "10373 PATRICIA PL", "city": "SIDNEY", "province": "BC", "country": "CA", "postalCode": "V8L3J7", "twitter": "None", "instagram": "None", "facebook": "None", "youtube": "None", "website": "None", "summary": "None", "logo": "None", "latitude": 48.664773, "longitude": -123.41552989575298}, "137477717RR0002": {"name": "LANGARA COLLEGE", "designationCode": "C", "categoryCode": "20", "address": "100 W 49TH AVE", "city": "VANCOUVER", "province": "BC", "country": "CA", "postalCode": "V5Y2Z6", "twitter": "None", "instagram": "None", "facebook": "None", "youtube": "None", "website": "None", "summary": "None", "logo": "None", "latitude": 49.225720971118605, "longitude": -123.10847975270815}, "119005072RR0001": {"name": "LANGBANK PARK AND RECREATION BOARD", "designationCode": "C", "categoryCode": "56", "address": "RR 1", "city": "LANGBANK", "province": "SK", "country": "CA", "postalCode": "S0G2X0", "twitter": "None", "instagram": "None", "facebook": "None", "youtube": "None", "website": "None", "summary": "None", "logo": "None", "latitude": 50.04867678626068, "longitude": -102.2948956614026}, "119005098RR0001": {"name": "LANGDON COMMUNITY CHURCH", "designationCode": "C", "categoryCode": "31", "address": "23 CENTRE STREET NORTH", "city": "LANGDON", "province": "AB", "country": "CA", "postalCode": "T0J1X2", "twitter": "None", "instagram": "None", "facebook": "None", "youtube": "None", "website": "None", "summary": "None", "logo": "None", "latitude": 50.969321497085815, "longitude": -113.67958565644264}, "107595738RR0001": {"name": "LANGENBURG & DISTRICT ACTIVITY CENTRE INC.", "designationCode": "C", "categoryCode": "09", "address": "BOX 520", "city": "LANGENBURG", "province": "SK", "country": "CA", "postalCode": "S0A2A0", "twitter": "None", "instagram": "None", "facebook": "None", "youtube": "None", "website": "None", "summary": "None", "logo": "None", "latitude": 50.84159000000005, "longitude": -101.69833999999997}, "119005114RR0001": {"name": "LANGENBURG & DISTRICT DONORS CHOICE COMBINED APPEAL", "designationCode": "C", "categoryCode": "05", "address": "BOX 274", "city": "LANGENBURG", "province": "SK", "country": "CA", "postalCode": "S0A2A0", "twitter": "None", "instagram": "None", "facebook": "None", "youtube": "None", "website": "None", "summary": "None", "logo": "None", "latitude": 50.84159000000005, "longitude": -101.69833999999997}, "862826062RR0001": {"name": "LANGENBURG AND DISTRICT DAYCARE CO-OPERATIVE", "designationCode": "C", "categoryCode": "01", "address": "PO BOX 899", "city": "LANGENBURG", "province": "SK", "country": "CA", "postalCode": "S0A2A0", "twitter": "None", "instagram": "None", "facebook": "None", "youtube": "None", "website": "None", "summary": "None", "logo": "None", "latitude": 50.84159000000005, "longitude": -101.69833999999997}, "887600062RR0001": {"name": "LANGENBURG ARTS COUNCIL", "designationCode": "C", "categoryCode": "22", "address": "PO BOX 969", "city": "LANGENBURG", "province": "SK", "country": "CA", "postalCode": "S0A2A0", "twitter": "None", "instagram": "None", "facebook": "None", "youtube": "None", "website": "None", "summary": "None", "logo": "None", "latitude": 50.84159000000005, "longitude": -101.69833999999997}, "893176370RR0001": {"name": "LANGENBURG BAND BOOSTERS ASSOCIATION", "designationCode": "C", "categoryCode": "22", "address": "PO BOX 297", "city": "LANGENBURG", "province": "SK", "country": "CA", "postalCode": "S0A2A0", "twitter": "None", "instagram": "None", "facebook": "None", "youtube": "None", "website": "None", "summary": "None", "logo": "None", "latitude": 50.84159000000005, "longitude": -101.69833999999997}, "136829199RR0001": {"name": "LANGENBURG EVANGELICAL FELLOWSHIP", "designationCode": "C", "categoryCode": "36", "address": "PO BOX 275", "city": "LANGENBURG", "province": "SK", "country": "CA", "postalCode": "S0A2A0", "twitter": "None", "instagram": "None", "facebook": "None", "youtube": "None", "website": "None", "summary": "None", "logo": "None", "latitude": 50.84159000000005, "longitude": -101.69833999999997}, "119005130RR0001": {"name": "LANGENBURG UNITED CHURCH", "designationCode": "C", "categoryCode": "44", "address": "BOX 534", "city": "LANGENBURG", "province": "SK", "country": "CA", "postalCode": "S0A2A0", "twitter": "None", "instagram": "None", "facebook": "None", "youtube": "None", "website": "None", "summary": "None", "logo": "None", "latitude": 50.84159000000005, "longitude": -101.69833999999997}, "885198978RR0001": {"name": "LANGFORD CHRISTIAN FELLOWSHIP", "designationCode": "C", "categoryCode": "49", "address": "1042 COLBORNE STREET", "city": "BRANTFORD", "province": "ON", "country": "CA", "postalCode": "N3S3E6", "twitter": "None", "instagram": "None", "facebook": "None", "youtube": "None", "website": "None", "summary": "None", "logo": "None", "latitude": 43.14528444993916, "longitude": -80.20568260949848}, "837240944RR0001": {"name": "LANGFORD COMMUNITY CHURCH", "designationCode": "C", "categoryCode": "39", "address": "1601 COLBORNE ST E", "city": "BRANTFORD", "province": "ON", "country": "CA", "postalCode": "N3S0H3", "twitter": "None", "instagram": "None", "facebook": "None", "youtube": "None", "website": "None", "summary": "None", "logo": "None", "latitude": 43.16078370188721, "longitude": -80.14732246805947}, "892763574RR0001": {"name": "LANGHAM AND DISTRICT HERITAGE VILLAGE AND MUSEUM", "designationCode": "C", "categoryCode": "50", "address": "BOX 516", "city": "LANGHAM", "province": "SK", "country": "CA", "postalCode": "S0K2L0", "twitter": "None", "instagram": "None", "facebook": "None", "youtube": "None", "website": "None", "summary": "None", "logo": "None", "latitude": 52.405424999999994, "longitude": -106.9638075}, "119005171RR0001": {"name": "LANGHAM CULTURAL SOCIETY", "designationCode": "C", "categoryCode": "22", "address": "PO BOX 1000", "city": "KASLO", "province": "BC", "country": "CA", "postalCode": "V0G1M0", "twitter": "None", "instagram": "None", "facebook": "None", "youtube": "None", "website": "None", "summary": "None", "logo": "None", "latitude": 49.91053000000005, "longitude": -116.90458999999998}, "107595852RR0001": {"name": "LANGHAM EVANGELICAL BIBLE CHURCH", "designationCode": "C", "categoryCode": "34", "address": "PO BOX 115", "city": "LANGHAM", "province": "SK", "country": "CA", "postalCode": "S0K2L0", "twitter": "None", "instagram": "None", "facebook": "None", "youtube": "None", "website": "None", "summary": "None", "logo": "None", "latitude": 52.405424999999994, "longitude": -106.9638075}, "888426509RR0001": {"name": "LANGLEY ANIMAL PROTECTION SOCIETY", "designationCode": "C", "categoryCode": "54", "address": "26220 56 AVENUE", "city": "ALDERGROVE", "province": "BC", "country": "CA", "postalCode": "V4W1J7", "twitter": "None", "instagram": "None", "facebook": "None", "youtube": "None", "website": "None", "summary": "None", "logo": "None", "latitude": 49.102018620549664, "longitude": -122.49668361278711}, "887349793RR0001": {"name": "LANGLEY ARTS COUNCIL", "designationCode": "C", "categoryCode": "22", "address": "230 - 7888 200 ST", "city": "LANGLEY", "province": "BC", "country": "CA", "postalCode": "V2Y3J4", "twitter": "None", "instagram": "None", "facebook": "None", "youtube": "None", "website": "None", "summary": "None", "logo": "None", "latitude": 49.145812971580185, "longitude": -122.66815203551853}, "892981366RR0001": {"name": "LANGLEY BUILDERS' AND DEVELOPERS' ARTS FACILITIES TRUST", "designationCode": "A", "categoryCode": "25", "address": "20736 REES LAKE ROAD", "city": "LANGLEY", "province": "BC", "country": "CA", "postalCode": "V2Z2C3", "twitter": "None", "instagram": "None", "facebook": "None", "youtube": "None", "website": "None", "summary": "None", "logo": "None", "latitude": 49.05712977211623, "longitude": -122.64925401457}, "873939029RR0001": {"name": "LANGLEY CARE FOUNDATION", "designationCode": "A", "categoryCode": "03", "address": "5451 - 204TH STREET", "city": "LANGLEY", "province": "BC", "country": "CA", "postalCode": "V3A5M9", "twitter": "None", "instagram": "None", "facebook": "None", "youtube": "None", "website": "None", "summary": "None", "logo": "None", "latitude": 49.10127741841828, "longitude": -122.65674425102564}, "107596108RR0001": {"name": "LANGLEY CARE SOCIETY", "designationCode": "C", "categoryCode": "09", "address": "5451-204TH ST", "city": "LANGLEY", "province": "BC", "country": "CA", "postalCode": "V3A5M9", "twitter": "None", "instagram": "None", "facebook": "None", "youtube": "None", "website": "None", "summary": "None", "logo": "None", "latitude": 49.10127741841828, "longitude": -122.65674425102564}, "123042640RR0001": {"name": "LANGLEY CHILDREN'S SOCIETY", "designationCode": "C", "categoryCode": "20", "address": "203-5171 221A ST", "city": "LANGLEY", "province": "BC", "country": "CA", "postalCode": "V2Y0A2", "twitter": "None", "instagram": "None", "facebook": "None", "youtube": "None", "website": "None", "summary": "None", "logo": "None", "latitude": 49.09603200000005, "longitude": -122.61038299999993}, "119005247RR0001": {"name": "LANGLEY CHRISTIAN SCHOOL SOCIETY", "designationCode": "C", "categoryCode": "20", "address": "22702 48TH AVE", "city": "LANGLEY", "province": "BC", "country": "CA", "postalCode": "V2Z2T6", "twitter": "None", "instagram": "None", "facebook": "None", "youtube": "None", "website": "None", "summary": "None", "logo": "None", "latitude": 49.089288179103974, "longitude": -122.59561084386583}, "894113372RR0014": {"name": "LANGLEY CHURCH OF THE NAZARENE", "designationCode": "C", "categoryCode": "39", "address": "19991 49 AVE.", "city": "LANGLEY", "province": "BC", "country": "CA", "postalCode": "V3A3R7", "twitter": "None", "instagram": "None", "facebook": "None", "youtube": "None", "website": "None", "summary": "None", "logo": "None", "latitude": 49.09135405820516, "longitude": -122.66881483001751}, "119005262RR0001": {"name": "LANGLEY CITY PARKS FOUNDATION", "designationCode": "A", "categoryCode": "56", "address": "20399 DOUGLAS CRESCENT", "city": "LANGLEY", "province": "BC", "country": "CA", "postalCode": "V3A4B3", "twitter": "None", "instagram": "None", "facebook": "None", "youtube": "None", "website": "None", "summary": "None", "logo": "None", "latitude": 49.10361025003872, "longitude": -122.65669975003871}, "891389991RR0001": {"name": "LANGLEY COMMUNITY MUSIC SCHOOL", "designationCode": "C", "categoryCode": "22", "address": "4899-207TH STREET", "city": "LANGLEY", "province": "BC", "country": "CA", "postalCode": "V3A2E4", "twitter": "None", "instagram": "None", "facebook": "None", "youtube": "None", "website": "None", "summary": "None", "logo": "None", "latitude": 49.09209851119624, "longitude": -122.64960908537354}, "119005304RR0001": {"name": "LANGLEY COMMUNITY SERVICES SOCIETY", "designationCode": "C", "categoryCode": "09", "address": "5339 207TH ST", "city": "LANGLEY", "province": "BC", "country": "CA", "postalCode": "V3A2E6", "twitter": "None", "instagram": "None", "facebook": "None", "youtube": "None", "website": "None", "summary": "None", "logo": "None", "latitude": 49.10018678229745, "longitude": -122.64942265860353}, "141176479RR0001": {"name": "LANGLEY CRIME PREVENTION SOCIETY", "designationCode": "C", "categoryCode": "59", "address": "4630 - 202 STREET", "city": "LANGLEY", "province": "BC", "country": "CA", "postalCode": "V3A5J3", "twitter": "None", "instagram": "None", "facebook": "None", "youtube": "None", "website": "None", "summary": "None", "logo": "None", "latitude": 49.08683136428267, "longitude": -122.6628332252196}, "140579962RR0001": {"name": "LANGLEY ENVIRONMENTAL PARTNERS SOCIETY", "designationCode": "C", "categoryCode": "52", "address": "201 4839 221 STREET", "city": "LANGLEY", "province": "BC", "country": "CA", "postalCode": "V3A2P1", "twitter": "None", "instagram": "None", "facebook": "None", "youtube": "None", "website": "None", "summary": "None", "logo": "None", "latitude": 49.09017082968189, "longitude": -122.611584447215}, "107596025RR0001": {"name": "LANGLEY EVANGELICAL FREE CHURCH", "designationCode": "C", "categoryCode": "39", "address": "20719-48 AVE", "city": "LANGLEY", "province": "BC", "country": "CA", "postalCode": "V3A3L7", "twitter": "None", "instagram": "None", "facebook": "None", "youtube": "None", "website": "None", "summary": "None", "logo": "None", "latitude": 49.08961751543632, "longitude": -122.6480820298344}, "119005312RR0001": {"name": "LANGLEY FIELD NATURALISTS SOCIETY", "designationCode": "C", "categoryCode": "52", "address": "315 - 5677 208 ST", "city": "LANGLEY", "province": "BC", "country": "CA", "postalCode": "V3A8J5", "twitter": "None", "instagram": "None", "facebook": "None", "youtube": "None", "website": "None", "summary": "None", "logo": "None", "latitude": 49.10554601573346, "longitude": -122.64677248202474}, "132230459RR0001": {"name": "LANGLEY FOOD BANK SOCIETY", "designationCode": "C", "categoryCode": "09", "address": "5768 203 ST", "city": "LANGLEY", "province": "BC", "country": "CA", "postalCode": "V3A1W3", "twitter": "None", "instagram": "None", "facebook": "None", "youtube": "None", "website": "None", "summary": "None", "logo": "None", "latitude": 49.10705389231535, "longitude": -122.66002687397327}, "133370866RR0001": {"name": "LANGLEY GOSPEL HOMES SOCIETY", "designationCode": "C", "categoryCode": "10", "address": "604 BOURNEMOUTH CRESCENT", "city": "NORTH VANCOUVER", "province": "BC", "country": "CA", "postalCode": "V7H2G5", "twitter": "None", "instagram": "None", "facebook": "None", "youtube": "None", "website": "None", "summary": "None", "logo": "None", "latitude": 49.31026981681003, "longitude": -122.99659912681075}, "856441381RR0001": {"name": "LANGLEY HAN IN PRESBYTERIAN CHURCH", "designationCode": "C", "categoryCode": "37", "address": "20784 93 AVE", "city": "LANGLEY", "province": "BC", "country": "CA", "postalCode": "V1M2W5", "twitter": "None", "instagram": "None", "facebook": "None", "youtube": "None", "website": "None", "summary": "None", "logo": "None", "latitude": 49.17121047619646, "longitude": -122.64749202123605}, "892564246RR0001": {"name": "LANGLEY HERITAGE SOCIETY", "designationCode": "C", "categoryCode": "52", "address": "BOX 982", "city": "FORT LANGLEY", "province": "BC", "country": "CA", "postalCode": "V1M2S3", "twitter": "None", "instagram": "None", "facebook": "None", "youtube": "None", "website": "None", "summary": "None", "logo": "None", "latitude": 49.16854007718262, "longitude": -122.57416995556595}, "866938616RR0001": {"name": "LANGLEY HERITAGE TRUST", "designationCode": "B", "categoryCode": "53", "address": "6330 224 ST.", "city": "LANGLEY", "province": "BC", "country": "CA", "postalCode": "V2Y2N8", "twitter": "None", "instagram": "None", "facebook": "None", "youtube": "None", "website": "None", "summary": "None", "logo": "None", "latitude": 49.118066465722194, "longitude": -122.60385911039346}, "863873733RR0001": {"name": "LANGLEY HOME CHURCH SOCIETY", "designationCode": "C", "categoryCode": "39", "address": "3383  198TH ST", "city": "LANGLEY", "province": "BC", "country": "CA", "postalCode": "V3A7Z1", "twitter": "None", "instagram": "None", "facebook": "None", "youtube": "None", "website": "None", "summary": "None", "logo": "None", "latitude": 49.063733161809694, "longitude": -122.67534344399522}, "891637266RR0001": {"name": "LANGLEY HOSPICE FOUNDATION", "designationCode": "A", "categoryCode": "13", "address": "20660 48 AVE", "city": "LANGLEY", "province": "BC", "country": "CA", "postalCode": "V3A3L6", "twitter": "None", "instagram": "None", "facebook": "None", "youtube": "None", "website": "None", "summary": "None", "logo": "None", "latitude": 49.089517087276704, "longitude": -122.65082436900657}, "119005353RR0001": {"name": "LANGLEY HOSPICE SOCIETY", "designationCode": "C", "categoryCode": "11", "address": "20660 48 AVE", "city": "LANGLEY", "province": "BC", "country": "CA", "postalCode": "V3A3L6", "twitter": "None", "instagram": "None", "facebook": "None", "youtube": "None", "website": "None", "summary": "None", "logo": "None", "latitude": 49.089517087276704, "longitude": -122.65082436900657}, "132037490RR0001": {"name": "LANGLEY IMMANUEL CHRISTIAN REFORMED CHURCH", "designationCode": "C", "categoryCode": "39", "address": "21713 50TH AVE", "city": "LANGLEY", "province": "BC", "country": "CA", "postalCode": "V3A3T2", "twitter": "None", "instagram": "None", "facebook": "None", "youtube": "None", "website": "None", "summary": "None", "logo": "None", "latitude": 49.09306547100233, "longitude": -122.6219037485429}, "127330769RR0001": {"name": "LANGLEY LIONS SENIOR CITIZENS HOUSING SOCIETY", "designationCode": "C", "categoryCode": "03", "address": "5464 203RD STREET", "city": "LANGLEY", "province": "BC", "country": "CA", "postalCode": "V3A0A4", "twitter": "None", "instagram": "None", "facebook": "None", "youtube": "None", "website": "None", "summary": "None", "logo": "None", "latitude": 49.10167595697965, "longitude": -122.65971180140235}, "879474807RR0001": {"name": "LANGLEY LITERACY ASSOCIATION", "designationCode": "A", "categoryCode": "21", "address": "LANGLEY CITY LIBRARY          20399 DOUGLAS CRES", "city": "LANGLEY", "province": "BC", "country": "CA", "postalCode": "V3A4B3", "twitter": "None", "instagram": "None", "facebook": "None", "youtube": "None", "website": "None", "summary": "None", "logo": "None", "latitude": 49.10356000000007, "longitude": -122.65670999999998}, "126881853RR0001": {"name": "LANGLEY MEALS ON WHEELS SERVICES SOCIETY", "designationCode": "C", "categoryCode": "09", "address": "20414 DOUGLAS CRES", "city": "LANGLEY", "province": "BC", "country": "CA", "postalCode": "V3A4B4", "twitter": "None", "instagram": "None", "facebook": "None", "youtube": "None", "website": "None", "summary": "None", "logo": "None", "latitude": 49.10342066621328, "longitude": -122.65613995603917}, "133892638RR0001": {"name": "LANGLEY MEMORIAL HOSPITAL FOUNDATION", "designationCode": "A", "categoryCode": "11", "address": "22051 FRASER HIGHWAY", "city": "LANGLEY", "province": "BC", "country": "CA", "postalCode": "V3A4H4", "twitter": "None", "instagram": "None", "facebook": "None", "youtube": "None", "website": "None", "summary": "None", "logo": "None", "latitude": 49.09307611422942, "longitude": -122.61340581810903}, "119005387RR0001": {"name": "LANGLEY MENNONITE FELLOWSHIP", "designationCode": "C", "categoryCode": "34", "address": "20997 40TH AVE", "city": "LANGLEY", "province": "BC", "country": "CA", "postalCode": "V3A8N9", "twitter": "None", "instagram": "None", "facebook": "None", "youtube": "None", "website": "None", "summary": "None", "logo": "None", "latitude": 49.07470246378896, "longitude": -122.64244119317328}, "869454553RR0001": {"name": "LANGLEY PLAYERS DRAMA CLUB", "designationCode": "C", "categoryCode": "22", "address": "P.O. BOX 56103                VALLEY CENTRAL RPO", "city": "LANGLEY", "province": "BC", "country": "CA", "postalCode": "V3A8B6", "twitter": "None", "instagram": "None", "facebook": "None", "youtube": "None", "website": "None", "summary": "None", "logo": "None", "latitude": 49.10153100000005, "longitude": -122.66872099999993}, "107596181RR0001": {"name": "LANGLEY PRESBYTERIAN CHURCH", "designationCode": "C", "categoryCode": "37", "address": "20867-44 AVENUE", "city": "LANGLEY", "province": "BC", "country": "CA", "postalCode": "V3A5A9", "twitter": "None", "instagram": "None", "facebook": "None", "youtube": "None", "website": "None", "summary": "None", "logo": "None", "latitude": 49.08205147936954, "longitude": -122.64519430252754}}