{"869349787RR0001": {"name": "HARRISON-COOPER FOUNDATION", "designationCode": "B", "categoryCode": "05", "address": "BOX 1270", "city": "MAYERTHORPE", "province": "AB", "country": "CA", "postalCode": "T0E1N0", "twitter": "None", "instagram": "None", "facebook": "None", "youtube": "None", "website": "None", "summary": "None", "logo": "None", "latitude": 53.952450000000056, "longitude": -115.13884999999999}, "118953520RR0001": {"name": "HARRISTON LIONS COMMUNITY MEDICAL CENTRE CORPORATION", "designationCode": "C", "categoryCode": "11", "address": "P.O. BOX 132", "city": "HARRISTON", "province": "ON", "country": "CA", "postalCode": "N0G1Z0", "twitter": "None", "instagram": "None", "facebook": "None", "youtube": "None", "website": "None", "summary": "None", "logo": "None", "latitude": 43.89520950000001, "longitude": -80.970777}, "130623598RR0001": {"name": "HARRISTON PASTORAL CHARGE,", "designationCode": "C", "categoryCode": "44", "address": "BOX 298", "city": "HARRISTON", "province": "ON", "country": "CA", "postalCode": "N0G1Z0", "twitter": "None", "instagram": "None", "facebook": "None", "youtube": "None", "website": "None", "summary": "None", "logo": "None", "latitude": 43.89520950000001, "longitude": -80.970777}, "107797383RR0020": {"name": "HARRISTON SEVENTH-DAY ADVENTIST CHURCH", "designationCode": "C", "categoryCode": "41", "address": "BOX 640", "city": "HARRISTON", "province": "ON", "country": "CA", "postalCode": "N0G2V0", "twitter": "None", "instagram": "None", "facebook": "None", "youtube": "None", "website": "None", "summary": "None", "logo": "None", "latitude": 43.89520950000001, "longitude": -80.970777}, "118953587RR0001": {"name": "HARRISVILLE UNITED PROTESTANT CHURCH", "designationCode": "C", "categoryCode": "44", "address": "88 EAST STREET", "city": "MONCTON", "province": "NB", "country": "CA", "postalCode": "E1A7A1", "twitter": "None", "instagram": "None", "facebook": "None", "youtube": "None", "website": "None", "summary": "None", "logo": "None", "latitude": 46.121303775751564, "longitude": -64.71764201774494}, "130928260RR0001": {"name": "HARROW BAPTIST CHURCH", "designationCode": "C", "categoryCode": "31", "address": "BOX 721", "city": "HARROW", "province": "ON", "country": "CA", "postalCode": "N0R1G0", "twitter": "None", "instagram": "None", "facebook": "None", "youtube": "None", "website": "None", "summary": "None", "logo": "None", "latitude": 42.03553000000005, "longitude": -82.91788999999994}, "131309817RR0001": {"name": "HARROW COOPERATIVE CHILDREN'S CENTRE INC", "designationCode": "C", "categoryCode": "01", "address": "13-550 HARROW ST", "city": "WINNIPEG", "province": "MB", "country": "CA", "postalCode": "R3M3A2", "twitter": "None", "instagram": "None", "facebook": "None", "youtube": "None", "website": "None", "summary": "None", "logo": "None", "latitude": 49.85829, "longitude": -97.15618124999999}, "137761888RR0001": {"name": "HARROW DAY CARE INC", "designationCode": "C", "categoryCode": "01", "address": "BOX 598", "city": "HARROW", "province": "ON", "country": "CA", "postalCode": "N0R1G0", "twitter": "None", "instagram": "None", "facebook": "None", "youtube": "None", "website": "None", "summary": "None", "logo": "None", "latitude": 42.03553000000005, "longitude": -82.91788999999994}, "118953603RR0001": {"name": "HARROW EARLY IMMIGRANT RESEARCH SOCIETY - (HEIRS)", "designationCode": "C", "categoryCode": "52", "address": "P.O. BOX 53                   243 MCAFFEE ST", "city": "HARROW", "province": "ON", "country": "CA", "postalCode": "N0R1G0", "twitter": "None", "instagram": "None", "facebook": "None", "youtube": "None", "website": "None", "summary": "None", "logo": "None", "latitude": 42.03200233266579, "longitude": -82.91780181505544}, "862562980RR0001": {"name": "HARROW HEALTH CENTRE INC.", "designationCode": "C", "categoryCode": "11", "address": "PO BOX 430", "city": "HARROW", "province": "ON", "country": "CA", "postalCode": "N0R1G0", "twitter": "None", "instagram": "None", "facebook": "None", "youtube": "None", "website": "None", "summary": "None", "logo": "None", "latitude": 42.03553000000005, "longitude": -82.91788999999994}, "107468555RR0001": {"name": "HARROW MENNONITE CHURCH", "designationCode": "C", "categoryCode": "34", "address": "RR#2 3167 WALKER RD", "city": "HARROW", "province": "ON", "country": "CA", "postalCode": "N0R1G0", "twitter": "None", "instagram": "None", "facebook": "None", "youtube": "None", "website": "None", "summary": "None", "logo": "None", "latitude": 42.05238551457094, "longitude": -82.91710736594725}, "108152422RR0001": {"name": "HARROW PASTORAL CHARGE", "designationCode": "C", "categoryCode": "44", "address": "UNITED CHURCH PO BOX 464", "city": "HARROW", "province": "ON", "country": "CA", "postalCode": "N0R1G0", "twitter": "None", "instagram": "None", "facebook": "None", "youtube": "None", "website": "None", "summary": "None", "logo": "None", "latitude": 42.03651272247918, "longitude": -82.91329602011021}, "118953652RR0001": {"name": "HARROW UNITED CHURCH", "designationCode": "C", "categoryCode": "44", "address": "955 MULVEY AVE", "city": "WINNIPEG", "province": "MB", "country": "CA", "postalCode": "R3M1G8", "twitter": "None", "instagram": "None", "facebook": "None", "youtube": "None", "website": "None", "summary": "None", "logo": "None", "latitude": 49.86502486984239, "longitude": -97.16217002360197}, "890238975RR0001": {"name": "HARROWSMITH & DISTRICT SOCIAL AND ATHLETIC CLUB INC.", "designationCode": "C", "categoryCode": "56", "address": "4041 COLEBROOKE RD", "city": "HARROWSMITH", "province": "ON", "country": "CA", "postalCode": "K0H1V0", "twitter": "None", "instagram": "None", "facebook": "None", "youtube": "None", "website": "None", "summary": "None", "logo": "None", "latitude": 44.40366658280943, "longitude": -76.669231086589}, "107406316RR0025": {"name": "HARROWSMITH FREE METHODIST CHURCH", "designationCode": "C", "categoryCode": "39", "address": "3876 HARROWSMITH RD", "city": "HARROWSMITH", "province": "ON", "country": "CA", "postalCode": "K0H1V0", "twitter": "None", "instagram": "None", "facebook": "None", "youtube": "None", "website": "None", "summary": "None", "logo": "None", "latitude": 44.40595047951281, "longitude": -76.65844190328346}, "889711644RR0001": {"name": "HARROWSMITH-VERONA PASTORAL CHARGE", "designationCode": "C", "categoryCode": "44", "address": "P.O. BOX 506", "city": "VERONA", "province": "ON", "country": "CA", "postalCode": "K0H2W0", "twitter": "None", "instagram": "None", "facebook": "None", "youtube": "None", "website": "None", "summary": "None", "logo": "None", "latitude": 44.48114752082804, "longitude": -76.69501084524111}, "740132329RR0001": {"name": "HARRY & LILLIAN SEYMOUR FAMILY FOUNDATION", "designationCode": "B", "categoryCode": "03", "address": "3000 79 WELLINGTON STREET WEST", "city": "TORONTO", "province": "ON", "country": "CA", "postalCode": "M5K1N2", "twitter": "None", "instagram": "None", "facebook": "None", "youtube": "None", "website": "None", "summary": "None", "logo": "None", "latitude": 43.6468467508999, "longitude": -79.3819558202305}, "107468894RR0001": {"name": "HARRY & LIN CHIN FOUNDATION", "designationCode": "B", "categoryCode": "03", "address": "145 CORDOVA ST E", "city": "VANCOUVER", "province": "BC", "country": "CA", "postalCode": "V6A1K7", "twitter": "None", "instagram": "None", "facebook": "None", "youtube": "None", "website": "None", "summary": "None", "logo": "None", "latitude": 49.282337460470735, "longitude": -123.10068108090485}, "118953702RR0001": {"name": "HARRY A. NEWMAN MEMORIAL FOUNDATION", "designationCode": "A", "categoryCode": "15", "address": "157 ADELAIDE STREET WEST      SUITE 423", "city": "TORONTO", "province": "ON", "country": "CA", "postalCode": "M5H4E7", "twitter": "None", "instagram": "None", "facebook": "None", "youtube": "None", "website": "None", "summary": "None", "logo": "None", "latitude": 43.64893585316531, "longitude": -79.38507597945643}, "118953678RR0001": {"name": "HARRY AINLAY MUSIC PARENT ASSOCIATION \"HAMPA\"", "designationCode": "C", "categoryCode": "21", "address": "PO BOX 4019", "city": "EDMONTON", "province": "AB", "country": "CA", "postalCode": "T6E4S8", "twitter": "None", "instagram": "None", "facebook": "None", "youtube": "None", "website": "None", "summary": "None", "logo": "None", "latitude": 53.499354000000054, "longitude": -113.46577549999994}, "891542342RR0001": {"name": "HARRY AND MARTHA COHEN FOUNDATION", "designationCode": "B", "categoryCode": "23", "address": "SUITE 550, 1640-16TH AVE. N.W.", "city": "CALGARY", "province": "AB", "country": "CA", "postalCode": "T2M0L6", "twitter": "None", "instagram": "None", "facebook": "None", "youtube": "None", "website": "None", "summary": "None", "logo": "None", "latitude": 51.06708393978353, "longitude": -114.0995854076533}, "887281889RR0001": {"name": "HARRY AND TOBY JORDAN FOUNDATION", "designationCode": "B", "categoryCode": "53", "address": "63 SHALLMAR BLVD", "city": "TORONTO", "province": "ON", "country": "CA", "postalCode": "M6C2K2", "twitter": "None", "instagram": "None", "facebook": "None", "youtube": "None", "website": "None", "summary": "None", "logo": "None", "latitude": 43.703502790986356, "longitude": -79.43044823812689}, "862283223RR0001": {"name": "HARRY CROWE FOUNDATION", "designationCode": "C", "categoryCode": "21", "address": "2705 QUEENSVIEW DR.", "city": "OTTAWA", "province": "ON", "country": "CA", "postalCode": "K2B8K2", "twitter": "None", "instagram": "None", "facebook": "None", "youtube": "None", "website": "None", "summary": "None", "logo": "None", "latitude": 45.352331117981265, "longitude": -75.78924922773955}, "118953736RR0001": {"name": "HARRY M. DALEY MEMORIAL BURSARY", "designationCode": "C", "categoryCode": "21", "address": "650 MONTGOMERY STREET         P.O.BOX 752", "city": "FREDERICTON", "province": "NB", "country": "CA", "postalCode": "E3B5R6", "twitter": "None", "instagram": "None", "facebook": "None", "youtube": "None", "website": "None", "summary": "None", "logo": "None", "latitude": 45.94462570967749, "longitude": -66.65178209645673}, "102288495RR0001": {"name": "HARSTONE CHILDRENS CENTRE INC.", "designationCode": "C", "categoryCode": "01", "address": "905 SARGENT AVENUE", "city": "WINNIPEG", "province": "MB", "country": "CA", "postalCode": "R3E0C9", "twitter": "None", "instagram": "None", "facebook": "None", "youtube": "None", "website": "None", "summary": "None", "logo": "None", "latitude": 49.897041442148875, "longitude": -97.17443198638134}, "118953777RR0001": {"name": "HARTFORD BAPTIST CHURCH", "designationCode": "C", "categoryCode": "31", "address": "3530 TEETERVILLE RD.          RR#3", "city": "VANESSA", "province": "ON", "country": "CA", "postalCode": "N0E1V0", "twitter": "None", "instagram": "None", "facebook": "None", "youtube": "None", "website": "None", "summary": "None", "logo": "None", "latitude": 42.9332643902417, "longitude": -80.42446684981842}, "107469488RR0001": {"name": "HARTLAND BAPTIST CHURCH", "designationCode": "C", "categoryCode": "31", "address": "6599 DRIFTWOOD ROAD", "city": "PRINCE GEORGE", "province": "BC", "country": "CA", "postalCode": "V2K4E4", "twitter": "None", "instagram": "None", "facebook": "None", "youtube": "None", "website": "None", "summary": "None", "logo": "None", "latitude": 53.988741052455424, "longitude": -122.78194873783748}, "118953843RR0001": {"name": "HARTLAND BAPTIST CHURCH", "designationCode": "C", "categoryCode": "31", "address": "349 MAIN ST", "city": "HARTLAND", "province": "NB", "country": "CA", "postalCode": "E7P2N1", "twitter": "None", "instagram": "None", "facebook": "None", "youtube": "None", "website": "None", "summary": "None", "logo": "None", "latitude": 46.29634047181038, "longitude": -67.52632160231377}, "118953827RR0001": {"name": "HARTLAND HIGH SCHOOL AWARDS COMMITTEE", "designationCode": "C", "categoryCode": "21", "address": "217 ROCKLAND RD", "city": "HARTLAND", "province": "NB", "country": "CA", "postalCode": "E7P0A2", "twitter": "None", "instagram": "None", "facebook": "None", "youtube": "None", "website": "None", "summary": "None", "logo": "None", "latitude": 46.30644074532194, "longitude": -67.50464954213906}, "107469512RR0001": {"name": "HARTLAND WESLEYAN CHURCH", "designationCode": "C", "categoryCode": "39", "address": "P.O. BOX 852", "city": "HARTLAND", "province": "NB", "country": "CA", "postalCode": "E7P3K4", "twitter": "None", "instagram": "None", "facebook": "None", "youtube": "None", "website": "None", "summary": "None", "logo": "None", "latitude": 46.297743000000054, "longitude": -67.52770099999994}, "118953835RR0001": {"name": "HARTLAND-JACKSONVILLE PASTORAL CHARGE", "designationCode": "C", "categoryCode": "44", "address": "479 BELL SETTLEMENT ROAD      ATTN. MR. BERT OPIE", "city": "RED BRIDGE", "province": "NB", "country": "CA", "postalCode": "E7M5S8", "twitter": "None", "instagram": "None", "facebook": "None", "youtube": "None", "website": "None", "summary": "None", "logo": "None"}, "864975560RR0001": {"name": "HARTNEY DISTRICT DONOR'S CHOICE", "designationCode": "A", "categoryCode": "05", "address": "BOX 432", "city": "HARTNEY", "province": "MB", "country": "CA", "postalCode": "R0M0X0", "twitter": "None", "instagram": "None", "facebook": "None", "youtube": "None", "website": "None", "summary": "None", "logo": "None", "latitude": 49.48117000000008, "longitude": -100.52134999999998}, "891373862RR0001": {"name": "HARTNEY LAUDER DAND PASTORAL CHARGE", "designationCode": "C", "categoryCode": "44", "address": "BOX 337", "city": "HARTNEY", "province": "MB", "country": "CA", "postalCode": "R0M0X0", "twitter": "None", "instagram": "None", "facebook": "None", "youtube": "None", "website": "None", "summary": "None", "logo": "None", "latitude": 49.48117000000008, "longitude": -100.52134999999998}, "873659114RR0001": {"name": "HARTNEY TINY TOT JUNCTION INC.", "designationCode": "C", "categoryCode": "01", "address": "BOX 344", "city": "HARTNEY", "province": "MB", "country": "CA", "postalCode": "R0M0X0", "twitter": "None", "instagram": "None", "facebook": "None", "youtube": "None", "website": "None", "summary": "None", "logo": "None", "latitude": 49.48117000000008, "longitude": -100.52134999999998}, "118953892RR0001": {"name": "HARTNEY UNITED CHURCH", "designationCode": "C", "categoryCode": "44", "address": "PO BOX 337", "city": "HARTNEY", "province": "MB", "country": "CA", "postalCode": "R0M0X0", "twitter": "None", "instagram": "None", "facebook": "None", "youtube": "None", "website": "None", "summary": "None", "logo": "None", "latitude": 49.48117000000008, "longitude": -100.52134999999998}, "118953900RR0001": {"name": "HARTSVILLE CEMETERY TRUST", "designationCode": "C", "categoryCode": "59", "address": "3129 HOPEDALE RD", "city": "HARTSVILLE", "province": "PE", "country": "CA", "postalCode": "C0A1Y0", "twitter": "None", "instagram": "None", "facebook": "None", "youtube": "None", "website": "None", "summary": "None", "logo": "None", "latitude": 46.31349126340231, "longitude": -63.365987707888465}, "118953918RR0001": {"name": "HARTSVILLE PRESBYTERIAN CHURCH", "designationCode": "C", "categoryCode": "37", "address": "766 NEWTON RD", "city": "KINKORA", "province": "PE", "country": "CA", "postalCode": "C0B1N0", "twitter": "None", "instagram": "None", "facebook": "None", "youtube": "None", "website": "None", "summary": "None", "logo": "None", "latitude": 46.3404992648477, "longitude": -63.58685325880989}, "851411991RR0001": {"name": "HARVARD HISTORICAL AVIATION SOCIETY", "designationCode": "C", "categoryCode": "50", "address": "BOX 537", "city": "PENHOLD", "province": "AB", "country": "CA", "postalCode": "T0M1R0", "twitter": "None", "instagram": "None", "facebook": "None", "youtube": "None", "website": "None", "summary": "None", "logo": "None", "latitude": 52.135244718577376, "longitude": -113.86968027922322}, "118953934RR0001": {"name": "HARVEST ASSEMBLY", "designationCode": "C", "categoryCode": "36", "address": "61 CURLEW DR", "city": "NORTH YORK", "province": "ON", "country": "CA", "postalCode": "M3A2P8", "twitter": "None", "instagram": "None", "facebook": "None", "youtube": "None", "website": "None", "summary": "None", "logo": "None", "latitude": 43.74409139597294, "longitude": -79.31479752983856}, "871677175RR0001": {"name": "HARVEST BAPTIST CHURCH", "designationCode": "C", "categoryCode": "31", "address": "22594 OLD YALE RD", "city": "LANGLEY", "province": "BC", "country": "CA", "postalCode": "V2Z2V4", "twitter": "None", "instagram": "None", "facebook": "None", "youtube": "None", "website": "None", "summary": "None", "logo": "None", "latitude": 49.08314682647625, "longitude": -122.59734673261563}, "893088039RR0001": {"name": "HARVEST BAPTIST CHURCH", "designationCode": "C", "categoryCode": "31", "address": "P.O. BOX 389", "city": "RADISSON", "province": "SK", "country": "CA", "postalCode": "S0K3L0", "twitter": "None", "instagram": "None", "facebook": "None", "youtube": "None", "website": "None", "summary": "None", "logo": "None", "latitude": 52.46097000000003, "longitude": -107.39552999999995}, "777808122RR0001": {"name": "HARVEST BIBLE CHAPEL BARRIE", "designationCode": "C", "categoryCode": "39", "address": "494 VETERANS DRIVE            UNIT 12-2ND FLOOR", "city": "BARRIE", "province": "ON", "country": "CA", "postalCode": "L4N9J5", "twitter": "None", "instagram": "None", "facebook": "None", "youtube": "None", "website": "None", "summary": "None", "logo": "None", "latitude": 44.337856683594005, "longitude": -79.70040811174884}, "725260491RR0001": {"name": "HARVEST BIBLE CHAPEL NEWMARKET", "designationCode": "C", "categoryCode": "39", "address": "8176 MCCOWAN ROAD,", "city": "MARKHAM", "province": "ON", "country": "CA", "postalCode": "L3P3J3", "twitter": "None", "instagram": "None", "facebook": "None", "youtube": "None", "website": "None", "summary": "None", "logo": "None", "latitude": 43.86120963252357, "longitude": -79.28306732422494}, "811037696RR0001": {"name": "HARVEST BIBLE CHAPEL OAKVILLE", "designationCode": "C", "categoryCode": "31", "address": "500 GREAT LAKES BLVD", "city": "OAKVILLE", "province": "ON", "country": "CA", "postalCode": "L6L6X9", "twitter": "None", "instagram": "None", "facebook": "None", "youtube": "None", "website": "None", "summary": "None", "logo": "None", "latitude": 43.38606260834465, "longitude": -79.73974369331752}, "865313563RR0001": {"name": "HARVEST BIBLE CHAPEL OF LONDON", "designationCode": "C", "categoryCode": "39", "address": "250 COMMISSIONERS RD E", "city": "LONDON", "province": "ON", "country": "CA", "postalCode": "N6C2T1", "twitter": "None", "instagram": "None", "facebook": "None", "youtube": "None", "website": "None", "summary": "None", "logo": "None", "latitude": 42.957526512118115, "longitude": -81.24638272162271}, "898681408RR0001": {"name": "HARVEST BIBLE COLLEGE", "designationCode": "C", "categoryCode": "20", "address": "12 - 2400 FINCH AVE W", "city": "NORTH YORK", "province": "ON", "country": "CA", "postalCode": "M9M2C8", "twitter": "None", "instagram": "None", "facebook": "None", "youtube": "None", "website": "None", "summary": "None", "logo": "None", "latitude": 43.75071900000002, "longitude": -79.54868474999999}, "869901637RR0001": {"name": "HARVEST CALL MINISTRIES", "designationCode": "C", "categoryCode": "39", "address": "293 PORT UNION RD", "city": "TORONTO", "province": "ON", "country": "CA", "postalCode": "M1C2L3", "twitter": "None", "instagram": "None", "facebook": "None", "youtube": "None", "website": "None", "summary": "None", "logo": "None", "latitude": 43.78921602996248, "longitude": -79.14064392509381}, "897668810RR0001": {"name": "HARVEST CHRISTIAN CHURCH CANADA", "designationCode": "C", "categoryCode": "39", "address": "114 ROYAL VALLEY DR", "city": "CALEDON", "province": "ON", "country": "CA", "postalCode": "L7C1A5", "twitter": "None", "instagram": "None", "facebook": "None", "youtube": "None", "website": "None", "summary": "None", "logo": "None", "latitude": 43.748761789601375, "longitude": -79.82904313310047}, "859341786RR0001": {"name": "HARVEST CHRISTIAN FELLOWSHIP CHURCH (CALGARY)", "designationCode": "C", "categoryCode": "47", "address": "#801, 710-20 CROWFOOT CRES. NW", "city": "CALGARY", "province": "AB", "country": "CA", "postalCode": "T3G2P6", "twitter": "None", "instagram": "None", "facebook": "None", "youtube": "None", "website": "None", "summary": "None", "logo": "None", "latitude": 51.12674412529993, "longitude": -114.2057180169466}, "859706244RR0001": {"name": "HARVEST CHRISTIAN FELLOWSHIP OF CORNWALL", "designationCode": "C", "categoryCode": "39", "address": "847 YORK STREET", "city": "CORNWALL", "province": "ON", "country": "CA", "postalCode": "K6J4A7", "twitter": "None", "instagram": "None", "facebook": "None", "youtube": "None", "website": "None", "summary": "None", "logo": "None", "latitude": 45.026892219545246, "longitude": -74.7383701713603}, "860842871RR0001": {"name": "HARVEST CHRISTIAN FELLOWSHIP OF SASKATOON INC.", "designationCode": "C", "categoryCode": "39", "address": "114 EGNATOFF WAY", "city": "SASKATOON", "province": "SK", "country": "CA", "postalCode": "S7K7P8", "twitter": "None", "instagram": "None", "facebook": "None", "youtube": "None", "website": "None", "summary": "None", "logo": "None", "latitude": 52.18554226115196, "longitude": -106.63143218968219}, "140800301RR0002": {"name": "HARVEST CHURCH", "designationCode": "C", "categoryCode": "39", "address": "CP BOX 1299", "city": "PRESCOTT", "province": "ON", "country": "CA", "postalCode": "K0E1T0", "twitter": "None", "instagram": "None", "facebook": "None", "youtube": "None", "website": "None", "summary": "None", "logo": "None", "latitude": 44.72333933695445, "longitude": -75.52230856910072}, "871702346RR0001": {"name": "HARVEST CITY CHURCH", "designationCode": "C", "categoryCode": "36", "address": "7416 VICTORIA DRIVE", "city": "VANCOUVER", "province": "BC", "country": "CA", "postalCode": "V5P3Z3", "twitter": "None", "instagram": "None", "facebook": "None", "youtube": "None", "website": "None", "summary": "None", "logo": "None", "latitude": 49.217022000000014, "longitude": -123.06594992169222}, "107663890RR0001": {"name": "HARVEST CITY CHURCH INC.", "designationCode": "C", "categoryCode": "47", "address": "2202 8TH AVENUE N", "city": "REGINA", "province": "SK", "country": "CA", "postalCode": "S4R7T9", "twitter": "None", "instagram": "None", "facebook": "None", "youtube": "None", "website": "None", "summary": "None", "logo": "None", "latitude": 50.48206176217231, "longitude": -104.61217073782771}, "107011736RR0001": {"name": "HARVEST COMMUNITY CHURCH INC.", "designationCode": "C", "categoryCode": "39", "address": "BOX 691", "city": "DELORAINE", "province": "MB", "country": "CA", "postalCode": "R0M0M0", "twitter": "None", "instagram": "None", "facebook": "None", "youtube": "None", "website": "None", "summary": "None", "logo": "None", "latitude": 49.19157000000007, "longitude": -100.49399999999997}, "873848048RR0001": {"name": "HARVEST COMMUNITY CHURCH OF BEAUMONT", "designationCode": "C", "categoryCode": "31", "address": "4901-55 AVE BOX 17", "city": "BEAUMONT", "province": "AB", "country": "CA", "postalCode": "T4X1M9", "twitter": "None", "instagram": "None", "facebook": "None", "youtube": "None", "website": "None", "summary": "None", "logo": "None", "latitude": 53.35682731384489, "longitude": -113.41292968615512}, "107469835RR0001": {"name": "HARVEST COMMUNITY INC.", "designationCode": "C", "categoryCode": "01", "address": "P O BOX 400", "city": "KRONAU", "province": "SK", "country": "CA", "postalCode": "S0G2T0", "twitter": "None", "instagram": "None", "facebook": "None", "youtube": "None", "website": "None", "summary": "None", "logo": "None", "latitude": 50.30688562344445, "longitude": -104.29520987087477}, "825382526RR0001": {"name": "HARVEST ENDOWMENT FOUNDATION", "designationCode": "A", "categoryCode": "03", "address": "410 CRERAR DR", "city": "HAMILTON", "province": "ON", "country": "CA", "postalCode": "L9A5K3", "twitter": "None", "instagram": "None", "facebook": "None", "youtube": "None", "website": "None", "summary": "None", "logo": "None", "latitude": 43.20862024623431, "longitude": -79.87201779542974}, "891802084RR0001": {"name": "HARVEST FAMILY CHURCH", "designationCode": "C", "categoryCode": "39", "address": "13448 HWY 48                  RR#2", "city": "STOUFFVILLE", "province": "ON", "country": "CA", "postalCode": "L4A7X3", "twitter": "None", "instagram": "None", "facebook": "None", "youtube": "None", "website": "None", "summary": "None", "logo": "None", "latitude": 43.993475829033635, "longitude": -79.28721992790517}, "895416402RR0001": {"name": "HARVEST FAMILY CHURCH INC.", "designationCode": "C", "categoryCode": "39", "address": "364 FURBY STREET", "city": "WINNIPEG", "province": "MB", "country": "CA", "postalCode": "R3B2V5", "twitter": "None", "instagram": "None", "facebook": "None", "youtube": "None", "website": "None", "summary": "None", "logo": "None", "latitude": 49.88999790091753, "longitude": -97.15759442801061}, "869954313RR0001": {"name": "HARVEST FAMILY COMMUNITY CHURCH", "designationCode": "C", "categoryCode": "39", "address": "PO BOX 1054                   85 OSBOURNE STREET", "city": "ROCHES POINT", "province": "ON", "country": "CA", "postalCode": "L0E1P0", "twitter": "None", "instagram": "None", "facebook": "None", "youtube": "None", "website": "None", "summary": "None", "logo": "None", "latitude": 44.26791000000006, "longitude": -79.25368849999994}, "861444602RR0001": {"name": "HARVEST FIELDS MINISTRIES", "designationCode": "C", "categoryCode": "39", "address": "18 HIGHVIEW AVE", "city": "TORONTO", "province": "ON", "country": "CA", "postalCode": "M3M1C4", "twitter": "None", "instagram": "None", "facebook": "None", "youtube": "None", "website": "None", "summary": "None", "logo": "None", "latitude": 43.72232175797797, "longitude": -79.49637309507176}, "133631721RR0001": {"name": "HARVEST FOUNDATION", "designationCode": "B", "categoryCode": "03", "address": "2501-1228 MARINASIDE CRESCENT", "city": "VANCOUVER", "province": "BC", "country": "CA", "postalCode": "V6Z2W4", "twitter": "None", "instagram": "None", "facebook": "None", "youtube": "None", "website": "None", "summary": "None", "logo": "None", "latitude": 49.27233944904513, "longitude": -123.12077686854431}, "862289576RR0001": {"name": "HARVEST GATHERING COMMUNITY CHURCH", "designationCode": "C", "categoryCode": "39", "address": "GENERAL DELIVERY", "city": "HOLYROOD", "province": "ON", "country": "CA", "postalCode": "N0G2B0", "twitter": "None", "instagram": "None", "facebook": "None", "youtube": "None", "website": "None", "summary": "None", "logo": "None", "latitude": 44.09509200000005, "longitude": -81.40990849999993}, "835699422RR0001": {"name": "HARVEST HEALING CENTRE", "designationCode": "C", "categoryCode": "39", "address": "102 CANAL GDNS", "city": "STRATHMORE", "province": "AB", "country": "CA", "postalCode": "T1P0C4", "twitter": "None", "instagram": "None", "facebook": "None", "youtube": "None", "website": "None", "summary": "None", "logo": "None", "latitude": 51.03464494189411, "longitude": -113.40186753817015}, "107469884RR0001": {"name": "HARVEST HILLS ALLIANCE CHURCH", "designationCode": "C", "categoryCode": "39", "address": "10099 HARVEST HILLS BLVD.NW", "city": "CALGARY", "province": "AB", "country": "CA", "postalCode": "T3K4W9", "twitter": "None", "instagram": "None", "facebook": "None", "youtube": "None", "website": "None", "summary": "None", "logo": "None", "latitude": 51.151383690354024, "longitude": -114.04821952789139}, "119288918RR0669": {"name": "HARVEST HILLS CONGREGATION OF JEHOVAH'S WITNESSES, CALGARY, ALBERTA", "designationCode": "C", "categoryCode": "61", "address": "416 BERNARD MEWS N.W.", "city": "CALGARY", "province": "AB", "country": "CA", "postalCode": "T3K2H8", "twitter": "None", "instagram": "None", "facebook": "None", "youtube": "None", "website": "None", "summary": "None", "logo": "None", "latitude": 51.136147528737865, "longitude": -114.08043737082332}, "118954031RR0001": {"name": "HARVEST HILLS INTERNATIONAL FELLOWSHIP", "designationCode": "C", "categoryCode": "31", "address": "145 LANE ST", "city": "GUELPH", "province": "ON", "country": "CA", "postalCode": "N1E4N6", "twitter": "None", "instagram": "None", "facebook": "None", "youtube": "None", "website": "None", "summary": "None", "logo": "None", "latitude": 43.55887212796457, "longitude": -80.24576593461839}, "892978172RR0001": {"name": "HARVEST HOUSE CHRISTIAN FELLOWSHIP CHURCH OF OTTAWA-CARLETON", "designationCode": "C", "categoryCode": "39", "address": "3185 UPLANDS DR", "city": "OTTAWA", "province": "ON", "country": "CA", "postalCode": "K1V1A9", "twitter": "None", "instagram": "None", "facebook": "None", "youtube": "None", "website": "None", "summary": "None", "logo": "None", "latitude": 45.34869681545371, "longitude": -75.6795595900801}, "872957709RR0001": {"name": "HARVEST HOUSE COMMUNITY OUTREACH CENTRE WINDSOR", "designationCode": "C", "categoryCode": "09", "address": "POST OFFICE BOX 903", "city": "WINDSOR", "province": "NS", "country": "CA", "postalCode": "B0N2T0", "twitter": "None", "instagram": "None", "facebook": "None", "youtube": "None", "website": "None", "summary": "None", "logo": "None", "latitude": 44.990170000000035, "longitude": -64.12904999999995}, "880920012RR0001": {"name": "HARVEST HOUSE MINISTRIES INC.", "designationCode": "C", "categoryCode": "49", "address": "PO BOX 2445 STN CENTRAL", "city": "CHARLOTTETOWN", "province": "PE", "country": "CA", "postalCode": "C1A8C2", "twitter": "None", "instagram": "None", "facebook": "None", "youtube": "None", "website": "None", "summary": "None", "logo": "None", "latitude": 46.23659700000006, "longitude": -63.12815449999994}, "132517269RR0001": {"name": "HARVEST HOUSE MINISTRIES OF OTTAWA-CARLETON", "designationCode": "C", "categoryCode": "57", "address": "3435 RAMSAYVILLE ROAD", "city": "GLOUCESTER", "province": "ON", "country": "CA", "postalCode": "K1G3N2", "twitter": "None", "instagram": "None", "facebook": "None", "youtube": "None", "website": "None", "summary": "None", "logo": "None", "latitude": 45.36665565263961, "longitude": -75.56541469739857}, "138679055RR0001": {"name": "HARVEST JAZZ AND BLUES FESTIVAL INC", "designationCode": "C", "categoryCode": "22", "address": "81 REGENT STREET", "city": "FREDERICTON", "province": "NB", "country": "CA", "postalCode": "E3B3W3", "twitter": "None", "instagram": "None", "facebook": "None", "youtube": "None", "website": "None", "summary": "None", "logo": "None", "latitude": 45.96064657813487, "longitude": -66.63914654123136}, "106951882RR0001": {"name": "HARVEST LIFE VICTORY CHURCH FELLOWSHIP", "designationCode": "C", "categoryCode": "36", "address": "PO BOX 8397 STN MAIN", "city": "COLD LAKE", "province": "AB", "country": "CA", "postalCode": "T9M1N2", "twitter": "None", "instagram": "None", "facebook": "None", "youtube": "None", "website": "None", "summary": "None", "logo": "None", "latitude": 54.46502700000005, "longitude": -110.17379149999994}, "836043729RR0001": {"name": "HARVEST MINISTRIES CANADA", "designationCode": "C", "categoryCode": "39", "address": "529 CR 15                     PO BOX 81", "city": "ALFRED", "province": "ON", "country": "CA", "postalCode": "K4K1K7", "twitter": "None", "instagram": "None", "facebook": "None", "youtube": "None", "website": "None", "summary": "None", "logo": "None", "latitude": 45.57048761976266, "longitude": -74.87357752188477}, "869196717RR0001": {"name": "HARVEST MINISTRIES SUDBURY", "designationCode": "C", "categoryCode": "47", "address": "2150 LASALLE BLVD", "city": "SUDBURY", "province": "ON", "country": "CA", "postalCode": "P3A2A7", "twitter": "None", "instagram": "None", "facebook": "None", "youtube": "None", "website": "None", "summary": "None", "logo": "None", "latitude": 46.522109029688444, "longitude": -80.9203856379738}, "822458477RR0001": {"name": "HARVEST MINISTRIES, GREG LAURIE", "designationCode": "C", "categoryCode": "47", "address": "100-32160 SOUTH FRASER WAY", "city": "ABBOTSFORD", "province": "BC", "country": "CA", "postalCode": "V2T1W5", "twitter": "None", "instagram": "None", "facebook": "None", "youtube": "None", "website": "None", "summary": "None", "logo": "None", "latitude": 49.05119019175965, "longitude": -122.33323211890487}, "855915708RR0001": {"name": "HARVEST MIRACLE CHRISTIAN CENTRE", "designationCode": "C", "categoryCode": "39", "address": "49 MILFORD AVE", "city": "TORONTO", "province": "ON", "country": "CA", "postalCode": "M6M2W1", "twitter": "None", "instagram": "None", "facebook": "None", "youtube": "None", "website": "None", "summary": "None", "logo": "None", "latitude": 43.70456271550585, "longitude": -79.47328358260694}, "870715935RR0001": {"name": "HARVEST MISSION BIBLE CHURCH", "designationCode": "C", "categoryCode": "39", "address": "154 LAMPLIGHTERS DRIVE", "city": "NEPEAN", "province": "ON", "country": "CA", "postalCode": "K2J0H6", "twitter": "None", "instagram": "None", "facebook": "None", "youtube": "None", "website": "None", "summary": "None", "logo": "None", "latitude": 45.268091496537565, "longitude": -75.77460078792794}, "832778146RR0001": {"name": "HARVEST MISSION TO THE UNREACHED", "designationCode": "C", "categoryCode": "47", "address": "97 DOWSWELL DR", "city": "SCARBOROUGH", "province": "ON", "country": "CA", "postalCode": "M1B1H5", "twitter": "None", "instagram": "None", "facebook": "None", "youtube": "None", "website": "None", "summary": "None", "logo": "None", "latitude": 43.79569431447277, "longitude": -79.22227826325808}, "837950542RR0001": {"name": "HARVEST RESTORATION MINISTRIES", "designationCode": "C", "categoryCode": "39", "address": "18 MATHERS DRIVE", "city": "STONEY CREEK", "province": "ON", "country": "CA", "postalCode": "L8G4J3", "twitter": "None", "instagram": "None", "facebook": "None", "youtube": "None", "website": "None", "summary": "None", "logo": "None", "latitude": 43.21042626504711, "longitude": -79.72027059377369}, "857095335RR0001": {"name": "HARVEST SHARE COMMUNITY FOOD PROGRAMS", "designationCode": "C", "categoryCode": "09", "address": "22A MILLER ST", "city": "PARRY SOUND", "province": "ON", "country": "CA", "postalCode": "P2A2J2", "twitter": "None", "instagram": "None", "facebook": "None", "youtube": "None", "website": "None", "summary": "None", "logo": "None", "latitude": 45.34531299142917, "longitude": -80.03258213291551}, "889789426RR0001": {"name": "HARVEST TIME MINISTRIES", "designationCode": "C", "categoryCode": "36", "address": "PO BOX 29023", "city": "LONDON", "province": "ON", "country": "CA", "postalCode": "N6K4L9", "twitter": "None", "instagram": "None", "facebook": "None", "youtube": "None", "website": "None", "summary": "None", "logo": "None", "latitude": 42.98689500000006, "longitude": -81.24624349999993}, "892701566RR0001": {"name": "HARVEST TIME MINISTRIES OF CANADA", "designationCode": "C", "categoryCode": "39", "address": "332-2075 SHEROBEE ROAD", "city": "MISSISSAUGA", "province": "ON", "country": "CA", "postalCode": "L5A4C1", "twitter": "None", "instagram": "None", "facebook": "None", "youtube": "None", "website": "None", "summary": "None", "logo": "None", "latitude": 43.571831509867756, "longitude": -79.60073334191256}, "107833394RR0088": {"name": "HARVEST TIME PENTECOSTAL ASSEMBLY", "designationCode": "C", "categoryCode": "36", "address": "GENERAL DELIVERY", "city": "PACQUET", "province": "NL", "country": "CA", "postalCode": "A0K3X0", "twitter": "None", "instagram": "None", "facebook": "None", "youtube": "None", "website": "None", "summary": "None", "logo": "None", "latitude": 49.98777900000006, "longitude": -55.87746199999994}, "889591228RR0001": {"name": "HARVEST TIME REVIVAL", "designationCode": "C", "categoryCode": "39", "address": "22-445 MIDWEST RD", "city": "SCARBOROUGH", "province": "ON", "country": "CA", "postalCode": "M1P4Y9", "twitter": "None", "instagram": "None", "facebook": "None", "youtube": "None", "website": "None", "summary": "None", "logo": "None", "latitude": 43.76559878766815, "longitude": -79.27174524808156}, "893370262RR0001": {"name": "HARVEST TIME UNITED CHURCH OF JESUS CHRIST (APOSTOLIC)", "designationCode": "C", "categoryCode": "39", "address": "725 BALMORAL DRIVE", "city": "BRAMPTON", "province": "ON", "country": "CA", "postalCode": "L6T1X6", "twitter": "None", "instagram": "None", "facebook": "None", "youtube": "None", "website": "None", "summary": "None", "logo": "None", "latitude": 43.71879451399403, "longitude": -79.69139991618097}, "857850309RR0001": {"name": "HARVEST WORSHIP CENTRE", "designationCode": "C", "categoryCode": "36", "address": "302-57 MILL STREET NORTH", "city": "BRAMPTON", "province": "ON", "country": "CA", "postalCode": "L6X1S9", "twitter": "None", "instagram": "None", "facebook": "None", "youtube": "None", "website": "None", "summary": "None", "logo": "None", "latitude": 43.6866397440995, "longitude": -79.76674702389043}, "133616532RR0001": {"name": "HARVESTER EVANGELICAL PRESS", "designationCode": "C", "categoryCode": "47", "address": "12350 - SIDEROAD 17", "city": "SUNDERLAND", "province": "ON", "country": "CA", "postalCode": "L0C1H0", "twitter": "None", "instagram": "None", "facebook": "None", "youtube": "None", "website": "None", "summary": "None", "logo": "None", "latitude": 44.22263974297432, "longitude": -79.09232427165394}, "118953983RR0001": {"name": "HARVESTERS BAPTIST CHURCH", "designationCode": "C", "categoryCode": "31", "address": "9488 WESTMINSTER DR.", "city": "LONDON", "province": "ON", "country": "CA", "postalCode": "N6P1P3", "twitter": "None", "instagram": "None", "facebook": "None", "youtube": "None", "website": "None", "summary": "None", "logo": "None", "latitude": 42.8826004938908, "longitude": -81.3464204555242}, "897668265RR0001": {"name": "HARVESTERS OF TIMMINS", "designationCode": "C", "categoryCode": "39", "address": "98 MOUNTJOY SOUTH", "city": "TIMMINS", "province": "ON", "country": "CA", "postalCode": "P4N1S7", "twitter": "None", "instagram": "None", "facebook": "None", "youtube": "None", "website": "None", "summary": "None", "logo": "None", "latitude": 48.47408958090483, "longitude": -81.33566008892626}, "889765574RR0001": {"name": "HARVESTERS TOGETHER MINISTRIES", "designationCode": "C", "categoryCode": "49", "address": "BOX 2181", "city": "ROCKY MOUNTAIN", "province": "AB", "country": "CA", "postalCode": "T4T1B6", "twitter": "None", "instagram": "None", "facebook": "None", "youtube": "None", "website": "None", "summary": "None", "logo": "None", "latitude": 52.37758500000005, "longitude": -114.93030049999993}, "118954049RR0001": {"name": "HARVESTIME INTERNATIONAL MINISTRIES Inc.", "designationCode": "C", "categoryCode": "47", "address": "PO BOX 2108", "city": "LETHBRIDGE", "province": "AB", "country": "CA", "postalCode": "T1J4K6", "twitter": "None", "instagram": "None", "facebook": "None", "youtube": "None", "website": "None", "summary": "None", "logo": "None", "latitude": 49.69383000000006, "longitude": -112.83373249999994}, "814730271RR0001": {"name": "HARVEY AND ANNICE FRISCH FAMILY FOUNDATION", "designationCode": "B", "categoryCode": "03", "address": "26 AVA ROAD", "city": "TORONTO", "province": "ON", "country": "CA", "postalCode": "M5P1Y2", "twitter": "None", "instagram": "None", "facebook": "None", "youtube": "None", "website": "None", "summary": "None", "logo": "None", "latitude": 43.69793517236993, "longitude": -79.42004718096827}, "118954189RR0001": {"name": "HARVEY BAPTIST CHURCH", "designationCode": "C", "categoryCode": "31", "address": "1929 ROUTE #3                 BOX 508", "city": "HARVEY YORK COUNTY", "province": "NB", "country": "CA", "postalCode": "E6K3K1", "twitter": "None", "instagram": "None", "facebook": "None", "youtube": "None", "website": "None", "summary": "None", "logo": "None"}, "118954114RR0001": {"name": "HARVEY COMMUNITY HOSPITAL FOUNDATION INC.", "designationCode": "A", "categoryCode": "13", "address": "4749 ROUTE 3", "city": "BROCKWAY", "province": "NB", "country": "CA", "postalCode": "E6K1Y9", "twitter": "None", "instagram": "None", "facebook": "None", "youtube": "None", "website": "None", "summary": "None", "logo": "None", "latitude": 45.54854128524428, "longitude": -67.10815607518751}, "894232560RR0001": {"name": "HARVEY COMMUNITY LIBRARY BOARD", "designationCode": "C", "categoryCode": "50", "address": "2391 RTE 3", "city": "HARVEY", "province": "NB", "country": "CA", "postalCode": "E6K1P1", "twitter": "None", "instagram": "None", "facebook": "None", "youtube": "None", "website": "None", "summary": "None", "logo": "None", "latitude": 45.73025115731896, "longitude": -67.00374423912147}, "865358683RR0001": {"name": "HARVEY DANIEL SHAW FOUNDATION", "designationCode": "B", "categoryCode": "03", "address": "PO BOX 1948", "city": "BLENHEIM", "province": "ON", "country": "CA", "postalCode": "N0P1A0", "twitter": "None", "instagram": "None", "facebook": "None", "youtube": "None", "website": "None", "summary": "None", "logo": "None", "latitude": 42.335210000000075, "longitude": -81.99768999999998}, "118942481RR0001": {"name": "HARVEY GOSPEL LIGHTHOUSE INC.", "designationCode": "C", "categoryCode": "39", "address": "1860 ROUTE 3", "city": "HARVEY STATION", "province": "NB", "country": "CA", "postalCode": "E6K3E8", "twitter": "None", "instagram": "None", "facebook": "None", "youtube": "None", "website": "None", "summary": "None", "logo": "None", "latitude": 45.73204681522205, "longitude": -66.99530409791805}, "867991820RR0001": {"name": "HARVEY HIGH SCHOOL EDUCATION FOUNDATION INC", "designationCode": "C", "categoryCode": "21", "address": "HARVEY HIGH SCHOOL            P.O. BOX 258", "city": "HARVEY STATION", "province": "NB", "country": "CA", "postalCode": "E6K3W9", "twitter": "None", "instagram": "None", "facebook": "None", "youtube": "None", "website": "None", "summary": "None", "logo": "None", "latitude": 45.721100000000035, "longitude": -67.01042999999999}}