{"105259261RR0001": {"name": "THE WELLAND CANALS FOUNDATION", "designationCode": "C", "categoryCode": "50", "address": "12 SENTANCE AVE", "city": "THOROLD", "province": "ON", "country": "CA", "postalCode": "L2V4W9", "twitter": "None", "instagram": "None", "facebook": "None", "youtube": "None", "website": "None", "summary": "None", "logo": "None", "latitude": 43.11772495420966, "longitude": -79.2167784124014}, "108195579RR0001": {"name": "THE WELLAND HISTORICAL MUSEUM", "designationCode": "C", "categoryCode": "50", "address": "140 KING ST", "city": "WELLAND", "province": "ON", "country": "CA", "postalCode": "L3B3J3", "twitter": "None", "instagram": "None", "facebook": "None", "youtube": "None", "website": "None", "summary": "None", "logo": "None", "latitude": 42.989165161809694, "longitude": -79.25102245902845}, "119290906RR0001": {"name": "THE WELLINGTON PENTECOSTAL CHURCH", "designationCode": "C", "categoryCode": "36", "address": "1055 COUNTY ROAD 19, RR1", "city": "CONSECON", "province": "ON", "country": "CA", "postalCode": "K0K1T0", "twitter": "None", "instagram": "None", "facebook": "None", "youtube": "None", "website": "None", "summary": "None", "logo": "None", "latitude": 44.334823954991734, "longitude": -77.63059714273435}, "891628661RR0001": {"name": "THE WELLINGTON WINDS INC", "designationCode": "C", "categoryCode": "22", "address": "31 ARTHUR ST. NORTH", "city": "ELMIRA", "province": "ON", "country": "CA", "postalCode": "N3B1Z6", "twitter": "None", "instagram": "None", "facebook": "None", "youtube": "None", "website": "None", "summary": "None", "logo": "None", "latitude": 43.60137733859435, "longitude": -80.55667596485682}, "886334408RR0001": {"name": "THE WELLSPRING FOUNDATION FOR EDUCATION", "designationCode": "C", "categoryCode": "21", "address": "201-20189 56 AVE", "city": "LANGLEY", "province": "BC", "country": "CA", "postalCode": "V3A3Y6", "twitter": "None", "instagram": "None", "facebook": "None", "youtube": "None", "website": "None", "summary": "None", "logo": "None", "latitude": 49.10438425139567, "longitude": -122.66337128107554}, "899504534RR0001": {"name": "THE WELWYN BELLES AND BEAUS", "designationCode": "C", "categoryCode": "56", "address": "BOX 68", "city": "WELWYN", "province": "SK", "country": "CA", "postalCode": "S0A4L0", "twitter": "None", "instagram": "None", "facebook": "None", "youtube": "None", "website": "None", "summary": "None", "logo": "None", "latitude": 50.32496070630703, "longitude": -101.51907828679097}, "874500879RR0001": {"name": "THE WENDY BROOK MUSIC FESTIVAL ASSOCIATION", "designationCode": "C", "categoryCode": "22", "address": "BOX 58", "city": "VEGREVILLE", "province": "AB", "country": "CA", "postalCode": "T9C1R1", "twitter": "None", "instagram": "None", "facebook": "None", "youtube": "None", "website": "None", "summary": "None", "logo": "None", "latitude": 53.49528600000005, "longitude": -112.05415249999993}, "119291185RR0001": {"name": "THE WERNER FAMILY FOUNDATION", "designationCode": "B", "categoryCode": "03", "address": "1191 BATHURST STREET", "city": "TORONTO", "province": "ON", "country": "CA", "postalCode": "M5R3H4", "twitter": "None", "instagram": "None", "facebook": "None", "youtube": "None", "website": "None", "summary": "None", "logo": "None", "latitude": 43.67510789370415, "longitude": -79.4150879168448}, "870051117RR0001": {"name": "THE WERTHINGTON FOUNDATION", "designationCode": "B", "categoryCode": "03", "address": "1191 BATHURST STREET", "city": "TORONTO", "province": "ON", "country": "CA", "postalCode": "M5R3H4", "twitter": "None", "instagram": "None", "facebook": "None", "youtube": "None", "website": "None", "summary": "None", "logo": "None", "latitude": 43.67510789370415, "longitude": -79.4150879168448}, "119262228RR0001": {"name": "THE WESLEY AND MARY NICOL CHARITABLE FOUNDATION", "designationCode": "B", "categoryCode": "13", "address": "237 SOMERSET STREET WEST", "city": "OTTAWA", "province": "ON", "country": "CA", "postalCode": "K2P0J3", "twitter": "None", "instagram": "None", "facebook": "None", "youtube": "None", "website": "None", "summary": "None", "logo": "None", "latitude": 45.41719838193184, "longitude": -75.69205408301097}, "108197120RR0001": {"name": "THE WESLEYAN CHURCH", "designationCode": "C", "categoryCode": "39", "address": "6 MALTBY CRT", "city": "AMHERST", "province": "NS", "country": "CA", "postalCode": "B4H2L6", "twitter": "None", "instagram": "None", "facebook": "None", "youtube": "None", "website": "None", "summary": "None", "logo": "None", "latitude": 45.87698400000005, "longitude": -64.05542449999993}, "130153026RR0001": {"name": "THE WESLEYAN CHURCH", "designationCode": "C", "categoryCode": "39", "address": "137 ELGIN STREET              PO BOX 446", "city": "MADDOC", "province": "ON", "country": "CA", "postalCode": "K0K2K0", "twitter": "None", "instagram": "None", "facebook": "None", "youtube": "None", "website": "None", "summary": "None", "logo": "None", "latitude": 44.50527236180088, "longitude": -77.46747280520363}, "891995649RR0001": {"name": "THE WESLEYAN CHURCH", "designationCode": "C", "categoryCode": "39", "address": "1411 SANDY POINT", "city": "SHELBURNE", "province": "NS", "country": "CA", "postalCode": "B0T1W0", "twitter": "None", "instagram": "None", "facebook": "None", "youtube": "None", "website": "None", "summary": "None", "logo": "None", "latitude": 43.69983332500434, "longitude": -65.32302362259847}, "108103987RR0001": {"name": "THE WESLEYAN CHURCH OF CANADA (CENTRAL CANADA DISTRICT)", "designationCode": "C", "categoryCode": "39", "address": "3545 CENNTENNIAL RD. RR # 2", "city": "LYN", "province": "ON", "country": "CA", "postalCode": "K0E1M0", "twitter": "None", "instagram": "None", "facebook": "None", "youtube": "None", "website": "None", "summary": "None", "logo": "None", "latitude": 44.42297100000006, "longitude": -75.88780099999994}, "892556168RR0001": {"name": "THE WESLEYAN CHURCH OF CANADA/L'EGLISE WESLEYENNE DU CANADA", "designationCode": "C", "categoryCode": "39", "address": "11-80 MAPLETON ROAD           SUITE 231", "city": "MONCTON", "province": "NB", "country": "CA", "postalCode": "E1C7W8", "twitter": "None", "instagram": "None", "facebook": "None", "youtube": "None", "website": "None", "summary": "None", "logo": "None", "latitude": 46.10860213791923, "longitude": -64.82315636285922}, "107898637RR0001": {"name": "THE WESLEYAN CHURCH OF GRAND BAY", "designationCode": "C", "categoryCode": "39", "address": "45 RIDGE WAY", "city": "GRAND BAY-WESTFIELD", "province": "NB", "country": "CA", "postalCode": "E5K1Y9", "twitter": "None", "instagram": "None", "facebook": "None", "youtube": "None", "website": "None", "summary": "None", "logo": "None", "latitude": 45.32000122479671, "longitude": -66.20845715101923}, "119262285RR0001": {"name": "THE WEST END CULTURAL CENTER INC", "designationCode": "C", "categoryCode": "22", "address": "586 ELLICE AVE", "city": "WINNIPEG", "province": "MB", "country": "CA", "postalCode": "R3B1Z8", "twitter": "None", "instagram": "None", "facebook": "None", "youtube": "None", "website": "None", "summary": "None", "logo": "None", "latitude": 49.89289755785113, "longitude": -97.15846380544174}, "887834893RR0001": {"name": "THE WEST HOUSE SOCIETY", "designationCode": "C", "categoryCode": "50", "address": "659 AVONDALE RD               POPLAR GROVE", "city": "NEWPORT", "province": "NS", "country": "CA", "postalCode": "B0N2A0", "twitter": "None", "instagram": "None", "facebook": "None", "youtube": "None", "website": "None", "summary": "None", "logo": "None", "latitude": 45.01124946941487, "longitude": -64.09929304524206}, "889328274RR0001": {"name": "THE WEST INDIAN PIONEER ASSISTANCE PROGRAM (TORONTO) INC", "designationCode": "C", "categoryCode": "21", "address": "22 ABERCORN RD", "city": "MARKHAM", "province": "ON", "country": "CA", "postalCode": "L3P1V4", "twitter": "None", "instagram": "None", "facebook": "None", "youtube": "None", "website": "None", "summary": "None", "logo": "None", "latitude": 43.8769460413756, "longitude": -79.27007661838529}, "821898343RR0001": {"name": "THE WEST ISLAND CRUSADE AGAINST CANCER", "designationCode": "A", "categoryCode": "13", "address": "15 CEDARWOOD COURT", "city": "KIRKLAND", "province": "QC", "country": "CA", "postalCode": "H9J2Z5", "twitter": "None", "instagram": "None", "facebook": "None", "youtube": "None", "website": "None", "summary": "None", "logo": "None", "latitude": 45.44253632703564, "longitude": -73.90083211111609}, "890219991RR0001": {"name": "THE WEST ISLAND LYRIC THEATRE", "designationCode": "C", "categoryCode": "22", "address": "18 ALLAN STREET", "city": "GREENFIELD PARK", "province": "QC", "country": "CA", "postalCode": "J4V2W5", "twitter": "None", "instagram": "None", "facebook": "None", "youtube": "None", "website": "None", "summary": "None", "logo": "None", "latitude": 45.48067057397994, "longitude": -73.47872160257359}, "890343643RR0001": {"name": "THE WEST ST. PETER'S CEMETERY", "designationCode": "C", "categoryCode": "59", "address": "156 ST PETERS HARBOUR RD", "city": "MORELL", "province": "PE", "country": "CA", "postalCode": "C0A1S0", "twitter": "None", "instagram": "None", "facebook": "None", "youtube": "None", "website": "None", "summary": "None", "logo": "None", "latitude": 46.421005012493474, "longitude": -62.73283320953325}, "119295913RR0001": {"name": "THE WEST VANCOUVER ADULT COMMUNITY BAND ASSOCIATION", "designationCode": "C", "categoryCode": "22", "address": "885 EYREMOUNT DR", "city": "WEST VANCOUVER", "province": "BC", "country": "CA", "postalCode": "V7S2B2", "twitter": "None", "instagram": "None", "facebook": "None", "youtube": "None", "website": "None", "summary": "None", "logo": "None", "latitude": 49.34991084595193, "longitude": -123.13393952132296}, "119295947RR0001": {"name": "THE WEST VANCOUVER COMMUNITY ARTS COUNCIL", "designationCode": "C", "categoryCode": "22", "address": "1570 ARGYLE AVENUE", "city": "WEST VANCOUVER", "province": "BC", "country": "CA", "postalCode": "V7V1A1", "twitter": "None", "instagram": "None", "facebook": "None", "youtube": "None", "website": "None", "summary": "None", "logo": "None", "latitude": 49.32719249956732, "longitude": -123.15815069608747}, "894719780RR0001": {"name": "THE WESTAWAY CHARITABLE FOUNDATION", "designationCode": "B", "categoryCode": "23", "address": "POST BOX 188                  TORONTO F", "city": "TORONTO", "province": "ON", "country": "CA", "postalCode": "M4Y2L5", "twitter": "None", "instagram": "None", "facebook": "None", "youtube": "None", "website": "None", "summary": "None", "logo": "None"}, "119262236RR0001": {"name": "THE WESTBOURNE BAPTIST BENEVOLENT ASSOCIATION OF ALBERTA", "designationCode": "C", "categoryCode": "01", "address": "#220, 877-64 AVENUE N.W.", "city": "CALGARY", "province": "AB", "country": "CA", "postalCode": "T2K5J4", "twitter": "None", "instagram": "None", "facebook": "None", "youtube": "None", "website": "None", "summary": "None", "logo": "None", "latitude": 51.110502000000054, "longitude": -114.07790599999993}, "892976960RR0001": {"name": "THE WESTCOAST HARMONY CHORUS OF SWEET ADELINES INTERNATIONAL SOCIETY", "designationCode": "C", "categoryCode": "22", "address": "10 - 910 FORT FRASER RISE", "city": "PORT COQUITLAM", "province": "BC", "country": "CA", "postalCode": "V3C6K3", "twitter": "None", "instagram": "None", "facebook": "None", "youtube": "None", "website": "None", "summary": "None", "logo": "None", "latitude": 49.23127507847187, "longitude": -122.79211057592477}, "119292472RR0001": {"name": "THE WESTCOAST NATIVE HEALTH CARE SOCIETY", "designationCode": "C", "categoryCode": "11", "address": "6151 RUSSELL PLACE", "city": "PORT ALBERNI", "province": "BC", "country": "CA", "postalCode": "V9Y7W3", "twitter": "None", "instagram": "None", "facebook": "None", "youtube": "None", "website": "None", "summary": "None", "logo": "None", "latitude": 49.26902952986307, "longitude": -124.84679133524652}, "108199530RR0001": {"name": "THE WESTERN CANADA CONFERENCE OF THE CHURCH OF THE NEW JERUSALEM", "designationCode": "C", "categoryCode": "49", "address": "323 48 AVE NE", "city": "CALGARY", "province": "AB", "country": "CA", "postalCode": "T2E2P4", "twitter": "None", "instagram": "None", "facebook": "None", "youtube": "None", "website": "None", "summary": "None", "logo": "None", "latitude": 51.095692499567306, "longitude": -114.05670283236194}, "868028168RR0001": {"name": "THE WESTERN CANADA HIGH SCHOOL ALUMNI FOUNDATION", "designationCode": "C", "categoryCode": "21", "address": "641 17 AVE SW", "city": "CALGARY", "province": "AB", "country": "CA", "postalCode": "T2S0B5", "twitter": "None", "instagram": "None", "facebook": "None", "youtube": "None", "website": "None", "summary": "None", "logo": "None", "latitude": 51.03779850678068, "longitude": -114.076872}, "119293025RR0001": {"name": "THE WESTERN CANADIAN DISTRICT OF THE CHRISTIAN AND MISSIONARY ALLIANCE", "designationCode": "C", "categoryCode": "39", "address": "333-30 SPRINGBOROUGH BLVD SW", "city": "CALGARY", "province": "AB", "country": "CA", "postalCode": "T3H0N9", "twitter": "None", "instagram": "None", "facebook": "None", "youtube": "None", "website": "None", "summary": "None", "logo": "None", "latitude": 51.03440060144841, "longitude": -114.19115789676258}, "861009108RR0001": {"name": "THE WESTERN CANADIAN OPERA SOCIETY", "designationCode": "C", "categoryCode": "22", "address": "PO BOX 5105                   STN TERMINAL", "city": "VANCOUVER", "province": "BC", "country": "CA", "postalCode": "V6B4A9", "twitter": "None", "instagram": "None", "facebook": "None", "youtube": "None", "website": "None", "summary": "None", "logo": "None", "latitude": 49.28024400000005, "longitude": -123.11294749999993}, "870302619RR0001": {"name": "THE WESTERN COMMUNITIES FOUNDATION", "designationCode": "B", "categoryCode": "03", "address": "1010-24TH STREET S.E.", "city": "HIGH RIVER", "province": "AB", "country": "CA", "postalCode": "T1V2A7", "twitter": "None", "instagram": "None", "facebook": "None", "youtube": "None", "website": "None", "summary": "None", "logo": "None", "latitude": 50.57369694362078, "longitude": -113.83270571810293}, "119293199RR0001": {"name": "THE WESTERN DAY CARE CENTRE", "designationCode": "C", "categoryCode": "01", "address": "27 EMERY ST W", "city": "LONDON", "province": "ON", "country": "CA", "postalCode": "N6J1R5", "twitter": "None", "instagram": "None", "facebook": "None", "youtube": "None", "website": "None", "summary": "None", "logo": "None", "latitude": 42.9635625212074, "longitude": -81.26381356800734}, "119293280RR0001": {"name": "THE WESTERN FRONT SOCIETY", "designationCode": "C", "categoryCode": "22", "address": "303 8TH AVENUE EAST", "city": "VANCOUVER", "province": "BC", "country": "CA", "postalCode": "V5T1S1", "twitter": "None", "instagram": "None", "facebook": "None", "youtube": "None", "website": "None", "summary": "None", "logo": "None", "latitude": 49.263700493219325, "longitude": -123.09869182944774}, "129606455RR0001": {"name": "THE WESTERN MANITOBA REGIONAL LIBRARY", "designationCode": "C", "categoryCode": "50", "address": "710 ROSSER AVE, UNIT 1", "city": "BRANDON", "province": "MB", "country": "CA", "postalCode": "R7A0K9", "twitter": "None", "instagram": "None", "facebook": "None", "youtube": "None", "website": "None", "summary": "None", "logo": "None", "latitude": 49.84842648456367, "longitude": -99.9476939701656}, "892631045RR0001": {"name": "THE WESTERN SPIRITUALIST CHURCH OF UNIVERSAL BROTHERHOOD SOCIETY", "designationCode": "C", "categoryCode": "39", "address": "486 EAST COLUMBIA STREET", "city": "NEW WESTMINSTER", "province": "BC", "country": "CA", "postalCode": "V3L3X5", "twitter": "None", "instagram": "None", "facebook": "None", "youtube": "None", "website": "None", "summary": "None", "logo": "None", "latitude": 49.231236215156926, "longitude": -122.89269832057181}, "119293256RR0001": {"name": "THE WESTERNER EXPOSITION ASSOCIATION", "designationCode": "C", "categoryCode": "56", "address": "201 - 33 MCKENZIE CRES", "city": "RED DEER COUNTY", "province": "AB", "country": "CA", "postalCode": "T4S2H4", "twitter": "None", "instagram": "None", "facebook": "None", "youtube": "None", "website": "None", "summary": "None", "logo": "None", "latitude": 52.195710172889626, "longitude": -113.82035494146707}, "119294288RR0001": {"name": "THE WESTLOCK CONGREGATION OF JEHOVAH'S WITNESSES", "designationCode": "C", "categoryCode": "61", "address": "11111 103 ST", "city": "WESTLOCK", "province": "AB", "country": "CA", "postalCode": "T7P1G6", "twitter": "None", "instagram": "None", "facebook": "None", "youtube": "None", "website": "None", "summary": "None", "logo": "None", "latitude": 54.15456748338544, "longitude": -113.83098708363684}, "119294908RR0001": {"name": "THE WESTMORLAND HISTORICAL SOCIETY, INC.", "designationCode": "C", "categoryCode": "52", "address": "3497 CAPE ROAD                UNIT 5", "city": "DORCHESTER", "province": "NB", "country": "CA", "postalCode": "E4K2X2", "twitter": "None", "instagram": "None", "facebook": "None", "youtube": "None", "website": "None", "summary": "None", "logo": "None", "latitude": 45.897539467550985, "longitude": -64.51805141028306}, "871192308RR0001": {"name": "THE WESTON SILVER BAND ASSOCIATION", "designationCode": "C", "categoryCode": "22", "address": "P.O. BOX 79621                1995 WESTON ROAD", "city": "WESTON", "province": "ON", "country": "CA", "postalCode": "M9N3W9", "twitter": "None", "instagram": "None", "facebook": "None", "youtube": "None", "website": "None", "summary": "None", "logo": "None", "latitude": 43.701102008627004, "longitude": -79.5195066017082}, "119037992RR0001": {"name": "THE WESTSIDE COMMUNITY CHURCH, MENNONITE BRETHREN", "designationCode": "C", "categoryCode": "34", "address": "831 THORNHILL AVE", "city": "MORDEN", "province": "MB", "country": "CA", "postalCode": "R6M1J8", "twitter": "None", "instagram": "None", "facebook": "None", "youtube": "None", "website": "None", "summary": "None", "logo": "None", "latitude": 49.19235040599462, "longitude": -98.11769406162476}, "892920190RR0001": {"name": "THE WEXFORD RESIDENCE INC.", "designationCode": "C", "categoryCode": "11", "address": "1860 LAWRENCE AVE E", "city": "SCARBOROUGH", "province": "ON", "country": "CA", "postalCode": "M1R5B1", "twitter": "None", "instagram": "None", "facebook": "None", "youtube": "None", "website": "None", "summary": "None", "logo": "None", "latitude": 43.743646191268695, "longitude": -79.3028569334063}, "119296549RR0001": {"name": "THE WEYBURN CHURCH OF CHRIST", "designationCode": "C", "categoryCode": "39", "address": "1115-1ST AVENUE NE", "city": "WEYBURN", "province": "SK", "country": "CA", "postalCode": "S4H0N2", "twitter": "None", "instagram": "None", "facebook": "None", "youtube": "None", "website": "None", "summary": "None", "logo": "None", "latitude": 49.66844225598303, "longitude": -103.84896425598305}, "119296739RR0001": {"name": "THE WEYMOUTH NEW HORIZONS CLUB", "designationCode": "C", "categoryCode": "09", "address": "PO BOX 174", "city": "WEYMOUTH", "province": "NS", "country": "CA", "postalCode": "B0W3T0", "twitter": "None", "instagram": "None", "facebook": "None", "youtube": "None", "website": "None", "summary": "None", "logo": "None", "latitude": 44.405940000000044, "longitude": -66.00887999999998}, "869685099RR0001": {"name": "THE WFF CHARITABLE TRUST", "designationCode": "A", "categoryCode": "99", "address": "116-2111 LAKE SHORE BLVD WEST", "city": "TORONTO", "province": "ON", "country": "CA", "postalCode": "M8V4B2", "twitter": "None", "instagram": "None", "facebook": "None", "youtube": "None", "website": "None", "summary": "None", "logo": "None", "latitude": 43.6086218892631, "longitude": -79.49033377478737}, "129976262RR0001": {"name": "THE WHEATLAND REGIONAL LIBRARY", "designationCode": "C", "categoryCode": "50", "address": "806 DUCHESS STREET", "city": "SASKATOON", "province": "SK", "country": "CA", "postalCode": "S7K0R3", "twitter": "None", "instagram": "None", "facebook": "None", "youtube": "None", "website": "None", "summary": "None", "logo": "None", "latitude": 52.14253648600598, "longitude": -106.65045963918864}, "890947948RR0001": {"name": "THE WHEATLEY AREA HERITAGE SOCIETY", "designationCode": "C", "categoryCode": "50", "address": "2921 2ND CONC.L. R.R.1", "city": "WHEATLEY", "province": "ON", "country": "CA", "postalCode": "N0P2P0", "twitter": "None", "instagram": "None", "facebook": "None", "youtube": "None", "website": "None", "summary": "None", "logo": "None", "latitude": 42.13563875763103, "longitude": -82.39196300968}, "123240707RR0001": {"name": "THE WHEATLEY SCHOOL OF MONTESSORI EDUCATION INC", "designationCode": "C", "categoryCode": "20", "address": "497 SCOTT STREET", "city": "ST CATHARINES", "province": "ON", "country": "CA", "postalCode": "L2M3X3", "twitter": "None", "instagram": "None", "facebook": "None", "youtube": "None", "website": "None", "summary": "None", "logo": "None", "latitude": 43.19340266786827, "longitude": -79.21659959414814}, "897180410RR0001": {"name": "THE WHITBY SUNRISE CLAUDIO \"NICK\" SORICHETTI CHARITABLE FOUNDATION", "designationCode": "A", "categoryCode": "63", "address": "407 ONTARIO STREET EAST", "city": "WHITBY", "province": "ON", "country": "CA", "postalCode": "L1N4P2", "twitter": "None", "instagram": "None", "facebook": "None", "youtube": "None", "website": "None", "summary": "None", "logo": "None", "latitude": 43.87645548588217, "longitude": -78.93685417569701}, "862288917RR0001": {"name": "THE WHITE EAGLE LODGE", "designationCode": "C", "categoryCode": "49", "address": "130 POWELL DRIVE", "city": "BINBROOK", "province": "ON", "country": "CA", "postalCode": "L0R1C0", "twitter": "None", "instagram": "None", "facebook": "None", "youtube": "None", "website": "None", "summary": "None", "logo": "None", "latitude": 43.11821818373823, "longitude": -79.81531378533086}, "119297232RR0001": {"name": "THE WHITE HAWK ARTS COUNCIL", "designationCode": "C", "categoryCode": "22", "address": "P. O. BOX 408", "city": "PREECEVILLE", "province": "SK", "country": "CA", "postalCode": "S0A3B0", "twitter": "None", "instagram": "None", "facebook": "None", "youtube": "None", "website": "None", "summary": "None", "logo": "None", "latitude": 51.95420000000007, "longitude": -102.64748999999995}, "882997778RR0001": {"name": "THE WHITE ROCK AND SOUTH SURREY ART SOCIETY", "designationCode": "C", "categoryCode": "22", "address": "13396 14 AVE", "city": "SURREY", "province": "BC", "country": "CA", "postalCode": "V4A9B6", "twitter": "None", "instagram": "None", "facebook": "None", "youtube": "None", "website": "None", "summary": "None", "logo": "None", "latitude": 49.027954568959615, "longitude": -122.85100757063304}, "888919461RR0001": {"name": "THE WHITE ROCK COMMUNITY ORCHESTRAL SOCIETY", "designationCode": "C", "categoryCode": "22", "address": "13718 GLEN PL", "city": "SURREY", "province": "BC", "country": "CA", "postalCode": "V3V6L5", "twitter": "None", "instagram": "None", "facebook": "None", "youtube": "None", "website": "None", "summary": "None", "logo": "None", "latitude": 49.16451984595195, "longitude": -122.84230867392779}, "894361393RR0001": {"name": "THE WHITEARN FOUNDATION/LA FONDATION WHITEARN", "designationCode": "B", "categoryCode": "03", "address": "95 DESCENTE 20", "city": "OGDEN", "province": "QC", "country": "CA", "postalCode": "J0B3E3", "twitter": "None", "instagram": "None", "facebook": "None", "youtube": "None", "website": "None", "summary": "None", "logo": "None", "latitude": 45.02454303465318, "longitude": -72.21944559781306}, "894317627RR0001": {"name": "THE WHITEHEAD FOUNDATION FOR WESTERN MANITOBA INC.", "designationCode": "C", "categoryCode": "22", "address": "32 COBALT CRES", "city": "BRANDON", "province": "MB", "country": "CA", "postalCode": "R7A7W5", "twitter": "None", "instagram": "None", "facebook": "None", "youtube": "None", "website": "None", "summary": "None", "logo": "None", "latitude": 55.74721602638957, "longitude": -97.85656230867741}, "862092632RR0001": {"name": "THE WHITESIDE FOUNDATION", "designationCode": "B", "categoryCode": "05", "address": "108 POPLAR PLAINS ROAD", "city": "TORONTO", "province": "ON", "country": "CA", "postalCode": "M4V2N2", "twitter": "None", "instagram": "None", "facebook": "None", "youtube": "None", "website": "None", "summary": "None", "logo": "None", "latitude": 43.681531285042404, "longitude": -79.40215962228042}, "891812240RR0001": {"name": "THE WHITNEY PIER HISTORICAL SOCIETY", "designationCode": "C", "categoryCode": "50", "address": "88 MT PLEASANT ST", "city": "SYDNEY", "province": "NS", "country": "CA", "postalCode": "B1N2G1", "twitter": "None", "instagram": "None", "facebook": "None", "youtube": "None", "website": "None", "summary": "None", "logo": "None", "latitude": 46.15446027583562, "longitude": -60.18387865122494}, "119262368RR0001": {"name": "THE WHO DID IT CLUB", "designationCode": "C", "categoryCode": "09", "address": "BOX 111", "city": "SIMCOE", "province": "ON", "country": "CA", "postalCode": "N3Y4T2", "twitter": "None", "instagram": "None", "facebook": "None", "youtube": "None", "website": "None", "summary": "None", "logo": "None", "latitude": 42.83590200000006, "longitude": -80.30531149999993}, "852190933RR0001": {"name": "THE WHOLE DYSLEXIC SOCIETY", "designationCode": "C", "categoryCode": "20", "address": "352 11TH ST E", "city": "NORTH VANCOUVER", "province": "BC", "country": "CA", "postalCode": "V7L2G9", "twitter": "None", "instagram": "None", "facebook": "None", "youtube": "None", "website": "None", "summary": "None", "logo": "None", "latitude": 49.317859507646055, "longitude": -123.06385333236193}, "892940164RR0001": {"name": "THE WHONNOCK FOUNDATION", "designationCode": "C", "categoryCode": "03", "address": "26914 112 AVENUE", "city": "WHONNOCK", "province": "BC", "country": "CA", "postalCode": "V2W1P8", "twitter": "None", "instagram": "None", "facebook": "None", "youtube": "None", "website": "None", "summary": "None", "logo": "None", "latitude": 49.20551304396818, "longitude": -122.47637242002597}, "119297810RR0001": {"name": "THE WHYCOCOMAGH DISTRICT HISTORICAL SOCIETY", "designationCode": "C", "categoryCode": "50", "address": "RR4", "city": "WHYCOCOMAGH", "province": "NS", "country": "CA", "postalCode": "B0E3M0", "twitter": "None", "instagram": "None", "facebook": "None", "youtube": "None", "website": "None", "summary": "None", "logo": "None", "latitude": 45.986578959739866, "longitude": -61.09164516623389}, "889040879RR0001": {"name": "THE WHYY MEE FAMILY COUNSELLING FOUNDATION OF TORONTO", "designationCode": "C", "categoryCode": "09", "address": "70 ST CLEMENTS AVE", "city": "TORONTO", "province": "ON", "country": "CA", "postalCode": "M4R1H2", "twitter": "None", "instagram": "None", "facebook": "None", "youtube": "None", "website": "None", "summary": "None", "logo": "None", "latitude": 43.712313147411635, "longitude": -79.40178671469779}, "141060897RR0001": {"name": "THE WIGGINS HOME", "designationCode": "C", "categoryCode": "01", "address": "2956 ROTHESAY RD", "city": "ROTHESAY", "province": "NB", "country": "CA", "postalCode": "E2E5V4", "twitter": "None", "instagram": "None", "facebook": "None", "youtube": "None", "website": "None", "summary": "None", "logo": "None", "latitude": 45.37932311432619, "longitude": -65.99789193405078}, "886061795RR0001": {"name": "THE WILBERFORCE HERITAGE GUILD 1991", "designationCode": "C", "categoryCode": "52", "address": "P.O. BOX 250", "city": "WILBERFORCE", "province": "ON", "country": "CA", "postalCode": "K0L3C0", "twitter": "None", "instagram": "None", "facebook": "None", "youtube": "None", "website": "None", "summary": "None", "logo": "None", "latitude": 44.99796121193059, "longitude": -78.21053236882112}, "125184655RR0001": {"name": "THE WILD PLACES FUND", "designationCode": "C", "categoryCode": "52", "address": "885 SAND PINES DRIVE", "city": "COMOX", "province": "BC", "country": "CA", "postalCode": "V9M3V3", "twitter": "None", "instagram": "None", "facebook": "None", "youtube": "None", "website": "None", "summary": "None", "logo": "None", "latitude": 49.69018070434428, "longitude": -124.88894101014559}, "119298107RR0001": {"name": "THE WILDERNESS RANCH OF CLARESHOLM", "designationCode": "C", "categoryCode": "56", "address": "BOX 1804", "city": "CLARESHOLM", "province": "AB", "country": "CA", "postalCode": "T0L0T0", "twitter": "None", "instagram": "None", "facebook": "None", "youtube": "None", "website": "None", "summary": "None", "logo": "None", "latitude": 50.026080000000036, "longitude": -113.58213999999998}, "892496761RR0001": {"name": "THE WILDERNESS RETREAT SOCIETY", "designationCode": "C", "categoryCode": "56", "address": "648  P O BOX 8000", "city": "ABBOTSFORD", "province": "BC", "country": "CA", "postalCode": "V2S6H1", "twitter": "None", "instagram": "None", "facebook": "None", "youtube": "None", "website": "None", "summary": "None", "logo": "None", "latitude": 49.03851300000005, "longitude": -122.29441549999993}, "888869666RR0001": {"name": "THE WILLIAM AND ARLENE DANIELS FOUNDATION", "designationCode": "B", "categoryCode": "05", "address": "2345 YONGE STREET             SUITE 700", "city": "TORONTO", "province": "ON", "country": "CA", "postalCode": "M4P2E5", "twitter": "None", "instagram": "None", "facebook": "None", "youtube": "None", "website": "None", "summary": "None", "logo": "None", "latitude": 43.70885846961736, "longitude": -79.39875583894106}, "887673663RR0001": {"name": "THE WILLIAM AND IDA PENCER FOUNDATION/LA FONDATION WILLIAM ET IDA PENCER", "designationCode": "B", "categoryCode": "03", "address": "600 DE MAISONNEUVE STE 2600", "city": "MONTREAL", "province": "QC", "country": "CA", "postalCode": "H3A3J2", "twitter": "None", "instagram": "None", "facebook": "None", "youtube": "None", "website": "None", "summary": "None", "logo": "None", "latitude": 45.50425726005544, "longitude": -73.57131520869652}, "891426140RR0001": {"name": "THE WILLIAM AND NANCY TURNER FOUNDATION/LA FONDATION WILLIAM ET NANCY TURNER", "designationCode": "B", "categoryCode": "23", "address": "392 AV GROSVENOR", "city": "WESTMOUNT", "province": "QC", "country": "CA", "postalCode": "H3Z2M2", "twitter": "None", "instagram": "None", "facebook": "None", "youtube": "None", "website": "None", "summary": "None", "logo": "None", "latitude": 45.47937786620705, "longitude": -73.6022955266604}, "894430792RR0001": {"name": "THE WILLIAM AND NONA HEASLIP FOUNDATION", "designationCode": "B", "categoryCode": "23", "address": "408-73 RICHMOND STREET WEST", "city": "TORONTO", "province": "ON", "country": "CA", "postalCode": "M5H4E8", "twitter": "None", "instagram": "None", "facebook": "None", "youtube": "None", "website": "None", "summary": "None", "logo": "None", "latitude": 43.65091189312726, "longitude": -79.38231395392121}, "892375288RR0001": {"name": "THE WILLIAM CURRIE SCHLARSHIP FUND", "designationCode": "B", "categoryCode": "21", "address": "40 COLLEGE HILL ROAD", "city": "ROTHESAY", "province": "NB", "country": "CA", "postalCode": "E2E5H1", "twitter": "None", "instagram": "None", "facebook": "None", "youtube": "None", "website": "None", "summary": "None", "logo": "None", "latitude": 45.378988098213824, "longitude": -65.99140330169246}, "849060751RR0001": {"name": "THE WILLIAM G COLE FOUNDATION", "designationCode": "B", "categoryCode": "03", "address": "99 BURNSIDE DRIVE", "city": "TORONTO", "province": "ON", "country": "CA", "postalCode": "M6G2M9", "twitter": "None", "instagram": "None", "facebook": "None", "youtube": "None", "website": "None", "summary": "None", "logo": "None", "latitude": 43.67913010687276, "longitude": -79.41731020650347}, "865757082RR0001": {"name": "THE WILLIAM H. MCGANNON FOUNDATION FOR ADVANCED RISK MANAGEMENT INC./FONDDATION WILLIAM H. MCGANNON POUR LA FORMATION AVANCEE EN GESTION DE RISQUES INC.", "designationCode": "C", "categoryCode": "21", "address": "4500, 855-2ND STREET SW", "city": "CALGARY", "province": "AB", "country": "CA", "postalCode": "T2P4K7", "twitter": "None", "instagram": "None", "facebook": "None", "youtube": "None", "website": "None", "summary": "None", "logo": "None", "latitude": 51.04920186667524, "longitude": -114.0676309458328}, "855839486RR0001": {"name": "THE WILLIAM J. SPENCE ICD MEMORIAL FOUNDATION", "designationCode": "A", "categoryCode": "23", "address": "32 COUNTRY VILLA BOULEVARD", "city": "EAST ST. PAUL", "province": "MB", "country": "CA", "postalCode": "R2E0L8", "twitter": "None", "instagram": "None", "facebook": "None", "youtube": "None", "website": "None", "summary": "None", "logo": "None", "latitude": 49.98007451096427, "longitude": -96.99950311186441}, "119298511RR0001": {"name": "THE WILLIAM MORRIS SOCIETY OF CANADA", "designationCode": "C", "categoryCode": "21", "address": "87 GOVERNMENT ROAD", "city": "TORONTO", "province": "ON", "country": "CA", "postalCode": "M8X1W4", "twitter": "None", "instagram": "None", "facebook": "None", "youtube": "None", "website": "None", "summary": "None", "logo": "None", "latitude": 43.658945802094856, "longitude": -79.51030753774025}, "892142449RR0001": {"name": "THE WILLIAM RAMSAY CHARITIES", "designationCode": "B", "categoryCode": "15", "address": "PO BOX 10085                  LCD PACIFIC CENTRE", "city": "VANCOUVER", "province": "BC", "country": "CA", "postalCode": "V7Y1B6", "twitter": "None", "instagram": "None", "facebook": "None", "youtube": "None", "website": "None", "summary": "None", "logo": "None", "latitude": 49.28299000000004, "longitude": -123.11890999999997}, "119298743RR0001": {"name": "THE WILLIE AND MILDRED FLEISCHER CHARITABLE FOUNDATION", "designationCode": "B", "categoryCode": "03", "address": "2100-40 KING STREET WEST", "city": "TORONTO", "province": "ON", "country": "CA", "postalCode": "M5H3C2", "twitter": "None", "instagram": "None", "facebook": "None", "youtube": "None", "website": "None", "summary": "None", "logo": "None", "latitude": 43.64887614798855, "longitude": -79.37924907940429}, "837916147RR0001": {"name": "THE WILLOW CENTRE CHILD & FAMILY FOUNDATION", "designationCode": "C", "categoryCode": "59", "address": "45 SHEPPARD AVENUE EAST       SUITE 202", "city": "NORTH YORK", "province": "ON", "country": "CA", "postalCode": "M2N5W9", "twitter": "None", "instagram": "None", "facebook": "None", "youtube": "None", "website": "None", "summary": "None", "logo": "None", "latitude": 43.76205793308921, "longitude": -79.40841662585845}, "119298925RR0001": {"name": "THE WILLOW CREEK AGRICULTURAL SOCIETY", "designationCode": "C", "categoryCode": "56", "address": "BOX 1401", "city": "CLARESHOLM", "province": "AB", "country": "CA", "postalCode": "T0L0T0", "twitter": "None", "instagram": "None", "facebook": "None", "youtube": "None", "website": "None", "summary": "None", "logo": "None", "latitude": 50.026080000000036, "longitude": -113.58213999999998}, "869031385RR0001": {"name": "THE WILLOW FOUNDATION", "designationCode": "A", "categoryCode": "03", "address": "203 GEORGIAN DRIVE", "city": "OAKVILLE", "province": "ON", "country": "CA", "postalCode": "L6H7H9", "twitter": "None", "instagram": "None", "facebook": "None", "youtube": "None", "website": "None", "summary": "None", "logo": "None", "latitude": 43.479941656414, "longitude": -79.7163272796467}, "877826529RR0001": {"name": "THE WILSON FOUNDATION/LA FONDATION WILSON", "designationCode": "B", "categoryCode": "03", "address": "1540 CORNWALL ROAD            SUITE 207", "city": "OAKVILLE", "province": "ON", "country": "CA", "postalCode": "L6J7W5", "twitter": "None", "instagram": "None", "facebook": "None", "youtube": "None", "website": "None", "summary": "None", "logo": "None", "latitude": 43.47878142325009, "longitude": -79.65891842518333}, "890342843RR0001": {"name": "THE WILSTEAD AKITA CLUB BURSARY FUND", "designationCode": "C", "categoryCode": "21", "address": "175 WILLIAM ST S", "city": "GANANOQUE", "province": "ON", "country": "CA", "postalCode": "K7G1S8", "twitter": "None", "instagram": "None", "facebook": "None", "youtube": "None", "website": "None", "summary": "None", "logo": "None", "latitude": 44.3305253785571, "longitude": -76.15678756176989}, "108214743RR0001": {"name": "THE WINDERMERE VALLEY CHILD CARE SOCIETY", "designationCode": "C", "categoryCode": "20", "address": "PO BOX 2257", "city": "INVERMERE", "province": "BC", "country": "CA", "postalCode": "V0A1K0", "twitter": "None", "instagram": "None", "facebook": "None", "youtube": "None", "website": "None", "summary": "None", "logo": "None", "latitude": 50.50916700000006, "longitude": -116.03037049999993}, "869534636RR0001": {"name": "THE WINDSOR AND AREA EDUCATION FUND ASSOCIATION", "designationCode": "C", "categoryCode": "21", "address": "24 AYLWARD RD   RR2", "city": "FALMOUTH", "province": "NS", "country": "CA", "postalCode": "B0P1L0", "twitter": "None", "instagram": "None", "facebook": "None", "youtube": "None", "website": "None", "summary": "None", "logo": "None", "latitude": 44.99406254648282, "longitude": -64.17668891975899}, "119299782RR0001": {"name": "THE WINDSOR COMMUNITY CONCERT BAND INC", "designationCode": "C", "categoryCode": "22", "address": "12892 DILLON DR", "city": "WINDSOR", "province": "ON", "country": "CA", "postalCode": "N8N3M6", "twitter": "None", "instagram": "None", "facebook": "None", "youtube": "None", "website": "None", "summary": "None", "logo": "None", "latitude": 42.32871111936624, "longitude": -82.87757123201004}, "138984059RR0001": {"name": "THE WINDSOR FOUNDATION", "designationCode": "B", "categoryCode": "03", "address": "SCOTIATRUST                   P.O. BOX 457, HALIFAX, CENTRAL", "city": "HALIFAX", "province": "NS", "country": "CA", "postalCode": "B3J2P8", "twitter": "None", "instagram": "None", "facebook": "None", "youtube": "None", "website": "None", "summary": "None", "logo": "None", "latitude": 44.643410000000074, "longitude": -63.57542999999998}, "118823061RR0001": {"name": "THE WINDSOR PARK CONGREGATION OF JEHOVAH'S WITNESSES", "designationCode": "C", "categoryCode": "61", "address": "440 52 AVE. S.W.", "city": "CALGARY", "province": "AB", "country": "CA", "postalCode": "T2V0A9", "twitter": "None", "instagram": "None", "facebook": "None", "youtube": "None", "website": "None", "summary": "None", "logo": "None", "latitude": 51.00696246047074, "longitude": -114.07376169317328}, "879631810RR0001": {"name": "THE WINDSOR RESIDENCE FOR YOUNG MEN", "designationCode": "C", "categoryCode": "09", "address": "500 WINDSOR AVENUE            MAIN FLOOR", "city": "WINDSOR", "province": "ON", "country": "CA", "postalCode": "N9A6Y5", "twitter": "None", "instagram": "None", "facebook": "None", "youtube": "None", "website": "None", "summary": "None", "logo": "None", "latitude": 42.3161221526631, "longitude": -83.03445404714664}, "119300218RR0001": {"name": "THE WINDSOR SYMPHONY SOCIETY", "designationCode": "C", "categoryCode": "22", "address": "121 UNIVERSITY AVE W", "city": "WINDSOR", "province": "ON", "country": "CA", "postalCode": "N9A5P4", "twitter": "None", "instagram": "None", "facebook": "None", "youtube": "None", "website": "None", "summary": "None", "logo": "None", "latitude": 42.31719162304767, "longitude": -83.04030866249724}, "130560493RR0001": {"name": "THE WINDSOR WOMEN WORKING WITH IMMIGRANT WOMEN", "designationCode": "C", "categoryCode": "09", "address": "1368 OUELLETTE AVE", "city": "WINDSOR", "province": "ON", "country": "CA", "postalCode": "N8X1J9", "twitter": "None", "instagram": "None", "facebook": "None", "youtube": "None", "website": "None", "summary": "None", "logo": "None", "latitude": 42.302817037273314, "longitude": -83.02948456430755}, "895030856RR0001": {"name": "THE WINDSOR WOOD CARVING MUSEUM", "designationCode": "C", "categoryCode": "50", "address": "968 GOLFWOOD AVE", "city": "WINDSOR", "province": "ON", "country": "CA", "postalCode": "N9J3E3", "twitter": "None", "instagram": "None", "facebook": "None", "youtube": "None", "website": "None", "summary": "None", "logo": "None"}, "140739574RR0001": {"name": "THE WINDSOR-ESSEX CHILDREN'S AID FOUNDATION", "designationCode": "A", "categoryCode": "05", "address": "1671 RIVERSIDE DRIVE EAST", "city": "WINDSOR", "province": "ON", "country": "CA", "postalCode": "N8Y5B5", "twitter": "None", "instagram": "None", "facebook": "None", "youtube": "None", "website": "None", "summary": "None", "logo": "None", "latitude": 42.32523962161754, "longitude": -83.0166773696695}, "889447579RR0001": {"name": "THE WINDTHORST AND DISTRICT DONOR'S CHOICE APPEAL", "designationCode": "A", "categoryCode": "05", "address": "BOX 92", "city": "WINDTHORST", "province": "SK", "country": "CA", "postalCode": "S0G5G0", "twitter": "None", "instagram": "None", "facebook": "None", "youtube": "None", "website": "None", "summary": "None", "logo": "None", "latitude": 51.066910000000064, "longitude": -104.94988999999998}, "891196065RR0001": {"name": "THE WINDWARD FOUNDATION", "designationCode": "B", "categoryCode": "03", "address": "STE 2400, 525-8TH AVENUE S.W.", "city": "CALGARY", "province": "AB", "country": "CA", "postalCode": "T2P1G1", "twitter": "None", "instagram": "None", "facebook": "None", "youtube": "None", "website": "None", "summary": "None", "logo": "None", "latitude": 51.04579148124545, "longitude": -114.07258130659557}, "130863947RR0001": {"name": "THE WINFIELD & DISTRICT AGRICULTURAL SOCIETY", "designationCode": "C", "categoryCode": "56", "address": "BOX 131", "city": "WINFIELD", "province": "AB", "country": "CA", "postalCode": "T0C2X0", "twitter": "None", "instagram": "None", "facebook": "None", "youtube": "None", "website": "None", "summary": "None", "logo": "None", "latitude": 52.96351000000004, "longitude": -114.41479999999996}, "899032635RR0001": {"name": "THE WINKLER COMMUNITY FOUNDATION INC.", "designationCode": "A", "categoryCode": "53", "address": "185 MAIN STREET", "city": "WINKLER", "province": "MB", "country": "CA", "postalCode": "R6W4B1", "twitter": "None", "instagram": "None", "facebook": "None", "youtube": "None", "website": "None", "summary": "None", "logo": "None", "latitude": 49.179780586733216, "longitude": -97.93908149772098}, "893892869RR0001": {"name": "THE WINNERS FOUNDATION OF CANADA INC.", "designationCode": "C", "categoryCode": "57", "address": "54 OPTIMIST WAY", "city": "WINNIPEG", "province": "MB", "country": "CA", "postalCode": "R2Y2J4", "twitter": "None", "instagram": "None", "facebook": "None", "youtube": "None", "website": "None", "summary": "None", "logo": "None", "latitude": 49.88384254010617, "longitude": -97.32335250851143}, "894315126RR0001": {"name": "THE WINNIFRED MOLSON CONSERVATION FOUNDATION", "designationCode": "B", "categoryCode": "03", "address": "1350 SHERBROOKE ST, WEST      SUITE 1201", "city": "MONTREAL", "province": "QC", "country": "CA", "postalCode": "H3G1J1", "twitter": "None", "instagram": "None", "facebook": "None", "youtube": "None", "website": "None", "summary": "None", "logo": "None", "latitude": 45.49907079848817, "longitude": -73.57924886147518}}