{"118880657RR0001": {"name": "CRYSTAL VIEW MENNONITE CHURCH", "designationCode": "C", "categoryCode": "34", "address": "6865 WELLINGTON RD", "city": "ELORA", "province": "ON", "country": "CA", "postalCode": "N0B1S0", "twitter": "None", "instagram": "None", "facebook": "None", "youtube": "None", "website": "None", "summary": "None", "logo": "None", "latitude": 43.68945660321016, "longitude": -80.42640819973249}, "844633180RR0001": {"name": "CS INTERVIEWS SOCIETY", "designationCode": "C", "categoryCode": "21", "address": "3825 MIDGARD PLACE", "city": "VICTORIA", "province": "BC", "country": "CA", "postalCode": "V8P2Z1", "twitter": "None", "instagram": "None", "facebook": "None", "youtube": "None", "website": "None", "summary": "None", "logo": "None", "latitude": 48.46284056783444, "longitude": -123.3219633738531}, "805886603RR0001": {"name": "CSARN", "designationCode": "C", "categoryCode": "09", "address": "1000 YONGE STREET             SUITE 300-B", "city": "TORONTO", "province": "ON", "country": "CA", "postalCode": "M4W2K2", "twitter": "None", "instagram": "None", "facebook": "None", "youtube": "None", "website": "None", "summary": "None", "logo": "None", "latitude": 43.675733776848105, "longitude": -79.38905557496089}, "826094740RR0001": {"name": "CSEG FOUNDATION", "designationCode": "A", "categoryCode": "23", "address": "570 400 5TH AVE SW", "city": "CALGARY", "province": "AB", "country": "CA", "postalCode": "T2P0L6", "twitter": "None", "instagram": "None", "facebook": "None", "youtube": "None", "website": "None", "summary": "None", "logo": "None", "latitude": 51.049102357620384, "longitude": -114.08736691042554}, "888876471RR0001": {"name": "CSHP RESEARCH AND EDUCATION FOUNDATION", "designationCode": "C", "categoryCode": "19", "address": "30 CONCOURSE GATE, UNIT #3", "city": "OTTAWA", "province": "ON", "country": "CA", "postalCode": "K2E7V7", "twitter": "None", "instagram": "None", "facebook": "None", "youtube": "None", "website": "None", "summary": "None", "logo": "None", "latitude": 45.34471949518123, "longitude": -75.70899350738625}, "845386507RR0001": {"name": "CSI Christ Church Toronto", "designationCode": "C", "categoryCode": "39", "address": "85 BRICKYARD WAY", "city": "BRAMPTON", "province": "ON", "country": "CA", "postalCode": "L6V4L7", "twitter": "None", "instagram": "None", "facebook": "None", "youtube": "None", "website": "None", "summary": "None", "logo": "None", "latitude": 43.70285065194194, "longitude": -79.77972128853351}, "871834826RR0001": {"name": "CSJ RESEARCH AND EDUCATION", "designationCode": "C", "categoryCode": "23", "address": "720 BATHURST STREET", "city": "TORONTO", "province": "ON", "country": "CA", "postalCode": "M5S2R4", "twitter": "None", "instagram": "None", "facebook": "None", "youtube": "None", "website": "None", "summary": "None", "logo": "None", "latitude": 43.66323143574358, "longitude": -79.41047606191914}, "890218043RR0001": {"name": "CSPG FOUNDATION", "designationCode": "C", "categoryCode": "21", "address": "110,333-5 AVE SW", "city": "CALGARY", "province": "AB", "country": "CA", "postalCode": "T2P3B6", "twitter": "None", "instagram": "None", "facebook": "None", "youtube": "None", "website": "None", "summary": "None", "logo": "None", "latitude": 51.04853048845882, "longitude": -114.069834}, "870665361RR0001": {"name": "CTFS EMPLOYEES' CHARITY TRUST", "designationCode": "A", "categoryCode": "75", "address": "3475 SUPERIOR COURT", "city": "OAKVILLE", "province": "ON", "country": "CA", "postalCode": "L6L0C6", "twitter": "None", "instagram": "None", "facebook": "None", "youtube": "None", "website": "None", "summary": "None", "logo": "None", "latitude": 43.3885823492119, "longitude": -79.74629797662823}, "781181326RR0001": {"name": "CTRS Cat Therapy and Rescue Society", "designationCode": "C", "categoryCode": "54", "address": "785 SOUTH DYKE RD", "city": "NEW WESTMINSTER", "province": "BC", "country": "CA", "postalCode": "V3M6L6", "twitter": "None", "instagram": "None", "facebook": "None", "youtube": "None", "website": "None", "summary": "None", "logo": "None", "latitude": 49.18347878117016, "longitude": -122.93963860187492}, "869508176RR0001": {"name": "CUBACARE RELIEF", "designationCode": "C", "categoryCode": "02", "address": "23 SOMERSET AVENUE", "city": "TORONTO", "province": "ON", "country": "CA", "postalCode": "M6G2R3", "twitter": "None", "instagram": "None", "facebook": "None", "youtube": "None", "website": "None", "summary": "None", "logo": "None", "latitude": 43.67226350597262, "longitude": -79.4311693870104}, "863851408RR0001": {"name": "CUBAN COMMUNITY RELIEF ORGANIZATION", "designationCode": "C", "categoryCode": "09", "address": "113 YOUNG STREET", "city": "KITCHENER", "province": "ON", "country": "CA", "postalCode": "N2H4Z2", "twitter": "None", "instagram": "None", "facebook": "None", "youtube": "None", "website": "None", "summary": "None", "logo": "None", "latitude": 43.45386650040402, "longitude": -80.49008628432124}, "134102482RR0001": {"name": "CUC HOUSING SOCIETY", "designationCode": "C", "categoryCode": "09", "address": "430 DUNLEVY AVE", "city": "VANCOUVER", "province": "BC", "country": "CA", "postalCode": "V6A3A7", "twitter": "None", "instagram": "None", "facebook": "None", "youtube": "None", "website": "None", "summary": "None", "logo": "None", "latitude": 49.2805341618097, "longitude": -123.09539190726551}, "106995343RR0001": {"name": "CUDDLES INFANT CENTRE INC.", "designationCode": "C", "categoryCode": "01", "address": "141 ARLINGTON STREET", "city": "WINNIPEG", "province": "MB", "country": "CA", "postalCode": "R3G1Y3", "twitter": "None", "instagram": "None", "facebook": "None", "youtube": "None", "website": "None", "summary": "None", "logo": "None", "latitude": 49.88145404079867, "longitude": -97.16966006477601}, "106995376RR0001": {"name": "CUDWORTH COLUMBUS SOCIETY INCORPORATED", "designationCode": "C", "categoryCode": "09", "address": "PO BOX 548", "city": "CUDWORTH", "province": "SK", "country": "CA", "postalCode": "S0K1B0", "twitter": "None", "instagram": "None", "facebook": "None", "youtube": "None", "website": "None", "summary": "None", "logo": "None", "latitude": 52.500060000000076, "longitude": -105.73441999999994}, "118880764RR0001": {"name": "CUDWORTH SENIOR CITIZEN'S RECREATIONAL ASSOCIATION INC.", "designationCode": "C", "categoryCode": "56", "address": "MAIN STREET", "city": "CUDWORTH", "province": "SK", "country": "CA", "postalCode": "S0K1B0", "twitter": "None", "instagram": "None", "facebook": "None", "youtube": "None", "website": "None", "summary": "None", "logo": "None", "latitude": 52.489513328216134, "longitude": -105.73684747221289}, "139317051RR0001": {"name": "CUISINE COLLECTIVE A TOUTE VAPEUR", "designationCode": "C", "categoryCode": "09", "address": "850 BOUL ST-JEAN-BAPTISTE #601", "city": "MONTREAL (P.A.T.)", "province": "QC", "country": "CA", "postalCode": "H1B3Z8", "twitter": "None", "instagram": "None", "facebook": "None", "youtube": "None", "website": "None", "summary": "None", "logo": "None", "latitude": 45.640746673841804, "longitude": -73.49518559951515}, "859985335RR0001": {"name": "CUISINE COLLECTIVE BEAUPORT", "designationCode": "C", "categoryCode": "09", "address": "5 RUE DU TEMPLE", "city": "QU\u00c9BEC", "province": "QC", "country": "CA", "postalCode": "G1E4Z8", "twitter": "None", "instagram": "None", "facebook": "None", "youtube": "None", "website": "None", "summary": "None", "logo": "None", "latitude": 46.85945422064176, "longitude": -71.18942280838458}, "890188196RR0001": {"name": "CUISINE COLLECTIVE DES ECUREUILS DE BAIE-COMEAU", "designationCode": "C", "categoryCode": "09", "address": "1724 PAPINEAU", "city": "BAIE-COMEAU", "province": "QC", "country": "CA", "postalCode": "G5C2J8", "twitter": "None", "instagram": "None", "facebook": "None", "youtube": "None", "website": "None", "summary": "None", "logo": "None", "latitude": 49.18849933279462, "longitude": -68.27552813030185}, "134942531RR0001": {"name": "CUISINE COLLECTIVE HOCHELAGA-MAISONNEUVE", "designationCode": "C", "categoryCode": "09", "address": "3568 RUE ADAM", "city": "MONTREAL", "province": "QC", "country": "CA", "postalCode": "H1W1Y9", "twitter": "None", "instagram": "None", "facebook": "None", "youtube": "None", "website": "None", "summary": "None", "logo": "None", "latitude": 45.54365698612153, "longitude": -73.5409443569162}, "139708853RR0001": {"name": "CUISINE COLLECTIVE LE BLE D'OR DE SHERBROOKE", "designationCode": "C", "categoryCode": "09", "address": "1765 RUE BELV\u00c9D\u00c8RE SUD", "city": "SHERBROOKE", "province": "QC", "country": "CA", "postalCode": "J1H4E4", "twitter": "None", "instagram": "None", "facebook": "None", "youtube": "None", "website": "None", "summary": "None", "logo": "None", "latitude": 45.378991288649075, "longitude": -71.89385245146836}, "141236398RR0001": {"name": "CUISINE-ATOUT ENTREPRISE D'INSERTION INC", "designationCode": "C", "categoryCode": "20", "address": "1945 RUE MULLINS BUREAU 140", "city": "MONTREAL", "province": "QC", "country": "CA", "postalCode": "H3K1N9", "twitter": "None", "instagram": "None", "facebook": "None", "youtube": "None", "website": "None", "summary": "None", "logo": "None", "latitude": 45.48090306523738, "longitude": -73.56151176897089}, "141182717RR0001": {"name": "CUISINES COLLECTIVES \"BOUCHEE-DOUBLE\" MEMPHREMAGOG", "designationCode": "C", "categoryCode": "09", "address": "95 RUE MERRY N", "city": "MAGOG", "province": "QC", "country": "CA", "postalCode": "J1X2E7", "twitter": "None", "instagram": "None", "facebook": "None", "youtube": "None", "website": "None", "summary": "None", "logo": "None", "latitude": 45.26782226172889, "longitude": -72.15544128440722}, "886752898RR0001": {"name": "CUISINES COLLECTIVES DE CABANO", "designationCode": "C", "categoryCode": "99", "address": "774 RUE VILLENEUVE", "city": "T\u00c9MISCOUATA SUR LE LAC", "province": "QC", "country": "CA", "postalCode": "G0L1E0", "twitter": "None", "instagram": "None", "facebook": "None", "youtube": "None", "website": "None", "summary": "None", "logo": "None", "latitude": 47.68153403274858, "longitude": -68.87713547833125}, "140966615RR0001": {"name": "CUISINES COLLECTIVES DE DEGELIS", "designationCode": "C", "categoryCode": "09", "address": "C.P. 655 SUCC BUREAU-CHEF", "city": "DEGELIS", "province": "QC", "country": "CA", "postalCode": "G5T2C9", "twitter": "None", "instagram": "None", "facebook": "None", "youtube": "None", "website": "None", "summary": "None", "logo": "None", "latitude": 47.546988000000056, "longitude": -68.64253999999994}, "892318460RR0001": {"name": "CUISINES COLLECTIVES DU GRAND PLATEAU", "designationCode": "C", "categoryCode": "09", "address": "4095 ST. ANDRE", "city": "MONTREAL", "province": "QC", "country": "CA", "postalCode": "H2L3W4", "twitter": "None", "instagram": "None", "facebook": "None", "youtube": "None", "website": "None", "summary": "None", "logo": "None", "latitude": 45.52389010436259, "longitude": -73.5748775836748}, "886806140RR0001": {"name": "CUISINES COLLECTIVES DU HAUT-PAYS", "designationCode": "C", "categoryCode": "09", "address": "74A, PRINCIPALE", "city": "LAC-DES-AIGLES", "province": "QC", "country": "CA", "postalCode": "G0K1V0", "twitter": "None", "instagram": "None", "facebook": "None", "youtube": "None", "website": "None", "summary": "None", "logo": "None", "latitude": 47.98859592363306, "longitude": -68.67635686877142}, "853417731RR0001": {"name": "CUISINES COLLECTIVES LA JOYEUSE MARMITE", "designationCode": "C", "categoryCode": "09", "address": "50 THOUIN #114", "city": "REPENTIGNY", "province": "QC", "country": "CA", "postalCode": "J6A4J4", "twitter": "None", "instagram": "None", "facebook": "None", "youtube": "None", "website": "None", "summary": "None", "logo": "None", "latitude": 45.73416390891028, "longitude": -73.45014598687135}, "133651992RR0001": {"name": "CULLODEN BAPTIST CHURCH", "designationCode": "C", "categoryCode": "31", "address": "319 ROBINSON WEIR RD.         R.R.#2", "city": "DIGBY", "province": "NS", "country": "CA", "postalCode": "B0V1A0", "twitter": "None", "instagram": "None", "facebook": "None", "youtube": "None", "website": "None", "summary": "None", "logo": "None", "latitude": 44.60035280824035, "longitude": -65.75557460309318}, "864504725RR0001": {"name": "CULLODEN MENNONITE BRETHREN CHURCH", "designationCode": "C", "categoryCode": "34", "address": "220 CHAMPLAIN SQUARE          3150 EAST 54 AVE.", "city": "VANCOUVER", "province": "BC", "country": "CA", "postalCode": "V5S1Z1", "twitter": "None", "instagram": "None", "facebook": "None", "youtube": "None", "website": "None", "summary": "None", "logo": "None", "latitude": 49.22007935781973, "longitude": -123.03948241541335}, "820694404RR0001": {"name": "CULTIVATE CANADA SOCIETY", "designationCode": "C", "categoryCode": "03", "address": "1800 - 510 GEORGIA ST W", "city": "VANCOUVER", "province": "BC", "country": "CA", "postalCode": "V6B0M3", "twitter": "None", "instagram": "None", "facebook": "None", "youtube": "None", "website": "None", "summary": "None", "logo": "None", "latitude": 49.281267759207665, "longitude": -123.11633309804196}, "821342748RR0001": {"name": "CULTURAL BRIDGES ASSOCIATION", "designationCode": "C", "categoryCode": "59", "address": "PO BOX 8733 STATION T", "city": "OTTAWA", "province": "ON", "country": "CA", "postalCode": "K1G3J1", "twitter": "None", "instagram": "None", "facebook": "None", "youtube": "None", "website": "None", "summary": "None", "logo": "None", "latitude": 45.4075526747762, "longitude": -75.65114751410245}, "107773681RR0001": {"name": "CULTURAL COMMUNICATIONS GROUP INCORPORATED", "designationCode": "C", "categoryCode": "59", "address": "382 AIRPORT RD", "city": "NIAGARA ON THE LAKE", "province": "ON", "country": "CA", "postalCode": "L0S1J0", "twitter": "None", "instagram": "None", "facebook": "None", "youtube": "None", "website": "None", "summary": "None", "logo": "None", "latitude": 43.16335049125743, "longitude": -79.16833011368207}, "888734365RR0001": {"name": "CULTURAL HORIZONS INCORPORATED", "designationCode": "C", "categoryCode": "22", "address": "174 DUFFERIN RD, UNIT 11", "city": "OTTAWA", "province": "ON", "country": "CA", "postalCode": "K1M2A6", "twitter": "None", "instagram": "None", "facebook": "None", "youtube": "None", "website": "None", "summary": "None", "logo": "None", "latitude": 45.442881994460095, "longitude": -75.68036524415683}, "140304346RR0001": {"name": "CULTURAL HUMAN RESOURCES COUNCIL/LE CONSEIL DES RESSOURCES HUMAINES DU SECTEUR CULTUREL", "designationCode": "C", "categoryCode": "81", "address": "201 - 251 BANK ST", "city": "OTTAWA", "province": "ON", "country": "CA", "postalCode": "K2P1X3", "twitter": "None", "instagram": "None", "facebook": "None", "youtube": "None", "website": "None", "summary": "None", "logo": "None", "latitude": 45.41620551263771, "longitude": -75.69703608976297}, "871120945RR0001": {"name": "CULTURE FOR KIDS IN THE ARTS", "designationCode": "C", "categoryCode": "22", "address": "126 JAMES STREET SOUTH", "city": "HAMILTON", "province": "ON", "country": "CA", "postalCode": "L8P2Z4", "twitter": "None", "instagram": "None", "facebook": "None", "youtube": "None", "website": "None", "summary": "None", "logo": "None", "latitude": 43.25296072468113, "longitude": -79.87073323775151}, "882621311RR0001": {"name": "CULTURE POUR TOUS", "designationCode": "C", "categoryCode": "22", "address": "4750, RUE HENRI-JULIEN        R-600", "city": "MONTREAL", "province": "QC", "country": "CA", "postalCode": "H2T2C8", "twitter": "None", "instagram": "None", "facebook": "None", "youtube": "None", "website": "None", "summary": "None", "logo": "None", "latitude": 45.523791767384374, "longitude": -73.58604529742031}, "892339979RR0001": {"name": "CULTURELINK SETTLEMENT AND COMMUNITY SERVICES", "designationCode": "C", "categoryCode": "09", "address": "2340 DUNDAS STREET WEST       SUITE 301", "city": "TORONTO", "province": "ON", "country": "CA", "postalCode": "M6P4A9", "twitter": "None", "instagram": "None", "facebook": "None", "youtube": "None", "website": "None", "summary": "None", "logo": "None", "latitude": 43.65669274132954, "longitude": -79.45250444183176}, "108133588RR0001": {"name": "CULTUS CEMETERY BOARD", "designationCode": "A", "categoryCode": "59", "address": "698 6TH CONC RD ENR", "city": "CLEAR CREEK", "province": "ON", "country": "CA", "postalCode": "N0E1C0", "twitter": "None", "instagram": "None", "facebook": "None", "youtube": "None", "website": "None", "summary": "None", "logo": "None", "latitude": 42.599151612241855, "longitude": -80.61452925002355}, "118880822RR0001": {"name": "CULTUS LAKE MEMORIAL CHURCH", "designationCode": "C", "categoryCode": "39", "address": "269 FIR ST", "city": "CULTUS LAKE", "province": "BC", "country": "CA", "postalCode": "V2R4Y5", "twitter": "None", "instagram": "None", "facebook": "None", "youtube": "None", "website": "None", "summary": "None", "logo": "None", "latitude": 49.07323754318893, "longitude": -121.97788914080452}, "118880830RR0001": {"name": "CULTUS UNITED CHURCH OF CANADA", "designationCode": "C", "categoryCode": "44", "address": "698 6TH CONC. RD ENR", "city": "CLEAR CREEK", "province": "ON", "country": "CA", "postalCode": "N0E1C0", "twitter": "None", "instagram": "None", "facebook": "None", "youtube": "None", "website": "None", "summary": "None", "logo": "None", "latitude": 42.599151612241855, "longitude": -80.61452925002355}, "873579056RR0001": {"name": "CUMBERLAND ADULT NETWORK FOR UPGRADING (CAN-U) ASSOCIATION", "designationCode": "C", "categoryCode": "21", "address": "21 ACADIA STREET              2ND FLOOR", "city": "AMHERST", "province": "NS", "country": "CA", "postalCode": "B4H4W3", "twitter": "None", "instagram": "None", "facebook": "None", "youtube": "None", "website": "None", "summary": "None", "logo": "None", "latitude": 45.834642063823736, "longitude": -64.20934938109511}, "106995681RR0001": {"name": "CUMBERLAND AND DISTRICT HISTORICAL SOCIETY", "designationCode": "C", "categoryCode": "50", "address": "BOX 258 2680 DUNSMUIR AVE", "city": "CUMBERLAND", "province": "BC", "country": "CA", "postalCode": "V0R1S0", "twitter": "None", "instagram": "None", "facebook": "None", "youtube": "None", "website": "None", "summary": "None", "logo": "None", "latitude": 49.6189647399454, "longitude": -125.03051162252557}, "119144095RR0001": {"name": "CUMBERLAND BAY BAPTIST CHURCH", "designationCode": "C", "categoryCode": "31", "address": "9142 ROUTE 10", "city": "CUMBERLAND BAY", "province": "NB", "country": "CA", "postalCode": "E4A3G2", "twitter": "None", "instagram": "None", "facebook": "None", "youtube": "None", "website": "None", "summary": "None", "logo": "None", "latitude": 46.029838208734496, "longitude": -65.8812719220908}, "118880863RR0001": {"name": "CUMBERLAND BAY COMMUNITY CEMETERY COMMITTEE", "designationCode": "C", "categoryCode": "59", "address": "8913 RT 10", "city": "CUMBERLAND BAY QUEENS COUNTY", "province": "NB", "country": "CA", "postalCode": "E4A3A5", "twitter": "None", "instagram": "None", "facebook": "None", "youtube": "None", "website": "None", "summary": "None", "logo": "None", "latitude": 46.18082000000004, "longitude": -65.88727999999998}, "888437639RR0001": {"name": "CUMBERLAND BAY FULL GOSPEL CHURCH", "designationCode": "C", "categoryCode": "39", "address": "94 FOSHAY BEACH RD", "city": "CUMBERLAND BAY", "province": "NB", "country": "CA", "postalCode": "E4A3L7", "twitter": "None", "instagram": "None", "facebook": "None", "youtube": "None", "website": "None", "summary": "None", "logo": "None", "latitude": 45.95515694038854, "longitude": -65.97750956203471}, "118880889RR0001": {"name": "CUMBERLAND CHRISTIAN ASSEMBLY", "designationCode": "C", "categoryCode": "39", "address": "240 CUMBERLAND AVENUE", "city": "HAMILTON", "province": "ON", "country": "CA", "postalCode": "L8M2A1", "twitter": "None", "instagram": "None", "facebook": "None", "youtube": "None", "website": "None", "summary": "None", "logo": "None", "latitude": 43.243404509596544, "longitude": -79.84136046911836}, "137929345RR0001": {"name": "CUMBERLAND COMMUNITY CHURCH", "designationCode": "C", "categoryCode": "49", "address": "BOX 438                       2732 PENRITH AVENUE", "city": "CUMBERLAND", "province": "BC", "country": "CA", "postalCode": "V0R1S0", "twitter": "None", "instagram": "None", "facebook": "None", "youtube": "None", "website": "None", "summary": "None", "logo": "None", "latitude": 49.620000335662205, "longitude": -125.02849870264471}, "866326994RR0001": {"name": "CUMBERLAND COMMUNITY SCHOOLS SOCIETY", "designationCode": "C", "categoryCode": "21", "address": "P.O. BOX 430", "city": "CUMBERLAND", "province": "BC", "country": "CA", "postalCode": "V0R1S0", "twitter": "None", "instagram": "None", "facebook": "None", "youtube": "None", "website": "None", "summary": "None", "logo": "None", "latitude": 49.628473953352, "longitude": -125.0204870723044}, "860256486RR0001": {"name": "CUMBERLAND COUNTY HOSPICE/PALLIATIVE CARE SOCIETY", "designationCode": "C", "categoryCode": "11", "address": "PO BOX 1035 STN MAIN", "city": "AMHERST", "province": "NS", "country": "CA", "postalCode": "B4H4E2", "twitter": "None", "instagram": "None", "facebook": "None", "youtube": "None", "website": "None", "summary": "None", "logo": "None", "latitude": 45.83198400000006, "longitude": -64.20979249999993}, "106995624RR0001": {"name": "CUMBERLAND COUNTY TRANSITION HOUSE ASSOCIATION", "designationCode": "C", "categoryCode": "01", "address": "PO BOX 1141                   41 RUSSELL STREET", "city": "AMHERST", "province": "NS", "country": "CA", "postalCode": "B4H4L2", "twitter": "None", "instagram": "None", "facebook": "None", "youtube": "None", "website": "None", "summary": "None", "logo": "None", "latitude": 45.831634993075106, "longitude": -64.21940537050621}, "893299966RR0001": {"name": "CUMBERLAND HEALTH CARE FOUNDATION", "designationCode": "A", "categoryCode": "13", "address": "19428 HWY # 2", "city": "AMHERST", "province": "NS", "country": "CA", "postalCode": "B4H1N6", "twitter": "None", "instagram": "None", "facebook": "None", "youtube": "None", "website": "None", "summary": "None", "logo": "None", "latitude": 45.802264236731276, "longitude": -64.19888684694033}, "131634032RR0001": {"name": "CUMBERLAND HOUSING CORPORATION", "designationCode": "C", "categoryCode": "09", "address": "1626 MARINOFF WAY", "city": "ORLEANS", "province": "ON", "country": "CA", "postalCode": "K4A3R6", "twitter": "None", "instagram": "None", "facebook": "None", "youtube": "None", "website": "None", "summary": "None", "logo": "None", "latitude": 45.47918775437128, "longitude": -75.48308455744709}, "108071119RR0001": {"name": "CUMBERLAND MUSEUM SOCIETY", "designationCode": "C", "categoryCode": "50", "address": "150 CHURCH STREET", "city": "AMHERST", "province": "NS", "country": "CA", "postalCode": "B4H3C4", "twitter": "None", "instagram": "None", "facebook": "None", "youtube": "None", "website": "None", "summary": "None", "logo": "None", "latitude": 45.8285493530784, "longitude": -64.20182911056634}, "888589397RR0001": {"name": "CUMBERLAND NORTH PROGRESSIVE CONSERVATIVE SCHOLARSHIP SOCIETY", "designationCode": "C", "categoryCode": "21", "address": "121 CHURCH STREET", "city": "AMHERST", "province": "NS", "country": "CA", "postalCode": "B4H3B7", "twitter": "None", "instagram": "None", "facebook": "None", "youtube": "None", "website": "None", "summary": "None", "logo": "None", "latitude": 45.82972061474994, "longitude": -64.2046422140053}, "894224633RR0001": {"name": "CUMBERLAND PASTORAL CHARGE", "designationCode": "C", "categoryCode": "44", "address": "BOX 55", "city": "RIVER HEBERT", "province": "NS", "country": "CA", "postalCode": "B0L1G0", "twitter": "None", "instagram": "None", "facebook": "None", "youtube": "None", "website": "None", "summary": "None", "logo": "None", "latitude": 45.690330000000074, "longitude": -64.37867999999997}, "106995830RR0001": {"name": "CUMBERLAND REGIONAL COLLEGE", "designationCode": "C", "categoryCode": "20", "address": "BOX 2225", "city": "NIPAWIN", "province": "SK", "country": "CA", "postalCode": "S0E1E0", "twitter": "None", "instagram": "None", "facebook": "None", "youtube": "None", "website": "None", "summary": "None", "logo": "None", "latitude": 53.396118, "longitude": -104.00834700000001}, "118880962RR0001": {"name": "CUMBERLAND REGIONAL LIBRARY BOARD", "designationCode": "C", "categoryCode": "50", "address": "PO BOX 220", "city": "AMHERST", "province": "NS", "country": "CA", "postalCode": "B4H3Z2", "twitter": "None", "instagram": "None", "facebook": "None", "youtube": "None", "website": "None", "summary": "None", "logo": "None", "latitude": 45.83198400000006, "longitude": -64.20979249999993}, "107273070RR0001": {"name": "CUMBERLAND SENIOR CARE CORPORATION", "designationCode": "C", "categoryCode": "59", "address": "PO BOX 250", "city": "PUGWASH", "province": "NS", "country": "CA", "postalCode": "B0K1L0", "twitter": "None", "instagram": "None", "facebook": "None", "youtube": "None", "website": "None", "summary": "None", "logo": "None", "latitude": 45.80128373751312, "longitude": -63.63643739508734}, "118880848RR0001": {"name": "CUMBERLAND TOWNSHIP AGRICULTURAL SOCIETY", "designationCode": "C", "categoryCode": "56", "address": "1279 COLONIAL ROAD", "city": "NAVAN", "province": "ON", "country": "CA", "postalCode": "K4B1N1", "twitter": "None", "instagram": "None", "facebook": "None", "youtube": "None", "website": "None", "summary": "None", "logo": "None", "latitude": 45.421729608778286, "longitude": -75.421526566161}, "870171568RR0001": {"name": "CUMBERLAND TRAILS ASSOCIATION", "designationCode": "C", "categoryCode": "56", "address": "1395 HASTINGS ROAD", "city": "AMHERST", "province": "NS", "country": "CA", "postalCode": "B4H3Y3", "twitter": "None", "instagram": "None", "facebook": "None", "youtube": "None", "website": "None", "summary": "None", "logo": "None", "latitude": 45.844650872843474, "longitude": -64.12883385530009}, "118880988RR0001": {"name": "CUMBERLAND UNITED CHURCH", "designationCode": "C", "categoryCode": "44", "address": "BOX 109", "city": "CUMBERLAND", "province": "BC", "country": "CA", "postalCode": "V0R1S0", "twitter": "None", "instagram": "None", "facebook": "None", "youtube": "None", "website": "None", "summary": "None", "logo": "None", "latitude": 49.628473953352, "longitude": -125.0204870723044}, "860061274RR0001": {"name": "CUMMINGS JEWISH CENTRE FOR SENIORS FOUNDATION/FONDATION CENTRE JUIF CUMMINGS POUR AINES", "designationCode": "A", "categoryCode": "03", "address": "5700 WESTBURY AVENUE", "city": "MONTREAL", "province": "QC", "country": "CA", "postalCode": "H3W3E8", "twitter": "None", "instagram": "None", "facebook": "None", "youtube": "None", "website": "None", "summary": "None", "logo": "None", "latitude": 45.48948865860703, "longitude": -73.63639172843203}, "869524645RR0001": {"name": "CUPAR AND DISTRICT HERITAGE MUSEUM", "designationCode": "C", "categoryCode": "50", "address": "BOX 164", "city": "CUPAR", "province": "SK", "country": "CA", "postalCode": "S0G0Y0", "twitter": "None", "instagram": "None", "facebook": "None", "youtube": "None", "website": "None", "summary": "None", "logo": "None", "latitude": 50.95008000000007, "longitude": -104.21777999999995}, "106996036RR0001": {"name": "CUPAR AND DISTRICT NURSING HOME INC.", "designationCode": "C", "categoryCode": "01", "address": "BOX 310", "city": "CUPAR", "province": "SK", "country": "CA", "postalCode": "S0G0Y0", "twitter": "None", "instagram": "None", "facebook": "None", "youtube": "None", "website": "None", "summary": "None", "logo": "None", "latitude": 50.95008000000007, "longitude": -104.21777999999995}, "118881036RR0001": {"name": "CUPAR LIONS VOLUNTEER AMBULANCE INC.", "designationCode": "C", "categoryCode": "09", "address": "BOX 513", "city": "CUPAR", "province": "SK", "country": "CA", "postalCode": "S0G0Y0", "twitter": "None", "instagram": "None", "facebook": "None", "youtube": "None", "website": "None", "summary": "None", "logo": "None", "latitude": 50.95008000000007, "longitude": -104.21777999999995}, "119229227RR0001": {"name": "CUPAR MEMORIAL RINK ASSOCIATION INC.", "designationCode": "C", "categoryCode": "56", "address": "P.O. BOX 37", "city": "CUPAR", "province": "SK", "country": "CA", "postalCode": "S0G0Y0", "twitter": "None", "instagram": "None", "facebook": "None", "youtube": "None", "website": "None", "summary": "None", "logo": "None", "latitude": 50.95008000000007, "longitude": -104.21777999999995}, "118881051RR0001": {"name": "CUPAR UNITED CHURCH", "designationCode": "C", "categoryCode": "44", "address": "BOX 460", "city": "CUPAR", "province": "SK", "country": "CA", "postalCode": "S0G0Y0", "twitter": "None", "instagram": "None", "facebook": "None", "youtube": "None", "website": "None", "summary": "None", "logo": "None", "latitude": 50.95008000000007, "longitude": -104.21777999999995}, "895525780RR0001": {"name": "CUPIDS HISTORICAL SOCIETY INC.", "designationCode": "C", "categoryCode": "50", "address": "P O BOX 200", "city": "CUPIDS", "province": "NL", "country": "CA", "postalCode": "A0A2B0", "twitter": "None", "instagram": "None", "facebook": "None", "youtube": "None", "website": "None", "summary": "None", "logo": "None", "latitude": 47.54737000000006, "longitude": -53.22929999999997}, "874869423RR0001": {"name": "CURLING PASTORAL CHARGE", "designationCode": "C", "categoryCode": "44", "address": "34 ALLEN'S RD", "city": "CORNER BROOK", "province": "NL", "country": "CA", "postalCode": "A2H3T9", "twitter": "None", "instagram": "None", "facebook": "None", "youtube": "None", "website": "None", "summary": "None", "logo": "None", "latitude": 48.95763045406545, "longitude": -58.00975553874985}, "118881077RR0001": {"name": "CURRENT RIVER UNITED CHURCH", "designationCode": "C", "categoryCode": "44", "address": "333 MORSE STREET", "city": "THUNDER BAY", "province": "ON", "country": "CA", "postalCode": "P7A1G2", "twitter": "None", "instagram": "None", "facebook": "None", "youtube": "None", "website": "None", "summary": "None", "logo": "None", "latitude": 48.462528532315886, "longitude": -89.18420416763806}, "118881085RR0001": {"name": "CURRIES UNITED CHURCH", "designationCode": "C", "categoryCode": "44", "address": "465080 CURRIES RD. RR 4", "city": "WOODSTOCK", "province": "ON", "country": "CA", "postalCode": "N4S7V8", "twitter": "None", "instagram": "None", "facebook": "None", "youtube": "None", "website": "None", "summary": "None", "logo": "None", "latitude": 43.10599200000006, "longitude": -80.74762549999993}, "849344478RR0001": {"name": "CURRYVILLE CEMETERY", "designationCode": "C", "categoryCode": "59", "address": "2911 MAIN ST", "city": "HILLSBOROUGH", "province": "NB", "country": "CA", "postalCode": "E4H2X9", "twitter": "None", "instagram": "None", "facebook": "None", "youtube": "None", "website": "None", "summary": "None", "logo": "None", "latitude": 45.917906521236056, "longitude": -64.64258674242606}, "887340594RR0001": {"name": "CURSILLO MOVEMENT FOR THE ARCHIDIOCESE OF TORONTO", "designationCode": "C", "categoryCode": "49", "address": "P.O.BOX 58021  ROSSLYN RPO    500 ROSSLAND RD WEST", "city": "OSHAWA", "province": "ON", "country": "CA", "postalCode": "L1J8L6", "twitter": "None", "instagram": "None", "facebook": "None", "youtube": "None", "website": "None", "summary": "None", "logo": "None", "latitude": 43.91084618016021, "longitude": -78.89033963379295}, "118787142RR0060": {"name": "CURSILLO MOVEMENT OF THE DIOCESE OF BRITISH COLUMBIA", "designationCode": "C", "categoryCode": "49", "address": "900 VANCOUVER STREET", "city": "VICTORIA", "province": "BC", "country": "CA", "postalCode": "V8V3V9", "twitter": "None", "instagram": "None", "facebook": "None", "youtube": "None", "website": "None", "summary": "None", "logo": "None", "latitude": 48.42170864599994, "longitude": -123.35749388759996}, "118881135RR0001": {"name": "CURSILLO MOVEMENT OF THE DIOCESE OF NEW WESTMINSTER", "designationCode": "C", "categoryCode": "49", "address": "1410 NANTON AVENUE", "city": "VANCOUVER", "province": "BC", "country": "CA", "postalCode": "V6H2E2", "twitter": "None", "instagram": "None", "facebook": "None", "youtube": "None", "website": "None", "summary": "None", "logo": "None", "latitude": 49.247329075864954, "longitude": -123.13708322274447}, "893044842RR0001": {"name": "CURTAIN CALL PLAYERS", "designationCode": "C", "categoryCode": "22", "address": "9 TANGLE BRIARWAY", "city": "TORONTO", "province": "ON", "country": "CA", "postalCode": "M2J2M5", "twitter": "None", "instagram": "None", "facebook": "None", "youtube": "None", "website": "None", "summary": "None", "logo": "None", "latitude": 43.78365443104039, "longitude": -79.3672359775232}, "803691740RR0001": {"name": "CURTAINS UP! PRODUCTIONS", "designationCode": "A", "categoryCode": "03", "address": "32 THORNDALE AVENUE", "city": "ST-CATHERINES", "province": "ON", "country": "CA", "postalCode": "L2R6A7", "twitter": "None", "instagram": "None", "facebook": "None", "youtube": "None", "website": "None", "summary": "None", "logo": "None", "latitude": 43.17625954010617, "longitude": -79.2528859773503}, "119030666RR0044": {"name": "CURTIS-HORNE CHRISTIAN SCHOOL", "designationCode": "C", "categoryCode": "41", "address": "1004 VICTORIA AVE", "city": "SASKATOON", "province": "SK", "country": "CA", "postalCode": "S7N0Z8", "twitter": "None", "instagram": "None", "facebook": "None", "youtube": "None", "website": "None", "summary": "None", "logo": "None", "latitude": 52.115409, "longitude": -106.66240826773014}, "892376765RR0001": {"name": "CURVE LAKE CHRISTIAN ASSEMBLY", "designationCode": "C", "categoryCode": "36", "address": "GENERAL DELIVERY", "city": "CURVE LAKE", "province": "ON", "country": "CA", "postalCode": "K0L1R0", "twitter": "None", "instagram": "None", "facebook": "None", "youtube": "None", "website": "None", "summary": "None", "logo": "None", "latitude": 44.512402323909285, "longitude": -78.34887970436283}, "865678361RR0001": {"name": "CUSCO DEVELOPMENT SOCIETY", "designationCode": "C", "categoryCode": "99", "address": "205 - 8790 MARINE DR SW", "city": "VANCOUVER", "province": "BC", "country": "CA", "postalCode": "V6P6A4", "twitter": "None", "instagram": "None", "facebook": "None", "youtube": "None", "website": "None", "summary": "None", "logo": "None", "latitude": 49.205549093831, "longitude": -123.14186889090554}, "118881176RR0001": {"name": "CUSHMAN MEMORIAL HALL", "designationCode": "C", "categoryCode": "39", "address": "23 PARKFIELD CRES.", "city": "NEPEAN", "province": "ON", "country": "CA", "postalCode": "K2G0R9", "twitter": "None", "instagram": "None", "facebook": "None", "youtube": "None", "website": "None", "summary": "None", "logo": "None", "latitude": 45.33728778048342, "longitude": -75.77630834690423}, "894113380RR0001": {"name": "CUSTOM LEATHER CANADA LTD. EMPLOYEES CHARITY TRUST", "designationCode": "B", "categoryCode": "75", "address": "460 BINGEMANS CENTRE DRIVE", "city": "KITCHENER", "province": "ON", "country": "CA", "postalCode": "N2B3X9", "twitter": "None", "instagram": "None", "facebook": "None", "youtube": "None", "website": "None", "summary": "None", "logo": "None", "latitude": 43.47170933328556, "longitude": -80.44890066608019}, "118881200RR0001": {"name": "CUSTOM SERVICE TRANSIT SOCIETY", "designationCode": "C", "categoryCode": "09", "address": "3981 OAK STREET", "city": "VANCOUVER", "province": "BC", "country": "CA", "postalCode": "V6H4H5", "twitter": "None", "instagram": "None", "facebook": "None", "youtube": "None", "website": "None", "summary": "None", "logo": "None", "latitude": 49.25013370191587, "longitude": -123.12757204555918}, "118881218RR0001": {"name": "CUT FOUNDATION", "designationCode": "B", "categoryCode": "25", "address": "SUITE 1100, COGSWELL TOWER    2000 BARRINGTON STREET", "city": "HALIFAX", "province": "NS", "country": "CA", "postalCode": "B3J3K1", "twitter": "None", "instagram": "None", "facebook": "None", "youtube": "None", "website": "None", "summary": "None", "logo": "None", "latitude": 44.650150961805274, "longitude": -63.57561955750014}, "118881226RR0001": {"name": "CUT KNIFE AND DISTRICT DONOR'S CHOICE", "designationCode": "C", "categoryCode": "05", "address": "BOX 87", "city": "CUT KNIFE", "province": "SK", "country": "CA", "postalCode": "S0M0N0", "twitter": "None", "instagram": "None", "facebook": "None", "youtube": "None", "website": "None", "summary": "None", "logo": "None", "latitude": 52.740921789497094, "longitude": -109.02330639630397}, "806446746RR0001": {"name": "CUT KNIFE FAMILY WORSHIP CENTER INC.", "designationCode": "C", "categoryCode": "39", "address": "PO BOX 457", "city": "CUT KNIFE", "province": "SK", "country": "CA", "postalCode": "S0M0N0", "twitter": "None", "instagram": "None", "facebook": "None", "youtube": "None", "website": "None", "summary": "None", "logo": "None", "latitude": 52.740921789497094, "longitude": -109.02330639630397}, "885535765RR0001": {"name": "CUT KNIFE HIGH SCHOOL SCHOLARSHIP FUND", "designationCode": "C", "categoryCode": "21", "address": "BOX 430", "city": "CUT KNIFE", "province": "SK", "country": "CA", "postalCode": "S0M0N0", "twitter": "None", "instagram": "None", "facebook": "None", "youtube": "None", "website": "None", "summary": "None", "logo": "None", "latitude": 52.740921789497094, "longitude": -109.02330639630397}, "106996986RR0001": {"name": "CUT KNIFE PASTORAL CHARGE", "designationCode": "C", "categoryCode": "44", "address": "BOX 359", "city": "CUT KNIFE", "province": "SK", "country": "CA", "postalCode": "S0M0N0", "twitter": "None", "instagram": "None", "facebook": "None", "youtube": "None", "website": "None", "summary": "None", "logo": "None", "latitude": 52.740921789497094, "longitude": -109.02330639630397}, "118881259RR0001": {"name": "CUT KNIFE PENSIONERS AND SENIOR CITIZENS ORGANIZATION OF SASKATCHEWAN, BRANCH NO. 70", "designationCode": "C", "categoryCode": "56", "address": "BOX 493", "city": "CUT KNIFE", "province": "SK", "country": "CA", "postalCode": "S0M0N0", "twitter": "None", "instagram": "None", "facebook": "None", "youtube": "None", "website": "None", "summary": "None", "logo": "None", "latitude": 52.740921789497094, "longitude": -109.02330639630397}, "858472830RR0001": {"name": "CUTTING EDGE INTERNATIONAL CHURCH", "designationCode": "C", "categoryCode": "39", "address": "291 MCCURDY DRIVE", "city": "AMHERSTBURG", "province": "ON", "country": "CA", "postalCode": "N9V3B7", "twitter": "None", "instagram": "None", "facebook": "None", "youtube": "None", "website": "None", "summary": "None", "logo": "None", "latitude": 42.09450784205679, "longitude": -83.10161842951118}, "824642722RR0001": {"name": "CVACHOVEC FOUNDATION", "designationCode": "B", "categoryCode": "23", "address": "66 RONCESVALLES AVENUE        SUITE 412", "city": "TORONTO", "province": "ON", "country": "CA", "postalCode": "M6R3A7", "twitter": "None", "instagram": "None", "facebook": "None", "youtube": "None", "website": "None", "summary": "None", "logo": "None", "latitude": 43.640340224248426, "longitude": -79.44674690928473}, "854760501RR0001": {"name": "CVAI", "designationCode": "C", "categoryCode": "22", "address": "200 VINCENT-D'INDY AVE.", "city": "OUTREMONT", "province": "QC", "country": "CA", "postalCode": "H2V2T2", "twitter": "None", "instagram": "None", "facebook": "None", "youtube": "None", "website": "None", "summary": "None", "logo": "None", "latitude": 45.50965214817153, "longitude": -73.61073990890684}, "830557831RR0001": {"name": "CW Asia Fund Foundation", "designationCode": "C", "categoryCode": "01", "address": "P.O. BOX 11516                2160-650 WEST GEORGIA STREET", "city": "VANCOUVER", "province": "BC", "country": "CA", "postalCode": "V6B4N7", "twitter": "None", "instagram": "None", "facebook": "None", "youtube": "None", "website": "None", "summary": "None", "logo": "None", "latitude": 49.282095217179936, "longitude": -123.11767129779695}, "836340539RR0001": {"name": "CWA Foundation", "designationCode": "A", "categoryCode": "23", "address": "8260 PARKHILL DRIVE", "city": "MILTON", "province": "ON", "country": "CA", "postalCode": "L9T5V7", "twitter": "None", "instagram": "None", "facebook": "None", "youtube": "None", "website": "None", "summary": "None", "logo": "None", "latitude": 43.5328327266376, "longitude": -79.90291095798074}, "866569528RR0001": {"name": "CWENENGITEL ABORIGINAL SOCIETY", "designationCode": "C", "categoryCode": "57", "address": "13632-110A AVENUE", "city": "SURREY", "province": "BC", "country": "CA", "postalCode": "V3R2B1", "twitter": "None", "instagram": "None", "facebook": "None", "youtube": "None", "website": "None", "summary": "None", "logo": "None", "latitude": 49.2035714851406, "longitude": -122.84435177699231}, "803661685RR0001": {"name": "CWH Foundation", "designationCode": "C", "categoryCode": "09", "address": "PO BOX 51", "city": "ARMSTRONG", "province": "BC", "country": "CA", "postalCode": "V0E1B0", "twitter": "None", "instagram": "None", "facebook": "None", "youtube": "None", "website": "None", "summary": "None", "logo": "None", "latitude": 50.44798500000006, "longitude": -119.19492799999993}, "865618615RR0001": {"name": "CYBERCAP", "designationCode": "C", "categoryCode": "20", "address": "33, RUE PRINCE                BUREAU 301", "city": "MONTREAL", "province": "QC", "country": "CA", "postalCode": "H3C2M7", "twitter": "None", "instagram": "None", "facebook": "None", "youtube": "None", "website": "None", "summary": "None", "logo": "None", "latitude": 45.49632149070918, "longitude": -73.5536799276935}, "863329546RR0001": {"name": "CYCLE KINGSTON", "designationCode": "C", "categoryCode": "29", "address": "P O BOX 1002                  STN. MAIN", "city": "KINGSTON", "province": "ON", "country": "CA", "postalCode": "K7L4X8", "twitter": "None", "instagram": "None", "facebook": "None", "youtube": "None", "website": "None", "summary": "None", "logo": "None", "latitude": 44.23153200000006, "longitude": -76.47933049999993}, "819042870RR0001": {"name": "CYGNUS FOUNDATION", "designationCode": "B", "categoryCode": "03", "address": "1250 - 1500 WEST GEORGIA ST   BOX 62", "city": "VANCOUVER", "province": "BC", "country": "CA", "postalCode": "V6G2Z6", "twitter": "None", "instagram": "None", "facebook": "None", "youtube": "None", "website": "None", "summary": "None", "logo": "None", "latitude": 49.290187500000016, "longitude": -123.130035}}