{"860992601RR0001": {"name": "MAYFIELD TRINITY WORSHIP CENTRE, INC.", "designationCode": "C", "categoryCode": "39", "address": "18 LAVENDER JEWEL ST", "city": "BRAMPTON", "province": "ON", "country": "CA", "postalCode": "L6R3W9", "twitter": "None", "instagram": "None", "facebook": "None", "youtube": "None", "website": "None", "summary": "None", "logo": "None", "latitude": 43.74557396369577, "longitude": -79.78274584219616}, "107680092RR0001": {"name": "MAYFIELD UNITED CHURCH (MAYFIELD PASTORAL CHARGE)", "designationCode": "C", "categoryCode": "44", "address": "12496 DIXIE RD.", "city": "CALEDON", "province": "ON", "country": "CA", "postalCode": "L7C2L7", "twitter": "None", "instagram": "None", "facebook": "None", "youtube": "None", "website": "None", "summary": "None", "logo": "None", "latitude": 43.77219575740105, "longitude": -79.80565201113716}, "857654404RR0001": {"name": "MAYFLOWER SHARPS' OF SUSSEX NEW START FOUNDATION INC.", "designationCode": "B", "categoryCode": "03", "address": "PO BOX 310 STN A", "city": "FREDERICTON", "province": "NB", "country": "CA", "postalCode": "E3B4Y9", "twitter": "None", "instagram": "None", "facebook": "None", "youtube": "None", "website": "None", "summary": "None", "logo": "None", "latitude": 45.96062100000006, "longitude": -66.63911299999994}, "863464285RR0001": {"name": "MAYHOLME FOUNDATION", "designationCode": "C", "categoryCode": "50", "address": "525 ONTARIO ST", "city": "ST. CATHERINES", "province": "ON", "country": "CA", "postalCode": "L2N6P5", "twitter": "None", "instagram": "None", "facebook": "None", "youtube": "None", "website": "None", "summary": "None", "logo": "None", "latitude": 43.18755860395858, "longitude": -79.26378399062226}, "139830624RR0001": {"name": "MAYLAND HEIGHTS CONGREGATION OF JEHOVAH'S WITNESSES, CALGARY, ALBERTA", "designationCode": "C", "categoryCode": "61", "address": "2900-14 AVE NE", "city": "CALGARY", "province": "AB", "country": "CA", "postalCode": "T2A6J4", "twitter": "None", "instagram": "None", "facebook": "None", "youtube": "None", "website": "None", "summary": "None", "logo": "None", "latitude": 51.06510652596792, "longitude": -113.99202008381903}, "119035095RR0001": {"name": "MAYMONT UNITED CHURCH", "designationCode": "C", "categoryCode": "44", "address": "P.O. BOX 68", "city": "MAYMONT", "province": "SK", "country": "CA", "postalCode": "S0M1T0", "twitter": "None", "instagram": "None", "facebook": "None", "youtube": "None", "website": "None", "summary": "None", "logo": "None", "latitude": 52.56311000000005, "longitude": -107.70735999999994}, "856160031RR0001": {"name": "MAYNARD CEMETERY INC", "designationCode": "C", "categoryCode": "59", "address": "P O BOX 494", "city": "PRESCOTT", "province": "ON", "country": "CA", "postalCode": "K0E1T0", "twitter": "None", "instagram": "None", "facebook": "None", "youtube": "None", "website": "None", "summary": "None", "logo": "None", "latitude": 44.72333933695445, "longitude": -75.52230856910072}, "119035103RR0001": {"name": "MAYNARD UNITED PENTECOSTAL CHURCH", "designationCode": "C", "categoryCode": "36", "address": "3520 CHARLEVILLE RD           RR 2", "city": "PRESCOTT", "province": "ON", "country": "CA", "postalCode": "K0E1T0", "twitter": "None", "instagram": "None", "facebook": "None", "youtube": "None", "website": "None", "summary": "None", "logo": "None"}, "882541709RR0001": {"name": "MAYNE ISLAND ASSISTED LIVING SOCIETY", "designationCode": "C", "categoryCode": "09", "address": "105-526 FELIX JACK ROAD", "city": "MAYNE ISLAND", "province": "BC", "country": "CA", "postalCode": "V0N2J2", "twitter": "None", "instagram": "None", "facebook": "None", "youtube": "None", "website": "None", "summary": "None", "logo": "None", "latitude": 48.8470022950015, "longitude": -123.28767181635435}, "889181970RR0001": {"name": "MAYNE ISLAND COMMUNITY CENTRE SOCIETY", "designationCode": "C", "categoryCode": "56", "address": "493 FELIX JACK RD", "city": "MAYNE ISLAND", "province": "BC", "country": "CA", "postalCode": "V0N2J2", "twitter": "None", "instagram": "None", "facebook": "None", "youtube": "None", "website": "None", "summary": "None", "logo": "None", "latitude": 48.84695413826613, "longitude": -123.28957202737173}, "877897165RR0001": {"name": "MAYNE ISLAND CONCERTS SOCIETY", "designationCode": "C", "categoryCode": "22", "address": "SITE 1 COMP 79", "city": "MAYNE ISLAND", "province": "BC", "country": "CA", "postalCode": "V0N2J0", "twitter": "None", "instagram": "None", "facebook": "None", "youtube": "None", "website": "None", "summary": "None", "logo": "None", "latitude": 48.84135000000006, "longitude": -123.32883049999992}, "871317202RR0001": {"name": "MAYNE ISLAND CONSERVANCY SOCIETY", "designationCode": "C", "categoryCode": "53", "address": "P O BOX 31", "city": "MAYNE ISLAND", "province": "BC", "country": "CA", "postalCode": "V0N2J0", "twitter": "None", "instagram": "None", "facebook": "None", "youtube": "None", "website": "None", "summary": "None", "logo": "None", "latitude": 48.84453000000008, "longitude": -123.32408999999996}, "119035111RR0001": {"name": "MAYNE ISLAND HEALTH CENTRE ASSOCIATION", "designationCode": "C", "categoryCode": "11", "address": "100-526 FELIX JACK RD", "city": "MAYNE ISLAND", "province": "BC", "country": "CA", "postalCode": "V0N2J2", "twitter": "None", "instagram": "None", "facebook": "None", "youtube": "None", "website": "None", "summary": "None", "logo": "None", "latitude": 48.8470022950015, "longitude": -123.28767181635435}, "132116559RR0001": {"name": "MAYNE ISLAND RECYCLING SOCIETY", "designationCode": "C", "categoryCode": "99", "address": "390 CAMPBELL BAY RD", "city": "MAYNE ISLAND", "province": "BC", "country": "CA", "postalCode": "V0N2J1", "twitter": "None", "instagram": "None", "facebook": "None", "youtube": "None", "website": "None", "summary": "None", "logo": "None", "latitude": 48.85698849110471, "longitude": -123.27908939871347}, "866773690RR0001": {"name": "MAYNE ISLAND VOLUNTEER FIREFIGHTER'S ASSOCIATION", "designationCode": "C", "categoryCode": "59", "address": "520B FELIX JACK", "city": "MAYNE ISLAND", "province": "BC", "country": "CA", "postalCode": "V0N2J2", "twitter": "None", "instagram": "None", "facebook": "None", "youtube": "None", "website": "None", "summary": "None", "logo": "None", "latitude": 48.847007503977, "longitude": -123.28801560873721}, "140965690RR0001": {"name": "MAYNE READING CENTER SOCIETY", "designationCode": "C", "categoryCode": "50", "address": "411 NAYLOR RD", "city": "MAYNE ISLAND", "province": "BC", "country": "CA", "postalCode": "V0N2J2", "twitter": "None", "instagram": "None", "facebook": "None", "youtube": "None", "website": "None", "summary": "None", "logo": "None", "latitude": 48.85040376432087, "longitude": -123.30010877663004}, "894512359RR0001": {"name": "MAYNOOTH-MADAWASKA PASTORAL CHARGE", "designationCode": "C", "categoryCode": "44", "address": "932 MAJOR LAKE ROAD           BOX 34", "city": "MADAWASKA", "province": "ON", "country": "CA", "postalCode": "K0J2C0", "twitter": "None", "instagram": "None", "facebook": "None", "youtube": "None", "website": "None", "summary": "None", "logo": "None", "latitude": 45.434909023041065, "longitude": -77.30366540829299}, "119035178RR0001": {"name": "MAZEL CHARITY FUND", "designationCode": "B", "categoryCode": "05", "address": "96 BROOKVIEW DR               ISAAC MEISELS PRESIDENT", "city": "NORTH YORK", "province": "ON", "country": "CA", "postalCode": "M6A2K6", "twitter": "None", "instagram": "None", "facebook": "None", "youtube": "None", "website": "None", "summary": "None", "logo": "None", "latitude": 43.72313200888679, "longitude": -79.43878425217824}, "871843223RR0001": {"name": "MAZOL TEMPLE SHRINE HOSPITAL TRANSPORTATION FUND", "designationCode": "C", "categoryCode": "09", "address": "P.O. BOX 2385", "city": "ST. JOHN'S", "province": "NL", "country": "CA", "postalCode": "A1C6E7", "twitter": "None", "instagram": "None", "facebook": "None", "youtube": "None", "website": "None", "summary": "None", "logo": "None", "latitude": 47.56082100000006, "longitude": -52.71219349999993}, "107680779RR0001": {"name": "MAZON CANADA", "designationCode": "A", "categoryCode": "03", "address": "788 MARLEE AVENUE             SUITE 301", "city": "TORONTO", "province": "ON", "country": "CA", "postalCode": "M6B3K1", "twitter": "None", "instagram": "None", "facebook": "None", "youtube": "None", "website": "None", "summary": "None", "logo": "None", "latitude": 43.71502855231121, "longitude": -79.44629568959527}, "846775559RR0001": {"name": "MB Mission", "designationCode": "C", "categoryCode": "47", "address": "300-32040 DOWNES RD", "city": "ABBOTSFORD", "province": "BC", "country": "CA", "postalCode": "V4X1X5", "twitter": "None", "instagram": "None", "facebook": "None", "youtube": "None", "website": "None", "summary": "None", "logo": "None", "latitude": 49.074451513994035, "longitude": -122.3374434888915}, "867654410RR0001": {"name": "MC Motivate Canada", "designationCode": "C", "categoryCode": "29", "address": "11 ROSEMOUNT AVE              SUITE 408", "city": "OTTAWA", "province": "ON", "country": "CA", "postalCode": "K1Y4R8", "twitter": "None", "instagram": "None", "facebook": "None", "youtube": "None", "website": "None", "summary": "None", "logo": "None", "latitude": 45.40187377214488, "longitude": -75.7262353438458}, "857293351RR0001": {"name": "MCADAM FELLOWSHIP CHURCH INC.", "designationCode": "C", "categoryCode": "47", "address": "2050 ROUTE 630", "city": "ST CROIX", "province": "NB", "country": "CA", "postalCode": "E6J1Y6", "twitter": "None", "instagram": "None", "facebook": "None", "youtube": "None", "website": "None", "summary": "None", "logo": "None", "latitude": 45.56780135245413, "longitude": -67.39863280126158}, "855228284RR0001": {"name": "MCADAM HIGH SCHOOL SCHOLARSHIP FUND", "designationCode": "C", "categoryCode": "21", "address": "39 CAMBRIDGE DR", "city": "SAINT JOHN", "province": "NB", "country": "CA", "postalCode": "E2K5T3", "twitter": "None", "instagram": "None", "facebook": "None", "youtube": "None", "website": "None", "summary": "None", "logo": "None", "latitude": 45.29075225116864, "longitude": -66.10665605355196}, "897833398RR0001": {"name": "MCADAM HISTORICAL RESTORATION COMMISSION INC.", "designationCode": "C", "categoryCode": "50", "address": "146 SAUNDERS ROAD", "city": "MCADAM", "province": "NB", "country": "CA", "postalCode": "E6J1L2", "twitter": "None", "instagram": "None", "facebook": "None", "youtube": "None", "website": "None", "summary": "None", "logo": "None", "latitude": 45.59389693346415, "longitude": -67.32715639226103}, "119035236RR0001": {"name": "MCADAM LIONS FOUNDATION INC.", "designationCode": "C", "categoryCode": "11", "address": "165 SAUNDERS ROAD", "city": "VILLAGE OF MCADAM", "province": "NB", "country": "CA", "postalCode": "E6J1M1", "twitter": "None", "instagram": "None", "facebook": "None", "youtube": "None", "website": "None", "summary": "None", "logo": "None", "latitude": 45.595584, "longitude": -67.32609224288741}, "870321924RR0001": {"name": "MCADAM PUBLIC LIBRARY BOARD", "designationCode": "C", "categoryCode": "50", "address": "23 VANCEBORO RD", "city": "MCADAM", "province": "NB", "country": "CA", "postalCode": "E6J1Z3", "twitter": "None", "instagram": "None", "facebook": "None", "youtube": "None", "website": "None", "summary": "None", "logo": "None", "latitude": 45.585465107421015, "longitude": -67.33290873705903}, "132902255RR0001": {"name": "MCADAM SENIOR'S HOUSING COMPLEX INC", "designationCode": "C", "categoryCode": "01", "address": "39 CAMBRIDGE DR", "city": "SAINT JOHN", "province": "NB", "country": "CA", "postalCode": "E2K5T3", "twitter": "None", "instagram": "None", "facebook": "None", "youtube": "None", "website": "None", "summary": "None", "logo": "None"}, "898016787RR0001": {"name": "MCADAMS FOUNDATION", "designationCode": "B", "categoryCode": "09", "address": "301 - 60 BASTION SQUARE", "city": "VICTORIA", "province": "BC", "country": "CA", "postalCode": "V8W1J2", "twitter": "None", "instagram": "None", "facebook": "None", "youtube": "None", "website": "None", "summary": "None", "logo": "None", "latitude": 48.42574141271852, "longitude": -123.36809826963471}, "865800213RR0001": {"name": "MCARTHUR FAMILY FOUNDATION", "designationCode": "B", "categoryCode": "03", "address": "1A - 830 HARRINGTON CRT", "city": "BURLINGTON", "province": "ON", "country": "CA", "postalCode": "L7N3N4", "twitter": "None", "instagram": "None", "facebook": "None", "youtube": "None", "website": "None", "summary": "None", "logo": "None", "latitude": 43.357937832275965, "longitude": -79.78647846944445}, "119035269RR0001": {"name": "MCARTHUR S. MILLS MENNONITE CHURCH", "designationCode": "C", "categoryCode": "34", "address": "BOX 26 RR 4", "city": "BANCROFT", "province": "ON", "country": "CA", "postalCode": "K0L1C0", "twitter": "None", "instagram": "None", "facebook": "None", "youtube": "None", "website": "None", "summary": "None", "logo": "None", "latitude": 45.03567300000006, "longitude": -77.98000849999994}, "839869344RR0001": {"name": "MCBN CHILDREN'S ASSOCIATION", "designationCode": "C", "categoryCode": "59", "address": "12854 LONGWOODS RD", "city": "THAMESVILLE", "province": "ON", "country": "CA", "postalCode": "N0P2K0", "twitter": "None", "instagram": "None", "facebook": "None", "youtube": "None", "website": "None", "summary": "None", "logo": "None", "latitude": 42.543470534018, "longitude": -82.00882805040754}, "892925561RR0001": {"name": "MCBRIDE AND DISTRICT HOSPITAL AUXILIARY", "designationCode": "A", "categoryCode": "15", "address": "BOX 669", "city": "MCBRIDE", "province": "BC", "country": "CA", "postalCode": "V0J2E0", "twitter": "None", "instagram": "None", "facebook": "None", "youtube": "None", "website": "None", "summary": "None", "logo": "None", "latitude": 54.383929956832056, "longitude": -128.54401829340847}, "890555246RR0001": {"name": "MCBRIDE ANGLICAN UNITED CHURCH", "designationCode": "C", "categoryCode": "44", "address": "PO BOX 284", "city": "MCBRIDE", "province": "BC", "country": "CA", "postalCode": "V0J2E0", "twitter": "None", "instagram": "None", "facebook": "None", "youtube": "None", "website": "None", "summary": "None", "logo": "None", "latitude": 54.383929956832056, "longitude": -128.54401829340847}, "119288918RR0186": {"name": "MCBRIDE CONGREGATION OF JEHOVAH'S WITNESSES, VANCOUVER, BRITISH COLUMBIA", "designationCode": "C", "categoryCode": "61", "address": "120 TENTH ST", "city": "NEW WESTMINSTER", "province": "BC", "country": "CA", "postalCode": "V3M3X8", "twitter": "None", "instagram": "None", "facebook": "None", "youtube": "None", "website": "None", "summary": "None", "logo": "None", "latitude": 49.202987742974315, "longitude": -122.91855185515587}, "892905969RR0001": {"name": "MCBRIDE DISTRICT VOLUNTEER FIREFIGHTERS ASSOCIATION", "designationCode": "C", "categoryCode": "55", "address": "300 ROBSON CENTRE             PO BOX 428", "city": "MCBRIDE", "province": "BC", "country": "CA", "postalCode": "V0J2E0", "twitter": "None", "instagram": "None", "facebook": "None", "youtube": "None", "website": "None", "summary": "None", "logo": "None", "latitude": 53.30319929071089, "longitude": -120.16353578570859}, "107681629RR0001": {"name": "MCBRIDE EVANGELICAL FREE CHURCH", "designationCode": "C", "categoryCode": "39", "address": "PO BOX 369", "city": "MCBRIDE", "province": "BC", "country": "CA", "postalCode": "V0J2E0", "twitter": "None", "instagram": "None", "facebook": "None", "youtube": "None", "website": "None", "summary": "None", "logo": "None", "latitude": 54.383929956832056, "longitude": -128.54401829340847}, "890927577RR0001": {"name": "MCBRIDE MENNONITE CHURCH", "designationCode": "C", "categoryCode": "34", "address": "BOX 386", "city": "MCBRIDE", "province": "BC", "country": "CA", "postalCode": "V0J2E0", "twitter": "None", "instagram": "None", "facebook": "None", "youtube": "None", "website": "None", "summary": "None", "logo": "None", "latitude": 54.383929956832056, "longitude": -128.54401829340847}, "119035319RR0001": {"name": "MCBRIDE PUBLIC LIBRARY ASSOCIATION", "designationCode": "C", "categoryCode": "50", "address": "PO BOX 489", "city": "MCBRIDE", "province": "BC", "country": "CA", "postalCode": "V0J2E0", "twitter": "None", "instagram": "None", "facebook": "None", "youtube": "None", "website": "None", "summary": "None", "logo": "None", "latitude": 54.383929956832056, "longitude": -128.54401829340847}, "118818491RR0083": {"name": "MCBRIDE SEVENTH-DAY ADVENTIST CHURCH", "designationCode": "C", "categoryCode": "41", "address": "PO 1000", "city": "ABBOTSFORD", "province": "BC", "country": "CA", "postalCode": "V2S4P5", "twitter": "None", "instagram": "None", "facebook": "None", "youtube": "None", "website": "None", "summary": "None", "logo": "None", "latitude": 49.03851300000005, "longitude": -122.29441549999993}, "119288918RR0702": {"name": "MCCALLUM CONGREGATION OF JEHOVAH'S WITNESSES, ABBOTSFORD, BRITISH COLUMBIA", "designationCode": "C", "categoryCode": "61", "address": "1003 - 33065 MILL LAKE RD", "city": "ABBOTSFORD", "province": "BC", "country": "CA", "postalCode": "V2S8E6", "twitter": "None", "instagram": "None", "facebook": "None", "youtube": "None", "website": "None", "summary": "None", "logo": "None", "latitude": 49.04845053482523, "longitude": -122.30789477986886}, "896572989RR0001": {"name": "MCCANN FAMILY FOUNDATION", "designationCode": "B", "categoryCode": "53", "address": "84 EDGELAND RISE NW", "city": "CALGARY", "province": "AB", "country": "CA", "postalCode": "T3A4E1", "twitter": "None", "instagram": "None", "facebook": "None", "youtube": "None", "website": "None", "summary": "None", "logo": "None", "latitude": 51.129629612268445, "longitude": -114.15846155300368}, "868273087RR0001": {"name": "MCCARTHY TETRAULT FOUNDATION FONDATION MCCARTHY TETRAULT", "designationCode": "B", "categoryCode": "03", "address": "BOX 48, STE 5300, TD BANK TWR TORONTO DOMINION BANK TOWER", "city": "TORONTO", "province": "ON", "country": "CA", "postalCode": "M5K1E6", "twitter": "None", "instagram": "None", "facebook": "None", "youtube": "None", "website": "None", "summary": "None", "logo": "None"}, "107681819RR0001": {"name": "MCCAULEY COMMUNITY AFTER SCHOOL CARE ASSOCIATION", "designationCode": "C", "categoryCode": "01", "address": "9624 108 AVE NW", "city": "EDMONTON", "province": "AB", "country": "CA", "postalCode": "T5H1A4", "twitter": "None", "instagram": "None", "facebook": "None", "youtube": "None", "website": "None", "summary": "None", "logo": "None", "latitude": 53.5540213516934, "longitude": -113.48845780809613}, "129645347RR0001": {"name": "MCCLURE PLACE ASSOCIATION INC", "designationCode": "C", "categoryCode": "01", "address": "1825 MCKERCHER DRIVE", "city": "SASKATOON", "province": "SK", "country": "CA", "postalCode": "S7H5N5", "twitter": "None", "instagram": "None", "facebook": "None", "youtube": "None", "website": "None", "summary": "None", "logo": "None", "latitude": 52.1025057995847, "longitude": -106.58937839953347}, "893369769RR0001": {"name": "MCCLURE PLACE FOUNDATION INC.", "designationCode": "C", "categoryCode": "01", "address": "1825 MCKERCHER DRIVE", "city": "SASKATOON", "province": "SK", "country": "CA", "postalCode": "S7H5N5", "twitter": "None", "instagram": "None", "facebook": "None", "youtube": "None", "website": "None", "summary": "None", "logo": "None", "latitude": 52.1025057995847, "longitude": -106.58937839953347}, "107681884RR0001": {"name": "MCCLURE UNITED CHURCH", "designationCode": "C", "categoryCode": "44", "address": "533 GREENWOOD PLACE", "city": "WINNIPEG", "province": "MB", "country": "CA", "postalCode": "R3G3M1", "twitter": "None", "instagram": "None", "facebook": "None", "youtube": "None", "website": "None", "summary": "None", "logo": "None", "latitude": 49.88326237024643, "longitude": -97.17961823573229}, "107681900RR0001": {"name": "MCCLURE UNITED CHURCH", "designationCode": "C", "categoryCode": "44", "address": "13708 74 STREET", "city": "EDMONTON", "province": "AB", "country": "CA", "postalCode": "T5C3R1", "twitter": "None", "instagram": "None", "facebook": "None", "youtube": "None", "website": "None", "summary": "None", "logo": "None", "latitude": 53.60031849708582, "longitude": -113.45549625872778}, "119035376RR0001": {"name": "MCCLURE UNITED CHURCH", "designationCode": "C", "categoryCode": "44", "address": "4025 TAYLOR ST EAST", "city": "SASKATOON", "province": "SK", "country": "CA", "postalCode": "S7H5N7", "twitter": "None", "instagram": "None", "facebook": "None", "youtube": "None", "website": "None", "summary": "None", "logo": "None", "latitude": 52.10173724508046, "longitude": -106.58806681473257}, "119035400RR0001": {"name": "MCCORD & DISTRICT RECREATIONAL CENTRE INC", "designationCode": "C", "categoryCode": "56", "address": "PO BOX 89", "city": "MCCORD", "province": "SK", "country": "CA", "postalCode": "S0H2T0", "twitter": "None", "instagram": "None", "facebook": "None", "youtube": "None", "website": "None", "summary": "None", "logo": "None", "latitude": 49.429260000000056, "longitude": -106.83180999999996}, "119035418RR0001": {"name": "MCCORD UNITED CHURCH", "designationCode": "C", "categoryCode": "44", "address": "BOX 32", "city": "MCCORD", "province": "SK", "country": "CA", "postalCode": "S0H2T0", "twitter": "None", "instagram": "None", "facebook": "None", "youtube": "None", "website": "None", "summary": "None", "logo": "None", "latitude": 49.429260000000056, "longitude": -106.83180999999996}, "119035434RR0001": {"name": "MCCORMICK HOME FOUNDATION OF LONDON, ONTARIO", "designationCode": "A", "categoryCode": "03", "address": "2022 KAINS ROAD", "city": "LONDON", "province": "ON", "country": "CA", "postalCode": "N6K0A8", "twitter": "None", "instagram": "None", "facebook": "None", "youtube": "None", "website": "None", "summary": "None", "logo": "None", "latitude": 42.96857688825643, "longitude": -81.35529017705139}, "894585256RR0001": {"name": "MCCREARY & DISTRICT HANDYVAN INC.", "designationCode": "C", "categoryCode": "09", "address": "BOX 250", "city": "MCCREARY", "province": "MB", "country": "CA", "postalCode": "R0J1B0", "twitter": "None", "instagram": "None", "facebook": "None", "youtube": "None", "website": "None", "summary": "None", "logo": "None", "latitude": 50.772380000000055, "longitude": -99.49212999999997}, "119035467RR0001": {"name": "MCCREARY GOSPEL CHURCH", "designationCode": "C", "categoryCode": "39", "address": "PO BOX 62", "city": "MCCREARY", "province": "MB", "country": "CA", "postalCode": "R0J1B0", "twitter": "None", "instagram": "None", "facebook": "None", "youtube": "None", "website": "None", "summary": "None", "logo": "None", "latitude": 50.772380000000055, "longitude": -99.49212999999997}, "898593090RR0001": {"name": "MCCREARY HERITAGE ADVISORY COMMITTEE INCORPORATED", "designationCode": "C", "categoryCode": "52", "address": "BOX 131", "city": "MCCREARY", "province": "MB", "country": "CA", "postalCode": "R0J1B0", "twitter": "None", "instagram": "None", "facebook": "None", "youtube": "None", "website": "None", "summary": "None", "logo": "None", "latitude": 50.772380000000055, "longitude": -99.49212999999997}, "128569803RR0001": {"name": "MCCREARY ROTARY SWIMMING POOL INCORPORATED", "designationCode": "C", "categoryCode": "56", "address": "BOX 317", "city": "MCCREARY", "province": "MB", "country": "CA", "postalCode": "R0J1B0", "twitter": "None", "instagram": "None", "facebook": "None", "youtube": "None", "website": "None", "summary": "None", "logo": "None", "latitude": 50.772380000000055, "longitude": -99.49212999999997}, "120670237RR0001": {"name": "MCCREARY SUPPORT SERVICES TO SENIORS PEOPLE HELPING PEOPLE INC.", "designationCode": "C", "categoryCode": "09", "address": "BOX 521                       613 GOV'T ROAD ALLOWANCE", "city": "MCCREARY", "province": "MB", "country": "CA", "postalCode": "R0J1B0", "twitter": "None", "instagram": "None", "facebook": "None", "youtube": "None", "website": "None", "summary": "None", "logo": "None", "latitude": 50.77237200000006, "longitude": -99.49213249999994}, "130497837RR0001": {"name": "MCCULLOCH UNITED CHURCH", "designationCode": "C", "categoryCode": "44", "address": "169 HARMONY RIDGE ROAD", "city": "HARMONY", "province": "NS", "country": "CA", "postalCode": "B6L3P4", "twitter": "None", "instagram": "None", "facebook": "None", "youtube": "None", "website": "None", "summary": "None", "logo": "None", "latitude": 45.340031125194635, "longitude": -63.19775945074721}, "119035475RR0001": {"name": "MCDERMOT AVENUE BAPTIST CHURCH", "designationCode": "C", "categoryCode": "31", "address": "821 MCDERMOT AVE", "city": "WINNIPEG", "province": "MB", "country": "CA", "postalCode": "R3E0T8", "twitter": "None", "instagram": "None", "facebook": "None", "youtube": "None", "website": "None", "summary": "None", "logo": "None", "latitude": 49.90484093202134, "longitude": -97.16464480056564}, "119035491RR0001": {"name": "MCDIARMID DRIVE ALLIANCE CHURCH", "designationCode": "C", "categoryCode": "39", "address": "635 MCDIARMID DRIVE", "city": "BRANDON", "province": "MB", "country": "CA", "postalCode": "R7B2H6", "twitter": "None", "instagram": "None", "facebook": "None", "youtube": "None", "website": "None", "summary": "None", "logo": "None", "latitude": 49.83874715514458, "longitude": -99.97636066688825}, "871224549RR0001": {"name": "MCDONALDS CORNERS/ELPHIN RECREATION & ARTS", "designationCode": "C", "categoryCode": "56", "address": "974 CONCESSION 9A             PO BOX 76", "city": "MCDONALD'S CORNER", "province": "ON", "country": "CA", "postalCode": "K0G1M0", "twitter": "None", "instagram": "None", "facebook": "None", "youtube": "None", "website": "None", "summary": "None", "logo": "None", "latitude": 44.95814000000007, "longitude": -76.53379999999999}, "837209501RR0001": {"name": "MCDOUGAL CHAPEL EVANGELICAL MISSIONARY CHURCH FELLOWSHIP", "designationCode": "C", "categoryCode": "39", "address": "BOX 8, SITE 18 , RR#1", "city": "SUNDRE", "province": "AB", "country": "CA", "postalCode": "T0M1X0", "twitter": "None", "instagram": "None", "facebook": "None", "youtube": "None", "website": "None", "summary": "None", "logo": "None", "latitude": 51.797934834356965, "longitude": -114.64451612387435}, "119035558RR0001": {"name": "MCDOUGAL STONEY MISSION SOCIETY", "designationCode": "C", "categoryCode": "44", "address": "1204 21 AVE NW", "city": "CALGARY", "province": "AB", "country": "CA", "postalCode": "T2M1L2", "twitter": "None", "instagram": "None", "facebook": "None", "youtube": "None", "website": "None", "summary": "None", "logo": "None", "latitude": 51.07144746047076, "longitude": -114.087681}, "888553849RR0001": {"name": "MCDOUGALL CONCERT ASSOCIATION", "designationCode": "C", "categoryCode": "22", "address": "10086 MACDONALD DRIVE", "city": "EDMONTON", "province": "AB", "country": "CA", "postalCode": "T5J2B7", "twitter": "None", "instagram": "None", "facebook": "None", "youtube": "None", "website": "None", "summary": "None", "logo": "None", "latitude": 53.53958744936224, "longitude": -113.49331894157196}, "119035541RR0001": {"name": "MCDOUGALL UNITED CHURCH", "designationCode": "C", "categoryCode": "44", "address": "10086 MACDONALD DRIVE", "city": "EDMONTON", "province": "AB", "country": "CA", "postalCode": "T5J2B7", "twitter": "None", "instagram": "None", "facebook": "None", "youtube": "None", "website": "None", "summary": "None", "logo": "None", "latitude": 53.53958744936224, "longitude": -113.49331894157196}, "129539086RR0001": {"name": "MCDOUGALL UNITED CHURCH", "designationCode": "C", "categoryCode": "44", "address": "8516 ATHABASCA ST SE", "city": "CALGARY", "province": "AB", "country": "CA", "postalCode": "T2H1S1", "twitter": "None", "instagram": "None", "facebook": "None", "youtube": "None", "website": "None", "summary": "None", "logo": "None", "latitude": 50.97747583236193, "longitude": -114.05711839520472}, "119035566RR0001": {"name": "MCDOWELL CEMETERY BOARD", "designationCode": "A", "categoryCode": "59", "address": "63 BOLOHAN DRIVE", "city": "TILBURY", "province": "ON", "country": "CA", "postalCode": "N0P2L0", "twitter": "None", "instagram": "None", "facebook": "None", "youtube": "None", "website": "None", "summary": "None", "logo": "None", "latitude": 42.25307871495762, "longitude": -82.42121787065044}, "119035574RR0001": {"name": "MCEUEN SCHOLARSHIP FOUNDATION INC.", "designationCode": "C", "categoryCode": "21", "address": "1300-100 QUEEN STREET", "city": "OTTAWA", "province": "ON", "country": "CA", "postalCode": "K1P1J9", "twitter": "None", "instagram": "None", "facebook": "None", "youtube": "None", "website": "None", "summary": "None", "logo": "None", "latitude": 45.42179783677668, "longitude": -75.69784066261774}, "119035590RR0001": {"name": "MCGEACHY CHARITABLE FOUNDATION", "designationCode": "B", "categoryCode": "03", "address": "RR 3", "city": "CHATHAM", "province": "ON", "country": "CA", "postalCode": "N7M5J3", "twitter": "None", "instagram": "None", "facebook": "None", "youtube": "None", "website": "None", "summary": "None", "logo": "None", "latitude": 42.39216600000006, "longitude": -82.11021649999994}, "864113386RR0001": {"name": "MCGRATH FAMILY FOUNDATION INCORPORATED", "designationCode": "B", "categoryCode": "03", "address": "1220 - 77 BLOOR ST W", "city": "TORONTO", "province": "ON", "country": "CA", "postalCode": "M5S1M2", "twitter": "None", "instagram": "None", "facebook": "None", "youtube": "None", "website": "None", "summary": "None", "logo": "None", "latitude": 43.667372648743196, "longitude": -79.40049643191246}, "119035632RR0001": {"name": "MCGREARY SENIORS DROP-IN CENTRE", "designationCode": "C", "categoryCode": "56", "address": "BOX 96", "city": "MCCREARY", "province": "MB", "country": "CA", "postalCode": "R0J1B0", "twitter": "None", "instagram": "None", "facebook": "None", "youtube": "None", "website": "None", "summary": "None", "logo": "None", "latitude": 50.772380000000055, "longitude": -99.49212999999997}, "107682593RR0001": {"name": "MCGREGOR CHILD CARE SOCIETY", "designationCode": "C", "categoryCode": "59", "address": "1155 BROADWAY E", "city": "VANCOUVER", "province": "BC", "country": "CA", "postalCode": "V5T4V5", "twitter": "None", "instagram": "None", "facebook": "None", "youtube": "None", "website": "None", "summary": "None", "logo": "None", "latitude": 49.26248837802974, "longitude": -123.0805496619515}, "107682890RR0001": {"name": "MCIVOR AVENUE MENNONITE BRETHREN CHURCH", "designationCode": "C", "categoryCode": "34", "address": "200 MCIVOR AVE", "city": "WINNIPEG", "province": "MB", "country": "CA", "postalCode": "R2G0Z8", "twitter": "None", "instagram": "None", "facebook": "None", "youtube": "None", "website": "None", "summary": "None", "logo": "None", "latitude": 49.953182723527284, "longitude": -97.07390243190576}, "119035699RR0001": {"name": "MCKEAGUE FAMILY FOUNDATION INC.", "designationCode": "B", "categoryCode": "03", "address": "122-201 CARTWRIGHT TERRACE", "city": "SASKATOON", "province": "SK", "country": "CA", "postalCode": "S7T0A4", "twitter": "None", "instagram": "None", "facebook": "None", "youtube": "None", "website": "None", "summary": "None", "logo": "None", "latitude": 52.081057507646044, "longitude": -106.65809966472388}, "898974555RR0001": {"name": "MCKEAN FAMILY FOUNDATION", "designationCode": "B", "categoryCode": "23", "address": "1 P.V.M. 5TH FLOOR SOUTH", "city": "MONTREAL", "province": "QC", "country": "CA", "postalCode": "H3B2B2", "twitter": "None", "instagram": "None", "facebook": "None", "youtube": "None", "website": "None", "summary": "None", "logo": "None", "latitude": 45.49987500000006, "longitude": -73.56867649999994}, "107682981RR0001": {"name": "MCKEE AFTER SCHOOL CARE PROGRAM", "designationCode": "C", "categoryCode": "01", "address": "10725 51 AVE NW", "city": "EDMONTON", "province": "AB", "country": "CA", "postalCode": "T6H0L3", "twitter": "None", "instagram": "None", "facebook": "None", "youtube": "None", "website": "None", "summary": "None", "logo": "None", "latitude": 53.48809607006792, "longitude": -113.50837618384803}, "888116142RR0001": {"name": "MCKEE HOUSE SENIORS SOCIETY", "designationCode": "C", "categoryCode": "56", "address": "5155 47TH AVENUE", "city": "DELTA", "province": "BC", "country": "CA", "postalCode": "V4K1R4", "twitter": "None", "instagram": "None", "facebook": "None", "youtube": "None", "website": "None", "summary": "None", "logo": "None", "latitude": 49.08833248600598, "longitude": -123.08114233236194}, "119035715RR0001": {"name": "MCKEE MCKIDS INC.", "designationCode": "C", "categoryCode": "20", "address": "35 CHURCH AVE", "city": "NORTH YORK", "province": "ON", "country": "CA", "postalCode": "M2N6X6", "twitter": "None", "instagram": "None", "facebook": "None", "youtube": "None", "website": "None", "summary": "None", "logo": "None", "latitude": 43.77436288201875, "longitude": -79.41112791006412}, "107630360RR0001": {"name": "MCKEE'S MILLS BAPTIST CHURCH", "designationCode": "C", "categoryCode": "31", "address": "1039 SHERIDAN ROAD", "city": "MCKEE'S MILLS", "province": "NB", "country": "CA", "postalCode": "E4V2W7", "twitter": "None", "instagram": "None", "facebook": "None", "youtube": "None", "website": "None", "summary": "None", "logo": "None", "latitude": 46.42495945978106, "longitude": -64.7307560412304}, "119035723RR0001": {"name": "MCKEE'S MILLS PASTORAL CHARGE", "designationCode": "C", "categoryCode": "44", "address": "5327 ROUTE 115", "city": "MCKEES MILLS", "province": "NB", "country": "CA", "postalCode": "E4V2T8", "twitter": "None", "instagram": "None", "facebook": "None", "youtube": "None", "website": "None", "summary": "None", "logo": "None", "latitude": 46.423565008227236, "longitude": -64.71848442936572}, "119035749RR0001": {"name": "MCKELLAR PASTORAL CHARGE", "designationCode": "C", "categoryCode": "44", "address": "30 PENINSULA SHORES RD", "city": "MCDOUGALL", "province": "ON", "country": "CA", "postalCode": "P2A2W7", "twitter": "None", "instagram": "None", "facebook": "None", "youtube": "None", "website": "None", "summary": "None", "logo": "None", "latitude": 45.46958153884605, "longitude": -79.99699539216707}, "107393167RR0001": {"name": "MCKENZIE TOWNE BAPTIST CHURCH", "designationCode": "C", "categoryCode": "31", "address": "7 MCKENZIE TOWNE GATE SE", "city": "CALGARY", "province": "AB", "country": "CA", "postalCode": "T2Z3W5", "twitter": "None", "instagram": "None", "facebook": "None", "youtube": "None", "website": "None", "summary": "None", "logo": "None", "latitude": 50.91600279488151, "longitude": -113.96337034860633}, "107683088RR0001": {"name": "MCKENZIE UNITED CHURCH", "designationCode": "C", "categoryCode": "44", "address": "85-11TH ST N W", "city": "PORTAGE LA PRARIE", "province": "MB", "country": "CA", "postalCode": "R1N2S2", "twitter": "None", "instagram": "None", "facebook": "None", "youtube": "None", "website": "None", "summary": "None", "logo": "None", "latitude": 49.9753254617164, "longitude": -98.30462451190806}, "119035756RR0001": {"name": "MCKENZIE-CLEARWATER FIRE PROTECTION CORPORATION", "designationCode": "C", "categoryCode": "59", "address": "PO BOX 20", "city": "KENORA", "province": "ON", "country": "CA", "postalCode": "P0X1S0", "twitter": "None", "instagram": "None", "facebook": "None", "youtube": "None", "website": "None", "summary": "None", "logo": "None", "latitude": 49.716420000000056, "longitude": -94.78294099999994}, "119035780RR0001": {"name": "MCKERNAN BAPTIST CHURCH", "designationCode": "C", "categoryCode": "31", "address": "11103 76AVE", "city": "EDMONTON", "province": "AB", "country": "CA", "postalCode": "T6G0J9", "twitter": "None", "instagram": "None", "facebook": "None", "youtube": "None", "website": "None", "summary": "None", "logo": "None", "latitude": 53.51222400000006, "longitude": -113.51759749999994}, "119035798RR0001": {"name": "MCKERNAN CHILD CARE SOCIETY", "designationCode": "C", "categoryCode": "01", "address": "11341-78 AVE NW", "city": "EDMONTON", "province": "AB", "country": "CA", "postalCode": "T6E0N1", "twitter": "None", "instagram": "None", "facebook": "None", "youtube": "None", "website": "None", "summary": "None", "logo": "None", "latitude": 53.51412749956732, "longitude": -113.5243212485429}, "119035806RR0001": {"name": "MCKERNAN CHRISTIAN CHURCH", "designationCode": "C", "categoryCode": "39", "address": "11304 - 78 AVE", "city": "EDMONTON", "province": "AB", "country": "CA", "postalCode": "T6G0M9", "twitter": "None", "instagram": "None", "facebook": "None", "youtube": "None", "website": "None", "summary": "None", "logo": "None", "latitude": 53.51419747489748, "longitude": -113.52331286081134}, "131633083RR0001": {"name": "MCKERRACHER SUPPORT SERVICES INC", "designationCode": "C", "categoryCode": "09", "address": "PO BOX 154", "city": "SWIFT CURRENT", "province": "SK", "country": "CA", "postalCode": "S9H3V6", "twitter": "None", "instagram": "None", "facebook": "None", "youtube": "None", "website": "None", "summary": "None", "logo": "None", "latitude": 50.292744000000056, "longitude": -107.80056349999994}, "107683229RR0001": {"name": "MCKILLOP UNITED CHURCH", "designationCode": "C", "categoryCode": "44", "address": "2329 15TH AVENUE S", "city": "LETHBRIDGE", "province": "AB", "country": "CA", "postalCode": "T1K0X5", "twitter": "None", "instagram": "None", "facebook": "None", "youtube": "None", "website": "None", "summary": "None", "logo": "None", "latitude": 49.677391536712975, "longitude": -112.8083481619639}, "119035822RR0001": {"name": "MCKINLEY PROVIDENT FUND", "designationCode": "C", "categoryCode": "09", "address": "1200 PRINCESS BOX 427", "city": "KINGSTON", "province": "ON", "country": "CA", "postalCode": "K7L4W4", "twitter": "None", "instagram": "None", "facebook": "None", "youtube": "None", "website": "None", "summary": "None", "logo": "None", "latitude": 44.24441489552564, "longitude": -76.5190125283594}, "107683328RR0001": {"name": "MCLAREN HOUSING SOCIETY OF BRITISH COLUMBIA", "designationCode": "C", "categoryCode": "01", "address": "200-649 HELMCKEN ST", "city": "VANCOUVER", "province": "BC", "country": "CA", "postalCode": "V6B5R1", "twitter": "None", "instagram": "None", "facebook": "None", "youtube": "None", "website": "None", "summary": "None", "logo": "None", "latitude": 49.2779918696808, "longitude": -123.12415827509476}, "119288918RR1029": {"name": "MCLAUGHLIN CONGREGATION OF JEHOVAH'S WITNESSES, BRAMPTON ONTARIO", "designationCode": "C", "categoryCode": "61", "address": "312-125 RAILROAD ST S", "city": "BRAMPTON", "province": "ON", "country": "CA", "postalCode": "L6X1H1", "twitter": "None", "instagram": "None", "facebook": "None", "youtube": "None", "website": "None", "summary": "None", "logo": "None", "latitude": 43.685772692986376, "longitude": -79.7689478850257}, "133423848RR0001": {"name": "MCLAUGHLIN DRIVE CHURCH OF THE NAZARENE", "designationCode": "C", "categoryCode": "39", "address": "229 MCLAUGHLIN DR.", "city": "MONCTON", "province": "NB", "country": "CA", "postalCode": "E1A4P8", "twitter": "None", "instagram": "None", "facebook": "None", "youtube": "None", "website": "None", "summary": "None", "logo": "None", "latitude": 46.11239346156726, "longitude": -64.7805471562411}, "107683682RR0001": {"name": "MCLAURIN BAPTIST CHURCH", "designationCode": "C", "categoryCode": "31", "address": "10913 107 AVE", "city": "GRANDE PRAIRIE", "province": "AB", "country": "CA", "postalCode": "T8V7P9", "twitter": "None", "instagram": "None", "facebook": "None", "youtube": "None", "website": "None", "summary": "None", "logo": "None", "latitude": 55.176895480668534, "longitude": -118.82452066763807}, "129716643RR0001": {"name": "MCLAURIN MEMORIAL BAPTIST CHURCH", "designationCode": "C", "categoryCode": "31", "address": "11107-51 AVENUE", "city": "EDMONTON", "province": "AB", "country": "CA", "postalCode": "T6H0L5", "twitter": "None", "instagram": "None", "facebook": "None", "youtube": "None", "website": "None", "summary": "None", "logo": "None", "latitude": 53.48813454674263, "longitude": -113.51815144463038}, "119035871RR0001": {"name": "MCLEAN BETHEL UNITED CHURCH", "designationCode": "C", "categoryCode": "44", "address": "BOX 200", "city": "MCLEAN", "province": "SK", "country": "CA", "postalCode": "S0G3E0", "twitter": "None", "instagram": "None", "facebook": "None", "youtube": "None", "website": "None", "summary": "None", "logo": "None", "latitude": 50.51497000000006, "longitude": -104.06808999999998}, "893975185RR0001": {"name": "MCLENNAN CHRISTIAN FELLOWSHIP INC.", "designationCode": "C", "categoryCode": "39", "address": "BOX 297", "city": "MCLENNAN", "province": "AB", "country": "CA", "postalCode": "T0H2L0", "twitter": "None", "instagram": "None", "facebook": "None", "youtube": "None", "website": "None", "summary": "None", "logo": "None", "latitude": 55.700090000000046, "longitude": -116.90258999999998}, "119035897RR0001": {"name": "MCLENNAN GOLDEN AGE CLUB", "designationCode": "C", "categoryCode": "09", "address": "PO BOX 38", "city": "MCLENNAN", "province": "AB", "country": "CA", "postalCode": "T0H2L0", "twitter": "None", "instagram": "None", "facebook": "None", "youtube": "None", "website": "None", "summary": "None", "logo": "None", "latitude": 55.700090000000046, "longitude": -116.90258999999998}, "891106247RR0001": {"name": "MCLENNAN UNITED CHURCH", "designationCode": "C", "categoryCode": "44", "address": "BOX 24", "city": "MCLENNAN", "province": "AB", "country": "CA", "postalCode": "T0H2L0", "twitter": "None", "instagram": "None", "facebook": "None", "youtube": "None", "website": "None", "summary": "None", "logo": "None", "latitude": 55.700090000000046, "longitude": -116.90258999999998}, "118931112RR0001": {"name": "MCLEOD HILL ASSEMBLY OF CHRISTIANS INC.", "designationCode": "C", "categoryCode": "39", "address": "PO BOX 1182 STATION \"A\"", "city": "FREDERICTON", "province": "NB", "country": "CA", "postalCode": "E3B5C8", "twitter": "None", "instagram": "None", "facebook": "None", "youtube": "None", "website": "None", "summary": "None", "logo": "None", "latitude": 45.96062100000006, "longitude": -66.63911299999994}}