{"107794349RR0001": {"name": "OLDS UNITED CHURCH", "designationCode": "C", "categoryCode": "44", "address": "4810-50TH STREET", "city": "OLDS", "province": "AB", "country": "CA", "postalCode": "T4H1E4", "twitter": "None", "instagram": "None", "facebook": "None", "youtube": "None", "website": "None", "summary": "None", "logo": "None", "latitude": 51.79135733611286, "longitude": -114.10137820399333}, "119066736RR0001": {"name": "OLEARY WEST CAPE PASTORAL CHARGE", "designationCode": "C", "categoryCode": "44", "address": "PO 376", "city": "O'LEARY", "province": "PE", "country": "CA", "postalCode": "C0B1V0", "twitter": "None", "instagram": "None", "facebook": "None", "youtube": "None", "website": "None", "summary": "None", "logo": "None", "latitude": 46.71305115704506, "longitude": -64.19110057190973}, "850237942RR0001": {"name": "OLEG AND FRIENDS INC.", "designationCode": "C", "categoryCode": "22", "address": "136 DAFOE RD, STUDIO T-247", "city": "WINNIPEG", "province": "MB", "country": "CA", "postalCode": "R3T2N2", "twitter": "None", "instagram": "None", "facebook": "None", "youtube": "None", "website": "None", "summary": "None", "logo": "None", "latitude": 49.80811816622444, "longitude": -97.13237156062108}, "869327619RR0001": {"name": "OLHA CEMETERY FUND LTD.", "designationCode": "C", "categoryCode": "59", "address": "BOX 13", "city": "OLHA", "province": "MB", "country": "CA", "postalCode": "R0J1K0", "twitter": "None", "instagram": "None", "facebook": "None", "youtube": "None", "website": "None", "summary": "None", "logo": "None", "latitude": 50.66955000000007, "longitude": -100.55498999999998}, "119066751RR0001": {"name": "OLIPHANT CAMPERS' CHURCH", "designationCode": "C", "categoryCode": "39", "address": "21 - 3021 GLENCREST RD", "city": "BURLINGTON", "province": "ON", "country": "CA", "postalCode": "L7N3K1", "twitter": "None", "instagram": "None", "facebook": "None", "youtube": "None", "website": "None", "summary": "None", "logo": "None", "latitude": 43.340887532426486, "longitude": -79.78762553225567}, "888299435RR0001": {"name": "OLIVE BRANCH MINISTRIES", "designationCode": "C", "categoryCode": "49", "address": "195 REBECCA ST", "city": "HAMILTON", "province": "ON", "country": "CA", "postalCode": "L8R1C2", "twitter": "None", "instagram": "None", "facebook": "None", "youtube": "None", "website": "None", "summary": "None", "logo": "None", "latitude": 43.25610901584037, "longitude": -79.86046451359}, "891765380RR0001": {"name": "OLIVE BRANCH MINISTRIES", "designationCode": "C", "categoryCode": "49", "address": "P.O. BOX 50059 RIVER GROVE P.O17-2595 MAIN ST", "city": "WINNIPEG", "province": "MB", "country": "CA", "postalCode": "R2V1M5", "twitter": "None", "instagram": "None", "facebook": "None", "youtube": "None", "website": "None", "summary": "None", "logo": "None", "latitude": 49.95946405853642, "longitude": -97.089719115134}, "857334700RR0001": {"name": "OLIVE TREE FOUNDATION", "designationCode": "A", "categoryCode": "03", "address": "26 BRAMBLEBROOK AVENUE", "city": "TORONTO", "province": "ON", "country": "CA", "postalCode": "M1V2G2", "twitter": "None", "instagram": "None", "facebook": "None", "youtube": "None", "website": "None", "summary": "None", "logo": "None", "latitude": 43.81591542991519, "longitude": -79.28748388025839}, "851385310RR0001": {"name": "OLIVE TREE PROJECTS SOCIETY", "designationCode": "C", "categoryCode": "19", "address": "PO BOX 5303 STATION M", "city": "DEVON", "province": "AB", "country": "CA", "postalCode": "T9G1Y1", "twitter": "None", "instagram": "None", "facebook": "None", "youtube": "None", "website": "None", "summary": "None", "logo": "None", "latitude": 53.36364300000005, "longitude": -113.73021349999993}, "119066777RR0001": {"name": "OLIVER ALLIANCE CHURCH", "designationCode": "C", "categoryCode": "39", "address": "6835 LEIGHTON CRESCENT", "city": "OLIVER", "province": "BC", "country": "CA", "postalCode": "V0H1T2", "twitter": "None", "instagram": "None", "facebook": "None", "youtube": "None", "website": "None", "summary": "None", "logo": "None", "latitude": 49.19332609937093, "longitude": -119.55536424306123}, "119066827RR0001": {"name": "OLIVER AND DISTRICT HERITAGE SOCIETY", "designationCode": "C", "categoryCode": "52", "address": "BOX 847                       430 FAIRVIEW RD.", "city": "OLIVER", "province": "BC", "country": "CA", "postalCode": "V0H1T0", "twitter": "None", "instagram": "None", "facebook": "None", "youtube": "None", "website": "None", "summary": "None", "logo": "None", "latitude": 49.17416406135183, "longitude": -119.57097444229599}, "119288918RR0219": {"name": "OLIVER B C CONGREGATION OF JEHOVAH'S WITNESSES,", "designationCode": "C", "categoryCode": "61", "address": "374 MCKINNEY RD               RR 3", "city": "OLIVER", "province": "BC", "country": "CA", "postalCode": "V0H1T3", "twitter": "None", "instagram": "None", "facebook": "None", "youtube": "None", "website": "None", "summary": "None", "logo": "None", "latitude": 49.18515575635682, "longitude": -119.54573202719814}, "119066868RR0001": {"name": "OLIVER CENTRE-EARLY LEARNING PROGRAMS FOR CHILDREN & FAMILIES SOCIETY", "designationCode": "C", "categoryCode": "01", "address": "10227 118 ST", "city": "EDMONTON", "province": "AB", "country": "CA", "postalCode": "T5K2V4", "twitter": "None", "instagram": "None", "facebook": "None", "youtube": "None", "website": "None", "summary": "None", "logo": "None", "latitude": 53.543771748542895, "longitude": -113.52492477344389}, "831587670RR0001": {"name": "OLIVER COMMUNITY ARTS COUNCIL", "designationCode": "C", "categoryCode": "22", "address": "PO BOX 1711", "city": "OLIVER", "province": "BC", "country": "CA", "postalCode": "V0H1T0", "twitter": "None", "instagram": "None", "facebook": "None", "youtube": "None", "website": "None", "summary": "None", "logo": "None", "latitude": 49.182600000000036, "longitude": -119.55045999999999}, "862710720RR0001": {"name": "OLIVER FOODBANK (2000)", "designationCode": "C", "categoryCode": "09", "address": "6047 STATION STREET           PO BOX 405", "city": "OLIVER", "province": "BC", "country": "CA", "postalCode": "V0H1T0", "twitter": "None", "instagram": "None", "facebook": "None", "youtube": "None", "website": "None", "summary": "None", "logo": "None", "latitude": 49.18113855534856, "longitude": -119.54823908213594}, "892000076RR0001": {"name": "OLIVER LAND TRUST/FIDUCIE DU PATRIMOINE IMMOBILIER OLIVER", "designationCode": "C", "categoryCode": "56", "address": "1 PLACE ALEXIS-NIHON          1501-3400 DE MAISONNEUVE WEST", "city": "MONTREAL", "province": "QC", "country": "CA", "postalCode": "H3Z3B8", "twitter": "None", "instagram": "None", "facebook": "None", "youtube": "None", "website": "None", "summary": "None", "logo": "None", "latitude": 45.4900007973734, "longitude": -73.58584629044694}, "107794885RR0001": {"name": "OLIVER LODGE", "designationCode": "C", "categoryCode": "01", "address": "1405 FAULKNER CRES", "city": "SASKATOON", "province": "SK", "country": "CA", "postalCode": "S7L3R5", "twitter": "None", "instagram": "None", "facebook": "None", "youtube": "None", "website": "None", "summary": "None", "logo": "None", "latitude": 52.14288053779849, "longitude": -106.69147276005543}, "119066850RR0001": {"name": "OLIVER PASTORAL CHARGE", "designationCode": "C", "categoryCode": "44", "address": "P.O. BOX 938", "city": "OLIVER", "province": "BC", "country": "CA", "postalCode": "V0H1T0", "twitter": "None", "instagram": "None", "facebook": "None", "youtube": "None", "website": "None", "summary": "None", "logo": "None", "latitude": 49.182600000000036, "longitude": -119.55045999999999}, "897905691RR0001": {"name": "OLIVER SENIOR CENTER SOCIETY", "designationCode": "C", "categoryCode": "56", "address": "BOX 1032", "city": "OLIVER", "province": "BC", "country": "CA", "postalCode": "V0H1T4", "twitter": "None", "instagram": "None", "facebook": "None", "youtube": "None", "website": "None", "summary": "None", "logo": "None", "latitude": 49.182600000000036, "longitude": -119.55045999999999}, "118818491RR0085": {"name": "OLIVER SEVENTH-DAY ADVENTIST CHURCH", "designationCode": "C", "categoryCode": "41", "address": "PO 1000", "city": "ABBOTSFORD", "province": "BC", "country": "CA", "postalCode": "V2S4P5", "twitter": "None", "instagram": "None", "facebook": "None", "youtube": "None", "website": "None", "summary": "None", "logo": "None", "latitude": 49.03851300000005, "longitude": -122.29441549999993}, "814493078RR0001": {"name": "OLIVER/OSOSYOOS SEARCH AND RESCUE SOCIETY", "designationCode": "C", "categoryCode": "59", "address": "P.O. BOX 444", "city": "OLIVER", "province": "BC", "country": "CA", "postalCode": "V0H1T0", "twitter": "None", "instagram": "None", "facebook": "None", "youtube": "None", "website": "None", "summary": "None", "logo": "None", "latitude": 49.182600000000036, "longitude": -119.55045999999999}, "107795031RR0001": {"name": "OLIVET BAPTIST CHURCH", "designationCode": "C", "categoryCode": "31", "address": "613 QUEENS AVENUE", "city": "NEW WESTMINSTER", "province": "BC", "country": "CA", "postalCode": "V3M1L1", "twitter": "None", "instagram": "None", "facebook": "None", "youtube": "None", "website": "None", "summary": "None", "logo": "None", "latitude": 49.20646487180429, "longitude": -122.91380630867305}, "119066918RR0001": {"name": "OLIVET BAPTIST CHURCH", "designationCode": "C", "categoryCode": "31", "address": "23, WILLIAM STREET", "city": "KNOWLTON", "province": "QC", "country": "CA", "postalCode": "J0E1V0", "twitter": "None", "instagram": "None", "facebook": "None", "youtube": "None", "website": "None", "summary": "None", "logo": "None", "latitude": 45.218743334987664, "longitude": -72.52171578377299}, "119066934RR0001": {"name": "OLIVET BAPTIST CHURCH", "designationCode": "C", "categoryCode": "31", "address": "601 - 50 ELM DR E", "city": "MISSISSAUGA", "province": "ON", "country": "CA", "postalCode": "L5A3X2", "twitter": "None", "instagram": "None", "facebook": "None", "youtube": "None", "website": "None", "summary": "None", "logo": "None", "latitude": 43.591554026823395, "longitude": -79.62980839749628}, "131866493RR0001": {"name": "OLIVET BAPTIST CHURCH", "designationCode": "C", "categoryCode": "31", "address": "BOX 549", "city": "WESTPORT", "province": "ON", "country": "CA", "postalCode": "K0G1X0", "twitter": "None", "instagram": "None", "facebook": "None", "youtube": "None", "website": "None", "summary": "None", "logo": "None", "latitude": 39.63902000000007, "longitude": -123.78490999999997}, "875219115RR0001": {"name": "OLIVET BAPTIST CHURCH OF MEAFORD", "designationCode": "C", "categoryCode": "31", "address": "55 IVAN ST", "city": "MEAFORD", "province": "ON", "country": "CA", "postalCode": "N4L1C8", "twitter": "None", "instagram": "None", "facebook": "None", "youtube": "None", "website": "None", "summary": "None", "logo": "None", "latitude": 44.598533082693855, "longitude": -80.58937712444481}, "811338862RR0001": {"name": "OLIVET CHURCH ABBOTSFORD", "designationCode": "C", "categoryCode": "34", "address": "2630 LANGDON ST", "city": "ABBOTSFORD", "province": "BC", "country": "CA", "postalCode": "V2T3L2", "twitter": "None", "instagram": "None", "facebook": "None", "youtube": "None", "website": "None", "summary": "None", "logo": "None", "latitude": 49.05051085453835, "longitude": -122.33090440189551}, "131801284RR0001": {"name": "OLIVET CHURCH OF THE NEW JERUSALEM", "designationCode": "C", "categoryCode": "39", "address": "279 BURNHAMTHORPE RD", "city": "ETOBICOKE", "province": "ON", "country": "CA", "postalCode": "M9B1Z6", "twitter": "None", "instagram": "None", "facebook": "None", "youtube": "None", "website": "None", "summary": "None", "logo": "None", "latitude": 43.6498320996594, "longitude": -79.54472715113387}, "119067007RR0001": {"name": "OLIVET UNITED CHURCH", "designationCode": "C", "categoryCode": "44", "address": "133 WEST 19TH ST", "city": "HAMILTON", "province": "ON", "country": "CA", "postalCode": "L9C4H7", "twitter": "None", "instagram": "None", "facebook": "None", "youtube": "None", "website": "None", "summary": "None", "logo": "None", "latitude": 43.236506620843734, "longitude": -79.89804785341418}, "894812031RR0001": {"name": "OLIVIER-ROBERT EN FETE", "designationCode": "C", "categoryCode": "09", "address": "225-3200 AVE DE LA PEPINIERE", "city": "MONTREAL", "province": "QC", "country": "CA", "postalCode": "H1N3R3", "twitter": "None", "instagram": "None", "facebook": "None", "youtube": "None", "website": "None", "summary": "None", "logo": "None", "latitude": 45.577733242253174, "longitude": -73.54269191482464}, "889137063RR0001": {"name": "OLLIVETT LIGHTHOUSE TABERNACLE OF ONTARIO", "designationCode": "C", "categoryCode": "36", "address": "3B-325 WESTON RD", "city": "TORONTO", "province": "ON", "country": "CA", "postalCode": "M6N4Z9", "twitter": "None", "instagram": "None", "facebook": "None", "youtube": "None", "website": "None", "summary": "None", "logo": "None"}, "890558448RR0001": {"name": "OLYMPIC HEIGHTS SCHOOL PARENTS ASSOCIATION", "designationCode": "C", "categoryCode": "21", "address": "875 STRATHCONA DRIVE SW", "city": "CALGARY", "province": "AB", "country": "CA", "postalCode": "T3H2A3", "twitter": "None", "instagram": "None", "facebook": "None", "youtube": "None", "website": "None", "summary": "None", "logo": "None", "latitude": 51.04476458840666, "longitude": -114.1814039368401}, "119016053RR0001": {"name": "OLYMPIQUES SPECIAUX QU\u00c9BEC", "designationCode": "C", "categoryCode": "56", "address": "5311 BOUL DE MAISONNEUVE O    2 EME ETAGE", "city": "MONTREAL", "province": "QC", "country": "CA", "postalCode": "H4A1Z5", "twitter": "None", "instagram": "None", "facebook": "None", "youtube": "None", "website": "None", "summary": "None", "logo": "None", "latitude": 45.47269382959199, "longitude": -73.60633484514386}, "867867582RR0001": {"name": "OM NAMO NARAYANI AMMA'S CHARITABLE FOUNDATION", "designationCode": "C", "categoryCode": "48", "address": "3938 COTTRELLE BLVD.          SUITE 80040", "city": "BRAMPTON", "province": "ON", "country": "CA", "postalCode": "L6P2R1", "twitter": "None", "instagram": "None", "facebook": "None", "youtube": "None", "website": "None", "summary": "None", "logo": "None", "latitude": 43.78403731952174, "longitude": -79.6619244429856}, "119067049RR0001": {"name": "OMAGH BIBLE SCHOOL", "designationCode": "C", "categoryCode": "47", "address": "402 MOSSOM PLACE", "city": "WATERLOO", "province": "ON", "country": "CA", "postalCode": "N2K2G8", "twitter": "None", "instagram": "None", "facebook": "None", "youtube": "None", "website": "None", "summary": "None", "logo": "None", "latitude": 43.49438093672454, "longitude": -80.50570649137299}, "890654940RR0001": {"name": "OMAGH CHURCH OF CHRIST", "designationCode": "C", "categoryCode": "39", "address": "9850 BRITANNIA RD", "city": "MILTON", "province": "ON", "country": "CA", "postalCode": "L9E0E4", "twitter": "None", "instagram": "None", "facebook": "None", "youtube": "None", "website": "None", "summary": "None", "logo": "None", "latitude": 43.504631247821756, "longitude": -79.81508927647366}, "119067056RR0001": {"name": "OMAGH PRESBYTERIAN CHURCH", "designationCode": "C", "categoryCode": "37", "address": "3028 20 SIDEROAD", "city": "CAMPBELLVILLE", "province": "ON", "country": "CA", "postalCode": "L0P1B0", "twitter": "None", "instagram": "None", "facebook": "None", "youtube": "None", "website": "None", "summary": "None", "logo": "None", "latitude": 43.54481601132341, "longitude": -80.06391951335155}, "880027016RR0001": {"name": "OMAMIWININI PIMADJWOWIN", "designationCode": "C", "categoryCode": "22", "address": "1674 MISHOMIS INAMO           PIKWAKANAGAN", "city": "GOLDEN LAKE", "province": "ON", "country": "CA", "postalCode": "K0J1X0", "twitter": "None", "instagram": "None", "facebook": "None", "youtube": "None", "website": "None", "summary": "None", "logo": "None", "latitude": 45.5759353273497, "longitude": -77.25104720350384}, "827728635RR0001": {"name": "OMB Foundation", "designationCode": "B", "categoryCode": "09", "address": "5868 SHALOM AVENUE", "city": "MONTREAL", "province": "QC", "country": "CA", "postalCode": "H4W1E9", "twitter": "None", "instagram": "None", "facebook": "None", "youtube": "None", "website": "None", "summary": "None", "logo": "None", "latitude": 45.47317142879003, "longitude": -73.66768390564938}, "836661348RR0001": {"name": "OMBRES FOLLES", "designationCode": "C", "categoryCode": "22", "address": "10160 RUE SAINT-HUBERT", "city": "MONTREAL", "province": "QC", "country": "CA", "postalCode": "H2C2H5", "twitter": "None", "instagram": "None", "facebook": "None", "youtube": "None", "website": "None", "summary": "None", "logo": "None", "latitude": 45.55564004244345, "longitude": -73.65794142674122}, "119067064RR0001": {"name": "OMEGA CIRCLE CEMETERY CLUB", "designationCode": "C", "categoryCode": "59", "address": "P.O. BOX 11", "city": "GADSBY", "province": "AB", "country": "CA", "postalCode": "T0C1K0", "twitter": "None", "instagram": "None", "facebook": "None", "youtube": "None", "website": "None", "summary": "None", "logo": "None", "latitude": 52.30013000000008, "longitude": -112.35185999999999}, "136402948RR0001": {"name": "OMEGA FOUNDATION", "designationCode": "A", "categoryCode": "59", "address": "503-1407 YONGE STREET", "city": "TORONTO", "province": "ON", "country": "CA", "postalCode": "M4T1Y7", "twitter": "None", "instagram": "None", "facebook": "None", "youtube": "None", "website": "None", "summary": "None", "logo": "None", "latitude": 43.68723772468114, "longitude": -79.39369753632661}, "863508123RR0001": {"name": "OMEGA STOREHOUSE INC.", "designationCode": "A", "categoryCode": "03", "address": "P.O. BOX 2137", "city": "STEINBACK", "province": "MB", "country": "CA", "postalCode": "R5G1N7", "twitter": "None", "instagram": "None", "facebook": "None", "youtube": "None", "website": "None", "summary": "None", "logo": "None", "latitude": 49.52572800000006, "longitude": -96.68393449999994}, "890100274RR0001": {"name": "OMEMEE CHILDREN'S CENTRE", "designationCode": "C", "categoryCode": "01", "address": "17 JAMES ST                   P.O.BOX 280", "city": "OMEMEE", "province": "ON", "country": "CA", "postalCode": "K0L2W0", "twitter": "None", "instagram": "None", "facebook": "None", "youtube": "None", "website": "None", "summary": "None", "logo": "None", "latitude": 44.29884829962343, "longitude": -78.56135670999168}, "857377360RR0001": {"name": "OMEMEE FOOD BANK", "designationCode": "C", "categoryCode": "09", "address": "P.O. BOX 46", "city": "OMEMEE", "province": "ON", "country": "CA", "postalCode": "K0L2W0", "twitter": "None", "instagram": "None", "facebook": "None", "youtube": "None", "website": "None", "summary": "None", "logo": "None", "latitude": 44.29912000000007, "longitude": -78.55888999999996}, "861625440RR0001": {"name": "OMI LACOMBE CANADA INC.", "designationCode": "C", "categoryCode": "47", "address": "96 EMPRESS AVE", "city": "OTTAWA", "province": "ON", "country": "CA", "postalCode": "K1R7G3", "twitter": "None", "instagram": "None", "facebook": "None", "youtube": "None", "website": "None", "summary": "None", "logo": "None", "latitude": 45.411189077702204, "longitude": -75.70929188902963}, "892543745RR0001": {"name": "OMI ST PETER'S CONTINUING CARE FOUNDATION", "designationCode": "C", "categoryCode": "39", "address": "96 EMPRESS AVE", "city": "OTTAWA", "province": "ON", "country": "CA", "postalCode": "K1R7G3", "twitter": "None", "instagram": "None", "facebook": "None", "youtube": "None", "website": "None", "summary": "None", "logo": "None", "latitude": 45.411189077702204, "longitude": -75.70929188902963}, "818102998RR0001": {"name": "OMID Foundation Canada", "designationCode": "C", "categoryCode": "21", "address": "29 METHUEN AVE", "city": "YORK", "province": "ON", "country": "CA", "postalCode": "M6S1Z7", "twitter": "None", "instagram": "None", "facebook": "None", "youtube": "None", "website": "None", "summary": "None", "logo": "None", "latitude": 43.655700845951934, "longitude": -79.48887586580301}, "132019720RR0001": {"name": "OMINECA PASTORAL CHARGE", "designationCode": "C", "categoryCode": "44", "address": "PO BOX 55", "city": "VANDERHOOF", "province": "BC", "country": "CA", "postalCode": "V0J3A0", "twitter": "None", "instagram": "None", "facebook": "None", "youtube": "None", "website": "None", "summary": "None", "logo": "None", "latitude": 54.01397400000006, "longitude": -124.01297449999993}, "893192641RR0001": {"name": "OMINECA SAFE HOME SOCIETY", "designationCode": "C", "categoryCode": "01", "address": "P.O.BOX 1126", "city": "VANDERHOOF", "province": "BC", "country": "CA", "postalCode": "V0J3A0", "twitter": "None", "instagram": "None", "facebook": "None", "youtube": "None", "website": "None", "summary": "None", "logo": "None", "latitude": 54.01397400000006, "longitude": -124.01297449999993}, "107795692RR0001": {"name": "OMNI LEARNING CENTRE", "designationCode": "C", "categoryCode": "01", "address": "350 DUNDAS ST W", "city": "BELLEVILLE", "province": "ON", "country": "CA", "postalCode": "K8P1B2", "twitter": "None", "instagram": "None", "facebook": "None", "youtube": "None", "website": "None", "summary": "None", "logo": "None", "latitude": 44.14930330864439, "longitude": -77.40183317014822}, "107795809RR0001": {"name": "OMOND MEMORIAL UNITED CHURCH", "designationCode": "C", "categoryCode": "44", "address": "319 MCKENZIE AVE", "city": "NORTH BAY", "province": "ON", "country": "CA", "postalCode": "P1B7E3", "twitter": "None", "instagram": "None", "facebook": "None", "youtube": "None", "website": "None", "summary": "None", "logo": "None", "latitude": 46.32865847735032, "longitude": -79.45357066763806}, "119067130RR0001": {"name": "OMS INTERNATIONAL - CANADA", "designationCode": "C", "categoryCode": "47", "address": "PO BOX 1457 STN LCD 1", "city": "BURLINGTON", "province": "ON", "country": "CA", "postalCode": "L7R4L9", "twitter": "None", "instagram": "None", "facebook": "None", "youtube": "None", "website": "None", "summary": "None", "logo": "None", "latitude": 43.326195000000055, "longitude": -79.79863399999994}, "857227813RR0001": {"name": "ON A ROCK CHRISTIAN SCHOOL OF WATERLOO REGION", "designationCode": "C", "categoryCode": "20", "address": "28 KATHERINE STREET S", "city": "WINTERBOURNE", "province": "ON", "country": "CA", "postalCode": "N0B2V0", "twitter": "None", "instagram": "None", "facebook": "None", "youtube": "None", "website": "None", "summary": "None", "logo": "None", "latitude": 43.557204236716714, "longitude": -80.46907411101563}, "134096700RR0001": {"name": "ON CAMPUS DAY CARE SOCIETY", "designationCode": "C", "categoryCode": "01", "address": "10625-104TH AVE.", "city": "GRAND PRAIRIE", "province": "AB", "country": "CA", "postalCode": "T8V4C4", "twitter": "None", "instagram": "None", "facebook": "None", "youtube": "None", "website": "None", "summary": "None", "logo": "None", "latitude": 55.17428300986442, "longitude": -118.81424785915254}, "867353245RR0001": {"name": "ON EAGLE'S WINGS ECUMENICAL MINISTRIES INC./LES MINISTERES OECUMENIQUES SUR LES AILES DE L'AIGLE INC.", "designationCode": "C", "categoryCode": "47", "address": "10072-164 ST", "city": "EDMONTON", "province": "AB", "country": "CA", "postalCode": "T5P4Y3", "twitter": "None", "instagram": "None", "facebook": "None", "youtube": "None", "website": "None", "summary": "None", "logo": "None", "latitude": 53.540153696087486, "longitude": -113.60457617822696}, "854580206RR0001": {"name": "ON EAGLES WINGS MINISTRIES ASSOCIATION", "designationCode": "C", "categoryCode": "09", "address": "6575 HIGHWAY 217              RR 1", "city": "SANDY COVE", "province": "NS", "country": "CA", "postalCode": "B0V1E0", "twitter": "None", "instagram": "None", "facebook": "None", "youtube": "None", "website": "None", "summary": "None", "logo": "None", "latitude": 44.49317666089088, "longitude": -66.08308883492478}, "867903635RR0001": {"name": "ON SITE PLACEMENT SERVICES ASSOCIATION", "designationCode": "C", "categoryCode": "59", "address": "200 - 10025 106 ST NW", "city": "EDMONTON", "province": "AB", "country": "CA", "postalCode": "T5J1G4", "twitter": "None", "instagram": "None", "facebook": "None", "youtube": "None", "website": "None", "summary": "None", "logo": "None", "latitude": 53.539433748542905, "longitude": -113.50289426348922}, "886165406RR0001": {"name": "ON THE EDGE OF TIME MINISTRIES", "designationCode": "C", "categoryCode": "36", "address": "86 GEORGETOWN DR", "city": "WINNIPEG", "province": "MB", "country": "CA", "postalCode": "R3Y1V1", "twitter": "None", "instagram": "None", "facebook": "None", "youtube": "None", "website": "None", "summary": "None", "logo": "None", "latitude": 49.80542917733293, "longitude": -97.21250196528952}, "812842474RR0001": {"name": "ON THE GROUND SOCIETY FOR DOCUMENTARY PHOTOGRAPHY", "designationCode": "C", "categoryCode": "22", "address": "1591 TUNSTALL BLVD.", "city": "BOWEN ISLAND", "province": "BC", "country": "CA", "postalCode": "V0N1G0", "twitter": "None", "instagram": "None", "facebook": "None", "youtube": "None", "website": "None", "summary": "None", "logo": "None", "latitude": 49.353330150495474, "longitude": -123.41282224574896}, "107982928RR0001": {"name": "ON THE MOVE INCORPORATED", "designationCode": "C", "categoryCode": "20", "address": "1777 GRANT AVENUE", "city": "WINNIPEG", "province": "MB", "country": "CA", "postalCode": "R3N0M9", "twitter": "None", "instagram": "None", "facebook": "None", "youtube": "None", "website": "None", "summary": "None", "logo": "None", "latitude": 49.85704647879262, "longitude": -97.19964174992788}, "119067148RR0001": {"name": "ONAKE CORPORATION", "designationCode": "C", "categoryCode": "22", "address": "1 RONATHAHONNI LANE", "city": "AKWESASNE", "province": "ON", "country": "CA", "postalCode": "K6H5R7", "twitter": "None", "instagram": "None", "facebook": "None", "youtube": "None", "website": "None", "summary": "None", "logo": "None", "latitude": 45.00093150000001, "longitude": -74.72392199999999}, "119067155RR0001": {"name": "ONANOLE AND DISTRICT RECREATION CORPORATION", "designationCode": "C", "categoryCode": "56", "address": "PO BOX 131", "city": "ONANOLE", "province": "MB", "country": "CA", "postalCode": "R0J1N0", "twitter": "None", "instagram": "None", "facebook": "None", "youtube": "None", "website": "None", "summary": "None", "logo": "None", "latitude": 50.62285000000003, "longitude": -99.96866999999997}, "119067171RR0001": {"name": "ONANOLE FOUNDATION INC.", "designationCode": "A", "categoryCode": "53", "address": "PO BOX 178", "city": "ONANOLE", "province": "MB", "country": "CA", "postalCode": "R0J1N0", "twitter": "None", "instagram": "None", "facebook": "None", "youtube": "None", "website": "None", "summary": "None", "logo": "None", "latitude": 50.62285000000003, "longitude": -99.96866999999997}, "826286635RR0001": {"name": "ONCORE SENIORS SOCIETY", "designationCode": "C", "categoryCode": "09", "address": "760 MAYFAIR ST", "city": "KAMLOOPS", "province": "BC", "country": "CA", "postalCode": "V2B0E5", "twitter": "None", "instagram": "None", "facebook": "None", "youtube": "None", "website": "None", "summary": "None", "logo": "None", "latitude": 50.698916580904836, "longitude": -120.39770535333818}, "895408177RR0001": {"name": "ONE ACCORD BIBLE FELLOWSHIP BAPTIST CHURCH", "designationCode": "C", "categoryCode": "31", "address": "10802 93 ST NW", "city": "EDMONTON", "province": "AB", "country": "CA", "postalCode": "T5H1Y6", "twitter": "None", "instagram": "None", "facebook": "None", "youtube": "None", "website": "None", "summary": "None", "logo": "None", "latitude": 53.555524020255106, "longitude": -113.48093504319326}, "873548846RR0001": {"name": "ONE BODY MINISTRIES", "designationCode": "C", "categoryCode": "39", "address": "2366 GLENGARRY RD", "city": "MISSISSAUGA", "province": "ON", "country": "CA", "postalCode": "L5C1Y2", "twitter": "None", "instagram": "None", "facebook": "None", "youtube": "None", "website": "None", "summary": "None", "logo": "None", "latitude": 43.552109568122894, "longitude": -79.63536740218693}, "135654184RR0001": {"name": "ONE CARE HOME AND COMMUNITY SUPPORT SERVICES", "designationCode": "C", "categoryCode": "11", "address": "PO BOX 222                    317 HURON ST", "city": "CLINTON", "province": "ON", "country": "CA", "postalCode": "N0M1L0", "twitter": "None", "instagram": "None", "facebook": "None", "youtube": "None", "website": "None", "summary": "None", "logo": "None", "latitude": 43.62124084774284, "longitude": -81.54902919698813}, "815788476RR0001": {"name": "ONE CHILD'S VILLAGE: A GLOBAL ORPHANS FOUNDATION", "designationCode": "C", "categoryCode": "09", "address": "SUITE 3382                    11007 JASPER AVENUE", "city": "EDMONTON", "province": "AB", "country": "CA", "postalCode": "T5K0K6", "twitter": "None", "instagram": "None", "facebook": "None", "youtube": "None", "website": "None", "summary": "None", "logo": "None", "latitude": 53.54088850288552, "longitude": -113.51116269317329}, "119067197RR0001": {"name": "ONE ELEVEN SENIOR CITIZENS CENTRE INC.", "designationCode": "C", "categoryCode": "56", "address": "111 LARCH STREET", "city": "SUDBURY", "province": "ON", "country": "CA", "postalCode": "P3E4T5", "twitter": "None", "instagram": "None", "facebook": "None", "youtube": "None", "website": "None", "summary": "None", "logo": "None", "latitude": 46.49124153028181, "longitude": -80.9926881898312}, "853233542RR0001": {"name": "ONE FAMILY FUND CANADA", "designationCode": "C", "categoryCode": "09", "address": "601-36 EGLINTON AVE W", "city": "TORONTO", "province": "ON", "country": "CA", "postalCode": "M4R1A1", "twitter": "None", "instagram": "None", "facebook": "None", "youtube": "None", "website": "None", "summary": "None", "logo": "None", "latitude": 43.706429223440374, "longitude": -79.39989737552654}, "859867194RR0001": {"name": "ONE FIVE ONE OUTREACH ASSOCIATION", "designationCode": "B", "categoryCode": "53", "address": "2549 LUCINDE RD", "city": "WEST KELOWNA", "province": "BC", "country": "CA", "postalCode": "V1Z4B1", "twitter": "None", "instagram": "None", "facebook": "None", "youtube": "None", "website": "None", "summary": "None", "logo": "None", "latitude": 49.863294667591994, "longitude": -119.53746500591659}, "865217897RR0001": {"name": "ONE HOLY CATHOLIC APOSTOLIC CHURCH SAINT JOHN THEOLOGIAN TRUE ORTHODOX CONFESSION", "designationCode": "C", "categoryCode": "39", "address": "421 RESTIGOUCHE RIVER RD", "city": "MANN'S MOUNTAIN", "province": "NB", "country": "CA", "postalCode": "E3N4X1", "twitter": "None", "instagram": "None", "facebook": "None", "youtube": "None", "website": "None", "summary": "None", "logo": "None", "latitude": 47.95068253479741, "longitude": -66.94980185769562}, "891364440RR0001": {"name": "ONE HUNDRED MILE HOUSE FOOD BANK SOCIETY", "designationCode": "C", "categoryCode": "09", "address": "5693 HORSE LAKE ROAD", "city": "100 MILE HOUSE", "province": "BC", "country": "CA", "postalCode": "V0K2E0", "twitter": "None", "instagram": "None", "facebook": "None", "youtube": "None", "website": "None", "summary": "None", "logo": "None", "latitude": 51.63790154802323, "longitude": -121.29619719548779}, "108102674RR0001": {"name": "ONE HUNDRED MILE HOUSE PASTORAL CHARGE", "designationCode": "C", "categoryCode": "44", "address": "BOX 224", "city": "100 MILE HOUSE", "province": "BC", "country": "CA", "postalCode": "V0K2E0", "twitter": "None", "instagram": "None", "facebook": "None", "youtube": "None", "website": "None", "summary": "None", "logo": "None", "latitude": 51.62931000000003, "longitude": -121.30063999999999}, "839996873RR0001": {"name": "ONE KIDS PLACE CHILDREN'S MEDICAL TREATMENT CENTRE OF NORTH EAST ONTARIO", "designationCode": "C", "categoryCode": "11", "address": "400 MCKEOWN AVE", "city": "NORTH BAY", "province": "ON", "country": "CA", "postalCode": "P1B0B2", "twitter": "None", "instagram": "None", "facebook": "None", "youtube": "None", "website": "None", "summary": "None", "logo": "None", "latitude": 46.33396504693057, "longitude": -79.4867789651941}, "849983929RR0001": {"name": "ONE LIFE MAKES A DIFFERENCE", "designationCode": "C", "categoryCode": "21", "address": "2000-1874 SCARTH ST", "city": "REGINA", "province": "SK", "country": "CA", "postalCode": "S4P4B3", "twitter": "None", "instagram": "None", "facebook": "None", "youtube": "None", "website": "None", "summary": "None", "logo": "None", "latitude": 50.44907700000002, "longitude": -104.61085314963331}, "873973903RR0001": {"name": "ONE LITTLE GOAT THEATRE COMPANY INC.", "designationCode": "C", "categoryCode": "22", "address": "422 BRUNSWICK AVENUE", "city": "TORONTO", "province": "ON", "country": "CA", "postalCode": "M5R2Z4", "twitter": "None", "instagram": "None", "facebook": "None", "youtube": "None", "website": "None", "summary": "None", "logo": "None", "latitude": 43.67038448681402, "longitude": -79.40924660909445}, "746597491RR0001": {"name": "ONE MORE CANDLE, INC.", "designationCode": "B", "categoryCode": "49", "address": "295 ELM ST", "city": "WINNIPEG", "province": "MB", "country": "CA", "postalCode": "R3M3N6", "twitter": "None", "instagram": "None", "facebook": "None", "youtube": "None", "website": "None", "summary": "None", "logo": "None", "latitude": 49.869803378296496, "longitude": -97.17993277869441}, "894140466RR0001": {"name": "ONE PARENT FAMILIES ASSOCIATION OF CANADA-L'ASSOCIATION DES FAMILLES UNI-PARENTAL DU CANADA", "designationCode": "C", "categoryCode": "59", "address": "P.O. BOX 628 STN. MAIN", "city": "PICKERING", "province": "ON", "country": "CA", "postalCode": "L1V3T3", "twitter": "None", "instagram": "None", "facebook": "None", "youtube": "None", "website": "None", "summary": "None", "logo": "None", "latitude": 43.837818000000055, "longitude": -79.08191449999994}, "882722317RR0001": {"name": "ONE TO ONE LITERACY SOCIETY", "designationCode": "C", "categoryCode": "21", "address": "500 - 610 MAIN ST", "city": "VANCOUVER", "province": "BC", "country": "CA", "postalCode": "V6A2V3", "twitter": "None", "instagram": "None", "facebook": "None", "youtube": "None", "website": "None", "summary": "None", "logo": "None", "latitude": 49.279329707163114, "longitude": -123.09969365930993}, "103997607RR0001": {"name": "ONE WAY CLUB SOCIETY", "designationCode": "C", "categoryCode": "57", "address": "22270 NORTH AVENUE", "city": "MAPLE RIDGE", "province": "BC", "country": "CA", "postalCode": "V2X2L5", "twitter": "None", "instagram": "None", "facebook": "None", "youtube": "None", "website": "None", "summary": "None", "logo": "None", "latitude": 49.21591050678068, "longitude": -122.60540288773154}, "889180691RR0001": {"name": "ONE WAY MINISTRIES", "designationCode": "C", "categoryCode": "47", "address": "89 AURIGA DRIVE", "city": "NEPEAN", "province": "ON", "country": "CA", "postalCode": "K2E7Z2", "twitter": "None", "instagram": "None", "facebook": "None", "youtube": "None", "website": "None", "summary": "None", "logo": "None", "latitude": 45.32790875685278, "longitude": -75.71363925033192}, "127095826RR0001": {"name": "ONE YELLOW RABBIT THEATRE ASSOCIATION", "designationCode": "C", "categoryCode": "22", "address": "UNIT 21-225 - 8TH AVE. SE", "city": "CALGARY", "province": "AB", "country": "CA", "postalCode": "T2G0K8", "twitter": "None", "instagram": "None", "facebook": "None", "youtube": "None", "website": "None", "summary": "None", "logo": "None", "latitude": 51.04529839412765, "longitude": -114.05908251801647}, "881192017RR0001": {"name": "ONE! INTERNATIONAL POVERTY RELIEF", "designationCode": "C", "categoryCode": "09", "address": "112 GARLAND CR.", "city": "SHER. PARK", "province": "AB", "country": "CA", "postalCode": "T8A2R2", "twitter": "None", "instagram": "None", "facebook": "None", "youtube": "None", "website": "None", "summary": "None", "logo": "None", "latitude": 53.52882150262573, "longitude": -113.27272345923}, "871545513RR0001": {"name": "ONE-TO-ONE INTERNATIONAL INC.", "designationCode": "C", "categoryCode": "09", "address": "POST BOX 22145", "city": "SASKATOON", "province": "SK", "country": "CA", "postalCode": "S7H5P1", "twitter": "None", "instagram": "None", "facebook": "None", "youtube": "None", "website": "None", "summary": "None", "logo": "None", "latitude": 52.13049000000005, "longitude": -106.65926449999994}, "892814567RR0001": {"name": "ONEG SHABBOS CONGREGATION", "designationCode": "C", "categoryCode": "42", "address": "6335 MOUNTAIN SIGHTS", "city": "MONTREAL", "province": "QC", "country": "CA", "postalCode": "H3W2Z4", "twitter": "None", "instagram": "None", "facebook": "None", "youtube": "None", "website": "None", "summary": "None", "logo": "None", "latitude": 45.49181416654155, "longitude": -73.64347946612622}, "119067239RR0001": {"name": "ONEIDA UNITED CHURCH", "designationCode": "C", "categoryCode": "44", "address": "5 CLARE INNIS CRT", "city": "CALEDONIA", "province": "ON", "country": "CA", "postalCode": "N3W1G5", "twitter": "None", "instagram": "None", "facebook": "None", "youtube": "None", "website": "None", "summary": "None", "logo": "None", "latitude": 43.06346646768411, "longitude": -79.94806542062437}, "860018241RR0001": {"name": "ONELIGHT THEATRE SOCIETY", "designationCode": "C", "categoryCode": "22", "address": "PO BOX 1603", "city": "HALIFAX CRO", "province": "NS", "country": "CA", "postalCode": "B3J2Y3", "twitter": "None", "instagram": "None", "facebook": "None", "youtube": "None", "website": "None", "summary": "None", "logo": "None", "latitude": 44.645478000000054, "longitude": -63.576552499999934}, "868307778RR0001": {"name": "ONENESS - WORLD COMMUNICATIONS", "designationCode": "C", "categoryCode": "22", "address": "201 DES PERES-BLANCS AVENUE", "city": "OTTAWA", "province": "ON", "country": "CA", "postalCode": "K1L7M1", "twitter": "None", "instagram": "None", "facebook": "None", "youtube": "None", "website": "None", "summary": "None", "logo": "None", "latitude": 45.44065659562001, "longitude": -75.66485163142701}, "119067254RR0001": {"name": "ONENESS PENTECOSTAL CHURCH", "designationCode": "C", "categoryCode": "39", "address": "18 SECOND AVE", "city": "BRANTFORD", "province": "ON", "country": "CA", "postalCode": "N3S6R1", "twitter": "None", "instagram": "None", "facebook": "None", "youtube": "None", "website": "None", "summary": "None", "logo": "None", "latitude": 43.14293426341983, "longitude": -80.23727208588983}, "862999380RR0001": {"name": "ONESIMUS GLOBAL FOUNDATION", "designationCode": "B", "categoryCode": "03", "address": "26 PEACEFUL PLACE", "city": "BRAMPTON", "province": "ON", "country": "CA", "postalCode": "L6S4E6", "twitter": "None", "instagram": "None", "facebook": "None", "youtube": "None", "website": "None", "summary": "None", "logo": "None", "latitude": 43.75012382817834, "longitude": -79.73666621567875}, "868981333RR0001": {"name": "ONESTOP LIFE CENTRE INC.", "designationCode": "C", "categoryCode": "36", "address": "PO 624", "city": "WEYBURN", "province": "SK", "country": "CA", "postalCode": "S4H2K7", "twitter": "None", "instagram": "None", "facebook": "None", "youtube": "None", "website": "None", "summary": "None", "logo": "None", "latitude": 49.66802700000005, "longitude": -103.85818999999994}, "107538415RR0001": {"name": "ONESTP-ONTARIO NETWORK OF EMPLOYMENT SKILLS TRAINING PROJECTS", "designationCode": "C", "categoryCode": "20", "address": "116 INDUSTRY ST", "city": "YORK", "province": "ON", "country": "CA", "postalCode": "M6M4L8", "twitter": "None", "instagram": "None", "facebook": "None", "youtube": "None", "website": "None", "summary": "None", "logo": "None", "latitude": 43.69335274744639, "longitude": -79.49283912502172}, "833411473RR0001": {"name": "ONEXONE FOUNDATION/FONDATION ONEXONE", "designationCode": "A", "categoryCode": "03", "address": "200 - 140 YONGE ST", "city": "TORONTO", "province": "ON", "country": "CA", "postalCode": "M5C1X6", "twitter": "None", "instagram": "None", "facebook": "None", "youtube": "None", "website": "None", "summary": "None", "logo": "None", "latitude": 43.65116226810552, "longitude": -79.37877640149445}, "831692884RR0001": {"name": "ONE22 Ministries", "designationCode": "C", "categoryCode": "47", "address": "176 ABAGAIL ST", "city": "STRATHROY", "province": "ON", "country": "CA", "postalCode": "N7G4H4", "twitter": "None", "instagram": "None", "facebook": "None", "youtube": "None", "website": "None", "summary": "None", "logo": "None", "latitude": 42.969416524525606, "longitude": -81.6244425}, "842776460RR0001": {"name": "ONG Navti fondation Canada / NGO Navti Foundation Canada", "designationCode": "C", "categoryCode": "21", "address": "CP 52044 CSP ST-FIDELE", "city": "QUEBEC", "province": "QC", "country": "CA", "postalCode": "G1L5A4", "twitter": "None", "instagram": "None", "facebook": "None", "youtube": "None", "website": "None", "summary": "None", "logo": "None", "latitude": 46.81272300000006, "longitude": -71.21930299999994}, "107796393RR0001": {"name": "ONGWANADA HOSPITAL", "designationCode": "C", "categoryCode": "11", "address": "191 PORTSMOUTH AVE", "city": "KINGSTON", "province": "ON", "country": "CA", "postalCode": "K7M8A6", "twitter": "None", "instagram": "None", "facebook": "None", "youtube": "None", "website": "None", "summary": "None", "logo": "None", "latitude": 44.22705417260513, "longitude": -76.52571113250146}, "856315270RR0001": {"name": "ONLY BELIEVE MINISTRIES INC.", "designationCode": "C", "categoryCode": "39", "address": "21 POL COURT", "city": "ST. THOMAS", "province": "ON", "country": "CA", "postalCode": "N5R5P9", "twitter": "None", "instagram": "None", "facebook": "None", "youtube": "None", "website": "None", "summary": "None", "logo": "None", "latitude": 42.768023840217175, "longitude": -81.16459821383994}, "866668874RR0001": {"name": "ONLY JESUS GLOBAL MISSIONS", "designationCode": "B", "categoryCode": "49", "address": "24 WOODPATH TERR SW", "city": "CALGARY", "province": "AB", "country": "CA", "postalCode": "T2W5Z7", "twitter": "None", "instagram": "None", "facebook": "None", "youtube": "None", "website": "None", "summary": "None", "logo": "None", "latitude": 50.93539035443471, "longitude": -114.13769404163538}}