{"131473308RR0001": {"name": "LA FABRIQUE DE LA PAROISSE DE SAINT-NAZAIRE D'ACTON", "designationCode": "C", "categoryCode": "38", "address": "320 RUE PRINCIPALE", "city": "ST-NAZAIRE D'ACTON", "province": "QC", "country": "CA", "postalCode": "J0H1V0", "twitter": "None", "instagram": "None", "facebook": "None", "youtube": "None", "website": "None", "summary": "None", "logo": "None", "latitude": 45.73764666912038, "longitude": -72.61854234386202}, "118993849RR0001": {"name": "LA FABRIQUE DE LA PAROISSE DE SAINT-NAZAIRE, ARCHIDIOCESE DE MONTREAL", "designationCode": "C", "categoryCode": "38", "address": "111 RUE BELANGER", "city": "LASALLE", "province": "QC", "country": "CA", "postalCode": "H8R3K7", "twitter": "None", "instagram": "None", "facebook": "None", "youtube": "None", "website": "None", "summary": "None", "logo": "None", "latitude": 45.42501112877263, "longitude": -73.65377051272462}, "118907245RR0001": {"name": "LA FABRIQUE DE LA PAROISSE DE SAINT-OCTAVE-DE-METIS", "designationCode": "C", "categoryCode": "38", "address": "201 DE L'EGLISE, C.P.9", "city": "ST-OCTAVE-DE-METIS", "province": "QC", "country": "CA", "postalCode": "G0J3B0", "twitter": "None", "instagram": "None", "facebook": "None", "youtube": "None", "website": "None", "summary": "None", "logo": "None"}, "107364333RR0001": {"name": "LA FABRIQUE DE LA PAROISSE DE SAINT-OMER", "designationCode": "C", "categoryCode": "38", "address": "100 A ROUTE DE L'EGLISE", "city": "ST-OMER", "province": "QC", "country": "CA", "postalCode": "G0C2Z0", "twitter": "None", "instagram": "None", "facebook": "None", "youtube": "None", "website": "None", "summary": "None", "logo": "None", "latitude": 48.1104023982918, "longitude": -66.21911651664843}, "118993880RR0001": {"name": "LA FABRIQUE DE LA PAROISSE DE SAINT-PACOME", "designationCode": "C", "categoryCode": "38", "address": "222 BOUL. BEGIN", "city": "SAINT-PACOME", "province": "QC", "country": "CA", "postalCode": "G0L3X0", "twitter": "None", "instagram": "None", "facebook": "None", "youtube": "None", "website": "None", "summary": "None", "logo": "None", "latitude": 47.40977219040333, "longitude": -69.9479470775293}, "130533367RR0001": {"name": "LA FABRIQUE DE LA PAROISSE DE SAINT-PADRE PIO", "designationCode": "C", "categoryCode": "38", "address": "608 NOTRE-DAME                C.P. 9", "city": "SAINT-CHRYSOSTOME", "province": "QC", "country": "CA", "postalCode": "J0S1R0", "twitter": "None", "instagram": "None", "facebook": "None", "youtube": "None", "website": "None", "summary": "None", "logo": "None", "latitude": 45.10489120183135, "longitude": -73.75757886238289}, "130485964RR0001": {"name": "LA FABRIQUE DE LA PAROISSE DE SAINT-PAMPHILE", "designationCode": "C", "categoryCode": "38", "address": "44 DE L'EGLISE", "city": "ST-PAMPHILE", "province": "QC", "country": "CA", "postalCode": "G0R3X0", "twitter": "None", "instagram": "None", "facebook": "None", "youtube": "None", "website": "None", "summary": "None", "logo": "None", "latitude": 46.95984657787508, "longitude": -69.77940969709708}, "107369878RR0001": {"name": "LA FABRIQUE DE LA PAROISSE DE SAINT-PATRICE", "designationCode": "C", "categoryCode": "38", "address": "234 ST-PATRICE", "city": "SHERRINGTON", "province": "QC", "country": "CA", "postalCode": "J0L2N0", "twitter": "None", "instagram": "None", "facebook": "None", "youtube": "None", "website": "None", "summary": "None", "logo": "None", "latitude": 45.16600311796301, "longitude": -73.52499390800722}, "126428051RR0001": {"name": "LA FABRIQUE DE LA PAROISSE DE SAINT-PATRICE", "designationCode": "C", "categoryCode": "38", "address": "115 MERRY-NORD", "city": "MAGOG", "province": "QC", "country": "CA", "postalCode": "J1X2E9", "twitter": "None", "instagram": "None", "facebook": "None", "youtube": "None", "website": "None", "summary": "None", "logo": "None", "latitude": 45.26855940244675, "longitude": -72.15537904795377}, "131663957RR0001": {"name": "LA FABRIQUE DE LA PAROISSE DE SAINT-PATRICE-DE-DOUGLASTOWN", "designationCode": "C", "categoryCode": "38", "address": "782 DOUGLAS BLVD", "city": "GASPE", "province": "QC", "country": "CA", "postalCode": "G4X2W8", "twitter": "None", "instagram": "None", "facebook": "None", "youtube": "None", "website": "None", "summary": "None", "logo": "None", "latitude": 48.76434888410891, "longitude": -64.37928414176457}, "108035353RR0001": {"name": "LA FABRIQUE DE LA PAROISSE DE SAINT-PATRICK", "designationCode": "C", "categoryCode": "38", "address": "340 WHITEHEAD ST", "city": "TROIS-RIVIERES", "province": "QC", "country": "CA", "postalCode": "G9A3M1", "twitter": "None", "instagram": "None", "facebook": "None", "youtube": "None", "website": "None", "summary": "None", "logo": "None", "latitude": 46.35743226732611, "longitude": -72.54599722696014}, "107369910RR0001": {"name": "LA FABRIQUE DE LA PAROISSE DE SAINT-PAUL", "designationCode": "C", "categoryCode": "38", "address": "26, CH. EARDLEY", "city": "GATINEAU", "province": "QC", "country": "CA", "postalCode": "J9H0K2", "twitter": "None", "instagram": "None", "facebook": "None", "youtube": "None", "website": "None", "summary": "None", "logo": "None", "latitude": 45.39729468916257, "longitude": -75.84743849443142}, "118909712RR0001": {"name": "LA FABRIQUE DE LA PAROISSE DE SAINT-PAUL-DE-CHESTER", "designationCode": "C", "categoryCode": "38", "address": "500, RUE DE L'ACCUEIL", "city": "CHESTERVILLE", "province": "QC", "country": "CA", "postalCode": "G0P1J0", "twitter": "None", "instagram": "None", "facebook": "None", "youtube": "None", "website": "None", "summary": "None", "logo": "None", "latitude": 45.962516275578686, "longitude": -71.82234257894294}, "107369936RR0001": {"name": "LA FABRIQUE DE LA PAROISSE DE SAINT-PAUL-DE-LA-CROIX", "designationCode": "C", "categoryCode": "38", "address": "5 DE L'\u00c9GLISE NORD", "city": "ST-PAUL DE LA CROIX", "province": "QC", "country": "CA", "postalCode": "G0L3Z0", "twitter": "None", "instagram": "None", "facebook": "None", "youtube": "None", "website": "None", "summary": "None", "logo": "None", "latitude": 47.9534339536614, "longitude": -69.19585067355335}, "118993922RR0001": {"name": "LA FABRIQUE DE LA PAROISSE DE SAINT-PAUL-DE-MONTMINY", "designationCode": "C", "categoryCode": "38", "address": "311 4E AVENUE", "city": "ST-PAUL-DE-MONTMAGNY", "province": "QC", "country": "CA", "postalCode": "G0R3Y0", "twitter": "None", "instagram": "None", "facebook": "None", "youtube": "None", "website": "None", "summary": "None", "logo": "None", "latitude": 46.73023677604002, "longitude": -70.36093184950036}, "130921745RR0001": {"name": "LA FABRIQUE DE LA PAROISSE DE SAINT-PAUL-L'ERMITE", "designationCode": "C", "categoryCode": "38", "address": "377 RUE DU VILLAGE", "city": "REPENTIGNY", "province": "QC", "country": "CA", "postalCode": "J5Z1S6", "twitter": "None", "instagram": "None", "facebook": "None", "youtube": "None", "website": "None", "summary": "None", "logo": "None", "latitude": 45.75064303540187, "longitude": -73.47082948885748}, "889531042RR0001": {"name": "LA FABRIQUE DE LA PAROISSE DE SAINT-PHILEMON", "designationCode": "C", "categoryCode": "38", "address": "1414A, RUE PRINCIPALE", "city": "SAINT-PHIL\u00c9MON", "province": "QC", "country": "CA", "postalCode": "G0R4A0", "twitter": "None", "instagram": "None", "facebook": "None", "youtube": "None", "website": "None", "summary": "None", "logo": "None", "latitude": 46.679957559271756, "longitude": -70.45122996020321}, "118993906RR0001": {"name": "LA FABRIQUE DE LA PAROISSE DE SAINT-PHILIPPE-DE-NERI", "designationCode": "C", "categoryCode": "38", "address": "11 COTE DE L'EGLISE CP 100", "city": "SAINT-PHILIPPE-DE-NERI", "province": "QC", "country": "CA", "postalCode": "G0L4A0", "twitter": "None", "instagram": "None", "facebook": "None", "youtube": "None", "website": "None", "summary": "None", "logo": "None", "latitude": 47.466986749408285, "longitude": -69.88604269978107}, "118908896RR0001": {"name": "LA FABRIQUE DE LA PAROISSE DE SAINT-PHILLIPE DE JONQUIERE", "designationCode": "C", "categoryCode": "38", "address": "2954 RUE SAINTE-EMILIE", "city": "JONQUIERE", "province": "QC", "country": "CA", "postalCode": "G7S1S1", "twitter": "None", "instagram": "None", "facebook": "None", "youtube": "None", "website": "None", "summary": "None", "logo": "None", "latitude": 48.41508934837518, "longitude": -71.18981869190387}, "118993989RR0001": {"name": "LA FABRIQUE DE LA PAROISSE DE SAINT-PIE", "designationCode": "C", "categoryCode": "38", "address": "165 NOTRE-DAME", "city": "SAINT-PIE-DE-BAGOT", "province": "QC", "country": "CA", "postalCode": "J0H1W0", "twitter": "None", "instagram": "None", "facebook": "None", "youtube": "None", "website": "None", "summary": "None", "logo": "None", "latitude": 45.50234609108973, "longitude": -72.9095710641991}, "107370223RR0001": {"name": "LA FABRIQUE DE LA PAROISSE DE SAINT-PIERRE", "designationCode": "C", "categoryCode": "38", "address": "650 1RE AV", "city": "ST-PIERRE-DE-LA-RIVIERE-DU-SUD", "province": "QC", "country": "CA", "postalCode": "G0R4B0", "twitter": "None", "instagram": "None", "facebook": "None", "youtube": "None", "website": "None", "summary": "None", "logo": "None", "latitude": 46.91406239468511, "longitude": -70.62828740830376}, "118906478RR0001": {"name": "LA FABRIQUE DE LA PAROISSE DE SAINT-PIERRE", "designationCode": "C", "categoryCode": "38", "address": "170 RUE GEORGE", "city": "SOREL-TRACY", "province": "QC", "country": "CA", "postalCode": "J3P1E1", "twitter": "None", "instagram": "None", "facebook": "None", "youtube": "None", "website": "None", "summary": "None", "logo": "None", "latitude": 46.04588080483615, "longitude": -73.10805769037466}, "131717704RR0001": {"name": "LA FABRIQUE DE LA PAROISSE DE SAINT-PIERRE-DU-LAC", "designationCode": "C", "categoryCode": "38", "address": "3 RUE SAINT-PIERRE O", "city": "VAL-BRILLANT", "province": "QC", "country": "CA", "postalCode": "G0J3L0", "twitter": "None", "instagram": "None", "facebook": "None", "youtube": "None", "website": "None", "summary": "None", "logo": "None", "latitude": 48.53364720286815, "longitude": -67.54727301208945}, "131869034RR0001": {"name": "LA FABRIQUE DE LA PAROISSE DE SAINT-PRIME", "designationCode": "C", "categoryCode": "38", "address": "605 RUE PRINCIPALE", "city": "SAINT-PRIME", "province": "QC", "country": "CA", "postalCode": "G8J1T3", "twitter": "None", "instagram": "None", "facebook": "None", "youtube": "None", "website": "None", "summary": "None", "logo": "None", "latitude": 48.5934502642104, "longitude": -72.33627356137089}, "118994102RR0001": {"name": "LA FABRIQUE DE LA PAROISSE DE SAINT-R\u00c9MI", "designationCode": "C", "categoryCode": "38", "address": "840 RUE NOTRE-DAME", "city": "SAINT-REMI", "province": "QC", "country": "CA", "postalCode": "J0L2L0", "twitter": "None", "instagram": "None", "facebook": "None", "youtube": "None", "website": "None", "summary": "None", "logo": "None", "latitude": 45.25927608853303, "longitude": -73.61909261973126}, "107370447RR0001": {"name": "LA FABRIQUE DE LA PAROISSE DE SAINT-R\u00c9MI-DE-M\u00c9TIS", "designationCode": "C", "categoryCode": "38", "address": "33 DE L'EGLISE", "city": "PRICE", "province": "QC", "country": "CA", "postalCode": "G0J1Z0", "twitter": "None", "instagram": "None", "facebook": "None", "youtube": "None", "website": "None", "summary": "None", "logo": "None", "latitude": 48.599611579462554, "longitude": -68.1245371981067}, "107364465RR0001": {"name": "LA FABRIQUE DE LA PAROISSE DE SAINT-RAPHAEL-ARCHANGE", "designationCode": "C", "categoryCode": "39", "address": "495 CHERRIER", "city": "ILE BIZARD", "province": "QC", "country": "CA", "postalCode": "H9C1G4", "twitter": "None", "instagram": "None", "facebook": "None", "youtube": "None", "website": "None", "summary": "None", "logo": "None", "latitude": 45.48660692757794, "longitude": -73.87871006673791}, "107370462RR0001": {"name": "LA FABRIQUE DE LA PAROISSE DE SAINT-REN\u00c9-GOUPIL", "designationCode": "C", "categoryCode": "38", "address": "155 AVE. ST-RENE C.P. 10", "city": "ST-RENE-DE-MATANE", "province": "QC", "country": "CA", "postalCode": "G0J3E0", "twitter": "None", "instagram": "None", "facebook": "None", "youtube": "None", "website": "None", "summary": "None", "logo": "None", "latitude": 48.70666177575158, "longitude": -67.38790916123277}, "118994094RR0001": {"name": "LA FABRIQUE DE LA PAROISSE DE SAINT-RICHARD ARCHIDIOCESE DE MONTREAL", "designationCode": "C", "categoryCode": "38", "address": "7070 CH GUELPH", "city": "COTE SAINT-LUC", "province": "QC", "country": "CA", "postalCode": "H4W1G9", "twitter": "None", "instagram": "None", "facebook": "None", "youtube": "None", "website": "None", "summary": "None", "logo": "None", "latitude": 45.4680238678805, "longitude": -73.66314586756336}, "118906502RR0001": {"name": "LA FABRIQUE DE LA PAROISSE DE SAINT-ROBERT", "designationCode": "C", "categoryCode": "38", "address": "660 CHEMIN ST-ROBERT", "city": "ST-ROBERT", "province": "QC", "country": "CA", "postalCode": "J0G1S0", "twitter": "None", "instagram": "None", "facebook": "None", "youtube": "None", "website": "None", "summary": "None", "logo": "None", "latitude": 45.97218751289753, "longitude": -73.00011602547791}, "121767339RR0001": {"name": "LA FABRIQUE DE LA PAROISSE DE SAINT-ROCH", "designationCode": "C", "categoryCode": "38", "address": "886, RUE SAINT-PIERRE", "city": "SAINT-ROCH-DE-RICHELIEU", "province": "QC", "country": "CA", "postalCode": "J0L2M0", "twitter": "None", "instagram": "None", "facebook": "None", "youtube": "None", "website": "None", "summary": "None", "logo": "None", "latitude": 45.89167014493013, "longitude": -73.15635247815744}, "118994086RR0001": {"name": "LA FABRIQUE DE LA PAROISSE DE SAINT-ROCH ARCHIDIOCESE DE MONTREAL", "designationCode": "C", "categoryCode": "38", "address": "7755A, AV. D'OUTREMONT", "city": "MONTREAL", "province": "QC", "country": "CA", "postalCode": "H3N2M1", "twitter": "None", "instagram": "None", "facebook": "None", "youtube": "None", "website": "None", "summary": "None", "logo": "None", "latitude": 45.528243776766224, "longitude": -73.63120671185692}, "118994037RR0001": {"name": "LA FABRIQUE DE LA PAROISSE DE SAINT-ROCH-DES-AULNAIES", "designationCode": "C", "categoryCode": "38", "address": "974 DE LA SEIGNEURIE          CP 52", "city": "ST ROCH DES AULNAIES", "province": "QC", "country": "CA", "postalCode": "G0R4E0", "twitter": "None", "instagram": "None", "facebook": "None", "youtube": "None", "website": "None", "summary": "None", "logo": "None", "latitude": 47.31095397977356, "longitude": -70.1783290982744}, "118997691RR0001": {"name": "LA FABRIQUE DE LA PAROISSE DE SAINT-ROMAIN", "designationCode": "C", "categoryCode": "38", "address": "327 RUE DE L'EGLISE", "city": "SAINT-ROMAIN", "province": "QC", "country": "CA", "postalCode": "G0Y1L0", "twitter": "None", "instagram": "None", "facebook": "None", "youtube": "None", "website": "None", "summary": "None", "logo": "None", "latitude": 45.786154840412024, "longitude": -71.09216356702638}, "118997717RR0001": {"name": "LA FABRIQUE DE LA PAROISSE DE SAINT-SAUVEUR", "designationCode": "C", "categoryCode": "38", "address": "205 PRINCIPALE", "city": "ST-SAUVEUR-DES-MONTS", "province": "QC", "country": "CA", "postalCode": "J0R1R0", "twitter": "None", "instagram": "None", "facebook": "None", "youtube": "None", "website": "None", "summary": "None", "logo": "None", "latitude": 45.895501600092096, "longitude": -74.15683109983229}, "130031099RR0001": {"name": "LA FABRIQUE DE LA PAROISSE DE SAINT-SAUVEUR", "designationCode": "C", "categoryCode": "38", "address": "215 AVE DES OBLATS CP 55058", "city": "QUEBEC", "province": "QC", "country": "CA", "postalCode": "G1K9A4", "twitter": "None", "instagram": "None", "facebook": "None", "youtube": "None", "website": "None", "summary": "None", "logo": "None", "latitude": 46.81156664611354, "longitude": -71.23534685801273}, "118994144RR0001": {"name": "LA FABRIQUE DE LA PAROISSE DE SAINT-SEBASTIEN", "designationCode": "C", "categoryCode": "38", "address": "780, RUE PIERRE VIGER", "city": "BOUCHERVILLE", "province": "QC", "country": "CA", "postalCode": "J4B3V4", "twitter": "None", "instagram": "None", "facebook": "None", "youtube": "None", "website": "None", "summary": "None", "logo": "None", "latitude": 45.62320429808415, "longitude": -73.45181232592797}, "889103370RR0001": {"name": "LA FABRIQUE DE LA PAROISSE DE SAINT-SIMON-LES MINES", "designationCode": "C", "categoryCode": "38", "address": "3350, RUE PRINCIPALE", "city": "ST-SIMON", "province": "QC", "country": "CA", "postalCode": "G0M1K0", "twitter": "None", "instagram": "None", "facebook": "None", "youtube": "None", "website": "None", "summary": "None", "logo": "None", "latitude": 46.21054979877665, "longitude": -70.68007500251016}, "107370702RR0001": {"name": "LA FABRIQUE DE LA PAROISSE DE SAINT-STANISLAS", "designationCode": "C", "categoryCode": "38", "address": "5661 PRINCIPALE", "city": "ASCOT CORNER", "province": "QC", "country": "CA", "postalCode": "J0B1A0", "twitter": "None", "instagram": "None", "facebook": "None", "youtube": "None", "website": "None", "summary": "None", "logo": "None", "latitude": 45.448569962548206, "longitude": -71.76570630728806}, "118997816RR0001": {"name": "LA FABRIQUE DE LA PAROISSE DE SAINT-STANISLAS", "designationCode": "C", "categoryCode": "38", "address": "950 RUE PRINCIPALE", "city": "ST-STANISLAS", "province": "QC", "country": "CA", "postalCode": "G8M4W7", "twitter": "None", "instagram": "None", "facebook": "None", "youtube": "None", "website": "None", "summary": "None", "logo": "None", "latitude": 49.00648036776493, "longitude": -72.1766277795894}, "107370736RR0001": {"name": "LA FABRIQUE DE LA PAROISSE DE SAINT-SYLVAIN", "designationCode": "C", "categoryCode": "38", "address": "750 BOUL SAINT-SYLVAIN", "city": "LAVAL", "province": "QC", "country": "CA", "postalCode": "H7E2X3", "twitter": "None", "instagram": "None", "facebook": "None", "youtube": "None", "website": "None", "summary": "None", "logo": "None", "latitude": 45.59889284788519, "longitude": -73.65914471262033}, "107820011RR0001": {"name": "LA FABRIQUE DE LA PAROISSE DE SAINT-TELESPHORE, ARCHIDIOCESE DE MONTREAL", "designationCode": "C", "categoryCode": "38", "address": "8811 RUE CENTRALE", "city": "LASALLE", "province": "QC", "country": "CA", "postalCode": "H8P1P1", "twitter": "None", "instagram": "None", "facebook": "None", "youtube": "None", "website": "None", "summary": "None", "logo": "None", "latitude": 45.41688646378896, "longitude": -73.6251525}, "118910538RR0001": {"name": "LA FABRIQUE DE LA PAROISSE DE SAINT-THARSICIUS", "designationCode": "C", "categoryCode": "38", "address": "35 RUE PRINCIPALE N", "city": "SAINT-THARCISIUS", "province": "QC", "country": "CA", "postalCode": "G0J3G0", "twitter": "None", "instagram": "None", "facebook": "None", "youtube": "None", "website": "None", "summary": "None", "logo": "None", "latitude": 48.54627570188721, "longitude": -67.33992290677456}, "118997840RR0001": {"name": "LA FABRIQUE DE LA PAROISSE DE SAINT-THEOPHILE", "designationCode": "C", "categoryCode": "38", "address": "626 RUE PRINCIPALE CP 100", "city": "ST THEOPHILE BEAUCE", "province": "QC", "country": "CA", "postalCode": "G0M2A0", "twitter": "None", "instagram": "None", "facebook": "None", "youtube": "None", "website": "None", "summary": "None", "logo": "None", "latitude": 45.936515362139005, "longitude": -70.48645158987856}, "889909842RR0001": {"name": "LA FABRIQUE DE LA PAROISSE DE SAINT-THEOPHILE-DU-LAC", "designationCode": "C", "categoryCode": "38", "address": "1041, CH. DE LA VIGILANCE", "city": "SHAWINIGAN", "province": "QC", "country": "CA", "postalCode": "G0X1L0", "twitter": "None", "instagram": "None", "facebook": "None", "youtube": "None", "website": "None", "summary": "None", "logo": "None", "latitude": 46.61237602169591, "longitude": -72.63167312393911}, "118994169RR0001": {"name": "LA FABRIQUE DE LA PAROISSE DE SAINT-THOMAS D'AQUIN DE LAC BOUCHETTE", "designationCode": "C", "categoryCode": "38", "address": "241 RUE PRINCIPALE", "city": "LAC-BOUCHETTE", "province": "QC", "country": "CA", "postalCode": "G0W1V0", "twitter": "None", "instagram": "None", "facebook": "None", "youtube": "None", "website": "None", "summary": "None", "logo": "None", "latitude": 48.2585185006925, "longitude": -72.18510739618566}, "107370801RR0001": {"name": "LA FABRIQUE DE LA PAROISSE DE SAINT-THOMAS-D'AQUIN", "designationCode": "C", "categoryCode": "38", "address": "2125 LOUIS-JOLIETT", "city": "STE-FOY", "province": "QC", "country": "CA", "postalCode": "G1V2B7", "twitter": "None", "instagram": "None", "facebook": "None", "youtube": "None", "website": "None", "summary": "None", "logo": "None", "latitude": 46.78869300000005, "longitude": -71.26818649999993}, "118906551RR0001": {"name": "LA FABRIQUE DE LA PAROISSE DE SAINT-THOMAS-D'AQUIN", "designationCode": "C", "categoryCode": "38", "address": "2280 AVENUE BOURDAGES NORD", "city": "ST-HYACINTHE", "province": "QC", "country": "CA", "postalCode": "J2S5R1", "twitter": "None", "instagram": "None", "facebook": "None", "youtube": "None", "website": "None", "summary": "None", "logo": "None", "latitude": 45.6284404535172, "longitude": -72.9565655405102}, "107370835RR0001": {"name": "LA FABRIQUE DE LA PAROISSE DE SAINT-THOMAS-DE-CAXTON", "designationCode": "C", "categoryCode": "38", "address": "391 AVENUE                    ST-THOMAS DE CAXTON", "city": "ST-BARNABE-NORD", "province": "QC", "country": "CA", "postalCode": "G0X2K0", "twitter": "None", "instagram": "None", "facebook": "None", "youtube": "None", "website": "None", "summary": "None", "logo": "None", "latitude": 46.3682530599286, "longitude": -72.79106948713115}, "107370793RR0001": {"name": "LA FABRIQUE DE LA PAROISSE DE SAINT-THOMAS-DE-MONTMAGNY", "designationCode": "C", "categoryCode": "38", "address": "140 EST RUE ST-JEAN-BAPTISTE", "city": "MONTMAGNY", "province": "QC", "country": "CA", "postalCode": "G5V1K6", "twitter": "None", "instagram": "None", "facebook": "None", "youtube": "None", "website": "None", "summary": "None", "logo": "None", "latitude": 46.98117258921472, "longitude": -70.55687031152992}, "131796740RR0001": {"name": "LA FABRIQUE DE LA PAROISSE DE SAINT-THOMAS-DIDYME", "designationCode": "C", "categoryCode": "38", "address": "14 - 9 AV DU MOULIN", "city": "SAINT-THOMAS-DIDYME", "province": "QC", "country": "CA", "postalCode": "G0W1P0", "twitter": "None", "instagram": "None", "facebook": "None", "youtube": "None", "website": "None", "summary": "None", "logo": "None", "latitude": 48.908399910064134, "longitude": -72.66533676712456}, "119232320RR0001": {"name": "LA FABRIQUE DE LA PAROISSE DE SAINT-THOMAS-MORE / THE FABRIQUE OF THE PARISH OF SAINT THOMAS MORE", "designationCode": "C", "categoryCode": "38", "address": "980 MOFFAT AVENUE", "city": "VERDUN", "province": "QC", "country": "CA", "postalCode": "H4H1Y9", "twitter": "None", "instagram": "None", "facebook": "None", "youtube": "None", "website": "None", "summary": "None", "logo": "None", "latitude": 45.45024456174627, "longitude": -73.5772142828207}, "118994151RR0001": {"name": "LA FABRIQUE DE LA PAROISSE DE SAINT-THURIBE", "designationCode": "C", "categoryCode": "38", "address": "369 RUE PRINCIPALE C.P.45", "city": "SAINT-THURIBE", "province": "QC", "country": "CA", "postalCode": "G0A4H0", "twitter": "None", "instagram": "None", "facebook": "None", "youtube": "None", "website": "None", "summary": "None", "logo": "None", "latitude": 46.70773004025041, "longitude": -72.16372717666908}, "130165723RR0001": {"name": "LA FABRIQUE DE LA PAROISSE DE SAINT-UBALDE", "designationCode": "C", "categoryCode": "38", "address": "427 RUE SAINT-PAUL", "city": "SAINT-UBALDE", "province": "QC", "country": "CA", "postalCode": "G0A4L0", "twitter": "None", "instagram": "None", "facebook": "None", "youtube": "None", "website": "None", "summary": "None", "logo": "None", "latitude": 46.7564549392347, "longitude": -72.26904556604543}, "107370918RR0001": {"name": "LA FABRIQUE DE LA PAROISSE DE SAINT-URBAIN", "designationCode": "C", "categoryCode": "38", "address": "1286 CHEMIN DE L'EGLISE", "city": "REMIGNY", "province": "QC", "country": "CA", "postalCode": "J0Z3H0", "twitter": "None", "instagram": "None", "facebook": "None", "youtube": "None", "website": "None", "summary": "None", "logo": "None", "latitude": 47.76126241326679, "longitude": -79.20899112011696}, "118994268RR0001": {"name": "LA FABRIQUE DE LA PAROISSE DE SAINT-VALENTIN", "designationCode": "C", "categoryCode": "38", "address": "3 RANGE ST-GEORGES", "city": "ST-VALENTIN", "province": "QC", "country": "CA", "postalCode": "J0J2E0", "twitter": "None", "instagram": "None", "facebook": "None", "youtube": "None", "website": "None", "summary": "None", "logo": "None", "latitude": 45.12832254509784, "longitude": -73.32580745839327}, "118999382RR0001": {"name": "LA FABRIQUE DE LA PAROISSE DE SAINT-VIATEUR", "designationCode": "C", "categoryCode": "38", "address": "10M RUE BRIDGE", "city": "ORMSTOWN", "province": "QC", "country": "CA", "postalCode": "J0S1K0", "twitter": "None", "instagram": "None", "facebook": "None", "youtube": "None", "website": "None", "summary": "None", "logo": "None", "latitude": 45.12223006860248, "longitude": -73.99075393821117}, "130137045RR0001": {"name": "LA FABRIQUE DE LA PAROISSE DE SAINT-VICTOR", "designationCode": "C", "categoryCode": "38", "address": "2505 RUE HECTOR", "city": "MONTREAL", "province": "QC", "country": "CA", "postalCode": "H1L3X3", "twitter": "None", "instagram": "None", "facebook": "None", "youtube": "None", "website": "None", "summary": "None", "logo": "None", "latitude": 45.61080929615091, "longitude": -73.5158556201743}, "118994243RR0001": {"name": "LA FABRIQUE DE LA PAROISSE DE SAINT-VINCENT FERRIER ARCHIDIOCESE DE MONTREAL", "designationCode": "C", "categoryCode": "38", "address": "8115 AV HENRI-JULIEN", "city": "MONTREAL", "province": "QC", "country": "CA", "postalCode": "H2P2J3", "twitter": "None", "instagram": "None", "facebook": "None", "youtube": "None", "website": "None", "summary": "None", "logo": "None", "latitude": 45.54143590259097, "longitude": -73.63031294226445}, "129379376RR0001": {"name": "LA FABRIQUE DE LA PAROISSE DE SAINT-VINCENT-DE-PAUL (ILE JESUS), ARCHIDIOCESE DE MONTREAL", "designationCode": "C", "categoryCode": "38", "address": "5443, BOUL. LEVESQUE", "city": "LAVAL", "province": "QC", "country": "CA", "postalCode": "H7C1N8", "twitter": "None", "instagram": "None", "facebook": "None", "youtube": "None", "website": "None", "summary": "None", "logo": "None", "latitude": 45.6153994621442, "longitude": -73.64480462288601}, "132270224RR0001": {"name": "LA FABRIQUE DE LA PAROISSE DE SAINT-VINCENT-MARIE-STRAMBI", "designationCode": "C", "categoryCode": "38", "address": "10815 AVE ARMAND-LAVERGNE", "city": "MONTREAL-NORD", "province": "QC", "country": "CA", "postalCode": "H1H3P3", "twitter": "None", "instagram": "None", "facebook": "None", "youtube": "None", "website": "None", "summary": "None", "logo": "None", "latitude": 45.59292191592117, "longitude": -73.63197124975498}, "107364606RR0001": {"name": "LA FABRIQUE DE LA PAROISSE DE SAINT-WILBROD", "designationCode": "C", "categoryCode": "38", "address": "750 RUE SAINT-WILBROD", "city": "H\u00c9BERTVILLE-STATION", "province": "QC", "country": "CA", "postalCode": "G0W1T0", "twitter": "None", "instagram": "None", "facebook": "None", "youtube": "None", "website": "None", "summary": "None", "logo": "None", "latitude": 48.444454876366876, "longitude": -71.6647648083895}, "122185978RR0001": {"name": "LA FABRIQUE DE LA PAROISSE DE SAINT-Z\u00c9NON DU LAC HUMQUI", "designationCode": "C", "categoryCode": "38", "address": "152 RTE 195                   CP88", "city": "LAC-HUMQUI", "province": "QC", "country": "CA", "postalCode": "G0J1N0", "twitter": "None", "instagram": "None", "facebook": "None", "youtube": "None", "website": "None", "summary": "None", "logo": "None", "latitude": 48.30548062669517, "longitude": -67.57920083490076}, "130700354RR0001": {"name": "LA FABRIQUE DE LA PAROISSE DE SAINTE BRIGIDE ARCHIDIOCESE DE MONTREAL", "designationCode": "C", "categoryCode": "38", "address": "1201 RUE DE LA VISITATION", "city": "MONTR\u00c9AL", "province": "QC", "country": "CA", "postalCode": "H2L3B5", "twitter": "None", "instagram": "None", "facebook": "None", "youtube": "None", "website": "None", "summary": "None", "logo": "None", "latitude": 45.518444338074744, "longitude": -73.55349285149187}, "129942231RR0001": {"name": "LA FABRIQUE DE LA PAROISSE DE SAINTE CLAIRE, ARCHIDIOCESE DE MONTREAL", "designationCode": "C", "categoryCode": "38", "address": "8615 RUE SAINTE-CLAIRE", "city": "MONTREAL", "province": "QC", "country": "CA", "postalCode": "H1L1Y1", "twitter": "None", "instagram": "None", "facebook": "None", "youtube": "None", "website": "None", "summary": "None", "logo": "None", "latitude": 45.60174014544972, "longitude": -73.52459308595382}, "129475281RR0001": {"name": "LA FABRIQUE DE LA PAROISSE DE SAINTE DOROTHEE, ARCHIDIOCESE DE MONTREAL", "designationCode": "C", "categoryCode": "38", "address": "655 RUE PRINCIPALE", "city": "LAVAL STE-DOROTHEE", "province": "QC", "country": "CA", "postalCode": "H7X1E2", "twitter": "None", "instagram": "None", "facebook": "None", "youtube": "None", "website": "None", "summary": "None", "logo": "None", "latitude": 45.528940957556564, "longitude": -73.82157845227644}, "129669206RR0001": {"name": "LA FABRIQUE DE LA PAROISSE DE SAINTE FAMILLE", "designationCode": "C", "categoryCode": "38", "address": "539 NOTRE-DAME", "city": "BOUCHERVILLE", "province": "QC", "country": "CA", "postalCode": "J4B3P3", "twitter": "None", "instagram": "None", "facebook": "None", "youtube": "None", "website": "None", "summary": "None", "logo": "None", "latitude": 45.611580331669444, "longitude": -73.45545107565337}, "131788960RR0001": {"name": "LA FABRIQUE DE LA PAROISSE DE SAINTE JEANNE D'ARC ARCHIDIOCESE DE MONTREAL", "designationCode": "C", "categoryCode": "38", "address": "2295 RUE DE CHAMBLY", "city": "MONTREAL", "province": "QC", "country": "CA", "postalCode": "H1W3J6", "twitter": "None", "instagram": "None", "facebook": "None", "youtube": "None", "website": "None", "summary": "None", "logo": "None", "latitude": 45.54719285209744, "longitude": -73.54935375240937}, "132263591RR0001": {"name": "LA FABRIQUE DE LA PAROISSE DE SAINTE JULIE", "designationCode": "C", "categoryCode": "38", "address": "1686 PRINCIPALE", "city": "STE-JULIE", "province": "QC", "country": "CA", "postalCode": "J3E1W7", "twitter": "None", "instagram": "None", "facebook": "None", "youtube": "None", "website": "None", "summary": "None", "logo": "None", "latitude": 45.59314408237673, "longitude": -73.33981529606491}, "129543500RR0001": {"name": "LA FABRIQUE DE LA PAROISSE DE SAINTE MARTHE ARCHIDIOCESE DE MONTREAL", "designationCode": "C", "categoryCode": "38", "address": "7580 BOUL GOUIN EST", "city": "MONTREAL", "province": "QC", "country": "CA", "postalCode": "H1E1A8", "twitter": "None", "instagram": "None", "facebook": "None", "youtube": "None", "website": "None", "summary": "None", "logo": "None", "latitude": 45.637025649980046, "longitude": -73.60655165286556}, "127912061RR0001": {"name": "LA FABRIQUE DE LA PAROISSE DE SAINTE ROSE ARCHIDIOCESE DE MONTREAL", "designationCode": "C", "categoryCode": "38", "address": "219 BOUL STE-ROSE", "city": "SAINTE-ROSE-LAVAL", "province": "QC", "country": "CA", "postalCode": "H7L1L7", "twitter": "None", "instagram": "None", "facebook": "None", "youtube": "None", "website": "None", "summary": "None", "logo": "None", "latitude": 45.613592411622, "longitude": -73.78694448574616}, "888120995RR0001": {"name": "LA FABRIQUE DE LA PAROISSE DE SAINTE TRINITE", "designationCode": "C", "categoryCode": "38", "address": "4932 MARIE-VICTORIN, C.P. 518", "city": "CONTRECOEUR", "province": "QC", "country": "CA", "postalCode": "J0L1C0", "twitter": "None", "instagram": "None", "facebook": "None", "youtube": "None", "website": "None", "summary": "None", "logo": "None", "latitude": 45.85698001944705, "longitude": -73.23926457262361}, "139222657RR0001": {"name": "LA FABRIQUE DE LA PAROISSE DE SAINTE-ADELAIDE DE PABOS", "designationCode": "C", "categoryCode": "38", "address": "417 BOUL. PABOS", "city": "PABOS", "province": "QC", "country": "CA", "postalCode": "G0C2H0", "twitter": "None", "instagram": "None", "facebook": "None", "youtube": "None", "website": "None", "summary": "None", "logo": "None", "latitude": 48.36209503554722, "longitude": -64.60777581337624}, "107586752RR0001": {"name": "LA FABRIQUE DE LA PAROISSE DE SAINTE-AGN\u00c8S", "designationCode": "C", "categoryCode": "38", "address": "4872 RUE LAVAL", "city": "LAC-MEGANTIC", "province": "QC", "country": "CA", "postalCode": "G6B1E1", "twitter": "None", "instagram": "None", "facebook": "None", "youtube": "None", "website": "None", "summary": "None", "logo": "None", "latitude": 45.5786605406831, "longitude": -70.88669997706185}, "131534133RR0001": {"name": "LA FABRIQUE DE LA PAROISSE DE SAINTE-AGNES", "designationCode": "C", "categoryCode": "38", "address": "2501 RTE DES PIONNIERS C.P.71", "city": "ROUYN-NORANDA", "province": "QC", "country": "CA", "postalCode": "J0Z1K0", "twitter": "None", "instagram": "None", "facebook": "None", "youtube": "None", "website": "None", "summary": "None", "logo": "None", "latitude": 48.099042, "longitude": -78.94053510638182}, "107366106RR0001": {"name": "LA FABRIQUE DE LA PAROISSE DE SAINTE-ANASTASIE-DE-LYSTER", "designationCode": "C", "categoryCode": "38", "address": "3330, RUE BECANCOUR", "city": "LYSTER", "province": "QC", "country": "CA", "postalCode": "G0S1V0", "twitter": "None", "instagram": "None", "facebook": "None", "youtube": "None", "website": "None", "summary": "None", "logo": "None", "latitude": 46.373089531162044, "longitude": -71.58725796321204}, "118905918RR0001": {"name": "LA FABRIQUE DE LA PAROISSE DE SAINTE-ANGELE-DE-MERICI", "designationCode": "C", "categoryCode": "38", "address": "C.P. 70                       538 DE LA VALLEE", "city": "STE-ANGELE DE MERICI", "province": "QC", "country": "CA", "postalCode": "G0J2H0", "twitter": "None", "instagram": "None", "facebook": "None", "youtube": "None", "website": "None", "summary": "None", "logo": "None", "latitude": 48.52532013744868, "longitude": -68.08134445267598}, "132145319RR0001": {"name": "LA FABRIQUE DE LA PAROISSE DE SAINTE-ANGELE-DE-MONNOIR", "designationCode": "C", "categoryCode": "38", "address": "46 PRINCIPALE", "city": "STE.ANGELE DE MONNOIR", "province": "QC", "country": "CA", "postalCode": "J0L1P0", "twitter": "None", "instagram": "None", "facebook": "None", "youtube": "None", "website": "None", "summary": "None", "logo": "None", "latitude": 45.39134887812361, "longitude": -73.1043033122224}, "118994532RR0001": {"name": "LA FABRIQUE DE LA PAROISSE DE SAINTE-ANNE", "designationCode": "C", "categoryCode": "38", "address": "780 RUE PRINCIPALE", "city": "ST AMBROSE DE KILDARE", "province": "QC", "country": "CA", "postalCode": "J0K1C0", "twitter": "None", "instagram": "None", "facebook": "None", "youtube": "None", "website": "None", "summary": "None", "logo": "None", "latitude": 46.07606070165606, "longitude": -73.55554091329543}, "128921905RR0001": {"name": "LA FABRIQUE DE LA PAROISSE DE SAINTE-ANNE", "designationCode": "C", "categoryCode": "38", "address": "30 RUE DE LA FABRIQUE", "city": "VARENNES", "province": "QC", "country": "CA", "postalCode": "J3X1R1", "twitter": "None", "instagram": "None", "facebook": "None", "youtube": "None", "website": "None", "summary": "None", "logo": "None", "latitude": 45.68303066056894, "longitude": -73.44105327090413}, "107357667RR0001": {"name": "LA FABRIQUE DE LA PAROISSE DE SAINTE-ANNE DE CHICOUTIMI", "designationCode": "C", "categoryCode": "38", "address": "200 RUE REGENT", "city": "CHICOUTIMI", "province": "QC", "country": "CA", "postalCode": "G7G2V7", "twitter": "None", "instagram": "None", "facebook": "None", "youtube": "None", "website": "None", "summary": "None", "logo": "None", "latitude": 48.44214892700101, "longitude": -71.06027785273261}, "132397779RR0001": {"name": "LA FABRIQUE DE LA PAROISSE DE SAINTE-ANNE-DE-LA-PERADE", "designationCode": "C", "categoryCode": "38", "address": "201 RUE SAINTE-ANNE", "city": "SAINTE-ANNE-DE-LA-PERADE", "province": "QC", "country": "CA", "postalCode": "G0X2J0", "twitter": "None", "instagram": "None", "facebook": "None", "youtube": "None", "website": "None", "summary": "None", "logo": "None", "latitude": 46.57254008523267, "longitude": -72.2051221671194}, "130378177RR0001": {"name": "LA FABRIQUE DE LA PAROISSE DE SAINTE-ANNE-DE-LA-POCATIERE", "designationCode": "C", "categoryCode": "38", "address": "203 4E AV PAINCHAUD", "city": "LA POCATIERE", "province": "QC", "country": "CA", "postalCode": "G0R1Z0", "twitter": "None", "instagram": "None", "facebook": "None", "youtube": "None", "website": "None", "summary": "None", "logo": "None", "latitude": 47.367781672456836, "longitude": -70.03904197567687}, "118910223RR0001": {"name": "LA FABRIQUE DE LA PAROISSE DE SAINTE-ANNE-DE-PORTNEUF", "designationCode": "C", "categoryCode": "38", "address": "536 MGR BOUCHARD              CP 99", "city": "PORTNEUF-SUR-MER", "province": "QC", "country": "CA", "postalCode": "G0T1P0", "twitter": "None", "instagram": "None", "facebook": "None", "youtube": "None", "website": "None", "summary": "None", "logo": "None", "latitude": 48.617867836456426, "longitude": -69.10027223388259}, "107366205RR0001": {"name": "LA FABRIQUE DE LA PAROISSE DE SAINTE-ANNE-DES-MONTS", "designationCode": "C", "categoryCode": "38", "address": "5, 1RE AVENUE EST", "city": "STE-ANNE-DES-MONTS", "province": "QC", "country": "CA", "postalCode": "G4V1A2", "twitter": "None", "instagram": "None", "facebook": "None", "youtube": "None", "website": "None", "summary": "None", "logo": "None", "latitude": 49.13039149177703, "longitude": -66.48648099861502}, "118992668RR0001": {"name": "LA FABRIQUE DE LA PAROISSE DE SAINTE-APOLLINE", "designationCode": "C", "categoryCode": "38", "address": "507, PRINCIPALE", "city": "SAINTE-APOLLINE", "province": "QC", "country": "CA", "postalCode": "G0R2P0", "twitter": "None", "instagram": "None", "facebook": "None", "youtube": "None", "website": "None", "summary": "None", "logo": "None", "latitude": 46.807043026400606, "longitude": -70.19563919224966}, "107366239RR0001": {"name": "LA FABRIQUE DE LA PAROISSE DE SAINTE-BEATRICE ARCHIDIOCESE DE MONTREAL", "designationCode": "C", "categoryCode": "38", "address": "475 AVENUE DES PERRON", "city": "AUTEUIL LAVAL", "province": "QC", "country": "CA", "postalCode": "H7H1E2", "twitter": "None", "instagram": "None", "facebook": "None", "youtube": "None", "website": "None", "summary": "None", "logo": "None", "latitude": 45.63179918016022, "longitude": -73.74821663379295}, "107364705RR0001": {"name": "LA FABRIQUE DE LA PAROISSE DE SAINTE-BRIGITTE-DE-MARIA", "designationCode": "C", "categoryCode": "38", "address": "CP 9                          451 BOULEVARD PERRON EST", "city": "MARIA", "province": "QC", "country": "CA", "postalCode": "G0C1Y0", "twitter": "None", "instagram": "None", "facebook": "None", "youtube": "None", "website": "None", "summary": "None", "logo": "None", "latitude": 48.169587896762586, "longitude": -65.98910376132484}, "107819021RR0001": {"name": "LA FABRIQUE DE LA PAROISSE DE SAINTE-C\u00c9CILE", "designationCode": "C", "categoryCode": "38", "address": "11, RUE DE L'EGLISE, PORTE 128", "city": "SALABERRY-DE-VALLEYFIELD", "province": "QC", "country": "CA", "postalCode": "J6T1J5", "twitter": "None", "instagram": "None", "facebook": "None", "youtube": "None", "website": "None", "summary": "None", "logo": "None", "latitude": 45.25527761749124, "longitude": -74.13554232537972}, "129355814RR0001": {"name": "LA FABRIQUE DE LA PAROISSE DE SAINTE-C\u00c9CILE", "designationCode": "C", "categoryCode": "38", "address": "4556 PRINCIPALE", "city": "STE-CECILE", "province": "QC", "country": "CA", "postalCode": "G0Y1J0", "twitter": "None", "instagram": "None", "facebook": "None", "youtube": "None", "website": "None", "summary": "None", "logo": "None", "latitude": 45.66735038787816, "longitude": -70.94094554423529}, "887524197RR0001": {"name": "LA FABRIQUE DE LA PAROISSE DE SAINTE-CATHERINE", "designationCode": "C", "categoryCode": "38", "address": "23 GRAND-RUE", "city": "SAINTE-CATHERINE-DE-HATLEY", "province": "QC", "country": "CA", "postalCode": "J0B1W0", "twitter": "None", "instagram": "None", "facebook": "None", "youtube": "None", "website": "None", "summary": "None", "logo": "None", "latitude": 45.25031744073524, "longitude": -72.04769455395598}, "889486643RR0001": {"name": "LA FABRIQUE DE LA PAROISSE DE SAINTE-CATHERINE", "designationCode": "C", "categoryCode": "38", "address": "2 RUE JOLICOEUR", "city": "STE-CATHERINE-DE-LA-J-CARTIER", "province": "QC", "country": "CA", "postalCode": "G3N2L7", "twitter": "None", "instagram": "None", "facebook": "None", "youtube": "None", "website": "None", "summary": "None", "logo": "None", "latitude": 46.84667400219303, "longitude": -71.61981807611473}, "107359119RR0001": {"name": "LA FABRIQUE DE LA PAROISSE DE SAINTE-CATHERINE-DE-SIENNE", "designationCode": "C", "categoryCode": "38", "address": "7070 SOMERLED", "city": "MONTREAL", "province": "QC", "country": "CA", "postalCode": "H4V1V9", "twitter": "None", "instagram": "None", "facebook": "None", "youtube": "None", "website": "None", "summary": "None", "logo": "None", "latitude": 45.46100264250689, "longitude": -73.64356517245683}, "107366312RR0001": {"name": "LA FABRIQUE DE LA PAROISSE DE SAINTE-CATHERINE-LABOURE", "designationCode": "C", "categoryCode": "38", "address": "9370 RUE CLEMENT", "city": "LASALLE", "province": "QC", "country": "CA", "postalCode": "H8R1V1", "twitter": "None", "instagram": "None", "facebook": "None", "youtube": "None", "website": "None", "summary": "None", "logo": "None", "latitude": 45.43194478709122, "longitude": -73.64092924744638}, "107366353RR0001": {"name": "LA FABRIQUE DE LA PAROISSE DE SAINTE-CECILE ARCHIDIOCESE DE MONTREAL", "designationCode": "C", "categoryCode": "38", "address": "7390, RUE HENRI-JULIEN", "city": "MONTREAL", "province": "QC", "country": "CA", "postalCode": "H2R2B2", "twitter": "None", "instagram": "None", "facebook": "None", "youtube": "None", "website": "None", "summary": "None", "logo": "None", "latitude": 45.538195013590006, "longitude": -73.61932008035659}, "118995307RR0001": {"name": "LA FABRIQUE DE LA PAROISSE DE SAINTE-CHRISTINE", "designationCode": "C", "categoryCode": "38", "address": "331 ST-JOSEPH", "city": "ST-RAYMOND", "province": "QC", "country": "CA", "postalCode": "G3L1J8", "twitter": "None", "instagram": "None", "facebook": "None", "youtube": "None", "website": "None", "summary": "None", "logo": "None", "latitude": 46.890344251745546, "longitude": -71.83322804997393}, "107363228RR0001": {"name": "LA FABRIQUE DE LA PAROISSE DE SAINTE-CLAIRE", "designationCode": "C", "categoryCode": "38", "address": "134 PRINCIPALE", "city": "SAINTE CLAIRE", "province": "QC", "country": "CA", "postalCode": "G0R2V0", "twitter": "None", "instagram": "None", "facebook": "None", "youtube": "None", "website": "None", "summary": "None", "logo": "None", "latitude": 46.59808252063047, "longitude": -70.8667958551272}, "118908318RR0001": {"name": "LA FABRIQUE DE LA PAROISSE DE SAINTE-COLETTE", "designationCode": "C", "categoryCode": "38", "address": "11931, BOUL. STE-COLETTE", "city": "MONTREAL-NORD", "province": "QC", "country": "CA", "postalCode": "H1G4T9", "twitter": "None", "instagram": "None", "facebook": "None", "youtube": "None", "website": "None", "summary": "None", "logo": "None", "latitude": 45.60868426484462, "longitude": -73.62745798251485}, "107366577RR0001": {"name": "LA FABRIQUE DE LA PAROISSE DE SAINTE-EUPHEMIE", "designationCode": "C", "categoryCode": "38", "address": "251 RUE PRINCIPALE", "city": "STE-EUPHEMIE", "province": "QC", "country": "CA", "postalCode": "G0R2Z0", "twitter": "None", "instagram": "None", "facebook": "None", "youtube": "None", "website": "None", "summary": "None", "logo": "None", "latitude": 46.774445050781985, "longitude": -70.43875311183575}, "131203556RR0001": {"name": "LA FABRIQUE DE LA PAROISSE DE SAINTE-FAMILLE", "designationCode": "C", "categoryCode": "38", "address": "115-4E AVENUE", "city": "CRABTREE (JOLIETTE)", "province": "QC", "country": "CA", "postalCode": "J0K1B0", "twitter": "None", "instagram": "None", "facebook": "None", "youtube": "None", "website": "None", "summary": "None", "logo": "None", "latitude": 45.96356187786382, "longitude": -73.47314053860562}}