{"876621368RR0001": {"name": "LIBRAIRIE PAULINES DE TROIS-RIVIERES", "designationCode": "C", "categoryCode": "50", "address": "5610 RUE BEAUBIEN EST", "city": "MONTREAL", "province": "QC", "country": "CA", "postalCode": "H1T1X5", "twitter": "None", "instagram": "None", "facebook": "None", "youtube": "None", "website": "None", "summary": "None", "logo": "None", "latitude": 45.57809610990252, "longitude": -73.56655072534495}, "104251962RR0001": {"name": "LIBRAIRIE TRINITAIRE INC.", "designationCode": "C", "categoryCode": "49", "address": "200 BOUL. ROBERT", "city": "GRANBY", "province": "QC", "country": "CA", "postalCode": "J2H0R2", "twitter": "None", "instagram": "None", "facebook": "None", "youtube": "None", "website": "None", "summary": "None", "logo": "None", "latitude": 45.388411560015506, "longitude": -72.69752228963003}, "131983876RR0001": {"name": "LIBRARY ALLARD", "designationCode": "C", "categoryCode": "50", "address": "BOX 157", "city": "ST GEORGES", "province": "MB", "country": "CA", "postalCode": "R0E1V0", "twitter": "None", "instagram": "None", "facebook": "None", "youtube": "None", "website": "None", "summary": "None", "logo": "None", "latitude": 50.153351968862495, "longitude": -96.83538767419093}, "143783488RR0001": {"name": "LIBRE ESPACE ORLEANS INC.", "designationCode": "C", "categoryCode": "11", "address": "9694 BOUL. SAINTE-ANNE", "city": "SAINTE-ANNE-DE-BEAUPRE", "province": "QC", "country": "CA", "postalCode": "G0A3C0", "twitter": "None", "instagram": "None", "facebook": "None", "youtube": "None", "website": "None", "summary": "None", "logo": "None", "latitude": 47.01973257089286, "longitude": -70.93450987702707}, "866660533RR0001": {"name": "LICENSED PRACTICAL NURSES FOUNDATION OF MANITOBA", "designationCode": "C", "categoryCode": "25", "address": "463 ST. ANNE'S ROAD", "city": "WINNIPEG", "province": "MB", "country": "CA", "postalCode": "R2M3C9", "twitter": "None", "instagram": "None", "facebook": "None", "youtube": "None", "website": "None", "summary": "None", "logo": "None", "latitude": 49.844512644468765, "longitude": -97.09618214721007}, "867961013RR0001": {"name": "LICENSED TO LEARN INC.", "designationCode": "C", "categoryCode": "21", "address": "908 THE EAST MALL", "city": "ETOBICOKE", "province": "ON", "country": "CA", "postalCode": "M9B6K2", "twitter": "None", "instagram": "None", "facebook": "None", "youtube": "None", "website": "None", "summary": "None", "logo": "None", "latitude": 43.66988543049213, "longitude": -79.57177602680463}, "888810660RR0001": {"name": "LICHTENAUER MENNONITE CHURCH", "designationCode": "C", "categoryCode": "34", "address": "PO BOX 419", "city": "MORRIS", "province": "MB", "country": "CA", "postalCode": "R0G1K0", "twitter": "None", "instagram": "None", "facebook": "None", "youtube": "None", "website": "None", "summary": "None", "logo": "None", "latitude": 49.35468000000003, "longitude": -97.36605999999995}, "119019149RR0001": {"name": "LIEBENZELL MISSION OF CANADA", "designationCode": "C", "categoryCode": "47", "address": "12168 FIRST LINE, RR 1", "city": "MOFFAT", "province": "ON", "country": "CA", "postalCode": "L0P1J0", "twitter": "None", "instagram": "None", "facebook": "None", "youtube": "None", "website": "None", "summary": "None", "logo": "None", "latitude": 43.50730200000005, "longitude": -80.09119699999994}, "133228247RR0001": {"name": "LIEN-PARTAGE INC", "designationCode": "C", "categoryCode": "09", "address": "C.P. 74", "city": "STE-MARIE-DE-BEAUCE", "province": "QC", "country": "CA", "postalCode": "G6E3B4", "twitter": "None", "instagram": "None", "facebook": "None", "youtube": "None", "website": "None", "summary": "None", "logo": "None", "latitude": 46.44916005943771, "longitude": -71.03021993940847}, "892009788RR0001": {"name": "LIEU DE RENCONTRES PARENTS ET ENFANTS \"LA MAISON BUISSONNIERE\"", "designationCode": "C", "categoryCode": "20", "address": "10125 RUE PARTHENAIS LOCAL 103", "city": "MONTREAL", "province": "QC", "country": "CA", "postalCode": "H2B2L6", "twitter": "None", "instagram": "None", "facebook": "None", "youtube": "None", "website": "None", "summary": "None", "logo": "None", "latitude": 45.571660363609965, "longitude": -73.64798932595664}, "885913400RR0001": {"name": "LIEUTENANT GOVERNOR OF ALBERTA ARTS AWARDS FOUNDATION", "designationCode": "C", "categoryCode": "22", "address": "#32, 10 POINT DRIVE NW", "city": "CALGARY", "province": "AB", "country": "CA", "postalCode": "T3B4W2", "twitter": "None", "instagram": "None", "facebook": "None", "youtube": "None", "website": "None", "summary": "None", "logo": "None", "latitude": 51.0605860438571, "longitude": -114.14369247835992}, "820320448RR0001": {"name": "LIFE ACTION MINISTRIES ASSOCIATION (2013)", "designationCode": "C", "categoryCode": "39", "address": "172 - 171A RINK ST", "city": "PETERBOROUGH", "province": "ON", "country": "CA", "postalCode": "K9J2J6", "twitter": "None", "instagram": "None", "facebook": "None", "youtube": "None", "website": "None", "summary": "None", "logo": "None", "latitude": 44.29577609281283, "longitude": -78.3198995972033}, "860461946RR0001": {"name": "LIFE BRIDGE INC.", "designationCode": "B", "categoryCode": "11", "address": "180 BEACH GROVE ROAD", "city": "CHARLOTTETOWN", "province": "PE", "country": "CA", "postalCode": "C1E0C3", "twitter": "None", "instagram": "None", "facebook": "None", "youtube": "None", "website": "None", "summary": "None", "logo": "None", "latitude": 46.25466085316529, "longitude": -63.17027896225976}, "855335030RR0001": {"name": "LIFE BUILDER MISSION", "designationCode": "C", "categoryCode": "39", "address": "279 SILVER SPRINGS BLVD", "city": "SCARBOROUGH", "province": "ON", "country": "CA", "postalCode": "M1V1G6", "twitter": "None", "instagram": "None", "facebook": "None", "youtube": "None", "website": "None", "summary": "None", "logo": "None", "latitude": 43.80616033945973, "longitude": -79.30295678002209}, "866403421RR0001": {"name": "LIFE CHRISTIAN MINISTRY", "designationCode": "C", "categoryCode": "39", "address": "89 RED ROBIN WAY", "city": "NORTH YORK", "province": "ON", "country": "CA", "postalCode": "M2R3K6", "twitter": "None", "instagram": "None", "facebook": "None", "youtube": "None", "website": "None", "summary": "None", "logo": "None", "latitude": 43.77246486511053, "longitude": -79.44580741217025}, "118864917RR0001": {"name": "LIFE CHURCH", "designationCode": "C", "categoryCode": "31", "address": "RR # 4", "city": "CLAREMONT", "province": "ON", "country": "CA", "postalCode": "L1Y1A1", "twitter": "None", "instagram": "None", "facebook": "None", "youtube": "None", "website": "None", "summary": "None", "logo": "None", "latitude": 43.98327600000006, "longitude": -79.13179249999993}, "118911460RR0001": {"name": "LIFE CHURCH", "designationCode": "C", "categoryCode": "39", "address": "131 EASSON ST", "city": "STRATFORD", "province": "ON", "country": "CA", "postalCode": "N5A1N4", "twitter": "None", "instagram": "None", "facebook": "None", "youtube": "None", "website": "None", "summary": "None", "logo": "None", "latitude": 43.36453084456697, "longitude": -80.99583562920533}, "107273088RR0001": {"name": "LIFE CHURCH INTERNATIONAL", "designationCode": "C", "categoryCode": "31", "address": "547 ATHLONE AVE", "city": "WOODSTOCK", "province": "ON", "country": "CA", "postalCode": "N4S7V8", "twitter": "None", "instagram": "None", "facebook": "None", "youtube": "None", "website": "None", "summary": "None", "logo": "None", "latitude": 43.10618032168612, "longitude": -80.74690670927345}, "863885554RR0001": {"name": "LIFE CHURCH OSHAWA", "designationCode": "C", "categoryCode": "39", "address": "784 TAUNTON RD E              PO BOX 78026", "city": "OSHAWA", "province": "ON", "country": "CA", "postalCode": "L1K0H7", "twitter": "None", "instagram": "None", "facebook": "None", "youtube": "None", "website": "None", "summary": "None", "logo": "None", "latitude": 43.93915014077518, "longitude": -78.85126990729417}, "864301999RR0001": {"name": "LIFE CONCEPT MINISTRIES", "designationCode": "C", "categoryCode": "09", "address": "14A INDUSTRIAL DRIVE          P.O. BOX 875", "city": "CHESTERVILLE", "province": "ON", "country": "CA", "postalCode": "K0C1H0", "twitter": "None", "instagram": "None", "facebook": "None", "youtube": "None", "website": "None", "summary": "None", "logo": "None", "latitude": 45.10324488401255, "longitude": -75.23938805690305}, "899517346RR0001": {"name": "LIFE CYCLE HOUSING SOCIETY", "designationCode": "C", "categoryCode": "01", "address": "#32-4949 ONTARIO AVE", "city": "POWELL RIVER", "province": "BC", "country": "CA", "postalCode": "V8A5T7", "twitter": "None", "instagram": "None", "facebook": "None", "youtube": "None", "website": "None", "summary": "None", "logo": "None", "latitude": 49.848435741609855, "longitude": -124.51499299036833}, "891182974RR0001": {"name": "LIFE EXCHANGE", "designationCode": "B", "categoryCode": "39", "address": "6483 DOVER STREET", "city": "CHILLIWACK", "province": "BC", "country": "CA", "postalCode": "V2R1W9", "twitter": "None", "instagram": "None", "facebook": "None", "youtube": "None", "website": "None", "summary": "None", "logo": "None", "latitude": 49.11932867638063, "longitude": -121.973300522217}, "132643941RR0001": {"name": "LIFE FLOW INTERNATIONAL OUTREACH", "designationCode": "C", "categoryCode": "47", "address": "380 KIRK ROAD EAST", "city": "BINBROOK", "province": "ON", "country": "CA", "postalCode": "L0R1C0", "twitter": "None", "instagram": "None", "facebook": "None", "youtube": "None", "website": "None", "summary": "None", "logo": "None", "latitude": 43.09134453475251, "longitude": -79.75112687329715}, "140913773RR0001": {"name": "LIFE FOR RELIEF & DEVELOPMENT (CANADA)", "designationCode": "C", "categoryCode": "09", "address": "7925 CORONET RD NW", "city": "EDMONTON", "province": "AB", "country": "CA", "postalCode": "T6E4N7", "twitter": "None", "instagram": "None", "facebook": "None", "youtube": "None", "website": "None", "summary": "None", "logo": "None", "latitude": 53.50478287764245, "longitude": -113.44710048521426}, "893767863RR0001": {"name": "LIFE IMPACT MINISTRIES INC.", "designationCode": "C", "categoryCode": "09", "address": "26 HARVEST GROVE GREEN NE", "city": "CALGARY", "province": "AB", "country": "CA", "postalCode": "T3K4W5", "twitter": "None", "instagram": "None", "facebook": "None", "youtube": "None", "website": "None", "summary": "None", "logo": "None", "latitude": 51.14906661532687, "longitude": -114.04399806884405}, "878074160RR0001": {"name": "LIFE IMPACT OUTREACH NETWORK", "designationCode": "C", "categoryCode": "45", "address": "184 WATERBURY ST", "city": "BOLTON", "province": "ON", "country": "CA", "postalCode": "L7E2H9", "twitter": "None", "instagram": "None", "facebook": "None", "youtube": "None", "website": "None", "summary": "None", "logo": "None", "latitude": 43.869092877055756, "longitude": -79.70861038617369}, "892826843RR0001": {"name": "LIFE IN CHRIST MINISTRIES OF CANADA", "designationCode": "C", "categoryCode": "39", "address": "16020 99B AVE", "city": "SURREY", "province": "BC", "country": "CA", "postalCode": "V4N2J6", "twitter": "None", "instagram": "None", "facebook": "None", "youtube": "None", "website": "None", "summary": "None", "logo": "None", "latitude": 49.18385750346245, "longitude": -122.77806232944775}, "846669943RR0001": {"name": "LIFE INTERNATIONAL CHURCH", "designationCode": "C", "categoryCode": "45", "address": "1140 IVANHILL ROAD", "city": "LONDON", "province": "ON", "country": "CA", "postalCode": "N6H4C1", "twitter": "None", "instagram": "None", "facebook": "None", "youtube": "None", "website": "None", "summary": "None", "logo": "None", "latitude": 42.98100898415964, "longitude": -81.32341532041671}, "894249770RR0001": {"name": "LIFE IS FOR EVERYONE CRISIS PREGNANCY CENTRE (NEWMARKET) INC.", "designationCode": "C", "categoryCode": "09", "address": "202 - 615 DAVIS DR", "city": "NEWMARKET", "province": "ON", "country": "CA", "postalCode": "L3Y2R2", "twitter": "None", "instagram": "None", "facebook": "None", "youtube": "None", "website": "None", "summary": "None", "logo": "None", "latitude": 44.06113614351647, "longitude": -79.45233953165206}, "895821668RR0001": {"name": "LIFE LESSONS FROM THE BIBLE", "designationCode": "C", "categoryCode": "47", "address": "29 CENTENNIAL ROAD            UNIT 17", "city": "ORANGEVILLE", "province": "ON", "country": "CA", "postalCode": "L9W1R1", "twitter": "None", "instagram": "None", "facebook": "None", "youtube": "None", "website": "None", "summary": "None", "logo": "None", "latitude": 43.91200305412887, "longitude": -80.10831071830448}, "131476814RR0001": {"name": "LIFE LINE - TELECARE LINDSAY INC.", "designationCode": "C", "categoryCode": "09", "address": "53 BROAD ST", "city": "LINDSAY", "province": "ON", "country": "CA", "postalCode": "K9V0B2", "twitter": "None", "instagram": "None", "facebook": "None", "youtube": "None", "website": "None", "summary": "None", "logo": "None", "latitude": 44.346995431946446, "longitude": -78.75322842861583}, "870728060RR0001": {"name": "LIFE LINKS INTERNATIONAL FELLOWSHIP INC.", "designationCode": "C", "categoryCode": "49", "address": "2202 8 AVE N", "city": "REGINA", "province": "SK", "country": "CA", "postalCode": "S4R7T9", "twitter": "None", "instagram": "None", "facebook": "None", "youtube": "None", "website": "None", "summary": "None", "logo": "None", "latitude": 50.48206176217231, "longitude": -104.61217073782771}, "871353561RR0001": {"name": "LIFE MINISTRY TRAINING (LIMIT) INTERNATIONAL INC.", "designationCode": "C", "categoryCode": "09", "address": "BOX 904", "city": "PORTAGE LA PRAIRIE", "province": "MB", "country": "CA", "postalCode": "R1N3C4", "twitter": "None", "instagram": "None", "facebook": "None", "youtube": "None", "website": "None", "summary": "None", "logo": "None", "latitude": 49.97301900000005, "longitude": -98.29058299999993}, "874997810RR0001": {"name": "LIFE OF FAITH CHRISTIAN CHURCH OF CALGARY", "designationCode": "C", "categoryCode": "39", "address": "27 SILVERADO SKIES BAY SW", "city": "CALGARY", "province": "AB", "country": "CA", "postalCode": "T2X0K2", "twitter": "None", "instagram": "None", "facebook": "None", "youtube": "None", "website": "None", "summary": "None", "logo": "None", "latitude": 50.88942302830519, "longitude": -114.08594360035188}, "107625253RR0001": {"name": "LIFE OF VICTORY WORLD OUTREACH CENTRE, INC.", "designationCode": "C", "categoryCode": "39", "address": "P O BOX 40", "city": "VICTORIA", "province": "BC", "country": "CA", "postalCode": "V8W2M1", "twitter": "None", "instagram": "None", "facebook": "None", "youtube": "None", "website": "None", "summary": "None", "logo": "None", "latitude": 48.42854700000005, "longitude": -123.36445249999994}, "125113910RR0001": {"name": "LIFE OUTREACH INTERNATIONAL", "designationCode": "C", "categoryCode": "47", "address": "PO BOX 4000", "city": "LANGLEY", "province": "BC", "country": "CA", "postalCode": "V3A8J8", "twitter": "None", "instagram": "None", "facebook": "None", "youtube": "None", "website": "None", "summary": "None", "logo": "None", "latitude": 49.10435700000005, "longitude": -122.65652149999994}, "858654205RR0001": {"name": "LIFE PARTNERS FOR JESUS MINISTRIES", "designationCode": "C", "categoryCode": "39", "address": "15 - 132 RAILSIDE RD", "city": "NORTH YORK", "province": "ON", "country": "CA", "postalCode": "M3A1A3", "twitter": "None", "instagram": "None", "facebook": "None", "youtube": "None", "website": "None", "summary": "None", "logo": "None", "latitude": 43.736398259795635, "longitude": -79.32729639835004}, "888461266RR0001": {"name": "LIFE PROTECTION (PROTECTION-VIE)", "designationCode": "C", "categoryCode": "09", "address": "8195 CHAMPANGNEUR", "city": "MONTREAL", "province": "QC", "country": "CA", "postalCode": "H3N2K7", "twitter": "None", "instagram": "None", "facebook": "None", "youtube": "None", "website": "None", "summary": "None", "logo": "None", "latitude": 45.53083292812619, "longitude": -73.63797431028915}, "842194672RR0001": {"name": "LIFE SAVING KOREAN COMMUNITY CHURCH", "designationCode": "C", "categoryCode": "39", "address": "119 BAKER AVENUE", "city": "RICHMOND HILL", "province": "ON", "country": "CA", "postalCode": "L4C1X5", "twitter": "None", "instagram": "None", "facebook": "None", "youtube": "None", "website": "None", "summary": "None", "logo": "None", "latitude": 43.8724862020601, "longitude": -79.43436136438937}, "803541549RR0001": {"name": "LIFE SOURCE CANADA SOCIETY", "designationCode": "C", "categoryCode": "39", "address": "215-6333 148TH STREET", "city": "SURREY", "province": "BC", "country": "CA", "postalCode": "V3S3C3", "twitter": "None", "instagram": "None", "facebook": "None", "youtube": "None", "website": "None", "summary": "None", "logo": "None", "latitude": 49.117985664723875, "longitude": -122.81223301223368}, "839797230RR0001": {"name": "LIFE SOURCE CHURCH - EGLISE SOURCE DE VIE INC.", "designationCode": "C", "categoryCode": "39", "address": "PO BOX 9022 STN MAIN", "city": "SHEDIAC", "province": "NB", "country": "CA", "postalCode": "E4P8W5", "twitter": "None", "instagram": "None", "facebook": "None", "youtube": "None", "website": "None", "summary": "None", "logo": "None", "latitude": 46.2201414657308, "longitude": -64.53509146505993}, "872089305RR0001": {"name": "LIFE SPRING CHURCH ABBOTSFORD", "designationCode": "C", "categoryCode": "39", "address": "2 - 2236 WEST RAILWAY ST", "city": "ABBOTSFORD", "province": "BC", "country": "CA", "postalCode": "V2S2E2", "twitter": "None", "instagram": "None", "facebook": "None", "youtube": "None", "website": "None", "summary": "None", "logo": "None"}, "138795414RR0001": {"name": "LIFE SPRING INTERNATIONAL LTD", "designationCode": "C", "categoryCode": "49", "address": "PO BOX 2794 STN MAIN", "city": "STONY PLAIN", "province": "AB", "country": "CA", "postalCode": "T7Z1Y3", "twitter": "None", "instagram": "None", "facebook": "None", "youtube": "None", "website": "None", "summary": "None", "logo": "None", "latitude": 53.52496080545697, "longitude": -114.006528332913}, "892990565RR0001": {"name": "LIFE STORY FOUNDATION", "designationCode": "C", "categoryCode": "47", "address": "31662 AMBERPOINT PLACE", "city": "ABBOTSFORD", "province": "BC", "country": "CA", "postalCode": "V2T6T2", "twitter": "None", "instagram": "None", "facebook": "None", "youtube": "None", "website": "None", "summary": "None", "logo": "None", "latitude": 49.06311644904512, "longitude": -122.34641433637265}, "119019339RR0001": {"name": "LIFE SUPPORT SOCIETY OF DRAYTON VALLEY AND DISTRICT", "designationCode": "C", "categoryCode": "09", "address": "BOX 6266", "city": "DRAYTON VALLEY", "province": "AB", "country": "CA", "postalCode": "T7A1R7", "twitter": "None", "instagram": "None", "facebook": "None", "youtube": "None", "website": "None", "summary": "None", "logo": "None", "latitude": 53.22798600000006, "longitude": -114.98692399999993}, "119019362RR0001": {"name": "LIFE TABERNACLE OF LANGLEY", "designationCode": "C", "categoryCode": "39", "address": "4447-200TH STREET", "city": "LANGLEY", "province": "BC", "country": "CA", "postalCode": "V3A1L3", "twitter": "None", "instagram": "None", "facebook": "None", "youtube": "None", "website": "None", "summary": "None", "logo": "None", "latitude": 49.08291253872121, "longitude": -122.669033131513}, "889056842RR0001": {"name": "LIFE TABERNACLE OUTREACH INC.", "designationCode": "C", "categoryCode": "39", "address": "1644 HANWELL ROAD", "city": "FREDERICTON", "province": "NB", "country": "CA", "postalCode": "E3C1N3", "twitter": "None", "instagram": "None", "facebook": "None", "youtube": "None", "website": "None", "summary": "None", "logo": "None", "latitude": 45.93747995141105, "longitude": -66.70521298133235}, "882302581RR0001": {"name": "LIFE TABERNACLE UNITED PENTECOSTAL CHURCH", "designationCode": "C", "categoryCode": "39", "address": "39 CULPEPPER DR", "city": "WATERLOO", "province": "ON", "country": "CA", "postalCode": "N2L5K8", "twitter": "None", "instagram": "None", "facebook": "None", "youtube": "None", "website": "None", "summary": "None", "logo": "None", "latitude": 43.453125241185326, "longitude": -80.54498224285875}, "758325526RR0001": {"name": "LIFE WAY GENERATION CHURCH", "designationCode": "B", "categoryCode": "39", "address": "1634 OUGHTON DR", "city": "PORT COQUITLAM", "province": "BC", "country": "CA", "postalCode": "V3C1H7", "twitter": "None", "instagram": "None", "facebook": "None", "youtube": "None", "website": "None", "summary": "None", "logo": "None", "latitude": 49.24591893424304, "longitude": -122.77700664175612}, "730725694RR0001": {"name": "LIFE-GIVER CHURCH", "designationCode": "C", "categoryCode": "39", "address": "9874 KENWOOD CRES", "city": "WINDSOR", "province": "ON", "country": "CA", "postalCode": "N8R1H2", "twitter": "None", "instagram": "None", "facebook": "None", "youtube": "None", "website": "None", "summary": "None", "logo": "None", "latitude": 42.30829298058163, "longitude": -82.91663923241407}, "891338584RR0001": {"name": "LIFE'S QUESTIONS PUBLICATIONS", "designationCode": "C", "categoryCode": "47", "address": "10352 SHORELINE DRIVE BOX 605", "city": "GRAND BEND", "province": "ON", "country": "CA", "postalCode": "N0M1T0", "twitter": "None", "instagram": "None", "facebook": "None", "youtube": "None", "website": "None", "summary": "None", "logo": "None", "latitude": 43.31004791121797, "longitude": -81.7684195873388}, "849539473RR0001": {"name": "LIFECORPS INTERNATIONAL", "designationCode": "C", "categoryCode": "09", "address": "3 - 355 RAYETTE RD", "city": "CONCORD", "province": "ON", "country": "CA", "postalCode": "L4K2G2", "twitter": "None", "instagram": "None", "facebook": "None", "youtube": "None", "website": "None", "summary": "None", "logo": "None", "latitude": 43.81265403716334, "longitude": -79.49559894099505}, "119019222RR0001": {"name": "LIFEGIVING FONT GREEK ORTHODOX CHURCH CORP.", "designationCode": "C", "categoryCode": "39", "address": "301 NORTH RAILWAY STREET EAST", "city": "SWIFT CURRENT", "province": "SK", "country": "CA", "postalCode": "S9H1C6", "twitter": "None", "instagram": "None", "facebook": "None", "youtube": "None", "website": "None", "summary": "None", "logo": "None", "latitude": 50.282105682199415, "longitude": -107.79598691199261}, "824486872RR0001": {"name": "LIFEHOPE FOUNDATION", "designationCode": "B", "categoryCode": "39", "address": "6987 ESTAIRE RD", "city": "SUDBURY", "province": "ON", "country": "CA", "postalCode": "P3E4N1", "twitter": "None", "instagram": "None", "facebook": "None", "youtube": "None", "website": "None", "summary": "None", "logo": "None", "latitude": 46.39033083374691, "longitude": -80.86795539384839}, "889859468RR0001": {"name": "LIFELINE", "designationCode": "C", "categoryCode": "09", "address": "DANIEL DI ROCCO               300 GERRARD STREET E,2ND FOOR", "city": "TORONTO", "province": "ON", "country": "CA", "postalCode": "M5A2G7", "twitter": "None", "instagram": "None", "facebook": "None", "youtube": "None", "website": "None", "summary": "None", "logo": "None", "latitude": 43.662106172369924, "longitude": -79.36636740397594}, "831575527RR0001": {"name": "LIFELINE CHURCH", "designationCode": "C", "categoryCode": "36", "address": "965 MARENTETTE AVE", "city": "WINDSOR", "province": "ON", "country": "CA", "postalCode": "N9A2A2", "twitter": "None", "instagram": "None", "facebook": "None", "youtube": "None", "website": "None", "summary": "None", "logo": "None", "latitude": 42.313328109902514, "longitude": -83.02310871484202}, "107625196RR0001": {"name": "LIFELINE FOUNDATION", "designationCode": "C", "categoryCode": "57", "address": "25 CECIL STREET", "city": "TORONTO", "province": "ON", "country": "CA", "postalCode": "M5T1N1", "twitter": "None", "instagram": "None", "facebook": "None", "youtube": "None", "website": "None", "summary": "None", "logo": "None", "latitude": 43.656724918662476, "longitude": -79.39607478628315}, "885426403RR0001": {"name": "LIFELINE HUMANITARIAN ORGANIZATION", "designationCode": "C", "categoryCode": "02", "address": "TORONTO DOMINION CENTRE       901-95 WELLINGTON ST W BOX 4", "city": "TORONTO", "province": "ON", "country": "CA", "postalCode": "M5J2N7", "twitter": "None", "instagram": "None", "facebook": "None", "youtube": "None", "website": "None", "summary": "None", "logo": "None", "latitude": 43.64690000000007, "longitude": -79.38180999999997}, "898046107RR0001": {"name": "LIFELINE MALAWI ASSOCIATION", "designationCode": "C", "categoryCode": "11", "address": "10556 SUMAC PLACE", "city": "SURREY", "province": "BC", "country": "CA", "postalCode": "V4N1Y4", "twitter": "None", "instagram": "None", "facebook": "None", "youtube": "None", "website": "None", "summary": "None", "logo": "None", "latitude": 49.19435797807146, "longitude": -122.76531266221372}, "134899236RR0001": {"name": "LIFELINE OUTREACH SOCIETY", "designationCode": "C", "categoryCode": "09", "address": "35138 HIGH DRIVE", "city": "ABBOTTSFORD", "province": "BC", "country": "CA", "postalCode": "V2S4P6", "twitter": "None", "instagram": "None", "facebook": "None", "youtube": "None", "website": "None", "summary": "None", "logo": "None", "latitude": 49.061845499567326, "longitude": -122.25135500444341}, "878629518RR0001": {"name": "LIFELONG EDUCATION FOR ADULTS: READING & NUMERACY INC. (L.E.A.R.N.)", "designationCode": "C", "categoryCode": "20", "address": "PO BOX 1283", "city": "ROBLIN", "province": "MB", "country": "CA", "postalCode": "R0L1P0", "twitter": "None", "instagram": "None", "facebook": "None", "youtube": "None", "website": "None", "summary": "None", "logo": "None", "latitude": 51.22816000000006, "longitude": -101.35248999999999}, "895122653RR0001": {"name": "LIFENET CRISES COUNSELLING SERVICES INC.", "designationCode": "C", "categoryCode": "59", "address": "607 MEADOW LANE", "city": "BURLINGTON", "province": "ON", "country": "CA", "postalCode": "L7L4R9", "twitter": "None", "instagram": "None", "facebook": "None", "youtube": "None", "website": "None", "summary": "None", "logo": "None", "latitude": 43.38031394061968, "longitude": -79.74929135385779}, "866524648RR0001": {"name": "LIFEPATH MINISTRIES SOCIETY", "designationCode": "C", "categoryCode": "49", "address": "#31066 RANGE ROAD 20          RR1, SITE 15, COMP 42", "city": "DIDSBURY", "province": "AB", "country": "CA", "postalCode": "T0M0W0", "twitter": "None", "instagram": "None", "facebook": "None", "youtube": "None", "website": "None", "summary": "None", "logo": "None", "latitude": 51.630652251555674, "longitude": -114.1433882483454}, "819050352RR0001": {"name": "LIFEPOINT CHURCH INC.", "designationCode": "C", "categoryCode": "36", "address": "BOX 582", "city": "LANIGAN", "province": "SK", "country": "CA", "postalCode": "S0K2M0", "twitter": "None", "instagram": "None", "facebook": "None", "youtube": "None", "website": "None", "summary": "None", "logo": "None", "latitude": 51.84617000000003, "longitude": -105.03797999999995}, "889993481RR0001": {"name": "LIFESKILLS OTTAWA FUND", "designationCode": "C", "categoryCode": "09", "address": "1 BREWER HUNT WAY UNIT #9", "city": "KANATA", "province": "ON", "country": "CA", "postalCode": "K2K2B5", "twitter": "None", "instagram": "None", "facebook": "None", "youtube": "None", "website": "None", "summary": "None", "logo": "None", "latitude": 45.33722340691881, "longitude": -75.90445592278874}, "821656071RR0001": {"name": "LIFESPRING CHRISTIAN FELLOWSHIP", "designationCode": "C", "categoryCode": "39", "address": "411 GRAND MEADOW PLACE", "city": "WATERLOO", "province": "ON", "country": "CA", "postalCode": "N2K3P8", "twitter": "None", "instagram": "None", "facebook": "None", "youtube": "None", "website": "None", "summary": "None", "logo": "None", "latitude": 43.497712561746276, "longitude": -80.49696873434732}, "875059826RR0001": {"name": "LIFESPRING COMMUNITY CHURCH", "designationCode": "C", "categoryCode": "39", "address": "12 SCENIC RD NW", "city": "CALGARY", "province": "AB", "country": "CA", "postalCode": "T3L1B1", "twitter": "None", "instagram": "None", "facebook": "None", "youtube": "None", "website": "None", "summary": "None", "logo": "None", "latitude": 51.11567857452822, "longitude": -114.20871282263842}, "856848924RR0001": {"name": "LIFESTREAM MINISTRIES INTERNATIONAL INC.", "designationCode": "C", "categoryCode": "39", "address": "835 HAYWORTH CRES", "city": "REGINA", "province": "SK", "country": "CA", "postalCode": "S4X1X8", "twitter": "None", "instagram": "None", "facebook": "None", "youtube": "None", "website": "None", "summary": "None", "logo": "None", "latitude": 50.49020153231591, "longitude": -104.67931402553522}, "135071488RR0001": {"name": "LIFESTYLE EQUITY SOCIETY", "designationCode": "C", "categoryCode": "01", "address": "305-1726 DOLPHIN AVE", "city": "KELOWNA", "province": "BC", "country": "CA", "postalCode": "V1Y9R9", "twitter": "None", "instagram": "None", "facebook": "None", "youtube": "None", "website": "None", "summary": "None", "logo": "None", "latitude": 49.87933626924259, "longitude": -119.46025619733116}, "862421310RR0001": {"name": "LIFESTYLE HELPING HANDS SENIORS ASSOCIATION", "designationCode": "C", "categoryCode": "09", "address": "10740-19 AVE", "city": "EDMONTON", "province": "AB", "country": "CA", "postalCode": "T6J6W9", "twitter": "None", "instagram": "None", "facebook": "None", "youtube": "None", "website": "None", "summary": "None", "logo": "None", "latitude": 53.44769041719058, "longitude": -113.50597067900637}, "814170502RR0001": {"name": "LIFESTYLE MINISTRIES INTERNATIONAL", "designationCode": "C", "categoryCode": "39", "address": "P.O. BOX 8000 - 489", "city": "ABBOTSFORD", "province": "BC", "country": "CA", "postalCode": "V2S6H1", "twitter": "None", "instagram": "None", "facebook": "None", "youtube": "None", "website": "None", "summary": "None", "logo": "None", "latitude": 49.03851300000005, "longitude": -122.29441549999993}, "897083606RR0001": {"name": "LIFESTYLER ADVANTAGE INSTITUTE", "designationCode": "C", "categoryCode": "11", "address": "29 SQUAW VALLEY RD", "city": "LUMBY", "province": "BC", "country": "CA", "postalCode": "V0E2G6", "twitter": "None", "instagram": "None", "facebook": "None", "youtube": "None", "website": "None", "summary": "None", "logo": "None", "latitude": 50.37515360783058, "longitude": -118.77128903634632}, "132657586RR0001": {"name": "LIFETIME LEARNING CENTRE SOCIETY", "designationCode": "C", "categoryCode": "20", "address": "32444 7TH AVE", "city": "MISSION", "province": "BC", "country": "CA", "postalCode": "V2V2B5", "twitter": "None", "instagram": "None", "facebook": "None", "youtube": "None", "website": "None", "summary": "None", "logo": "None", "latitude": 49.14012868556841, "longitude": -122.3261261855684}, "865450886RR0001": {"name": "LIFETIMES CIRCLES", "designationCode": "C", "categoryCode": "09", "address": "406 - 48 CHURCH ST", "city": "BROCKVILLE", "province": "ON", "country": "CA", "postalCode": "K6V6L3", "twitter": "None", "instagram": "None", "facebook": "None", "youtube": "None", "website": "None", "summary": "None", "logo": "None", "latitude": 44.58947607219092, "longitude": -75.68792494243733}, "885420737RR0001": {"name": "LIFEWATER CANADA", "designationCode": "C", "categoryCode": "23", "address": "457 HEATHER CRES", "city": "THUNDER BAY", "province": "ON", "country": "CA", "postalCode": "P7E5L1", "twitter": "None", "instagram": "None", "facebook": "None", "youtube": "None", "website": "None", "summary": "None", "logo": "None", "latitude": 48.37908547489746, "longitude": -89.28653327699232}, "118806082RR0001": {"name": "LIFEWAY CHURCH SOCIETY", "designationCode": "C", "categoryCode": "36", "address": "PO BOX 38053                  RPO MORGAN HEIGHTS", "city": "SURREY", "province": "BC", "country": "CA", "postalCode": "V3Z6R3", "twitter": "None", "instagram": "None", "facebook": "None", "youtube": "None", "website": "None", "summary": "None", "logo": "None", "latitude": 49.092090000000056, "longitude": -122.84333449999994}, "809882814RR0001": {"name": "LIFT Foundation", "designationCode": "A", "categoryCode": "03", "address": "149 BUENA VISTA ROAD", "city": "OTTAWA", "province": "ON", "country": "CA", "postalCode": "K1M0V6", "twitter": "None", "instagram": "None", "facebook": "None", "youtube": "None", "website": "None", "summary": "None", "logo": "None", "latitude": 45.450847486005955, "longitude": -75.68259455551384}, "867291320RR0001": {"name": "LIFT JESUS HIGHER", "designationCode": "C", "categoryCode": "39", "address": "PO BOX 7111", "city": "OTTAWA", "province": "ON", "country": "CA", "postalCode": "K1L8E2", "twitter": "None", "instagram": "None", "facebook": "None", "youtube": "None", "website": "None", "summary": "None", "logo": "None", "latitude": 45.42177300000006, "longitude": -75.69115999999994}, "892538760RR0001": {"name": "LIFT MINISTRIES", "designationCode": "C", "categoryCode": "47", "address": "BOX 692                       116 MARTIN ST", "city": "RICHMOND", "province": "ON", "country": "CA", "postalCode": "K0A2Z0", "twitter": "None", "instagram": "None", "facebook": "None", "youtube": "None", "website": "None", "summary": "None", "logo": "None", "latitude": 45.18922285371357, "longitude": -75.83911413930421}, "124415613RR0001": {"name": "LIFT NON-PROFIT HOUSING OF LONDON INC", "designationCode": "C", "categoryCode": "09", "address": "203-747 HYDE PARK ROAD", "city": "LONDON", "province": "ON", "country": "CA", "postalCode": "N6H3S3", "twitter": "None", "instagram": "None", "facebook": "None", "youtube": "None", "website": "None", "summary": "None", "logo": "None", "latitude": 42.97722896032652, "longitude": -81.32103844956471}, "870586351RR0001": {"name": "LIGHT & LIFE MINISTRIES PENTECOSTAL CHURCH OF GOD", "designationCode": "C", "categoryCode": "39", "address": "22 ELROSE AVENUE", "city": "NORTH YORK", "province": "ON", "country": "CA", "postalCode": "M9M2H6", "twitter": "None", "instagram": "None", "facebook": "None", "youtube": "None", "website": "None", "summary": "None", "logo": "None", "latitude": 43.71755854239604, "longitude": -79.52567887537685}, "891192015RR0001": {"name": "LIGHT A DREAM/ILLUMINEZ UN REVE", "designationCode": "C", "categoryCode": "59", "address": "63B AV DONEGANI", "city": "POINTE-CLAIRE", "province": "QC", "country": "CA", "postalCode": "H9R2V9", "twitter": "None", "instagram": "None", "facebook": "None", "youtube": "None", "website": "None", "summary": "None", "logo": "None", "latitude": 45.45050269643161, "longitude": -73.78733756980769}, "865705198RR0001": {"name": "LIGHT AND LIFE CHAPEL", "designationCode": "C", "categoryCode": "36", "address": "P.O. BOX 184", "city": "TOBERMORY", "province": "ON", "country": "CA", "postalCode": "N0H2R0", "twitter": "None", "instagram": "None", "facebook": "None", "youtube": "None", "website": "None", "summary": "None", "logo": "None", "latitude": 45.253840000000025, "longitude": -81.66510999999997}, "833838329RR0001": {"name": "LIGHT AND LIFE INTERNATIONAL MINISTRIES", "designationCode": "C", "categoryCode": "39", "address": "9 - 1991 VICTORIA PARK AVE", "city": "SCARBOROUGH", "province": "ON", "country": "CA", "postalCode": "M1R0C9", "twitter": "None", "instagram": "None", "facebook": "None", "youtube": "None", "website": "None", "summary": "None", "logo": "None", "latitude": 43.751743920624385, "longitude": -79.31306666636866}, "870617727RR0001": {"name": "LIGHT AND LOVE HOME", "designationCode": "C", "categoryCode": "59", "address": "A-123 6TH AVE E", "city": "VANCOUVER", "province": "BC", "country": "CA", "postalCode": "V5T1J6", "twitter": "None", "instagram": "None", "facebook": "None", "youtube": "None", "website": "None", "summary": "None", "logo": "None", "latitude": 49.265553518754565, "longitude": -123.10222980391252}, "884678913RR0001": {"name": "LIGHT AND LOVE HOME IN TORONTO", "designationCode": "C", "categoryCode": "59", "address": "793-795 DUNDAS STREET WEST    2ND FLOOR", "city": "TORONTO", "province": "ON", "country": "CA", "postalCode": "M6J1V2", "twitter": "None", "instagram": "None", "facebook": "None", "youtube": "None", "website": "None", "summary": "None", "logo": "None", "latitude": 43.64973775462044, "longitude": -79.41862834263443}, "873440044RR0001": {"name": "LIGHT AND SALT CHURCH", "designationCode": "C", "categoryCode": "39", "address": "16264 80 AVE", "city": "SURREY", "province": "BC", "country": "CA", "postalCode": "V4N0X3", "twitter": "None", "instagram": "None", "facebook": "None", "youtube": "None", "website": "None", "summary": "None", "logo": "None", "latitude": 49.148075671604865, "longitude": -122.77131032839513}, "898862073RR0001": {"name": "LIGHT FOR ALL NATIONS MINISTRIES", "designationCode": "C", "categoryCode": "39", "address": "P.O. BOX 85300                1295 NORTH SERVICE ROAD", "city": "BURLINGTON", "province": "ON", "country": "CA", "postalCode": "L7R4K3", "twitter": "None", "instagram": "None", "facebook": "None", "youtube": "None", "website": "None", "summary": "None", "logo": "None", "latitude": 43.33626881605931, "longitude": -79.83474683259213}, "842818304RR0001": {"name": "LIGHT INTO THE DARKNESS MINISTRIES", "designationCode": "C", "categoryCode": "47", "address": "307-4675 IMPERIAL ST", "city": "BURNABY", "province": "BC", "country": "CA", "postalCode": "V5J1C1", "twitter": "None", "instagram": "None", "facebook": "None", "youtube": "None", "website": "None", "summary": "None", "logo": "None", "latitude": 49.22196550100963, "longitude": -122.99827402553522}, "878740315RR0001": {"name": "LIGHT OF JESUS COMMUNITY - CANADA INC.", "designationCode": "C", "categoryCode": "49", "address": "44-520 NOVO STAR DR", "city": "MISSISSAUGA", "province": "ON", "country": "CA", "postalCode": "L5W1X7", "twitter": "None", "instagram": "None", "facebook": "None", "youtube": "None", "website": "None", "summary": "None", "logo": "None", "latitude": 43.63438591667192, "longitude": -79.71463163742922}, "861037778RR0001": {"name": "LIGHT OF LIFE FULL GOSPEL CHURCH", "designationCode": "C", "categoryCode": "39", "address": "1080 BELLAMY ROAD NORTH", "city": "SCARBOROUGH", "province": "ON", "country": "CA", "postalCode": "M1H1H2", "twitter": "None", "instagram": "None", "facebook": "None", "youtube": "None", "website": "None", "summary": "None", "logo": "None", "latitude": 43.775089879537255, "longitude": -79.24195543885932}, "137693123RR0001": {"name": "LIGHT OF MESSIAH MINISTRIES CANADA", "designationCode": "C", "categoryCode": "39", "address": "5845 YONGE ST", "city": "NORTH YORK", "province": "ON", "country": "CA", "postalCode": "M2M3T9", "twitter": "None", "instagram": "None", "facebook": "None", "youtube": "None", "website": "None", "summary": "None", "logo": "None", "latitude": 43.78613214202448, "longitude": -79.41707514076265}, "890550262RR0001": {"name": "LIGHT OF THE NATIONS GOSPEL MINISTRIES", "designationCode": "C", "categoryCode": "21", "address": "121 CHARTLEY PRIVATE", "city": "OTTAWA", "province": "ON", "country": "CA", "postalCode": "K1V2J6", "twitter": "None", "instagram": "None", "facebook": "None", "youtube": "None", "website": "None", "summary": "None", "logo": "None", "latitude": 45.374355449362234, "longitude": -75.65540250152921}, "119029247RR0001": {"name": "LIGHT OF THE PRAIRIES INC. / LUMI\u00c8RE DES PRAIRIES INC.", "designationCode": "C", "categoryCode": "01", "address": "BOX 47 GRP 40 RR 2", "city": "LORETTE", "province": "MB", "country": "CA", "postalCode": "R0A0Y0", "twitter": "None", "instagram": "None", "facebook": "None", "youtube": "None", "website": "None", "summary": "None", "logo": "None", "latitude": 49.74549000000006, "longitude": -96.88203799999994}, "136656402RR0001": {"name": "LIGHT OF THE PRAIRIES SOCIETY INC", "designationCode": "C", "categoryCode": "01", "address": "925 MCKERCHER DR", "city": "SASKATOON", "province": "SK", "country": "CA", "postalCode": "S7H4T9", "twitter": "None", "instagram": "None", "facebook": "None", "youtube": "None", "website": "None", "summary": "None", "logo": "None", "latitude": 52.11654300000001, "longitude": -106.58686825059172}, "865552624RR0001": {"name": "LIGHT OF THE WORLD FULL GOSPEL CHURCH", "designationCode": "C", "categoryCode": "39", "address": "15570 - 86B AVENUE", "city": "SURREY", "province": "BC", "country": "CA", "postalCode": "V3S4Y9", "twitter": "None", "instagram": "None", "facebook": "None", "youtube": "None", "website": "None", "summary": "None", "logo": "None", "latitude": 49.16035551788917, "longitude": -122.7909636931733}, "808430870RR0001": {"name": "LIGHT OF THE WORLD MINISTRIES", "designationCode": "C", "categoryCode": "39", "address": "34 DALMATIAN CRES", "city": "TORONTO", "province": "ON", "country": "CA", "postalCode": "M1C4W3", "twitter": "None", "instagram": "None", "facebook": "None", "youtube": "None", "website": "None", "summary": "None", "logo": "None", "latitude": 43.790184659732226, "longitude": -79.16745223492424}, "108086810RR0001": {"name": "LIGHT PRESBYTERIAN CHURCH", "designationCode": "C", "categoryCode": "37", "address": "6965 PROFESSIONAL COURT", "city": "MISSISSAUGA", "province": "ON", "country": "CA", "postalCode": "L4V1Y3", "twitter": "None", "instagram": "None", "facebook": "None", "youtube": "None", "website": "None", "summary": "None", "logo": "None", "latitude": 43.70898595388052, "longitude": -79.63520540836362}, "885441618RR0001": {"name": "LIGHT THE NATION CANADA PRAYER CENTRES INC.", "designationCode": "C", "categoryCode": "39", "address": "#302, 11530-40 AVENUE", "city": "EDMONTON", "province": "AB", "country": "CA", "postalCode": "T6J0R6", "twitter": "None", "instagram": "None", "facebook": "None", "youtube": "None", "website": "None", "summary": "None", "logo": "None", "latitude": 53.4764005010096, "longitude": -113.5320008366611}, "858489982RR0001": {"name": "LIGHT TO THE NATIONS ASSOCIATION", "designationCode": "C", "categoryCode": "39", "address": "1865 COLLEGE ROAD", "city": "SOUTH LOCHABER", "province": "NS", "country": "CA", "postalCode": "B2G2L3", "twitter": "None", "instagram": "None", "facebook": "None", "youtube": "None", "website": "None", "summary": "None", "logo": "None", "latitude": 45.38205650432783, "longitude": -62.04444296863639}}