{"890614340RR0001": {"name": "VOICE OF HOPE MISSION", "designationCode": "C", "categoryCode": "47", "address": "1006 CORDOVA WAY", "city": "WEST KELOWNA", "province": "BC", "country": "CA", "postalCode": "V1Z2N3", "twitter": "None", "instagram": "None", "facebook": "None", "youtube": "None", "website": "None", "summary": "None", "logo": "None", "latitude": 49.86040343825375, "longitude": -119.55651995697963}, "119286961RR0001": {"name": "VOICE OF LIFE,", "designationCode": "C", "categoryCode": "36", "address": "150 - 22111 TOWNSHIP ROAD 510", "city": "LEDUC COUNTY", "province": "AB", "country": "CA", "postalCode": "T0B3M2", "twitter": "None", "instagram": "None", "facebook": "None", "youtube": "None", "website": "None", "summary": "None", "logo": "None", "latitude": 53.3666528212319, "longitude": -113.12665491852246}, "863751970RR0001": {"name": "VOICE OF MARANATHA MINISTRIES", "designationCode": "C", "categoryCode": "36", "address": "144 WELLINGTON STREET", "city": "ST. THOMAS", "province": "ON", "country": "CA", "postalCode": "N5R2R9", "twitter": "None", "instagram": "None", "facebook": "None", "youtube": "None", "website": "None", "summary": "None", "logo": "None", "latitude": 42.77511042377855, "longitude": -81.19004566240024}, "891860249RR0001": {"name": "VOICE OF PEACE FOUNDATION", "designationCode": "A", "categoryCode": "53", "address": "5097-47A AVE", "city": "DELTA", "province": "BC", "country": "CA", "postalCode": "V4K4G5", "twitter": "None", "instagram": "None", "facebook": "None", "youtube": "None", "website": "None", "summary": "None", "logo": "None", "latitude": 49.08989872717083, "longitude": -123.08227153985081}, "861212199RR0001": {"name": "VOICE OF PROPHECY (CANADA)", "designationCode": "C", "categoryCode": "39", "address": "1148 KING STREET EAST", "city": "OSHAWA", "province": "ON", "country": "CA", "postalCode": "L1H1H8", "twitter": "None", "instagram": "None", "facebook": "None", "youtube": "None", "website": "None", "summary": "None", "logo": "None", "latitude": 43.90577745830635, "longitude": -78.8216426759766}, "119117943RR0001": {"name": "VOICE OF REVIVAL MINISTRIES ASSOCIATION", "designationCode": "C", "categoryCode": "47", "address": "PO BOX 45005 RPO LANGLEY CROSS", "city": "LANGLEY", "province": "BC", "country": "CA", "postalCode": "V2Y0C9", "twitter": "None", "instagram": "None", "facebook": "None", "youtube": "None", "website": "None", "summary": "None", "logo": "None", "latitude": 49.11250818018715, "longitude": -122.67404059457891}, "108186115RR0001": {"name": "VOICE OF THE VEDAS CULTURAL SABHA INC.", "designationCode": "C", "categoryCode": "49", "address": "8640 YONGE ST", "city": "RICHMOND HILL", "province": "ON", "country": "CA", "postalCode": "L4C6Z4", "twitter": "None", "instagram": "None", "facebook": "None", "youtube": "None", "website": "None", "summary": "None", "logo": "None", "latitude": 43.8382472204402, "longitude": -79.42959725514571}, "880480207RR0001": {"name": "VOICE OF TRIUMPH MINISTRIES", "designationCode": "C", "categoryCode": "36", "address": "135 QUEEN ST", "city": "CHATHAM", "province": "ON", "country": "CA", "postalCode": "N7M2G7", "twitter": "None", "instagram": "None", "facebook": "None", "youtube": "None", "website": "None", "summary": "None", "logo": "None", "latitude": 42.40283173578961, "longitude": -82.18492218010287}, "891385445RR0001": {"name": "VOICE OF VICTORY FAITH FORTRESS", "designationCode": "C", "categoryCode": "39", "address": "780 TALFOURD ST.", "city": "SARNIA", "province": "ON", "country": "CA", "postalCode": "N7T1S2", "twitter": "None", "instagram": "None", "facebook": "None", "youtube": "None", "website": "None", "summary": "None", "logo": "None", "latitude": 42.96644317254617, "longitude": -82.38268730570763}, "892622374RR0001": {"name": "VOICES", "designationCode": "C", "categoryCode": "22", "address": "92 FURROW LANE", "city": "ETOBICOKE", "province": "ON", "country": "CA", "postalCode": "M8Z0A3", "twitter": "None", "instagram": "None", "facebook": "None", "youtube": "None", "website": "None", "summary": "None", "logo": "None", "latitude": 43.63739789216787, "longitude": -79.52144062720087}, "139183230RR0001": {"name": "VOICES FOR CHILDREN COALITION, INC", "designationCode": "C", "categoryCode": "09", "address": "PO BOX 133", "city": "MONTAGUE", "province": "PE", "country": "CA", "postalCode": "C0A1R0", "twitter": "None", "instagram": "None", "facebook": "None", "youtube": "None", "website": "None", "summary": "None", "logo": "None", "latitude": 46.14343222329997, "longitude": -62.75594020244682}, "865768550RR0001": {"name": "VOICES OF UNITY CHOIR", "designationCode": "C", "categoryCode": "22", "address": "65 WITHERSPOON ST.", "city": "DUNDAS", "province": "ON", "country": "CA", "postalCode": "L9H2C4", "twitter": "None", "instagram": "None", "facebook": "None", "youtube": "None", "website": "None", "summary": "None", "logo": "None", "latitude": 43.271588239829, "longitude": -79.96581091871978}, "898194972RR0001": {"name": "VOLCANO NON-PROFIT PRODUCTIONS INC.", "designationCode": "C", "categoryCode": "22", "address": "251 CRAWFORD STREET", "city": "TORONTO", "province": "ON", "country": "CA", "postalCode": "M6J2V7", "twitter": "None", "instagram": "None", "facebook": "None", "youtube": "None", "website": "None", "summary": "None", "logo": "None", "latitude": 43.65022255842804, "longitude": -79.41707919481806}, "887579720RR0001": {"name": "VOLKSLIEDERCHOR HARMONIE INC.", "designationCode": "C", "categoryCode": "22", "address": "101 MARTIN ST", "city": "REGINA", "province": "SK", "country": "CA", "postalCode": "S4S3W4", "twitter": "None", "instagram": "None", "facebook": "None", "youtube": "None", "website": "None", "summary": "None", "logo": "None", "latitude": 50.418396, "longitude": -104.59822691975899}, "887942886RR0001": {"name": "VOLUNGE LITHUANIAN CHORAL ENSEMBLE", "designationCode": "C", "categoryCode": "22", "address": "90 PETTIT DR.", "city": "ETOBICOKE", "province": "ON", "country": "CA", "postalCode": "M9R2X2", "twitter": "None", "instagram": "None", "facebook": "None", "youtube": "None", "website": "None", "summary": "None", "logo": "None", "latitude": 43.68200647403209, "longitude": -79.54687227407813}, "108186255RR0001": {"name": "VOLUNTARY RESOURCE COUNCIL", "designationCode": "C", "categoryCode": "59", "address": "81 PRINCE STREET", "city": "CHARLOTTETOWN", "province": "PE", "country": "CA", "postalCode": "C1A4R3", "twitter": "None", "instagram": "None", "facebook": "None", "youtube": "None", "website": "None", "summary": "None", "logo": "None", "latitude": 46.23527784901036, "longitude": -63.123739081885795}, "119287050RR0001": {"name": "VOLUNTEER ACTION CENTER OF THUNDER BAY", "designationCode": "C", "categoryCode": "09", "address": "206D - 1000 FORT WILLIAM RD", "city": "THUNDER BAY", "province": "ON", "country": "CA", "postalCode": "P7B6B9", "twitter": "None", "instagram": "None", "facebook": "None", "youtube": "None", "website": "None", "summary": "None", "logo": "None", "latitude": 48.40331962948579, "longitude": -89.24210857815011}, "129645032RR0001": {"name": "VOLUNTEER ACTION CENTRE OF KITCHENER-WATERLOO AND AREA INC", "designationCode": "C", "categoryCode": "59", "address": "500 - 151 FREDERICK ST", "city": "KITCHENER", "province": "ON", "country": "CA", "postalCode": "N2H2M2", "twitter": "None", "instagram": "None", "facebook": "None", "youtube": "None", "website": "None", "summary": "None", "logo": "None", "latitude": 43.452378420191685, "longitude": -80.48419868039134}, "118797182RR0001": {"name": "VOLUNTEER ASSOCIATION TO NORFOLK GENERAL HOSPITAL AND NORFOLK HOSPITAL NURSING HOME", "designationCode": "C", "categoryCode": "19", "address": "365 WEST ST", "city": "SIMCOE", "province": "ON", "country": "CA", "postalCode": "N3Y1T7", "twitter": "None", "instagram": "None", "facebook": "None", "youtube": "None", "website": "None", "summary": "None", "logo": "None", "latitude": 42.834770328899495, "longitude": -80.3140876254544}, "118797174RR0001": {"name": "VOLUNTEER ASSOCIATION TO THUNDER BAY REGIONAL HEALTH SCIENCES CENTRE", "designationCode": "C", "categoryCode": "19", "address": "980 OLIVER RD", "city": "THUNDER BAY", "province": "ON", "country": "CA", "postalCode": "P7B6V4", "twitter": "None", "instagram": "None", "facebook": "None", "youtube": "None", "website": "None", "summary": "None", "logo": "None", "latitude": 48.42191106431444, "longitude": -89.26741731368831}, "871838728RR0001": {"name": "VOLUNTEER BC VOLUNTEER CENTRES", "designationCode": "C", "categoryCode": "09", "address": "190-7000 MINORU BOULEVARD", "city": "RICHMOND", "province": "BC", "country": "CA", "postalCode": "V6Y3Z5", "twitter": "None", "instagram": "None", "facebook": "None", "youtube": "None", "website": "None", "summary": "None", "logo": "None", "latitude": 49.162613713471075, "longitude": -123.14016571347106}, "863406476RR0001": {"name": "VOLUNTEER BENEVOLES YUKON SOCIETY", "designationCode": "C", "categoryCode": "59", "address": "P. O. BOX 31107", "city": "WHITEHORSE", "province": "YT", "country": "CA", "postalCode": "Y1A5P7", "twitter": "None", "instagram": "None", "facebook": "None", "youtube": "None", "website": "None", "summary": "None", "logo": "None", "latitude": 60.72084600000005, "longitude": -135.05323399999992}, "898232343RR0001": {"name": "VOLUNTEER CANADA - BENEVOLES CANADA", "designationCode": "C", "categoryCode": "59", "address": "201 - 309 COOPER ST", "city": "OTTAWA", "province": "ON", "country": "CA", "postalCode": "K2P0G5", "twitter": "None", "instagram": "None", "facebook": "None", "youtube": "None", "website": "None", "summary": "None", "logo": "None", "latitude": 45.417332283109175, "longitude": -75.6938818960701}, "108186305RR0001": {"name": "VOLUNTEER CENTRE OF CALGARY", "designationCode": "C", "categoryCode": "09", "address": "1170-105 12 AVE SE", "city": "CALGARY", "province": "AB", "country": "CA", "postalCode": "T2G1A1", "twitter": "None", "instagram": "None", "facebook": "None", "youtube": "None", "website": "None", "summary": "None", "logo": "None", "latitude": 51.04112640495218, "longitude": -114.05409219389539}, "108042409RR0001": {"name": "VOLUNTEER CENTRE OF CHARLOTTE COUNTY INC.", "designationCode": "C", "categoryCode": "09", "address": "PO BOX 271", "city": "ST. STEPHEN", "province": "NB", "country": "CA", "postalCode": "E3L2X2", "twitter": "None", "instagram": "None", "facebook": "None", "youtube": "None", "website": "None", "summary": "None", "logo": "None", "latitude": 45.19456800000006, "longitude": -67.27532299999993}, "119044436RR0001": {"name": "VOLUNTEER CENTRE OF SOUTHEASTERN NEW BRUNSWICK INC/CENTRE DUBENEVOLAT DU SUD-EST DU NOUVEAU-BRUNSWICK iNC.", "designationCode": "C", "categoryCode": "09", "address": "22 CHURCH ST.                 SUITE T290", "city": "MONCTON", "province": "NB", "country": "CA", "postalCode": "E1C0P7", "twitter": "None", "instagram": "None", "facebook": "None", "youtube": "None", "website": "None", "summary": "None", "logo": "None", "latitude": 46.08913284179702, "longitude": -64.77832395449812}, "119287092RR0001": {"name": "VOLUNTEER CENTRE OF TORONTO", "designationCode": "C", "categoryCode": "59", "address": "404-344 BLOOR ST W", "city": "TORONTO", "province": "ON", "country": "CA", "postalCode": "M5S3A7", "twitter": "None", "instagram": "None", "facebook": "None", "youtube": "None", "website": "None", "summary": "None", "logo": "None", "latitude": 43.667372648743196, "longitude": -79.40049643191246}, "883645582RR0001": {"name": "VOLUNTEER COMOX VALLEY SOCIETY", "designationCode": "C", "categoryCode": "50", "address": "UNIT C, 450-8TH STREET", "city": "COURTENAY", "province": "BC", "country": "CA", "postalCode": "V9N1N5", "twitter": "None", "instagram": "None", "facebook": "None", "youtube": "None", "website": "None", "summary": "None", "logo": "None", "latitude": 49.68838213258626, "longitude": -124.99909906494544}, "121932230RR0001": {"name": "VOLUNTEER ENTERPRISES OF THE HEALTH SCIENCES CENTRE INC", "designationCode": "C", "categoryCode": "11", "address": "MS210 820 SHERBROOK ST", "city": "WINNIPEG", "province": "MB", "country": "CA", "postalCode": "R3A1R9", "twitter": "None", "instagram": "None", "facebook": "None", "youtube": "None", "website": "None", "summary": "None", "logo": "None", "latitude": 49.905053935370574, "longitude": -97.15499593846792}, "133771634RR0001": {"name": "VOLUNTEER FAMILY SERVICES, INC", "designationCode": "C", "categoryCode": "01", "address": "844 MAIN STREET, UNIT 9", "city": "WOODSTOCK", "province": "NB", "country": "CA", "postalCode": "E7M2G1", "twitter": "None", "instagram": "None", "facebook": "None", "youtube": "None", "website": "None", "summary": "None", "logo": "None", "latitude": 46.165736891482474, "longitude": -67.57519306976768}, "891475949RR0001": {"name": "VOLUNTEER FIREFIGHTERS ASSOCIATION OF ALBERTA (BON ACCORD)", "designationCode": "C", "categoryCode": "59", "address": "BOX 693", "city": "BON ACCORD", "province": "AB", "country": "CA", "postalCode": "T0A0K0", "twitter": "None", "instagram": "None", "facebook": "None", "youtube": "None", "website": "None", "summary": "None", "logo": "None", "latitude": 53.837270000000046, "longitude": -113.41078999999996}, "132700857RR0001": {"name": "VOLUNTEER INTERNATIONAL CHRISTIAN SERVICE OF THE HOLY GHOST FATHERS", "designationCode": "C", "categoryCode": "47", "address": "#3-843 YOUVILLE DR WEST NW", "city": "EDMONTON", "province": "AB", "country": "CA", "postalCode": "T6L6X8", "twitter": "None", "instagram": "None", "facebook": "None", "youtube": "None", "website": "None", "summary": "None", "logo": "None", "latitude": 53.46401581994412, "longitude": -113.42976313894027}, "101072361RR0001": {"name": "VOLUNTEER LETHBRIDGE ASSOCIATION", "designationCode": "C", "categoryCode": "59", "address": "324 5 ST S", "city": "LETHBRIDGE", "province": "AB", "country": "CA", "postalCode": "T1J2B5", "twitter": "None", "instagram": "None", "facebook": "None", "youtube": "None", "website": "None", "summary": "None", "logo": "None", "latitude": 49.69508214570951, "longitude": -112.84028578357051}, "119261907RR0001": {"name": "VOLUNTEER MANITOBA INC.", "designationCode": "C", "categoryCode": "09", "address": "410-5 DONALD ST.", "city": "WINNIPEG", "province": "MB", "country": "CA", "postalCode": "R3L2T4", "twitter": "None", "instagram": "None", "facebook": "None", "youtube": "None", "website": "None", "summary": "None", "logo": "None", "latitude": 49.88072169885744, "longitude": -97.13747212124215}, "106888928RR0001": {"name": "VOLUNTEER OTTAWA/BENEVOLES OTTAWA", "designationCode": "C", "categoryCode": "59", "address": "17F-850 INDUSTRIAL AVENUE", "city": "OTTAWA", "province": "ON", "country": "CA", "postalCode": "K1G4H3", "twitter": "None", "instagram": "None", "facebook": "None", "youtube": "None", "website": "None", "summary": "None", "logo": "None", "latitude": 45.40718882215002, "longitude": -75.63251587404524}, "140985037RR0001": {"name": "VOLUNTEER PRINCE GEORGE", "designationCode": "C", "categoryCode": "59", "address": "PO BOX 544 STN\"A\"", "city": "PRINCE GEORGE", "province": "BC", "country": "CA", "postalCode": "V2L4S8", "twitter": "None", "instagram": "None", "facebook": "None", "youtube": "None", "website": "None", "summary": "None", "logo": "None"}, "894255181RR0001": {"name": "VOLUNTEER RESOURCE CENTRE (SYDNEY)", "designationCode": "C", "categoryCode": "09", "address": "PO BOX 1055 STN A", "city": "SYDNEY", "province": "NS", "country": "CA", "postalCode": "B1P6J7", "twitter": "None", "instagram": "None", "facebook": "None", "youtube": "None", "website": "None", "summary": "None", "logo": "None", "latitude": 46.137372000000056, "longitude": -60.19552249999994}, "119119055RR0001": {"name": "VOLUNTEER RICHMOND INFORMATION SERVICES SOCIETY", "designationCode": "C", "categoryCode": "09", "address": "190 7000 MINORU BLVD", "city": "RICHMOND", "province": "BC", "country": "CA", "postalCode": "V6Y3Z5", "twitter": "None", "instagram": "None", "facebook": "None", "youtube": "None", "website": "None", "summary": "None", "logo": "None", "latitude": 49.162613713471075, "longitude": -123.14016571347106}, "129633673RR0001": {"name": "VOLUNTEER SERVICES TO HOTEL DIEU HOSPITAL, KINGSTON", "designationCode": "C", "categoryCode": "19", "address": "166 BROCK ST", "city": "KINGSTON", "province": "ON", "country": "CA", "postalCode": "K7L5G2", "twitter": "None", "instagram": "None", "facebook": "None", "youtube": "None", "website": "None", "summary": "None", "logo": "None", "latitude": 44.23110572548917, "longitude": -76.48614734416293}, "806756748RR0001": {"name": "VOLUNTEER SERVICES TO LENNOX & ADDINGTON COUNTY GENERAL HOSPITAL, NAPANEE", "designationCode": "C", "categoryCode": "19", "address": "8 RICHMOND PARK DRIVE", "city": "NAPANEE", "province": "ON", "country": "CA", "postalCode": "K7R2Z4", "twitter": "None", "instagram": "None", "facebook": "None", "youtube": "None", "website": "None", "summary": "None", "logo": "None", "latitude": 44.24036405106917, "longitude": -76.9659297560906}, "119287233RR0001": {"name": "VOLUNTEER SERVICES TO TORONTO EAST GENERAL & ORTHOPAEDIC HOSPITAL INC", "designationCode": "C", "categoryCode": "19", "address": "825 COXWELL AVE", "city": "TORONTO", "province": "ON", "country": "CA", "postalCode": "M4C3E7", "twitter": "None", "instagram": "None", "facebook": "None", "youtube": "None", "website": "None", "summary": "None", "logo": "None", "latitude": 43.68958893424304, "longitude": -79.32611740732376}, "848493540RR0001": {"name": "VOLUNTEER SUDBURY/BENEVOLAT SUDBURY", "designationCode": "C", "categoryCode": "09", "address": "1127 BANCROFT DRIVE", "city": "SUDBURY", "province": "ON", "country": "CA", "postalCode": "P3B1R6", "twitter": "None", "instagram": "None", "facebook": "None", "youtube": "None", "website": "None", "summary": "None", "logo": "None", "latitude": 46.49539334698942, "longitude": -80.9582731958652}, "134499094RR0001": {"name": "VOLUNTEER TERRACE", "designationCode": "C", "categoryCode": "59", "address": "3235 EMERSON STREET", "city": "TERRACE", "province": "BC", "country": "CA", "postalCode": "V8G5L2", "twitter": "None", "instagram": "None", "facebook": "None", "youtube": "None", "website": "None", "summary": "None", "logo": "None", "latitude": 54.517865458508844, "longitude": -128.58909852308238}, "851583542RR0001": {"name": "VOSH Ontario", "designationCode": "C", "categoryCode": "11", "address": "4618 ROAD 150 RR1", "city": "SEBRINGVILLE", "province": "ON", "country": "CA", "postalCode": "N0K1X0", "twitter": "None", "instagram": "None", "facebook": "None", "youtube": "None", "website": "None", "summary": "None", "logo": "None", "latitude": 43.48818869249147, "longitude": -81.09182883315343}, "864065370RR0001": {"name": "VOX HURONIA", "designationCode": "C", "categoryCode": "22", "address": "BOX 114", "city": "MIDLAND", "province": "ON", "country": "CA", "postalCode": "L4R4K6", "twitter": "None", "instagram": "None", "facebook": "None", "youtube": "None", "website": "None", "summary": "None", "logo": "None", "latitude": 44.74989600000005, "longitude": -79.88850349999993}, "105559157RR0001": {"name": "VOX, CENTRE DE L'IMAGE CONTEMPORAINE", "designationCode": "C", "categoryCode": "21", "address": "401-2 RUE SAINTE-CATHERINE EST", "city": "MONTREAL", "province": "QC", "country": "CA", "postalCode": "H2X1K4", "twitter": "None", "instagram": "None", "facebook": "None", "youtube": "None", "website": "None", "summary": "None", "logo": "None", "latitude": 45.51178410601765, "longitude": -73.56212382207886}, "121339139RR0001": {"name": "VOXTROT INC", "designationCode": "C", "categoryCode": "22", "address": "6626-3EME AVENUE              ATTN: MICHOUE SYLVAIN, VP", "city": "MONTREAL", "province": "QC", "country": "CA", "postalCode": "H1Y2X7", "twitter": "None", "instagram": "None", "facebook": "None", "youtube": "None", "website": "None", "summary": "None", "logo": "None", "latitude": 45.55279696445279, "longitude": -73.59146645686405}, "105561757RR0001": {"name": "VOYAGEUR IN SCHOOL PROGRAM INC.", "designationCode": "C", "categoryCode": "01", "address": "12-37 VOYAGEUR AVENUE", "city": "WINNIPEG", "province": "MB", "country": "CA", "postalCode": "R2Y0H7", "twitter": "None", "instagram": "None", "facebook": "None", "youtube": "None", "website": "None", "summary": "None", "logo": "None", "latitude": 49.89596948658289, "longitude": -97.30023363350449}, "806095253RR0001": {"name": "VSO School of Music Society", "designationCode": "C", "categoryCode": "22", "address": "843 SEYMOUR ST", "city": "VANCOUVER", "province": "BC", "country": "CA", "postalCode": "V6B3L4", "twitter": "None", "instagram": "None", "facebook": "None", "youtube": "None", "website": "None", "summary": "None", "logo": "None", "latitude": 49.28034135238778, "longitude": -123.11956994200712}, "126260462RR0001": {"name": "VUES D'AFRIQUE", "designationCode": "C", "categoryCode": "22", "address": "100,RUE SHERBROOKE EST,       BUREAU 3100", "city": "MONTR\u00c9AL", "province": "QC", "country": "CA", "postalCode": "H2X1C3", "twitter": "None", "instagram": "None", "facebook": "None", "youtube": "None", "website": "None", "summary": "None", "logo": "None", "latitude": 45.51344435330954, "longitude": -73.56899682483144}, "871998969RR0001": {"name": "VULCAN AND DISTRICT HISTORICAL SOCIETY", "designationCode": "C", "categoryCode": "50", "address": "P.O. BOX 104", "city": "VULCAN", "province": "AB", "country": "CA", "postalCode": "T0L2B0", "twitter": "None", "instagram": "None", "facebook": "None", "youtube": "None", "website": "None", "summary": "None", "logo": "None", "latitude": 50.39734000000004, "longitude": -113.25817999999998}, "119287357RR0001": {"name": "VULCAN DAYCARE SOCIETY", "designationCode": "C", "categoryCode": "01", "address": "604 4TH AVENUE SOUTH", "city": "VULCAN", "province": "AB", "country": "CA", "postalCode": "T0L2B0", "twitter": "None", "instagram": "None", "facebook": "None", "youtube": "None", "website": "None", "summary": "None", "logo": "None", "latitude": 50.398932993380775, "longitude": -113.26010828900877}, "826964561RR0001": {"name": "VULCAN EVANGELICAL MISSIONARY CHURCH FELLOWSHIP", "designationCode": "C", "categoryCode": "39", "address": "P.O. BOX 669                  529 CENTRE STREET", "city": "VULCAN", "province": "AB", "country": "CA", "postalCode": "T0L2B0", "twitter": "None", "instagram": "None", "facebook": "None", "youtube": "None", "website": "None", "summary": "None", "logo": "None", "latitude": 50.40051217262971, "longitude": -113.26790771842006}, "866682602RR0001": {"name": "VULCAN EXTENDICARE AUXILIARY ASSOCIATION", "designationCode": "C", "categoryCode": "19", "address": "715 - 2 AVENUE SOUTH          P. O. BOX 810", "city": "VULCAN", "province": "AB", "country": "CA", "postalCode": "T0L2B0", "twitter": "None", "instagram": "None", "facebook": "None", "youtube": "None", "website": "None", "summary": "None", "logo": "None", "latitude": 50.39905405799536, "longitude": -113.25548919983838}, "899758056RR0001": {"name": "VULCAN HEALTHCARE AUXILIARY", "designationCode": "C", "categoryCode": "19", "address": "BOX 299", "city": "VULCAN", "province": "AB", "country": "CA", "postalCode": "T0L2B0", "twitter": "None", "instagram": "None", "facebook": "None", "youtube": "None", "website": "None", "summary": "None", "logo": "None", "latitude": 50.39734000000004, "longitude": -113.25817999999998}, "889177994RR0001": {"name": "VULCAN LIONS CLUB DISTRICT RECREATION TRUST FUND", "designationCode": "C", "categoryCode": "56", "address": "BOX 717", "city": "VULCAN", "province": "AB", "country": "CA", "postalCode": "T0L2B0", "twitter": "None", "instagram": "None", "facebook": "None", "youtube": "None", "website": "None", "summary": "None", "logo": "None", "latitude": 50.39734000000004, "longitude": -113.25817999999998}, "119287399RR0001": {"name": "VULCAN SENIOR CITIZEN CENTER", "designationCode": "C", "categoryCode": "56", "address": "PO 53", "city": "VULCAN", "province": "AB", "country": "CA", "postalCode": "T0L2B0", "twitter": "None", "instagram": "None", "facebook": "None", "youtube": "None", "website": "None", "summary": "None", "logo": "None", "latitude": 50.39734000000004, "longitude": -113.25817999999998}, "888932191RR0001": {"name": "VULCAN UNITED CHURCH", "designationCode": "C", "categoryCode": "44", "address": "BOX 275", "city": "VULCAN", "province": "AB", "country": "CA", "postalCode": "T0L2B0", "twitter": "None", "instagram": "None", "facebook": "None", "youtube": "None", "website": "None", "summary": "None", "logo": "None", "latitude": 50.39734000000004, "longitude": -113.25817999999998}, "140984840RR0001": {"name": "VULTURE PEAK BUDDHIST ASSOCIATION/ASSOCIATION BOUDDHIQUE SOMMET DU VAUTOUR", "designationCode": "C", "categoryCode": "35", "address": "6015, RUE HOCHELAGA", "city": "MONTREAL", "province": "QC", "country": "CA", "postalCode": "H1N1X5", "twitter": "None", "instagram": "None", "facebook": "None", "youtube": "None", "website": "None", "summary": "None", "logo": "None", "latitude": 45.57350864446876, "longitude": -73.53568041814287}, "119288876RR0001": {"name": "W A S O INC", "designationCode": "C", "categoryCode": "59", "address": "3 836 MCLEOD AVE", "city": "WINNIPEG", "province": "MB", "country": "CA", "postalCode": "R2G3P3", "twitter": "None", "instagram": "None", "facebook": "None", "youtube": "None", "website": "None", "summary": "None", "logo": "None", "latitude": 49.928257155115936, "longitude": -97.06766000585704}, "128726478RR0001": {"name": "W B LEWIS PUBLIC LIBRARY", "designationCode": "C", "categoryCode": "50", "address": "P.O.BOX 278", "city": "DEEP RIVER", "province": "ON", "country": "CA", "postalCode": "K0J1P0", "twitter": "None", "instagram": "None", "facebook": "None", "youtube": "None", "website": "None", "summary": "None", "logo": "None", "latitude": 46.10094229916361, "longitude": -77.48685137671198}, "119290021RR0001": {"name": "W BALDWIN SCHOLARSHIP TRUST", "designationCode": "C", "categoryCode": "13", "address": "644 ALBERT ST. EAST", "city": "SAULT STE MARIE", "province": "ON", "country": "CA", "postalCode": "P6A2K7", "twitter": "None", "instagram": "None", "facebook": "None", "youtube": "None", "website": "None", "summary": "None", "logo": "None", "latitude": 46.509229370275065, "longitude": -84.32735493098306}, "119290039RR0001": {"name": "W C EAKET SECONDARY SCHOOL AWARDS FUND", "designationCode": "C", "categoryCode": "21", "address": "PO 2000", "city": "BLIND RIVER", "province": "ON", "country": "CA", "postalCode": "P0R1B0", "twitter": "None", "instagram": "None", "facebook": "None", "youtube": "None", "website": "None", "summary": "None", "logo": "None", "latitude": 46.18674000000004, "longitude": -82.95378999999997}, "889993192RR0001": {"name": "W E C RESOURCES INC", "designationCode": "C", "categoryCode": "20", "address": "485 SELKIRK AVENUE", "city": "WINNIPEG", "province": "MB", "country": "CA", "postalCode": "R2W2M6", "twitter": "None", "instagram": "None", "facebook": "None", "youtube": "None", "website": "None", "summary": "None", "logo": "None", "latitude": 49.91560997198328, "longitude": -97.14475451206079}, "886669142RR0001": {"name": "W E GRAHAM COMMUNITY SERVICE SOCIETY", "designationCode": "C", "categoryCode": "56", "address": "BOX 10                        915 HAROLD STREET", "city": "SLOCAN", "province": "BC", "country": "CA", "postalCode": "V0G2C0", "twitter": "None", "instagram": "None", "facebook": "None", "youtube": "None", "website": "None", "summary": "None", "logo": "None", "latitude": 49.76389257458578, "longitude": -117.46970712856732}, "890943640RR0001": {"name": "W E PRENTICE COUNCIL NO 1429 CHARITABLE TRUST", "designationCode": "A", "categoryCode": "65", "address": "392 CHRISTINA ST NORTH", "city": "SARNIA", "province": "ON", "country": "CA", "postalCode": "N7T5V9", "twitter": "None", "instagram": "None", "facebook": "None", "youtube": "None", "website": "None", "summary": "None", "logo": "None", "latitude": 42.97952051685, "longitude": -82.40349796828339}, "871040168RR0001": {"name": "W I N G S FELLOWSHIP MINISTRIES", "designationCode": "C", "categoryCode": "09", "address": "501 - 104 - 1015 COLUMBIA ST", "city": "NEW WESTMINSTER", "province": "BC", "country": "CA", "postalCode": "V3M6V3", "twitter": "None", "instagram": "None", "facebook": "None", "youtube": "None", "website": "None", "summary": "None", "logo": "None", "latitude": 49.200279419966876, "longitude": -122.91588162743697}, "888926268RR0001": {"name": "W I S C S FOUNDATION", "designationCode": "C", "categoryCode": "09", "address": "62 LADNER DR", "city": "NORTH YORK", "province": "ON", "country": "CA", "postalCode": "M2J3Z7", "twitter": "None", "instagram": "None", "facebook": "None", "youtube": "None", "website": "None", "summary": "None", "logo": "None", "latitude": 43.77917893865778, "longitude": -79.32898351376289}, "866769805RR0001": {"name": "W J WEAVER FOUNDATION", "designationCode": "B", "categoryCode": "03", "address": "805 ROCHESTER AVE", "city": "COQUITLAM", "province": "BC", "country": "CA", "postalCode": "V3K2W3", "twitter": "None", "instagram": "None", "facebook": "None", "youtube": "None", "website": "None", "summary": "None", "logo": "None", "latitude": 49.2454035337582, "longitude": -122.87645189064574}, "893185363RR0001": {"name": "W O MITCHELL ELEMENTARY SCHOOL SOCIETY", "designationCode": "C", "categoryCode": "21", "address": "511 SILVERGROVE DR NW", "city": "CALGARY", "province": "AB", "country": "CA", "postalCode": "T3B4R9", "twitter": "None", "instagram": "None", "facebook": "None", "youtube": "None", "website": "None", "summary": "None", "logo": "None", "latitude": 51.11372073466444, "longitude": -114.19362432099364}, "889681946RR0001": {"name": "W O W WOMEN OF WORTH MINISTRIES", "designationCode": "C", "categoryCode": "47", "address": "11-9446 MCLAUGHLIN RD N", "city": "BRAMPTON", "province": "ON", "country": "CA", "postalCode": "L6X4H9", "twitter": "None", "instagram": "None", "facebook": "None", "youtube": "None", "website": "None", "summary": "None", "logo": "None", "latitude": 43.683862500000004, "longitude": -79.78116374999999}, "128831476RR0001": {"name": "W P PUPPET THEATRE SOCIETY", "designationCode": "C", "categoryCode": "22", "address": "PO BOX 61116 RPO KENSINGTON", "city": "CALGARY", "province": "AB", "country": "CA", "postalCode": "T2N4S6", "twitter": "None", "instagram": "None", "facebook": "None", "youtube": "None", "website": "None", "summary": "None", "logo": "None", "latitude": 51.0524867557722, "longitude": -114.10475500718039}, "892432584RR0001": {"name": "W ROSS PINKERTON MEMORIAL TRUST FUND", "designationCode": "B", "categoryCode": "25", "address": "6 QUEEN ST                    PO BOX 1630", "city": "CAMPBELLFORD", "province": "ON", "country": "CA", "postalCode": "K0L1L0", "twitter": "None", "instagram": "None", "facebook": "None", "youtube": "None", "website": "None", "summary": "None", "logo": "None", "latitude": 44.308733427145256, "longitude": -77.80029002305372}, "119305126RR0001": {"name": "W W STATTON MEMORIAL TRUST FUND", "designationCode": "C", "categoryCode": "21", "address": "19 HAGLEY RD", "city": "SCARBOROUGH", "province": "ON", "country": "CA", "postalCode": "M1M1S7", "twitter": "None", "instagram": "None", "facebook": "None", "youtube": "None", "website": "None", "summary": "None", "logo": "None", "latitude": 43.716189867592036, "longitude": -79.24854776074793}, "889403770RR0001": {"name": "W. C. KITCHEN FAMILY FOUNDATION", "designationCode": "B", "categoryCode": "03", "address": "8 GWENDOLEN CRESCENT", "city": "TORONTO", "province": "ON", "country": "CA", "postalCode": "M2N2L7", "twitter": "None", "instagram": "None", "facebook": "None", "youtube": "None", "website": "None", "summary": "None", "logo": "None", "latitude": 43.75202265944377, "longitude": -79.42096809244603}, "808417703RR0001": {"name": "W. Robert Farquharson Family Foundation", "designationCode": "B", "categoryCode": "03", "address": "155 CUMBERLAND STREET         UNIT 1501", "city": "TORONTO", "province": "ON", "country": "CA", "postalCode": "M5R1A2", "twitter": "None", "instagram": "None", "facebook": "None", "youtube": "None", "website": "None", "summary": "None", "logo": "None", "latitude": 43.66985282763009, "longitude": -79.39307854065443}, "892504366RR0001": {"name": "W.A.V.A.W./ R.C.C.: WOMEN AGAINST VIOLENCE AGAINST WOMEN / RAPE CRISIS CENTRE", "designationCode": "C", "categoryCode": "09", "address": "250 - 1385 8TH AVE W", "city": "VANCOUVER", "province": "BC", "country": "CA", "postalCode": "V6H3V9", "twitter": "None", "instagram": "None", "facebook": "None", "youtube": "None", "website": "None", "summary": "None", "logo": "None", "latitude": 49.264493508222984, "longitude": -123.13559305536961}, "846722668RR0001": {"name": "W.C. Wood Foundation", "designationCode": "B", "categoryCode": "05", "address": "5068 WHITELAW ROAD", "city": "GUELPH", "province": "ON", "country": "CA", "postalCode": "N1H6J3", "twitter": "None", "instagram": "None", "facebook": "None", "youtube": "None", "website": "None", "summary": "None", "logo": "None", "latitude": 43.50697368479652, "longitude": -80.27104480935043}, "866437007RR0001": {"name": "W.E. THEATRE SOCIETY", "designationCode": "C", "categoryCode": "22", "address": "650 LITTLE BLVD", "city": "GABRIOLA", "province": "BC", "country": "CA", "postalCode": "V0R1X3", "twitter": "None", "instagram": "None", "facebook": "None", "youtube": "None", "website": "None", "summary": "None", "logo": "None", "latitude": 49.180027436871555, "longitude": -123.81840319992614}, "804477040RR0001": {"name": "W.H.S. Alumni Foundation Inc.", "designationCode": "B", "categoryCode": "21", "address": "POST OFFICE BOX 115", "city": "OSLER", "province": "SK", "country": "CA", "postalCode": "S0K3A0", "twitter": "None", "instagram": "None", "facebook": "None", "youtube": "None", "website": "None", "summary": "None", "logo": "None", "latitude": 52.37312184017284, "longitude": -106.5326670943257}, "838480176RR0001": {"name": "W.I.N.G.S. Maternity Home", "designationCode": "C", "categoryCode": "01", "address": "1 RADFORD DRIVE", "city": "AJAX", "province": "ON", "country": "CA", "postalCode": "L1T1V9", "twitter": "None", "instagram": "None", "facebook": "None", "youtube": "None", "website": "None", "summary": "None", "logo": "None", "latitude": 43.86263312017429, "longitude": -79.042661440591}, "808394555RR0001": {"name": "W.O.L.F. Kids Wilderness Our Learning Foundation Kids Society", "designationCode": "C", "categoryCode": "29", "address": "401 UPPER GANGES RD", "city": "SALT SPRING ISLAND", "province": "BC", "country": "CA", "postalCode": "V8K1R8", "twitter": "None", "instagram": "None", "facebook": "None", "youtube": "None", "website": "None", "summary": "None", "logo": "None", "latitude": 48.86829295821696, "longitude": -123.50634716874397}, "888523008RR0001": {"name": "W.R.N. WILDLIFE REHABILITATORS' NETWORK ASSOCIATION OF B.C.", "designationCode": "C", "categoryCode": "54", "address": "169 GRANDVIEW ST", "city": "PENTICTON", "province": "BC", "country": "CA", "postalCode": "V2A4E6", "twitter": "None", "instagram": "None", "facebook": "None", "youtube": "None", "website": "None", "summary": "None", "logo": "None", "latitude": 49.50111558090484, "longitude": -119.580085267009}, "124638271RR0001": {"name": "W&M DANCE PROJECTS OF CALGARY ASSOCIATION", "designationCode": "C", "categoryCode": "22", "address": "BAY #9, 4005-9TH ST SE", "city": "CALGARY", "province": "AB", "country": "CA", "postalCode": "T2G3C7", "twitter": "None", "instagram": "None", "facebook": "None", "youtube": "None", "website": "None", "summary": "None", "logo": "None", "latitude": 51.020045832361944, "longitude": -114.04067515312443}, "801453747RR0001": {"name": "Wabamun & District Museum Society", "designationCode": "C", "categoryCode": "50", "address": "5140-52 AVE", "city": "WABAMUN", "province": "AB", "country": "CA", "postalCode": "T0E2K0", "twitter": "None", "instagram": "None", "facebook": "None", "youtube": "None", "website": "None", "summary": "None", "logo": "None", "latitude": 53.55873646378897, "longitude": -114.4725207799065}, "849849856RR0001": {"name": "Wada Ji Sangha Temple", "designationCode": "C", "categoryCode": "35", "address": "375 JANE STREET", "city": "TORONTO", "province": "ON", "country": "CA", "postalCode": "M6S3Z3", "twitter": "None", "instagram": "None", "facebook": "None", "youtube": "None", "website": "None", "summary": "None", "logo": "None", "latitude": 43.657663808500146, "longitude": -79.48784767842945}, "828737981RR0001": {"name": "Wade Philip Galloway Legacy Foundation Inc.", "designationCode": "B", "categoryCode": "03", "address": "PO BOX 1600", "city": "SWAN RIVER", "province": "MB", "country": "CA", "postalCode": "R0L1Z0", "twitter": "None", "instagram": "None", "facebook": "None", "youtube": "None", "website": "None", "summary": "None", "logo": "None", "latitude": 52.11672730414978, "longitude": -101.25989472758229}, "119288918RR0358": {"name": "Wadena Congregation of Jehovah's Witnesses, Wadena, Saskatchewan", "designationCode": "C", "categoryCode": "61", "address": "PO BOX 311", "city": "WADENA", "province": "SK", "country": "CA", "postalCode": "S0A4J0", "twitter": "None", "instagram": "None", "facebook": "None", "youtube": "None", "website": "None", "summary": "None", "logo": "None", "latitude": 51.94407000000007, "longitude": -103.79973999999999}, "784153926RR0001": {"name": "Wadena Food Bank Association", "designationCode": "C", "categoryCode": "09", "address": "PO BOX 1187", "city": "WADENA", "province": "SK", "country": "CA", "postalCode": "S0A4J0", "twitter": "None", "instagram": "None", "facebook": "None", "youtube": "None", "website": "None", "summary": "None", "logo": "None", "latitude": 51.94407000000007, "longitude": -103.79973999999999}, "794470724RR0001": {"name": "Wagner Green Charitable Trust", "designationCode": "B", "categoryCode": "05", "address": "64 MERTON ST", "city": "TORONTO", "province": "ON", "country": "CA", "postalCode": "M4S1A1", "twitter": "None", "instagram": "None", "facebook": "None", "youtube": "None", "website": "None", "summary": "None", "logo": "None", "latitude": 43.696549191268716, "longitude": -79.39413654705973}, "896809761RR0001": {"name": "Wainwright & District Ambulance Society", "designationCode": "C", "categoryCode": "59", "address": "717 - 14TH AVENUE", "city": "WAINWRIGHT", "province": "AB", "country": "CA", "postalCode": "T9W1B3", "twitter": "None", "instagram": "None", "facebook": "None", "youtube": "None", "website": "None", "summary": "None", "logo": "None", "latitude": 52.843372473455176, "longitude": -110.858751}, "892373960RR0001": {"name": "Wainwright & District Community Health Foundation", "designationCode": "A", "categoryCode": "13", "address": "BOX 3540", "city": "WAINWRIGHT", "province": "AB", "country": "CA", "postalCode": "T9W1T5", "twitter": "None", "instagram": "None", "facebook": "None", "youtube": "None", "website": "None", "summary": "None", "logo": "None", "latitude": 52.84339800000005, "longitude": -110.85204049999993}, "810168641RR0001": {"name": "Wainwright and District Handivan Society", "designationCode": "C", "categoryCode": "09", "address": "POST OFFICE BOX 3664", "city": "WAINWRIGHT", "province": "AB", "country": "CA", "postalCode": "T9W1T5", "twitter": "None", "instagram": "None", "facebook": "None", "youtube": "None", "website": "None", "summary": "None", "logo": "None", "latitude": 52.84339800000005, "longitude": -110.85204049999993}, "871490785RR0001": {"name": "Wainwright Fire and Rescue Society", "designationCode": "C", "categoryCode": "59", "address": "806 3 AVE", "city": "WAINWRIGHT", "province": "AB", "country": "CA", "postalCode": "T9W1C5", "twitter": "None", "instagram": "None", "facebook": "None", "youtube": "None", "website": "None", "summary": "None", "logo": "None", "latitude": 52.83602270609948, "longitude": -110.86417175226515}, "800518268RR0001": {"name": "Wainwright S.P.C.A. Society for the Prevention of Cruelty to Animals", "designationCode": "C", "categoryCode": "54", "address": "P.O. BOX 161", "city": "HUGHENDEN", "province": "AB", "country": "CA", "postalCode": "T0B2E0", "twitter": "None", "instagram": "None", "facebook": "None", "youtube": "None", "website": "None", "summary": "None", "logo": "None", "latitude": 52.51683000000003, "longitude": -110.98494999999997}, "810977827RR0001": {"name": "Waite Cemetery", "designationCode": "B", "categoryCode": "59", "address": "502 ZION RD", "city": "STIRLING", "province": "ON", "country": "CA", "postalCode": "K0K3E0", "twitter": "None", "instagram": "None", "facebook": "None", "youtube": "None", "website": "None", "summary": "None", "logo": "None", "latitude": 44.29374699743252, "longitude": -77.42362449469121}, "854935087RR0001": {"name": "Waldorf Education Society of Edmonton", "designationCode": "C", "categoryCode": "20", "address": "7211 96A AVE NW", "city": "EDMONTON", "province": "AB", "country": "CA", "postalCode": "T6B1B5", "twitter": "None", "instagram": "None", "facebook": "None", "youtube": "None", "website": "None", "summary": "None", "logo": "None", "latitude": 53.53493853116206, "longitude": -113.4391905}, "857315451RR0001": {"name": "Walk in the Word Canada", "designationCode": "C", "categoryCode": "47", "address": "204 - 2321 FAIRVIEW ST", "city": "BURLINGTON", "province": "ON", "country": "CA", "postalCode": "L7R2E3", "twitter": "None", "instagram": "None", "facebook": "None", "youtube": "None", "website": "None", "summary": "None", "logo": "None", "latitude": 43.34387215214348, "longitude": -79.80190898286062}, "831996038RR0001": {"name": "Walk Through the Red Door for Autism", "designationCode": "B", "categoryCode": "11", "address": "252 KING STREET", "city": "DUNDAS", "province": "ON", "country": "CA", "postalCode": "L9H1V9", "twitter": "None", "instagram": "None", "facebook": "None", "youtube": "None", "website": "None", "summary": "None", "logo": "None", "latitude": 43.268332522482105, "longitude": -79.96509599783397}, "811793017RR0001": {"name": "Walk Without Fear Foundation", "designationCode": "C", "categoryCode": "59", "address": "86A RENFREW AVE", "city": "OTTAWA", "province": "ON", "country": "CA", "postalCode": "K1S1Z8", "twitter": "None", "instagram": "None", "facebook": "None", "youtube": "None", "website": "None", "summary": "None", "logo": "None", "latitude": 45.40433991060853, "longitude": -75.69776814541419}}