{"118856939RR0001": {"name": "CHRISTIAN MISSIONS IN MANY LANDS (CANADA) INC.", "designationCode": "C", "categoryCode": "43", "address": "16 - 101 AMBER ST", "city": "MARKHAM", "province": "ON", "country": "CA", "postalCode": "L3R3B2", "twitter": "None", "instagram": "None", "facebook": "None", "youtube": "None", "website": "None", "summary": "None", "logo": "None", "latitude": 43.828189852011455, "longitude": -79.33134708102041}, "890554140RR0001": {"name": "CHRISTIAN MISSIONS RESOURCE CENTRE", "designationCode": "C", "categoryCode": "36", "address": "76 CHANCTON CRES", "city": "LONDON", "province": "ON", "country": "CA", "postalCode": "N6E2Y4", "twitter": "None", "instagram": "None", "facebook": "None", "youtube": "None", "website": "None", "summary": "None", "logo": "None", "latitude": 42.93797569637593, "longitude": -81.19796687497828}, "890214570RR0001": {"name": "CHRISTIAN MOTORCYCLISTS ASSOCIATION OF CANADA INC.", "designationCode": "C", "categoryCode": "49", "address": "PO BOX 521", "city": "RED DEER", "province": "AB", "country": "CA", "postalCode": "T4N5G1", "twitter": "None", "instagram": "None", "facebook": "None", "youtube": "None", "website": "None", "summary": "None", "logo": "None", "latitude": 52.26852300000006, "longitude": -113.80901299999994}, "888005469RR0001": {"name": "CHRISTIAN MUSIC SOCIETY \"CONCORDIA\"", "designationCode": "C", "categoryCode": "22", "address": "12007, 40TH AVENUE", "city": "EDMONTON", "province": "AB", "country": "CA", "postalCode": "T6J0S4", "twitter": "None", "instagram": "None", "facebook": "None", "youtube": "None", "website": "None", "summary": "None", "logo": "None", "latitude": 53.47622955785111, "longitude": -113.54173269164407}, "891430175RR0001": {"name": "CHRISTIAN MUSICAL SERVICES", "designationCode": "C", "categoryCode": "49", "address": "1562 LOVELADY CRESCENT", "city": "MISSISSAUGA", "province": "ON", "country": "CA", "postalCode": "L4W2Z1", "twitter": "None", "instagram": "None", "facebook": "None", "youtube": "None", "website": "None", "summary": "None", "logo": "None", "latitude": 43.632071999999994, "longitude": -79.60677202882478}, "893193243RR0001": {"name": "CHRISTIAN OUTREACH - WORKING IN UNITY", "designationCode": "C", "categoryCode": "47", "address": "832 NOTRE DAME", "city": "EMBRUN", "province": "ON", "country": "CA", "postalCode": "K0A1W1", "twitter": "None", "instagram": "None", "facebook": "None", "youtube": "None", "website": "None", "summary": "None", "logo": "None", "latitude": 45.26899269782167, "longitude": -75.29500584060067}, "130918022RR0001": {"name": "CHRISTIAN OUTREACH OF CANADA", "designationCode": "C", "categoryCode": "39", "address": "PO BOX 262 STN MAIN           3970 GLADWIN ROAD", "city": "ABBOTSFORD", "province": "BC", "country": "CA", "postalCode": "V2T6Z6", "twitter": "None", "instagram": "None", "facebook": "None", "youtube": "None", "website": "None", "summary": "None", "logo": "None", "latitude": 49.052686004011235, "longitude": -122.31501179330061}, "138983747RR0001": {"name": "CHRISTIAN PERSPECTIVE MINISTRIES", "designationCode": "C", "categoryCode": "47", "address": "PO BOX 508", "city": "WESTPORT", "province": "ON", "country": "CA", "postalCode": "K0G1X0", "twitter": "None", "instagram": "None", "facebook": "None", "youtube": "None", "website": "None", "summary": "None", "logo": "None", "latitude": 39.63902000000007, "longitude": -123.78490999999997}, "887126597RR0001": {"name": "CHRISTIAN PILOTS ASSOCIATION OF B C", "designationCode": "C", "categoryCode": "47", "address": "2037 MCLALLEN COURT", "city": "NORTH VANCOUVER", "province": "BC", "country": "CA", "postalCode": "V7P3H6", "twitter": "None", "instagram": "None", "facebook": "None", "youtube": "None", "website": "None", "summary": "None", "logo": "None", "latitude": 49.328909757169896, "longitude": -123.11990339993658}, "889863577RR0001": {"name": "CHRISTIAN RECORD SERVICES,INC", "designationCode": "C", "categoryCode": "49", "address": "1300 KING ST E                PO BOX 31119", "city": "OSHAWA", "province": "ON", "country": "CA", "postalCode": "L1H8N9", "twitter": "None", "instagram": "None", "facebook": "None", "youtube": "None", "website": "None", "summary": "None", "logo": "None", "latitude": 43.90640604644146, "longitude": -78.81565125724738}, "106919640RR0001": {"name": "CHRISTIAN REFORMED BOARD OF HOME MISSIONS OF CANADA", "designationCode": "C", "categoryCode": "47", "address": "PO BOX 5070 STN LCD 1", "city": "BURLINGTON", "province": "ON", "country": "CA", "postalCode": "L7R3Y8", "twitter": "None", "instagram": "None", "facebook": "None", "youtube": "None", "website": "None", "summary": "None", "logo": "None", "latitude": 43.326195000000055, "longitude": -79.79863399999994}, "118857028RR0001": {"name": "CHRISTIAN REFORMED CHURCH", "designationCode": "C", "categoryCode": "39", "address": "153A MOUNT EDWARD RD", "city": "CHARLOTTETOWN", "province": "PE", "country": "CA", "postalCode": "C1A5T1", "twitter": "None", "instagram": "None", "facebook": "None", "youtube": "None", "website": "None", "summary": "None", "logo": "None", "latitude": 46.26161830722174, "longitude": -63.13441612495553}, "118857036RR0001": {"name": "CHRISTIAN REFORMED CHURCH", "designationCode": "C", "categoryCode": "39", "address": "BOX 697", "city": "CLINTON", "province": "ON", "country": "CA", "postalCode": "N0M1L0", "twitter": "None", "instagram": "None", "facebook": "None", "youtube": "None", "website": "None", "summary": "None", "logo": "None", "latitude": 43.617650000000026, "longitude": -81.53971999999999}, "118857077RR0001": {"name": "CHRISTIAN REFORMED CHURCH", "designationCode": "C", "categoryCode": "39", "address": "751 PARKLAND DR", "city": "BROOKS", "province": "AB", "country": "CA", "postalCode": "T1R0M2", "twitter": "None", "instagram": "None", "facebook": "None", "youtube": "None", "website": "None", "summary": "None", "logo": "None", "latitude": 50.575935247850424, "longitude": -111.87719299350779}, "131635682RR0001": {"name": "CHRISTIAN REFORMED CHURCH", "designationCode": "C", "categoryCode": "39", "address": "PO BOX 5524", "city": "HIGH RIVER", "province": "AB", "country": "CA", "postalCode": "T1V1M6", "twitter": "None", "instagram": "None", "facebook": "None", "youtube": "None", "website": "None", "summary": "None", "logo": "None", "latitude": 50.57803500000006, "longitude": -113.85914299999993}, "106919947RR0001": {"name": "CHRISTIAN REFORMED CHURCH EXTENSION FUND INC.", "designationCode": "C", "categoryCode": "49", "address": "45 HARRIET ST.", "city": "TORONTO", "province": "ON", "country": "CA", "postalCode": "M4L2G1", "twitter": "None", "instagram": "None", "facebook": "None", "youtube": "None", "website": "None", "summary": "None", "logo": "None", "latitude": 43.672000842056796, "longitude": -79.3322662636621}, "106740939RR0001": {"name": "CHRISTIAN REFORMED CHURCH OF AYLMER", "designationCode": "C", "categoryCode": "39", "address": "13289 WHITTAKER RD            RR 1", "city": "SPRINGFIELD", "province": "ON", "country": "CA", "postalCode": "N0L2J0", "twitter": "None", "instagram": "None", "facebook": "None", "youtube": "None", "website": "None", "summary": "None", "logo": "None", "latitude": 42.85152258168425, "longitude": -80.94148824654954}, "131903734RR0001": {"name": "CHRISTIAN REFORMED CHURCH OF BLYTH,", "designationCode": "C", "categoryCode": "39", "address": "84736 CURRIE LINE             RR 1", "city": "BELGRAVE", "province": "ON", "country": "CA", "postalCode": "N0G1E0", "twitter": "None", "instagram": "None", "facebook": "None", "youtube": "None", "website": "None", "summary": "None", "logo": "None", "latitude": 43.80963582101056, "longitude": -81.39920361522199}, "134291210RR0001": {"name": "CHRISTIAN REFORMED CHURCH OF BRAMPTON, ONTARIO", "designationCode": "C", "categoryCode": "39", "address": "2626 MAYFIELD ROAD", "city": "CALEDON", "province": "ON", "country": "CA", "postalCode": "L7C3K7", "twitter": "None", "instagram": "None", "facebook": "None", "youtube": "None", "website": "None", "summary": "None", "logo": "None", "latitude": 43.726784683939776, "longitude": -79.83225251552231}, "129199667RR0001": {"name": "CHRISTIAN REFORMED CHURCH OF BURDETT,", "designationCode": "C", "categoryCode": "39", "address": "PO BOX 15", "city": "BURDETT", "province": "AB", "country": "CA", "postalCode": "T0K0J0", "twitter": "None", "instagram": "None", "facebook": "None", "youtube": "None", "website": "None", "summary": "None", "logo": "None", "latitude": 49.82875000000007, "longitude": -111.51953999999995}, "106954449RR0001": {"name": "CHRISTIAN REFORMED CHURCH OF COLLINGWOOD", "designationCode": "C", "categoryCode": "39", "address": "7642 POPLAR SIDE ROAD WEST    P.O. BOX 304", "city": "COLLINGWOOD", "province": "ON", "country": "CA", "postalCode": "L9Y3Z2", "twitter": "None", "instagram": "None", "facebook": "None", "youtube": "None", "website": "None", "summary": "None", "logo": "None", "latitude": 44.47850019458692, "longitude": -80.21502725465974}, "118857184RR0001": {"name": "CHRISTIAN REFORMED CHURCH OF DRAYTON", "designationCode": "C", "categoryCode": "39", "address": "PO BOX 129", "city": "DRAYTON", "province": "ON", "country": "CA", "postalCode": "N0G1P0", "twitter": "None", "instagram": "None", "facebook": "None", "youtube": "None", "website": "None", "summary": "None", "logo": "None", "latitude": 43.77309915143594, "longitude": -80.9225621280716}, "134516251RR0001": {"name": "CHRISTIAN REFORMED CHURCH OF GEORGETOWN", "designationCode": "C", "categoryCode": "39", "address": "11611 TRAFALGAR ROAD", "city": "GEORGETOWN", "province": "ON", "country": "CA", "postalCode": "L7G4S4", "twitter": "None", "instagram": "None", "facebook": "None", "youtube": "None", "website": "None", "summary": "None", "logo": "None", "latitude": 43.64055617767871, "longitude": -79.93797599160413}, "106702590RR0001": {"name": "CHRISTIAN REFORMED CHURCH OF HALIFAX", "designationCode": "C", "categoryCode": "39", "address": "2535 ROBIE STREET", "city": "HALIFAX", "province": "NS", "country": "CA", "postalCode": "B3K4N3", "twitter": "None", "instagram": "None", "facebook": "None", "youtube": "None", "website": "None", "summary": "None", "logo": "None", "latitude": 44.65369869109581, "longitude": -63.5940022123032}, "132332073RR0001": {"name": "CHRISTIAN REFORMED CHURCH OF HOUSTON,", "designationCode": "C", "categoryCode": "39", "address": "BOX 6", "city": "HOUSTON", "province": "BC", "country": "CA", "postalCode": "V0J1Z0", "twitter": "None", "instagram": "None", "facebook": "None", "youtube": "None", "website": "None", "summary": "None", "logo": "None", "latitude": 55.240365186846496, "longitude": -127.654727473102}, "130794100RR0001": {"name": "CHRISTIAN REFORMED CHURCH OF IRON SPRINGS, ALBERTA", "designationCode": "C", "categoryCode": "39", "address": "PO BOX 576", "city": "PICTURE BUTTE", "province": "AB", "country": "CA", "postalCode": "T0K1V0", "twitter": "None", "instagram": "None", "facebook": "None", "youtube": "None", "website": "None", "summary": "None", "logo": "None", "latitude": 49.87851001832194, "longitude": -112.77815001110848}, "107565053RR0001": {"name": "CHRISTIAN REFORMED CHURCH OF KENTVILLE", "designationCode": "C", "categoryCode": "39", "address": "BOX 321", "city": "KENTVILLE", "province": "NS", "country": "CA", "postalCode": "B4N3X1", "twitter": "None", "instagram": "None", "facebook": "None", "youtube": "None", "website": "None", "summary": "None", "logo": "None", "latitude": 45.06954900000005, "longitude": -64.55506399999993}, "118857226RR0001": {"name": "CHRISTIAN REFORMED CHURCH OF NASHWAAKSIS", "designationCode": "C", "categoryCode": "39", "address": "121 MCADAM AVE", "city": "FREDERICTON", "province": "NB", "country": "CA", "postalCode": "E3A1G7", "twitter": "None", "instagram": "None", "facebook": "None", "youtube": "None", "website": "None", "summary": "None", "logo": "None", "latitude": 45.98056454177962, "longitude": -66.67663187191985}, "129372314RR0001": {"name": "CHRISTIAN REFORMED CHURCH OF NOBLEFORD", "designationCode": "C", "categoryCode": "39", "address": "PO BOX 179", "city": "NOBLEFORD", "province": "AB", "country": "CA", "postalCode": "T0L1S0", "twitter": "None", "instagram": "None", "facebook": "None", "youtube": "None", "website": "None", "summary": "None", "logo": "None", "latitude": 49.87318000000005, "longitude": -113.05139999999994}, "118857267RR0001": {"name": "CHRISTIAN REFORMED CHURCH OF PRINCE GEORGE", "designationCode": "C", "categoryCode": "39", "address": "BOX 1906", "city": "PRINCE GEORGE", "province": "BC", "country": "CA", "postalCode": "V2L5E3", "twitter": "None", "instagram": "None", "facebook": "None", "youtube": "None", "website": "None", "summary": "None", "logo": "None", "latitude": 53.91241800000006, "longitude": -122.74463149999994}, "106920028RR0001": {"name": "CHRISTIAN REFORMED CHURCH OF RICHMOND B.C.", "designationCode": "C", "categoryCode": "39", "address": "10571 ARAGON RD", "city": "RICHMOND", "province": "BC", "country": "CA", "postalCode": "V7A3E8", "twitter": "None", "instagram": "None", "facebook": "None", "youtube": "None", "website": "None", "summary": "None", "logo": "None", "latitude": 49.14156051875455, "longitude": -123.105411}, "118857291RR0001": {"name": "CHRISTIAN REFORMED CHURCH OF ST. ALBERT", "designationCode": "C", "categoryCode": "39", "address": "35 PIEDMONT CRESCENT", "city": "ST ALBERT", "province": "AB", "country": "CA", "postalCode": "T8N5E9", "twitter": "None", "instagram": "None", "facebook": "None", "youtube": "None", "website": "None", "summary": "None", "logo": "None", "latitude": 53.642882691932535, "longitude": -113.59254830749053}, "129880308RR0001": {"name": "CHRISTIAN REFORMED CHURCH OF STRATFORD", "designationCode": "C", "categoryCode": "39", "address": "2292 WALKER RD", "city": "NEW HAMBURG", "province": "ON", "country": "CA", "postalCode": "N3A1N2", "twitter": "None", "instagram": "None", "facebook": "None", "youtube": "None", "website": "None", "summary": "None", "logo": "None", "latitude": 43.36500337895357, "longitude": -80.7118651732147}, "118857333RR0001": {"name": "CHRISTIAN REFORMED CHURCH OF WALLACEBURG", "designationCode": "C", "categoryCode": "39", "address": "26 HIGHBURY CRES", "city": "WALLACEBURG", "province": "ON", "country": "CA", "postalCode": "N8A4T7", "twitter": "None", "instagram": "None", "facebook": "None", "youtube": "None", "website": "None", "summary": "None", "logo": "None", "latitude": 42.60326291035258, "longitude": -82.37111417441872}, "118857341RR0001": {"name": "CHRISTIAN REFORMED CHURCH OF WILLIAMSBURG", "designationCode": "C", "categoryCode": "39", "address": "BOX 298", "city": "WILLIAMSBURG", "province": "ON", "country": "CA", "postalCode": "K0C2H0", "twitter": "None", "instagram": "None", "facebook": "None", "youtube": "None", "website": "None", "summary": "None", "logo": "None", "latitude": 44.97439000000003, "longitude": -75.24457999999998}, "134482413RR0001": {"name": "CHRISTIAN REFORMED CHURCH, MEDICINE HAT", "designationCode": "C", "categoryCode": "39", "address": "P.O. BOX 871", "city": "MEDICINE HAT", "province": "AB", "country": "CA", "postalCode": "T1A7G8", "twitter": "None", "instagram": "None", "facebook": "None", "youtube": "None", "website": "None", "summary": "None", "logo": "None", "latitude": 50.04107700000006, "longitude": -110.67813349999993}, "106920085RR0001": {"name": "CHRISTIAN RESEARCH INSTITUTE-CANADA", "designationCode": "C", "categoryCode": "20", "address": "56051 AIRWAYS PO", "city": "CALGARY", "province": "AB", "country": "CA", "postalCode": "T2E8K5", "twitter": "None", "instagram": "None", "facebook": "None", "youtube": "None", "website": "None", "summary": "None", "logo": "None", "latitude": 51.04531500000006, "longitude": -114.06301099999993}, "118857390RR0001": {"name": "CHRISTIAN RETREAT, GOSPEL CRUSADE OF CANADA", "designationCode": "C", "categoryCode": "47", "address": "20554 HURONTARIO ST", "city": "CALEDON", "province": "ON", "country": "CA", "postalCode": "L7K1W9", "twitter": "None", "instagram": "None", "facebook": "None", "youtube": "None", "website": "None", "summary": "None", "logo": "None", "latitude": 43.902270589619704, "longitude": -80.05324804616382}, "888298031RR0001": {"name": "CHRISTIAN SALVAGE MISSION (CANADA)", "designationCode": "C", "categoryCode": "47", "address": "# 3 - 120 LANCING DRIVE", "city": "HAMILTON", "province": "ON", "country": "CA", "postalCode": "L8W3A1", "twitter": "None", "instagram": "None", "facebook": "None", "youtube": "None", "website": "None", "summary": "None", "logo": "None", "latitude": 43.19151832607221, "longitude": -79.84064997310846}, "107494098RR0001": {"name": "CHRISTIAN SCHOOL SOCIETY OF HOUSTON", "designationCode": "C", "categoryCode": "20", "address": "BOX 237", "city": "HOUSTON", "province": "BC", "country": "CA", "postalCode": "V0J1Z0", "twitter": "None", "instagram": "None", "facebook": "None", "youtube": "None", "website": "None", "summary": "None", "logo": "None", "latitude": 55.240365186846496, "longitude": -127.654727473102}, "106920184RR0001": {"name": "CHRISTIAN SCIENCE COMMITTEE ON PUBLICATION FOR BRITISH COLUMBIA", "designationCode": "C", "categoryCode": "49", "address": "1009 DE COSTA PLACE", "city": "VICTORIA", "province": "BC", "country": "CA", "postalCode": "V9A6X8", "twitter": "None", "instagram": "None", "facebook": "None", "youtube": "None", "website": "None", "summary": "None", "logo": "None", "latitude": 48.442218000000054, "longitude": -123.39553849999993}, "118857523RR0001": {"name": "CHRISTIAN SCIENCE SOCIETY BARRIE ONTARIO", "designationCode": "C", "categoryCode": "39", "address": "159 COLLIER STREET", "city": "BARRIE", "province": "ON", "country": "CA", "postalCode": "L4M1H6", "twitter": "None", "instagram": "None", "facebook": "None", "youtube": "None", "website": "None", "summary": "None", "logo": "None", "latitude": 44.390738819031746, "longitude": -79.6802914546137}, "140661224RR0001": {"name": "CHRISTIAN SCIENCE SOCIETY NANAIMO BC", "designationCode": "C", "categoryCode": "39", "address": "20 CHAPEL ST", "city": "NANAIMO", "province": "BC", "country": "CA", "postalCode": "V9R5H2", "twitter": "None", "instagram": "None", "facebook": "None", "youtube": "None", "website": "None", "summary": "None", "logo": "None", "latitude": 49.16915269747248, "longitude": -123.93846338926076}, "118857648RR0001": {"name": "CHRISTIAN SCIENCE SOCIETY NELSON B.C. CANADA", "designationCode": "C", "categoryCode": "39", "address": "8690 BEACH ST", "city": "BALFOUR", "province": "BC", "country": "CA", "postalCode": "V0G1C0", "twitter": "None", "instagram": "None", "facebook": "None", "youtube": "None", "website": "None", "summary": "None", "logo": "None", "latitude": 49.625482686883565, "longitude": -116.95026191779708}, "107385916RR0001": {"name": "CHRISTIAN SCIENCE SOCIETY, DUNCAN", "designationCode": "C", "categoryCode": "39", "address": "6118 LANE ROAD", "city": "DUNCAN", "province": "BC", "country": "CA", "postalCode": "V9L4E1", "twitter": "None", "instagram": "None", "facebook": "None", "youtube": "None", "website": "None", "summary": "None", "logo": "None", "latitude": 48.79283931141434, "longitude": -123.72672566088605}, "126009281RR0001": {"name": "CHRISTIAN SCIENCE SOCIETY, HAMILTON", "designationCode": "C", "categoryCode": "39", "address": "PO BOX 65582, RPO DUNDAS", "city": "HAMILTON", "province": "ON", "country": "CA", "postalCode": "L9H6Y6", "twitter": "None", "instagram": "None", "facebook": "None", "youtube": "None", "website": "None", "summary": "None", "logo": "None", "latitude": 43.26394200000006, "longitude": -79.95243049999993}, "118917905RR0001": {"name": "CHRISTIAN SCIENCE SOCIETY, KAMLOOPS", "designationCode": "C", "categoryCode": "39", "address": "1152 NICOLA ST", "city": "KAMLOOPS", "province": "BC", "country": "CA", "postalCode": "V2C2S3", "twitter": "None", "instagram": "None", "facebook": "None", "youtube": "None", "website": "None", "summary": "None", "logo": "None", "latitude": 50.672276474897465, "longitude": -120.31258402553522}, "135064541RR0001": {"name": "CHRISTIAN SCIENCE SOCIETY, KELOWNA B C", "designationCode": "C", "categoryCode": "39", "address": "P.O.BOX 20180                 RPO TOWNE CENTRE", "city": "KELOWNA", "province": "BC", "country": "CA", "postalCode": "V1Y9H2", "twitter": "None", "instagram": "None", "facebook": "None", "youtube": "None", "website": "None", "summary": "None", "logo": "None", "latitude": 49.886279922817444, "longitude": -119.49080999999995}, "118917830RR0001": {"name": "CHRISTIAN SCIENCE SOCIETY, PENTICTON, B.C.", "designationCode": "C", "categoryCode": "39", "address": "608 WINNIPEG STREET", "city": "PENTICTON", "province": "BC", "country": "CA", "postalCode": "V2A5M9", "twitter": "None", "instagram": "None", "facebook": "None", "youtube": "None", "website": "None", "summary": "None", "logo": "None", "latitude": 49.4938588148768, "longitude": -119.59302805952456}, "118857663RR0001": {"name": "CHRISTIAN SCIENCE SOCIETY, RED DEER", "designationCode": "C", "categoryCode": "47", "address": "4907 50 AVE", "city": "RED DEER", "province": "AB", "country": "CA", "postalCode": "T4N4A6", "twitter": "None", "instagram": "None", "facebook": "None", "youtube": "None", "website": "None", "summary": "None", "logo": "None", "latitude": 52.26839054954124, "longitude": -113.81404818841277}, "118857721RR0001": {"name": "CHRISTIAN SCIENCE SOCIETY, SURREY", "designationCode": "C", "categoryCode": "39", "address": "10207-132 ST", "city": "SURREY", "province": "BC", "country": "CA", "postalCode": "V3T3T8", "twitter": "None", "instagram": "None", "facebook": "None", "youtube": "None", "website": "None", "summary": "None", "logo": "None", "latitude": 49.188032612268444, "longitude": -122.856525559409}, "132004383RR0001": {"name": "CHRISTIAN SENIOR CITIZEN HOMES SOCIETY OF ST. CATHARINES", "designationCode": "C", "categoryCode": "01", "address": "50 WILLIAM ST", "city": "ST CATHARINES", "province": "ON", "country": "CA", "postalCode": "L2R5J2", "twitter": "None", "instagram": "None", "facebook": "None", "youtube": "None", "website": "None", "summary": "None", "logo": "None", "latitude": 43.15776208661765, "longitude": -79.25028968093962}, "118857747RR0001": {"name": "CHRISTIAN SENIOR CITIZENS HOME OF CHATHAM", "designationCode": "C", "categoryCode": "01", "address": "97-40 ELM ST", "city": "CHATHAM", "province": "ON", "country": "CA", "postalCode": "N7M6A5", "twitter": "None", "instagram": "None", "facebook": "None", "youtube": "None", "website": "None", "summary": "None", "logo": "None", "latitude": 42.396777197356904, "longitude": -82.17520522196942}, "118857754RR0001": {"name": "CHRISTIAN SENIOR CITIZENS HOME SOCIETY OF NORTHERN ALBERTA", "designationCode": "C", "categoryCode": "01", "address": "13425 57 ST", "city": "EDMONTON", "province": "AB", "country": "CA", "postalCode": "T5A2G1", "twitter": "None", "instagram": "None", "facebook": "None", "youtube": "None", "website": "None", "summary": "None", "logo": "None", "latitude": 53.59734224037726, "longitude": -113.42899577113621}, "118857762RR0001": {"name": "CHRISTIAN SERVICE BRIGADE", "designationCode": "C", "categoryCode": "49", "address": "1000 STORMONT ST", "city": "OTTAWA", "province": "ON", "country": "CA", "postalCode": "K2C0M9", "twitter": "None", "instagram": "None", "facebook": "None", "youtube": "None", "website": "None", "summary": "None", "logo": "None", "latitude": 45.3590037568528, "longitude": -75.70326241796998}, "118857770RR0001": {"name": "CHRISTIAN SERVICE CENTERS OF CANADA", "designationCode": "C", "categoryCode": "49", "address": "28-980 ADELAIDE ST .SOUTH", "city": "LONDON", "province": "ON", "country": "CA", "postalCode": "N6E1R3", "twitter": "None", "instagram": "None", "facebook": "None", "youtube": "None", "website": "None", "summary": "None", "logo": "None", "latitude": 42.94036756923187, "longitude": -81.21156035965923}, "891641862RR0001": {"name": "CHRISTIAN SERVICE TRUST FOUNDATION", "designationCode": "B", "categoryCode": "45", "address": "1201 NORTH SHORE BLVD E       APT 308", "city": "BURLINGTON", "province": "ON", "country": "CA", "postalCode": "L7S1Z5", "twitter": "None", "instagram": "None", "facebook": "None", "youtube": "None", "website": "None", "summary": "None", "logo": "None", "latitude": 43.31711687125601, "longitude": -79.80454068226634}, "134175868RR0001": {"name": "CHRISTIAN SERVICES ASSOCIATION", "designationCode": "C", "categoryCode": "47", "address": "P.O. BOX 5", "city": "CARONPORT", "province": "SK", "country": "CA", "postalCode": "S0H0S0", "twitter": "None", "instagram": "None", "facebook": "None", "youtube": "None", "website": "None", "summary": "None", "logo": "None", "latitude": 50.45526000000007, "longitude": -105.81779999999998}, "119267409RR0001": {"name": "CHRISTIAN SPIRITUAL MINISTRIES INC.", "designationCode": "C", "categoryCode": "39", "address": "706 COLLEGE STREET", "city": "TORONTO", "province": "ON", "country": "CA", "postalCode": "M6G1C1", "twitter": "None", "instagram": "None", "facebook": "None", "youtube": "None", "website": "None", "summary": "None", "logo": "None", "latitude": 43.65525350432784, "longitude": -79.41821458673321}, "106920309RR0002": {"name": "CHRISTIAN STEWARDSHIP SERVICES", "designationCode": "C", "categoryCode": "49", "address": "214A-500 ALDEN RD", "city": "MARKHAM", "province": "ON", "country": "CA", "postalCode": "L3R5H5", "twitter": "None", "instagram": "None", "facebook": "None", "youtube": "None", "website": "None", "summary": "None", "logo": "None", "latitude": 43.83538764559396, "longitude": -79.3328991507585}, "891595795RR0001": {"name": "CHRISTIAN VICTORY CHURCH", "designationCode": "C", "categoryCode": "39", "address": "520 BREALEY DR", "city": "PETERBOROUGH", "province": "ON", "country": "CA", "postalCode": "K9K2R7", "twitter": "None", "instagram": "None", "facebook": "None", "youtube": "None", "website": "None", "summary": "None", "logo": "None", "latitude": 44.26490463087878, "longitude": -78.36689039459912}, "868532896RR0001": {"name": "CHRISTIAN WITNESS MINISTRIES INC", "designationCode": "C", "categoryCode": "47", "address": "155 EAST BEAVER CREEK ROAD    UNIT 15", "city": "RICHMOND HILL", "province": "ON", "country": "CA", "postalCode": "L4B2N1", "twitter": "None", "instagram": "None", "facebook": "None", "youtube": "None", "website": "None", "summary": "None", "logo": "None", "latitude": 43.8487974012159, "longitude": -79.37762219148871}, "890275175RR0001": {"name": "CHRISTIAN WORSHIP ASSEMBLY (WINDSOR)/ASEMBLEA CRISTIANA DE ADORACION (WINDSOR)", "designationCode": "C", "categoryCode": "36", "address": "1650 HOWARD AVE.", "city": "WINDSOR", "province": "ON", "country": "CA", "postalCode": "N8X3T7", "twitter": "None", "instagram": "None", "facebook": "None", "youtube": "None", "website": "None", "summary": "None", "logo": "None", "latitude": 42.299506014455375, "longitude": -83.01799445885555}, "106920416RR0001": {"name": "CHRISTIAN YOUTH CAMPS INCORPORATED", "designationCode": "C", "categoryCode": "56", "address": "4129 147 ST NW", "city": "EDMONTON", "province": "AB", "country": "CA", "postalCode": "T6H5V6", "twitter": "None", "instagram": "None", "facebook": "None", "youtube": "None", "website": "None", "summary": "None", "logo": "None", "latitude": 53.47796290062907, "longitude": -113.57568560834464}, "106920440RR0001": {"name": "CHRISTIAN YOUTH DYNAMICS PETERBOROUGH", "designationCode": "C", "categoryCode": "56", "address": "PO BOX 754", "city": "PETERBOROUGH", "province": "ON", "country": "CA", "postalCode": "K9J7M1", "twitter": "None", "instagram": "None", "facebook": "None", "youtube": "None", "website": "None", "summary": "None", "logo": "None", "latitude": 44.27720700000006, "longitude": -78.33712849999993}, "119231165RR0001": {"name": "CHRISTIAN-CANADIAN COPTIC FUND", "designationCode": "C", "categoryCode": "49", "address": "555 LEGGET DR                 TOWER A, SUITE #304", "city": "KANATA", "province": "ON", "country": "CA", "postalCode": "K2K2X3", "twitter": "None", "instagram": "None", "facebook": "None", "youtube": "None", "website": "None", "summary": "None", "logo": "None", "latitude": 45.348734449102444, "longitude": -75.9206672878706}, "131634743RR0001": {"name": "CHRISTIAN-JEWISH DIALOGUE OF TORONTO", "designationCode": "C", "categoryCode": "47", "address": "56 QUEEN ST EAST", "city": "TORONTO", "province": "ON", "country": "CA", "postalCode": "M5C2Z3", "twitter": "None", "instagram": "None", "facebook": "None", "youtube": "None", "website": "None", "summary": "None", "logo": "None", "latitude": 43.65307221036676, "longitude": -79.37651649078298}, "118857432RR0001": {"name": "CHRISTIANS EMPOWERING ORGANIZATIONS MINISTRIES, INC.", "designationCode": "C", "categoryCode": "49", "address": "R.P.O. BOX 283                ST. VITAL SOUTH", "city": "WINNIPEG", "province": "MB", "country": "CA", "postalCode": "R2N3X9", "twitter": "None", "instagram": "None", "facebook": "None", "youtube": "None", "website": "None", "summary": "None", "logo": "None", "latitude": 49.78970700000005, "longitude": -97.09262449999993}, "869884841RR0001": {"name": "CHRISTIANS FOR ISRAEL, CANADA", "designationCode": "C", "categoryCode": "47", "address": "PO BOX 26048", "city": "BRANTFORD", "province": "ON", "country": "CA", "postalCode": "N3R7X4", "twitter": "None", "instagram": "None", "facebook": "None", "youtube": "None", "website": "None", "summary": "None", "logo": "None", "latitude": 43.14136200000006, "longitude": -80.26173349999993}, "118857796RR0001": {"name": "CHRISTIANS GATHERED IN THE NAME OF OUR LORD JESUS CHRIST", "designationCode": "C", "categoryCode": "39", "address": "177 ROCKY ROAD", "city": "KESWICK RIDGE", "province": "NB", "country": "CA", "postalCode": "E6L1V1", "twitter": "None", "instagram": "None", "facebook": "None", "youtube": "None", "website": "None", "summary": "None", "logo": "None", "latitude": 45.98218321313994, "longitude": -66.88064115595265}, "133787085RR0001": {"name": "CHRISTIANS GATHERED IN THE NAME OF THE LORD JESUS CHRIST KNOWN AS CHRISTIAN BRETHREN", "designationCode": "C", "categoryCode": "39", "address": "57 SIR LANCELOT DRIVE", "city": "MONCTON", "province": "NB", "country": "CA", "postalCode": "E1A6N8", "twitter": "None", "instagram": "None", "facebook": "None", "youtube": "None", "website": "None", "summary": "None", "logo": "None", "latitude": 46.11230614377628, "longitude": -64.72366493585915}, "887128999RR0001": {"name": "CHRISTIANS GATHERED TO THE NAME OF THE LORD JESUS CHRIST", "designationCode": "C", "categoryCode": "47", "address": "PO BOX 741", "city": "MIDLAND", "province": "ON", "country": "CA", "postalCode": "L4R4P4", "twitter": "None", "instagram": "None", "facebook": "None", "youtube": "None", "website": "None", "summary": "None", "logo": "None", "latitude": 44.74989600000005, "longitude": -79.88850349999993}, "118857820RR0001": {"name": "CHRISTIANS GATHERED UNTO THE NAME OF OUR LORD JESUS CHRIST", "designationCode": "C", "categoryCode": "39", "address": "30 EAST VALLEY ROAD", "city": "CORNER BROOK", "province": "NL", "country": "CA", "postalCode": "A2H2L3", "twitter": "None", "instagram": "None", "facebook": "None", "youtube": "None", "website": "None", "summary": "None", "logo": "None", "latitude": 48.951130904235754, "longitude": -57.93672314556529}, "886364793RR0001": {"name": "CHRISTIANS GATHERED UNTO THE NAME OF OUR LORD JESUS CHRIST", "designationCode": "C", "categoryCode": "39", "address": "4 SUNVALLEY DRIVE", "city": "PARADISE", "province": "NL", "country": "CA", "postalCode": "A1L1L2", "twitter": "None", "instagram": "None", "facebook": "None", "youtube": "None", "website": "None", "summary": "None", "logo": "None", "latitude": 47.53183925012975, "longitude": -52.85995971018715}, "118857846RR0001": {"name": "CHRISTIANS IN ACTION MISSIONS INTERNATIONAL", "designationCode": "C", "categoryCode": "47", "address": "PO BOX 344 STN MAIN", "city": "CHILLIWACK", "province": "BC", "country": "CA", "postalCode": "V2P6J4", "twitter": "None", "instagram": "None", "facebook": "None", "youtube": "None", "website": "None", "summary": "None", "logo": "None", "latitude": 49.169860930294725, "longitude": -121.95627179555584}, "118857861RR0001": {"name": "CHRISTIANS MEETING AT OXBOW SASK", "designationCode": "C", "categoryCode": "39", "address": "PO BOX 813", "city": "OXBOW", "province": "SK", "country": "CA", "postalCode": "S0C2B0", "twitter": "None", "instagram": "None", "facebook": "None", "youtube": "None", "website": "None", "summary": "None", "logo": "None", "latitude": 49.23346331645773, "longitude": -102.17827573496838}, "888578861RR0001": {"name": "CHRISTIANS MEETING AT 1175 LANGLOIS AVENUE WINDSOR ONTARIO", "designationCode": "C", "categoryCode": "39", "address": "1175 LANGLOIS AVE", "city": "WINDSOR", "province": "ON", "country": "CA", "postalCode": "N9A2H4", "twitter": "None", "instagram": "None", "facebook": "None", "youtube": "None", "website": "None", "summary": "None", "logo": "None", "latitude": 42.311358891194, "longitude": -83.01762047449343}, "106920283RR0001": {"name": "CHRISTIANS OF EVANGELICAL FAITH OF CANADA", "designationCode": "C", "categoryCode": "39", "address": "BOX 969", "city": "SWAN RIVER", "province": "MB", "country": "CA", "postalCode": "R0L1Z0", "twitter": "None", "instagram": "None", "facebook": "None", "youtube": "None", "website": "None", "summary": "None", "logo": "None", "latitude": 52.11672730414978, "longitude": -101.25989472758229}, "118857895RR0001": {"name": "CHRISTIANS OF EVANGELICAL FAITH OF PORTAGE LA PRAIRIE MANITOBA", "designationCode": "C", "categoryCode": "39", "address": "58-5TH STREET NW", "city": "PORTAGE LA PRAIRIE", "province": "MB", "country": "CA", "postalCode": "R1N2H3", "twitter": "None", "instagram": "None", "facebook": "None", "youtube": "None", "website": "None", "summary": "None", "logo": "None", "latitude": 49.974570606599, "longitude": -98.29740611007803}, "135437598RR0001": {"name": "CHRISTIANS' GOSPEL SOCIETY", "designationCode": "C", "categoryCode": "39", "address": "21522 46B AVENUE", "city": "LANGLEY", "province": "BC", "country": "CA", "postalCode": "V3A9G1", "twitter": "None", "instagram": "None", "facebook": "None", "youtube": "None", "website": "None", "summary": "None", "logo": "None", "latitude": 49.08707171438067, "longitude": -122.62726815407672}, "118857960RR0001": {"name": "CHRISTIANVIEW FELLOWSHIP AND RECREATION CENTRE", "designationCode": "C", "categoryCode": "49", "address": "42395 HWY 3", "city": "WAINFLEET", "province": "ON", "country": "CA", "postalCode": "L0S1V0", "twitter": "None", "instagram": "None", "facebook": "None", "youtube": "None", "website": "None", "summary": "None", "logo": "None", "latitude": 42.9439920306507, "longitude": -79.39872208646591}, "130499825RR0001": {"name": "CHRISTIE GARDENS APARTMENTS AND CARE INC.", "designationCode": "C", "categoryCode": "09", "address": "600 MELITA CRESCENT", "city": "TORONTO", "province": "ON", "country": "CA", "postalCode": "M6G3Z4", "twitter": "None", "instagram": "None", "facebook": "None", "youtube": "None", "website": "None", "summary": "None", "logo": "None", "latitude": 43.67305924591719, "longitude": -79.42317855698575}, "132784471RR0001": {"name": "CHRISTIE LAKE KIDS", "designationCode": "C", "categoryCode": "56", "address": "400 COVENTRY ROAD", "city": "OTTAWA", "province": "ON", "country": "CA", "postalCode": "K1K2C7", "twitter": "None", "instagram": "None", "facebook": "None", "youtube": "None", "website": "None", "summary": "None", "logo": "None", "latitude": 45.42142754169364, "longitude": -75.64825082402339}, "108222266RR0001": {"name": "CHRISTIE REFUGEE WELCOME CENTRE INC.", "designationCode": "C", "categoryCode": "09", "address": "43 CHRISTIE STREET", "city": "TORONTO", "province": "ON", "country": "CA", "postalCode": "M6G3B1", "twitter": "None", "instagram": "None", "facebook": "None", "youtube": "None", "website": "None", "summary": "None", "logo": "None", "latitude": 43.66510964807544, "longitude": -79.41900947472458}, "118858075RR0001": {"name": "CHRISTIE STREET BAPTIST CHURCH", "designationCode": "C", "categoryCode": "31", "address": "177 CHRISTIE ST", "city": "TORONTO", "province": "ON", "country": "CA", "postalCode": "M6G3B5", "twitter": "None", "instagram": "None", "facebook": "None", "youtube": "None", "website": "None", "summary": "None", "logo": "None", "latitude": 43.668267589791654, "longitude": -79.42021841975898}, "898720651RR0001": {"name": "CHRISTIE/OSSINGTON NEIGHBOURHOOD CENTRE", "designationCode": "C", "categoryCode": "56", "address": "973 LANSDOWNE AVE", "city": "TORONTO", "province": "ON", "country": "CA", "postalCode": "M6H3Z5", "twitter": "None", "instagram": "None", "facebook": "None", "youtube": "None", "website": "None", "summary": "None", "logo": "None", "latitude": 43.666116003058434, "longitude": -79.44617752619905}, "891562266RR0001": {"name": "CHRISTINA LAKE COMMUNITY HALL", "designationCode": "C", "categoryCode": "56", "address": "BOX 331                       90 PARK ROAD", "city": "CHRISTINA LAKE", "province": "BC", "country": "CA", "postalCode": "V0H1E0", "twitter": "None", "instagram": "None", "facebook": "None", "youtube": "None", "website": "None", "summary": "None", "logo": "None", "latitude": 49.04177407122883, "longitude": -118.21297653529516}, "132724709RR0001": {"name": "CHRISTINA LAKE FIRE DEPARTMENT", "designationCode": "C", "categoryCode": "59", "address": "PO BOX 18                     SWANSON ROAD", "city": "CHRISTINA LAKE", "province": "BC", "country": "CA", "postalCode": "V0H1E0", "twitter": "None", "instagram": "None", "facebook": "None", "youtube": "None", "website": "None", "summary": "None", "logo": "None", "latitude": 49.03258216651141, "longitude": -118.20743271680868}, "886260611RR0001": {"name": "CHRISTINA LAKE STEWARDSHIP SOCIETY", "designationCode": "C", "categoryCode": "59", "address": "BOX 373", "city": "CHRISTINA LAKE", "province": "BC", "country": "CA", "postalCode": "V0H1E0", "twitter": "None", "instagram": "None", "facebook": "None", "youtube": "None", "website": "None", "summary": "None", "logo": "None", "latitude": 49.02012000000008, "longitude": -118.21722999999997}, "864867148RR0001": {"name": "CHRISTLIKE MINISTRIES INC.", "designationCode": "C", "categoryCode": "47", "address": "BOX 149", "city": "WARMAN", "province": "SK", "country": "CA", "postalCode": "S0K4S0", "twitter": "None", "instagram": "None", "facebook": "None", "youtube": "None", "website": "None", "summary": "None", "logo": "None", "latitude": 52.31985000000006, "longitude": -106.58322349999993}, "118858505RR0001": {"name": "CHRISTMAS AMALGAMATED SERVICES", "designationCode": "C", "categoryCode": "09", "address": "PO BOX 24050                  STATION NORTHILLS CENTRE", "city": "KAMLOOPS", "province": "BC", "country": "CA", "postalCode": "V2B8R3", "twitter": "None", "instagram": "None", "facebook": "None", "youtube": "None", "website": "None", "summary": "None", "logo": "None", "latitude": 50.77233600000005, "longitude": -120.35689999999994}, "118858513RR0001": {"name": "CHRISTMAS BASKET FUND COMMITTEE OF GALT PROFESSIONAL FIRE FIGHTERS ASSOCIATION", "designationCode": "C", "categoryCode": "09", "address": "11 BLACKFRIARS PL", "city": "CAMBRIDGE", "province": "ON", "country": "CA", "postalCode": "N1S3P1", "twitter": "None", "instagram": "None", "facebook": "None", "youtube": "None", "website": "None", "summary": "None", "logo": "None", "latitude": 43.33901304662706, "longitude": -80.32802209140777}, "858881741RR0001": {"name": "CHRISTMAS BUREAU OF THE COLUMBIA VALLEY", "designationCode": "C", "categoryCode": "09", "address": "PO BOX 2595", "city": "INVERMERE", "province": "BC", "country": "CA", "postalCode": "V0A1K0", "twitter": "None", "instagram": "None", "facebook": "None", "youtube": "None", "website": "None", "summary": "None", "logo": "None", "latitude": 50.50916700000006, "longitude": -116.03037049999993}, "872217567RR0001": {"name": "CHRISTMAS DINNER FUND", "designationCode": "C", "categoryCode": "09", "address": "71 ISLANDVIEW DRIVE", "city": "MILLVILLE", "province": "NS", "country": "CA", "postalCode": "B1Y2J1", "twitter": "None", "instagram": "None", "facebook": "None", "youtube": "None", "website": "None", "summary": "None", "logo": "None", "latitude": 46.2698337646144, "longitude": -60.367994807779006}, "866054927RR0001": {"name": "CHRISTMAS FOR EVERYONE", "designationCode": "C", "categoryCode": "09", "address": "4156 PETROLIA LINE", "city": "PETROLIA", "province": "ON", "country": "CA", "postalCode": "N0N1R0", "twitter": "None", "instagram": "None", "facebook": "None", "youtube": "None", "website": "None", "summary": "None", "logo": "None", "latitude": 42.882023054547055, "longitude": -82.14902697704612}, "890622996RR0001": {"name": "CHRISTMAS FOR KIDS CAMPAIGN", "designationCode": "C", "categoryCode": "09", "address": "1474 SOUTHAMPTON RD", "city": "AMHERST", "province": "NS", "country": "CA", "postalCode": "B4H3Y4", "twitter": "None", "instagram": "None", "facebook": "None", "youtube": "None", "website": "None", "summary": "None", "logo": "None", "latitude": 45.81665451122409, "longitude": -64.23931504688684}, "897157665RR0001": {"name": "CHRISTMAS SHARING PROGRAM", "designationCode": "C", "categoryCode": "09", "address": "PO BOX 22056                  RPO BELLEVILLE CTR", "city": "BELLEVILLE", "province": "ON", "country": "CA", "postalCode": "K8N5V7", "twitter": "None", "instagram": "None", "facebook": "None", "youtube": "None", "website": "None", "summary": "None", "logo": "None", "latitude": 44.16104400000006, "longitude": -77.38183249999993}, "803342948RR0001": {"name": "CHRISTOPHER DOUGLAS HIDDEN ANGEL FOUNDATION", "designationCode": "C", "categoryCode": "11", "address": "274 OLD HALIFAX RD", "city": "GLEN HAVEN", "province": "NS", "country": "CA", "postalCode": "B3Z2X2", "twitter": "None", "instagram": "None", "facebook": "None", "youtube": "None", "website": "None", "summary": "None", "logo": "None", "latitude": 44.63238738054685, "longitude": -63.89112674978366}, "118858976RR0001": {"name": "CHRY COMMUNITY RADIO INCORPORATED", "designationCode": "C", "categoryCode": "21", "address": "413 THE STUDENT CENTRE        4700 KEELE STREET", "city": "NORTH YORK", "province": "ON", "country": "CA", "postalCode": "M3J1P3", "twitter": "None", "instagram": "None", "facebook": "None", "youtube": "None", "website": "None", "summary": "None", "logo": "None", "latitude": 43.77448979818479, "longitude": -79.4939737399481}, "820648277RR0001": {"name": "CHRYSALIS CANADA FOUNDATION", "designationCode": "B", "categoryCode": "03", "address": "59 RAVINE RIDGE WAY", "city": "LONDON", "province": "ON", "country": "CA", "postalCode": "N5X3S7", "twitter": "None", "instagram": "None", "facebook": "None", "youtube": "None", "website": "None", "summary": "None", "logo": "None", "latitude": 43.02015024259896, "longitude": -81.2683792080327}}