{"838218329RR0001": {"name": "MAITLAND RIVER COMMUNITY CHURCH", "designationCode": "C", "categoryCode": "39", "address": "414 JOSEPHINE ST              BOX 939", "city": "WINGHAM", "province": "ON", "country": "CA", "postalCode": "N0G2W0", "twitter": "None", "instagram": "None", "facebook": "None", "youtube": "None", "website": "None", "summary": "None", "logo": "None", "latitude": 43.89047533585304, "longitude": -81.30964569752977}, "890020662RR0001": {"name": "MAITLAND TRAIL ASSOCIATION (GODERICH)", "designationCode": "C", "categoryCode": "56", "address": "PO BOX 443 STN MAIN", "city": "GODERICH", "province": "ON", "country": "CA", "postalCode": "N7A4C7", "twitter": "None", "instagram": "None", "facebook": "None", "youtube": "None", "website": "None", "summary": "None", "logo": "None", "latitude": 43.71881028701384, "longitude": -81.62792840345546}, "107657207RR0001": {"name": "MAITLAND VALLEY CONSERVATION AUTHORITY", "designationCode": "C", "categoryCode": "52", "address": "BOX 127", "city": "WROXETER", "province": "ON", "country": "CA", "postalCode": "N0G2X0", "twitter": "None", "instagram": "None", "facebook": "None", "youtube": "None", "website": "None", "summary": "None", "logo": "None", "latitude": 43.86411000000004, "longitude": -81.14910999999995}, "140394198RR0001": {"name": "MAITREYA GREAT TAO HEP KWONG TEMPLE INC.", "designationCode": "C", "categoryCode": "39", "address": "3471 KENNEDY RD", "city": "SCARBOROUGH", "province": "ON", "country": "CA", "postalCode": "M1V4Y3", "twitter": "None", "instagram": "None", "facebook": "None", "youtube": "None", "website": "None", "summary": "None", "logo": "None", "latitude": 43.8214302917075, "longitude": -79.30599227918536}, "120989876RR0001": {"name": "MAITRISE DU CAP INC", "designationCode": "C", "categoryCode": "22", "address": "200-250 RUE VACHON", "city": "TROIS-RIVI\u00c8RES", "province": "QC", "country": "CA", "postalCode": "G8T8Y2", "twitter": "None", "instagram": "None", "facebook": "None", "youtube": "None", "website": "None", "summary": "None", "logo": "None", "latitude": 46.37405719735688, "longitude": -72.55151740455287}, "888192515RR0001": {"name": "MAIWA FOUNDATION", "designationCode": "B", "categoryCode": "02", "address": "6-1666 JOHNSTON ST", "city": "VANCOUVER", "province": "BC", "country": "CA", "postalCode": "V6H3S2", "twitter": "None", "instagram": "None", "facebook": "None", "youtube": "None", "website": "None", "summary": "None", "logo": "None", "latitude": 49.27206079404477, "longitude": -123.13524396451012}, "801462540RR0001": {"name": "MAJI MAZURI CANADA", "designationCode": "C", "categoryCode": "09", "address": "328 CARDINAL AVE", "city": "BURLINGTON", "province": "ON", "country": "CA", "postalCode": "L7T2N9", "twitter": "None", "instagram": "None", "facebook": "None", "youtube": "None", "website": "None", "summary": "None", "logo": "None", "latitude": 43.309265029690174, "longitude": -79.8338212816955}, "864980040RR0001": {"name": "MAKAROFF AND DISTRICT CEMETERY", "designationCode": "C", "categoryCode": "59", "address": "BOX 744", "city": "ROBLIN", "province": "MB", "country": "CA", "postalCode": "R0L1P0", "twitter": "None", "instagram": "None", "facebook": "None", "youtube": "None", "website": "None", "summary": "None", "logo": "None", "latitude": 51.22816000000006, "longitude": -101.35248999999999}, "891346348RR0001": {"name": "MAKE A DREAM COME TRUE (LIONS) SOCIETY", "designationCode": "C", "categoryCode": "09", "address": "SUITE 200                     12204-106 AVENUE NW", "city": "EDMONTON", "province": "AB", "country": "CA", "postalCode": "T5N3Z1", "twitter": "None", "instagram": "None", "facebook": "None", "youtube": "None", "website": "None", "summary": "None", "logo": "None", "latitude": 53.549396474897485, "longitude": -113.53274108381903}, "869515742RR0001": {"name": "MAKE A LIFE", "designationCode": "C", "categoryCode": "09", "address": "BOX 93  197 KOOTENAY LAKE RD.", "city": "PROCTER", "province": "BC", "country": "CA", "postalCode": "V0G1V0", "twitter": "None", "instagram": "None", "facebook": "None", "youtube": "None", "website": "None", "summary": "None", "logo": "None", "latitude": 49.62351633784567, "longitude": -116.94058707600078}, "869663344RR0001": {"name": "MAKE A LIFE FOUNDATION", "designationCode": "A", "categoryCode": "03", "address": "BOX 93  197 KOOTENAY LAKE RD", "city": "PROCTER", "province": "BC", "country": "CA", "postalCode": "V0G1V0", "twitter": "None", "instagram": "None", "facebook": "None", "youtube": "None", "website": "None", "summary": "None", "logo": "None", "latitude": 49.62351633784567, "longitude": -116.94058707600078}, "823789920RR0001": {"name": "MAKE IT RIGHT CHARITY", "designationCode": "B", "categoryCode": "20", "address": "2 - 55 HORNER AVE", "city": "TORONTO", "province": "ON", "country": "CA", "postalCode": "M8Z4X6", "twitter": "None", "instagram": "None", "facebook": "None", "youtube": "None", "website": "None", "summary": "None", "logo": "None", "latitude": 43.61440811965469, "longitude": -79.51740712857108}, "881291918RR0001": {"name": "MAKE-A-WISH FOUNDATION (OF THE) ATLANTIC PROVINCES", "designationCode": "C", "categoryCode": "09", "address": "605-5991 SPRING GARDEN RD", "city": "HALIFAX", "province": "NS", "country": "CA", "postalCode": "B3H1Y6", "twitter": "None", "instagram": "None", "facebook": "None", "youtube": "None", "website": "None", "summary": "None", "logo": "None", "latitude": 44.6404545, "longitude": -63.58650075}, "107657371RR0001": {"name": "MAKE-A-WISH FOUNDATION OF BRITISH COLUMBIA AND THE YUKON", "designationCode": "C", "categoryCode": "09", "address": "112-2025 W. BROADWAY", "city": "VANCOUVER", "province": "BC", "country": "CA", "postalCode": "V6J1Z6", "twitter": "None", "instagram": "None", "facebook": "None", "youtube": "None", "website": "None", "summary": "None", "logo": "None", "latitude": 49.26382145325738, "longitude": -123.1512297485429}, "895269173RR0001": {"name": "MAKE-A-WISH FOUNDATION OF CANADA", "designationCode": "C", "categoryCode": "09", "address": "4211 YONGE STREET             SUITE 520", "city": "TORONTO", "province": "ON", "country": "CA", "postalCode": "M2P2A9", "twitter": "None", "instagram": "None", "facebook": "None", "youtube": "None", "website": "None", "summary": "None", "logo": "None", "latitude": 43.748057231202, "longitude": -79.40760520422447}, "875964421RR0001": {"name": "MAKE-A-WISH FOUNDATION OF EASTERN ONTARIO", "designationCode": "C", "categoryCode": "09", "address": "92 BENTLEY AVENUE UNIT 4", "city": "OTTAWA", "province": "ON", "country": "CA", "postalCode": "K2E6T9", "twitter": "None", "instagram": "None", "facebook": "None", "youtube": "None", "website": "None", "summary": "None", "logo": "None", "latitude": 45.335269685152795, "longitude": -75.71381195951939}, "868902768RR0001": {"name": "MAKE-A-WISH FOUNDATION OF NORTHERN ALBERTA", "designationCode": "C", "categoryCode": "09", "address": "16007-118TH AVE.", "city": "EDMONTON", "province": "AB", "country": "CA", "postalCode": "T5V1C7", "twitter": "None", "instagram": "None", "facebook": "None", "youtube": "None", "website": "None", "summary": "None", "logo": "None", "latitude": 53.570328477350316, "longitude": -113.59781019317329}, "876189119RR0001": {"name": "MAKE-A-WISH FOUNDATION OF QU\u00c9BEC/LA FONDATION FAIS UN VOEU DU QU\u00c9BEC", "designationCode": "C", "categoryCode": "09", "address": "210 - 353 RUE SAINT-NICOLAS", "city": "MONTREAL", "province": "QC", "country": "CA", "postalCode": "H2Y2P1", "twitter": "None", "instagram": "None", "facebook": "None", "youtube": "None", "website": "None", "summary": "None", "logo": "None", "latitude": 45.502205793236705, "longitude": -73.55597316235794}, "886104694RR0001": {"name": "MAKE-A-WISH FOUNDATION OF SOUTHERN ALBERTA", "designationCode": "C", "categoryCode": "09", "address": "BAY 4 2308-24TH ST.SW", "city": "CALGARY", "province": "AB", "country": "CA", "postalCode": "T2T5H8", "twitter": "None", "instagram": "None", "facebook": "None", "youtube": "None", "website": "None", "summary": "None", "logo": "None", "latitude": 51.033446999999995, "longitude": -114.11775678585046}, "827121302RR0001": {"name": "MAKE-A-WISH FOUNDATION OF SOUTHWESTERN ONTARIO", "designationCode": "C", "categoryCode": "09", "address": "207 - 551 OXFORD ST W", "city": "LONDON", "province": "ON", "country": "CA", "postalCode": "N6H0H9", "twitter": "None", "instagram": "None", "facebook": "None", "youtube": "None", "website": "None", "summary": "None", "logo": "None", "latitude": 42.984419234144966, "longitude": -81.29061305227879}, "858884547RR0001": {"name": "MAKING A DIFFERENCE FOUNDATION", "designationCode": "A", "categoryCode": "09", "address": "330 ELLIS STREET", "city": "PENTICTON", "province": "BC", "country": "CA", "postalCode": "V2A4L7", "twitter": "None", "instagram": "None", "facebook": "None", "youtube": "None", "website": "None", "summary": "None", "logo": "None", "latitude": 49.498434639188645, "longitude": -119.59052918192056}, "889609897RR0001": {"name": "MAKING CHANGES EMPLOYMENT ASSOCIATION OF ALBERTA", "designationCode": "C", "categoryCode": "09", "address": "6516 1A ST SW", "city": "CALGARY", "province": "AB", "country": "CA", "postalCode": "T2H0G6", "twitter": "None", "instagram": "None", "facebook": "None", "youtube": "None", "website": "None", "summary": "None", "logo": "None", "latitude": 50.99455193693197, "longitude": -114.06758490101069}, "841379472RR0001": {"name": "MAKING FACES INC.", "designationCode": "C", "categoryCode": "11", "address": "70-2 UPPER CANADA DRIVE", "city": "TORONTO", "province": "ON", "country": "CA", "postalCode": "M2P2A3", "twitter": "None", "instagram": "None", "facebook": "None", "youtube": "None", "website": "None", "summary": "None", "logo": "None", "latitude": 43.75096212702148, "longitude": -79.40393853304464}, "119029510RR0001": {"name": "MAKKOVIK MORAVIAN CHURCH", "designationCode": "C", "categoryCode": "39", "address": "P.O. BOX 45", "city": "LABRADOR", "province": "NL", "country": "CA", "postalCode": "A0P1J0", "twitter": "None", "instagram": "None", "facebook": "None", "youtube": "None", "website": "None", "summary": "None", "logo": "None"}, "135702959RR0001": {"name": "MAKTAB TARIGHAT OVEYSSI SHAHMAGHSOUDI (SCHOOL OF ISLAMIC SUFISM)", "designationCode": "C", "categoryCode": "43", "address": "140 ESMOND AVE", "city": "BURNABY", "province": "BC", "country": "CA", "postalCode": "V5C4J3", "twitter": "None", "instagram": "None", "facebook": "None", "youtube": "None", "website": "None", "summary": "None", "logo": "None", "latitude": 49.28349104133672, "longitude": -123.02090445584348}, "890752348RR0001": {"name": "MALABAR MISSION SOCIETY, INC.", "designationCode": "C", "categoryCode": "47", "address": "310 - 2244 SMITH ST", "city": "REGINA", "province": "SK", "country": "CA", "postalCode": "S4P2P4", "twitter": "None", "instagram": "None", "facebook": "None", "youtube": "None", "website": "None", "summary": "None", "logo": "None", "latitude": 50.4430472514571, "longitude": -104.61525311298959}, "119029528RR0001": {"name": "MALACHI 4 - FOUNDATION FOR FAMILY UNITY", "designationCode": "C", "categoryCode": "09", "address": "8112-81 AVE", "city": "EDMONTON", "province": "AB", "country": "CA", "postalCode": "T6C0V9", "twitter": "None", "instagram": "None", "facebook": "None", "youtube": "None", "website": "None", "summary": "None", "logo": "None", "latitude": 53.51706552986305, "longitude": -113.45255091618097}, "895179570RR0001": {"name": "MALAGASH AREA HERITAGE ASSOCIATION", "designationCode": "C", "categoryCode": "50", "address": "1926 NORTH SHORE RD           RR#1", "city": "MALAGASH", "province": "NS", "country": "CA", "postalCode": "B0K1E0", "twitter": "None", "instagram": "None", "facebook": "None", "youtube": "None", "website": "None", "summary": "None", "logo": "None", "latitude": 45.7925165323159, "longitude": -63.32703544615959}, "131713315RR0001": {"name": "MALAGASH CHRISTIAN FELLOWSHIP", "designationCode": "C", "categoryCode": "56", "address": "12198 HIGHWAY 1, RR3", "city": "WOLFVILLE", "province": "NS", "country": "CA", "postalCode": "B4P2R3", "twitter": "None", "instagram": "None", "facebook": "None", "youtube": "None", "website": "None", "summary": "None", "logo": "None", "latitude": 45.1034690620264, "longitude": -64.27599331150141}, "872527700RR0001": {"name": "MALAGAWATCH CEMETERY ASSOCIATION", "designationCode": "C", "categoryCode": "59", "address": "84 ALLAN'S LANE RR#2", "city": "RIVER DENYS", "province": "NS", "country": "CA", "postalCode": "B0E2Y0", "twitter": "None", "instagram": "None", "facebook": "None", "youtube": "None", "website": "None", "summary": "None", "logo": "None", "latitude": 45.85450351234926, "longitude": -61.085482960614975}, "865397418RR0001": {"name": "MALAKWA COMMUNITY CENTRE ASSOCIATION", "designationCode": "C", "categoryCode": "55", "address": "4118 MALAKWA HALL ROAD        GENERAL DELIVERY", "city": "MALAKWA", "province": "BC", "country": "CA", "postalCode": "V0E2J0", "twitter": "None", "instagram": "None", "facebook": "None", "youtube": "None", "website": "None", "summary": "None", "logo": "None", "latitude": 50.93945783681047, "longitude": -118.79113931818021}, "107657645RR0001": {"name": "MALAKWA GOSPEL CHURCH", "designationCode": "C", "categoryCode": "36", "address": "4053 MALAKWA ROAD", "city": "MALAKWA", "province": "BC", "country": "CA", "postalCode": "V0E2J0", "twitter": "None", "instagram": "None", "facebook": "None", "youtube": "None", "website": "None", "summary": "None", "logo": "None", "latitude": 50.93893627979189, "longitude": -118.79291973051059}, "119029569RR0001": {"name": "MALAKWA UNITED CHURCH", "designationCode": "C", "categoryCode": "44", "address": "4059 MALAKWA RD", "city": "MALAKWA", "province": "BC", "country": "CA", "postalCode": "V0E2J0", "twitter": "None", "instagram": "None", "facebook": "None", "youtube": "None", "website": "None", "summary": "None", "logo": "None", "latitude": 50.93900452285275, "longitude": -118.79276734309315}, "898094024RR0001": {"name": "MALANKARA CATHOLIC MISSION", "designationCode": "C", "categoryCode": "39", "address": "100 REGENT RD", "city": "NORTH YORK", "province": "ON", "country": "CA", "postalCode": "M3K1H3", "twitter": "None", "instagram": "None", "facebook": "None", "youtube": "None", "website": "None", "summary": "None", "logo": "None", "latitude": 43.731936176265066, "longitude": -79.46539844783302}, "891188740RR0001": {"name": "MALASPINA ART SOCIETY", "designationCode": "C", "categoryCode": "50", "address": "100-7085 NOOTKA ST.", "city": "POWELL RIVER", "province": "BC", "country": "CA", "postalCode": "V8A3C6", "twitter": "None", "instagram": "None", "facebook": "None", "youtube": "None", "website": "None", "summary": "None", "logo": "None", "latitude": 49.82135507977443, "longitude": -124.51902720021252}, "107657660RR0001": {"name": "MALASPINA CHILD DEVELOPMENT SOCIETY", "designationCode": "C", "categoryCode": "20", "address": "900 FIFTH STREET", "city": "NANAIMO", "province": "BC", "country": "CA", "postalCode": "V9R5S5", "twitter": "None", "instagram": "None", "facebook": "None", "youtube": "None", "website": "None", "summary": "None", "logo": "None", "latitude": 49.154814551531814, "longitude": -123.97002666146297}, "119029577RR0001": {"name": "MALASPINA CHOIR SOCIETY", "designationCode": "C", "categoryCode": "22", "address": "PO BOX 1175 STN A", "city": "NANAIMO", "province": "BC", "country": "CA", "postalCode": "V9R6E7", "twitter": "None", "instagram": "None", "facebook": "None", "youtube": "None", "website": "None", "summary": "None", "logo": "None", "latitude": 49.164243000000056, "longitude": -123.93616399999993}, "867211187RR0001": {"name": "MALEKKHANU AND SHERALI FAZAL VISRAM MEMORIAL FOUNDATION", "designationCode": "C", "categoryCode": "20", "address": "105 KING STREET EAST", "city": "KITCHENER", "province": "ON", "country": "CA", "postalCode": "N2G2K8", "twitter": "None", "instagram": "None", "facebook": "None", "youtube": "None", "website": "None", "summary": "None", "logo": "None", "latitude": 43.44896872020905, "longitude": -80.48724201361867}, "119029635RR0001": {"name": "MALLAIG BAPTIST CHURCH", "designationCode": "C", "categoryCode": "31", "address": "PO BOX 58", "city": "MALLAIG", "province": "AB", "country": "CA", "postalCode": "T0A2K0", "twitter": "None", "instagram": "None", "facebook": "None", "youtube": "None", "website": "None", "summary": "None", "logo": "None", "latitude": 54.209520000000055, "longitude": -111.36090999999999}, "137579694RR0001": {"name": "MALLARD DIVERSIFIED SERVICES INC", "designationCode": "C", "categoryCode": "09", "address": "BOX 7                         109 2ND STREET S W", "city": "WADENA", "province": "SK", "country": "CA", "postalCode": "S0A4J0", "twitter": "None", "instagram": "None", "facebook": "None", "youtube": "None", "website": "None", "summary": "None", "logo": "None", "latitude": 51.94199259231496, "longitude": -103.80448991380914}, "119029643RR0001": {"name": "MALLORYTOWN UNITED CHURCH", "designationCode": "C", "categoryCode": "44", "address": "DONNA HUNT                    BOX 142", "city": "MALLORYTOWN", "province": "ON", "country": "CA", "postalCode": "K0E1R0", "twitter": "None", "instagram": "None", "facebook": "None", "youtube": "None", "website": "None", "summary": "None", "logo": "None", "latitude": 44.46844056599778, "longitude": -75.8640105}, "107658239RR0001": {"name": "MALMO MISSION COVENANT CHURCH", "designationCode": "C", "categoryCode": "39", "address": "RR 2", "city": "WETASKIWIN", "province": "AB", "country": "CA", "postalCode": "T9A1W9", "twitter": "None", "instagram": "None", "facebook": "None", "youtube": "None", "website": "None", "summary": "None", "logo": "None", "latitude": 52.96987500000006, "longitude": -113.37725149999994}, "107658288RR0001": {"name": "MALPEQUE HISTORICAL SOCIETY INC.", "designationCode": "C", "categoryCode": "52", "address": "1181 HIGHWAY #104             RR 1", "city": "KENSINGTON", "province": "PE", "country": "CA", "postalCode": "C0B1M0", "twitter": "None", "instagram": "None", "facebook": "None", "youtube": "None", "website": "None", "summary": "None", "logo": "None", "latitude": 46.47681852899767, "longitude": -63.65645823980033}, "804439362RR0001": {"name": "MALTON BAPTIST CHURCH", "designationCode": "C", "categoryCode": "31", "address": "7205 GOREWAY DRIVE            PO BOX 59047", "city": "MISSISSAUGA", "province": "ON", "country": "CA", "postalCode": "L4T2T9", "twitter": "None", "instagram": "None", "facebook": "None", "youtube": "None", "website": "None", "summary": "None", "logo": "None", "latitude": 43.718884549598556, "longitude": -79.63883680036409}, "119029700RR0001": {"name": "MALTON BIBLE CHAPEL", "designationCode": "C", "categoryCode": "39", "address": "3093 CHURCHILL AVE", "city": "MISSISSAUGA", "province": "ON", "country": "CA", "postalCode": "L4T1R6", "twitter": "None", "instagram": "None", "facebook": "None", "youtube": "None", "website": "None", "summary": "None", "logo": "None", "latitude": 43.70849219291348, "longitude": -79.6439909674243}, "889295440RR0001": {"name": "MALTON BLACK DEVELOPMENT ASSOCIATION", "designationCode": "C", "categoryCode": "09", "address": "7454 AIRPORT ROAD             SUITE 12", "city": "MISSISSAUGA", "province": "ON", "country": "CA", "postalCode": "L5T2H5", "twitter": "None", "instagram": "None", "facebook": "None", "youtube": "None", "website": "None", "summary": "None", "logo": "None", "latitude": 43.712730746292536, "longitude": -79.65460834739423}, "119029726RR0001": {"name": "MALTON ISLAMIC ASSOCIATION", "designationCode": "C", "categoryCode": "60", "address": "6836 PROFESSIONAL COURT", "city": "MISSISSAUGA", "province": "ON", "country": "CA", "postalCode": "L4V1X6", "twitter": "None", "instagram": "None", "facebook": "None", "youtube": "None", "website": "None", "summary": "None", "logo": "None", "latitude": 43.70774282817833, "longitude": -79.63085877396256}, "119029759RR0001": {"name": "MALTON NEIGHBOURHOOD SERVICES", "designationCode": "C", "categoryCode": "59", "address": "3540 MORNING STAR DR", "city": "MISSISSAUGA", "province": "ON", "country": "CA", "postalCode": "L4T1Y2", "twitter": "None", "instagram": "None", "facebook": "None", "youtube": "None", "website": "None", "summary": "None", "logo": "None", "latitude": 43.72402277208758, "longitude": -79.63867717886214}, "119288918RR0529": {"name": "MALTON ONTARIO CONGREGATION OF JEHOVAH'S WITNESSES", "designationCode": "C", "categoryCode": "61", "address": "223 - 7170 DARCEL AVE", "city": "MISSISSAUGA", "province": "ON", "country": "CA", "postalCode": "L4T3T5", "twitter": "None", "instagram": "None", "facebook": "None", "youtube": "None", "website": "None", "summary": "None", "logo": "None", "latitude": 43.72001685980175, "longitude": -79.6327071848634}, "107797383RR0047": {"name": "MALTON SEVENTH-DAY ADVENTIST CHURCH", "designationCode": "C", "categoryCode": "41", "address": "285 ATWELL DRIVE", "city": "ETOBICOKE", "province": "ON", "country": "CA", "postalCode": "M9W6H7", "twitter": "None", "instagram": "None", "facebook": "None", "youtube": "None", "website": "None", "summary": "None", "logo": "None", "latitude": 43.696420362138504, "longitude": -79.59153902786453}, "138081757RR0001": {"name": "MALVERN BAPTIST CHURCH", "designationCode": "C", "categoryCode": "31", "address": "185 MILNER AVE", "city": "SCARBOROUGH", "province": "ON", "country": "CA", "postalCode": "M1S3R1", "twitter": "None", "instagram": "None", "facebook": "None", "youtube": "None", "website": "None", "summary": "None", "logo": "None", "latitude": 43.78705330001739, "longitude": -79.24177842642409}, "119029767RR0001": {"name": "MALVERN CEMETERY COMPANY", "designationCode": "C", "categoryCode": "59", "address": "P.O. BOX 306                  SUCC LENNOXVILLE", "city": "SHERBROOKE", "province": "QC", "country": "CA", "postalCode": "J1M1Z5", "twitter": "None", "instagram": "None", "facebook": "None", "youtube": "None", "website": "None", "summary": "None", "logo": "None", "latitude": 45.36752000000007, "longitude": -71.85659999999996}, "107658361RR0001": {"name": "MALVERN CHRISTIAN ASSEMBLY", "designationCode": "C", "categoryCode": "36", "address": "6705 SHEPPARD AVE E", "city": "SCARBOROUGH", "province": "ON", "country": "CA", "postalCode": "M1B3C1", "twitter": "None", "instagram": "None", "facebook": "None", "youtube": "None", "website": "None", "summary": "None", "logo": "None", "latitude": 43.79839790308193, "longitude": -79.21625519640459}, "119288918RR1146": {"name": "MALVERN CONGREGATION OF JEHOVAH'S WITNESSES", "designationCode": "C", "categoryCode": "61", "address": "1425 MORNINGSIDE AVENUE", "city": "SCARBOROUGH", "province": "ON", "country": "CA", "postalCode": "M1B3J1", "twitter": "None", "instagram": "None", "facebook": "None", "youtube": "None", "website": "None", "summary": "None", "logo": "None", "latitude": 43.811110581193304, "longitude": -79.20358869908858}, "107658387RR0001": {"name": "MALVERN EMMANUEL UNITED CHURCH", "designationCode": "C", "categoryCode": "44", "address": "25 SEWELLS ROAD", "city": "SCARBOROUGH", "province": "ON", "country": "CA", "postalCode": "M1B3H2", "twitter": "None", "instagram": "None", "facebook": "None", "youtube": "None", "website": "None", "summary": "None", "logo": "None", "latitude": 43.80761368024712, "longitude": -79.21593158852224}, "107658395RR0001": {"name": "MALVERN FAMILY RESOURCE CENTRE", "designationCode": "C", "categoryCode": "09", "address": "90 LITTLES RD", "city": "SCARBOROUGH", "province": "ON", "country": "CA", "postalCode": "M1B5E2", "twitter": "None", "instagram": "None", "facebook": "None", "youtube": "None", "website": "None", "summary": "None", "logo": "None", "latitude": 43.81833732056096, "longitude": -79.20503425647742}, "119029817RR0001": {"name": "MALVERN GRADUATES SCHOLARSHIP FUND", "designationCode": "C", "categoryCode": "21", "address": "BARRISTERS & SOLICITORS       2084 DANFORTH AVENUE, SUITE 1", "city": "TORONTO", "province": "ON", "country": "CA", "postalCode": "M4C1J9", "twitter": "None", "instagram": "None", "facebook": "None", "youtube": "None", "website": "None", "summary": "None", "logo": "None", "latitude": 43.68580203026709, "longitude": -79.31243715113386}, "846478675RR0001": {"name": "MALVERN METHODIST CHURCH", "designationCode": "C", "categoryCode": "39", "address": "2 MORNINGVIEW TRAIL", "city": "SCARBOROUGH", "province": "ON", "country": "CA", "postalCode": "M1B5A8", "twitter": "None", "instagram": "None", "facebook": "None", "youtube": "None", "website": "None", "summary": "None", "logo": "None", "latitude": 43.81372186929413, "longitude": -79.20596617043668}, "119029833RR0001": {"name": "MALVERN PRESBYTERIAN CHURCH", "designationCode": "C", "categoryCode": "37", "address": "1301 NEILSON RD", "city": "SCARBOROUGH", "province": "ON", "country": "CA", "postalCode": "M1B3C2", "twitter": "None", "instagram": "None", "facebook": "None", "youtube": "None", "website": "None", "summary": "None", "logo": "None", "latitude": 43.806833568988296, "longitude": -79.2187487110338}, "120397476RR0001": {"name": "MAM autour de la maternit\u00e9", "designationCode": "C", "categoryCode": "11", "address": "2060 RUE HOLMES", "city": "SAINT-HUBERT", "province": "QC", "country": "CA", "postalCode": "J4T1R8", "twitter": "None", "instagram": "None", "facebook": "None", "youtube": "None", "website": "None", "summary": "None", "logo": "None", "latitude": 45.49320563751521, "longitude": -73.47445274519602}, "873366538RR0001": {"name": "MAMAWI ATOSKETAN NATIVE SCHOOL", "designationCode": "C", "categoryCode": "20", "address": "5816 HIGHWAY 2A", "city": "LACOMBE", "province": "AB", "country": "CA", "postalCode": "T4L2G5", "twitter": "None", "instagram": "None", "facebook": "None", "youtube": "None", "website": "None", "summary": "None", "logo": "None", "latitude": 52.474063600197404, "longitude": -113.71692568401835}, "865347405RR0001": {"name": "MAMMALIAN DIVING REFLEX THEATRE GROUP", "designationCode": "C", "categoryCode": "22", "address": "410 - 1087 QUEEN ST W", "city": "TORONTO", "province": "ON", "country": "CA", "postalCode": "M6J1H3", "twitter": "None", "instagram": "None", "facebook": "None", "youtube": "None", "website": "None", "summary": "None", "logo": "None", "latitude": 43.64469992410521, "longitude": -79.41633972590202}, "831865159RR0001": {"name": "MANA CHARITABLE FOUNDATION", "designationCode": "B", "categoryCode": "03", "address": "300-34334 FORREST TERR", "city": "ABBOTSFORD", "province": "BC", "country": "CA", "postalCode": "V2S1G7", "twitter": "None", "instagram": "None", "facebook": "None", "youtube": "None", "website": "None", "summary": "None", "logo": "None", "latitude": 49.034142798199724, "longitude": -122.27388580362407}, "860431667RR0001": {"name": "MANAGEMENT ADVISORY SERVICE OF ONTARIO", "designationCode": "C", "categoryCode": "59", "address": "200 WOLVERLEIGH BLVD", "city": "TORONTO", "province": "ON", "country": "CA", "postalCode": "M4C1S2", "twitter": "None", "instagram": "None", "facebook": "None", "youtube": "None", "website": "None", "summary": "None", "logo": "None", "latitude": 43.68539319458693, "longitude": -79.32234778019496}, "824151070RR0001": {"name": "MANANTIAL NEIGHBOURHOOD SERVICES INC.", "designationCode": "C", "categoryCode": "09", "address": "1875 SHEPPARD AVENUE WEST", "city": "TORONTO", "province": "ON", "country": "CA", "postalCode": "M3L1Y6", "twitter": "None", "instagram": "None", "facebook": "None", "youtube": "None", "website": "None", "summary": "None", "logo": "None", "latitude": 43.74088984927016, "longitude": -79.50413654495361}, "859075715RR0001": {"name": "MANAV DHARAM SOCIETY", "designationCode": "B", "categoryCode": "39", "address": "6875 KILBURN PLACE", "city": "SURREY", "province": "BC", "country": "CA", "postalCode": "V3W6H5", "twitter": "None", "instagram": "None", "facebook": "None", "youtube": "None", "website": "None", "summary": "None", "logo": "None", "latitude": 49.12769606607408, "longitude": -122.86361395005474}, "886117191RR0001": {"name": "MANAWMAYA THERAVADA BUDDHIST SOCIETY", "designationCode": "C", "categoryCode": "35", "address": "13260-108 AVE", "city": "SURREY", "province": "BC", "country": "CA", "postalCode": "V3T2J6", "twitter": "None", "instagram": "None", "facebook": "None", "youtube": "None", "website": "None", "summary": "None", "logo": "None", "latitude": 49.198910543424404, "longitude": -122.85489052553523}, "119029874RR0001": {"name": "MANCHESTER PORT SHOREHAM CEMETARY SOCIETY", "designationCode": "C", "categoryCode": "59", "address": "RR 2", "city": "BOYLSTON", "province": "NS", "country": "CA", "postalCode": "B0H1G0", "twitter": "None", "instagram": "None", "facebook": "None", "youtube": "None", "website": "None", "summary": "None", "logo": "None", "latitude": 45.43525000000005, "longitude": -61.505199999999945}, "871267787RR0001": {"name": "MANDALA ARTS AND CULTURE SOCIETY", "designationCode": "C", "categoryCode": "22", "address": "123 - 1267 MARINASIDE CRES", "city": "VANCOUVER", "province": "BC", "country": "CA", "postalCode": "V6Z2X5", "twitter": "None", "instagram": "None", "facebook": "None", "youtube": "None", "website": "None", "summary": "None", "logo": "None", "latitude": 49.272582518206285, "longitude": -123.12049812424233}, "119288918RR1277": {"name": "MANDARIN CENTRAL CONGREGATION OF JEHOVAH'S WITNESSES, TORONTO, ONTARIO", "designationCode": "C", "categoryCode": "61", "address": "370 DIXON ROAD APT 1711", "city": "ETOBICOKE", "province": "ON", "country": "CA", "postalCode": "M9R1T2", "twitter": "None", "instagram": "None", "facebook": "None", "youtube": "None", "website": "None", "summary": "None", "logo": "None", "latitude": 43.69498509417679, "longitude": -79.55575782754316}, "857645741RR0001": {"name": "MANDARIN CHARITABLE FOUNDATION", "designationCode": "B", "categoryCode": "03", "address": "8 CLIPPER COURT", "city": "BRAMPTON", "province": "ON", "country": "CA", "postalCode": "L6W4T9", "twitter": "None", "instagram": "None", "facebook": "None", "youtube": "None", "website": "None", "summary": "None", "logo": "None", "latitude": 43.67712535212359, "longitude": -79.70893537559787}, "119288918RR0711": {"name": "MANDARIN EAST CONGREGATION OF JEHOVAH'S WITNESSES, TORONTO, ONTARIO", "designationCode": "C", "categoryCode": "61", "address": "846 PROGRESS AVENUE", "city": "SCARBOROUGH", "province": "ON", "country": "CA", "postalCode": "M1H2X5", "twitter": "None", "instagram": "None", "facebook": "None", "youtube": "None", "website": "None", "summary": "None", "logo": "None", "latitude": 43.780682460470736, "longitude": -79.23949355551385}, "119288918RR1406": {"name": "MANDARIN SOUTH CONGREGATION OF JEHOVAH'S WITNESSES, VANCOUV ER, BRITISH COLUMBIA", "designationCode": "C", "categoryCode": "61", "address": "11014 WESTMINSTER HIGHWAY", "city": "RICHMOND", "province": "BC", "country": "CA", "postalCode": "V6X1B3", "twitter": "None", "instagram": "None", "facebook": "None", "youtube": "None", "website": "None", "summary": "None", "logo": "None", "latitude": 49.16998138034379, "longitude": -123.10237188754874}, "119288918RR1252": {"name": "MANDARIN WEST CONGREGATION OF JEHOVAH'S WITNESSES, VANCOUVER, BRITISH COLUMBIA", "designationCode": "C", "categoryCode": "61", "address": "107-4101 YEW STREET", "city": "VANCOUVER", "province": "BC", "country": "CA", "postalCode": "V6L3B7", "twitter": "None", "instagram": "None", "facebook": "None", "youtube": "None", "website": "None", "summary": "None", "logo": "None", "latitude": 49.25035031243886, "longitude": -123.1556561248777}, "130189103RR0001": {"name": "MANDAUMIN PASTORAL CHARGE", "designationCode": "C", "categoryCode": "44", "address": "P.O. BOX 382", "city": "WYOMING", "province": "ON", "country": "CA", "postalCode": "N0N1T0", "twitter": "None", "instagram": "None", "facebook": "None", "youtube": "None", "website": "None", "summary": "None", "logo": "None", "latitude": 42.950270000000046, "longitude": -82.11870999999996}, "119029908RR0001": {"name": "MANDI DAY CARE", "designationCode": "C", "categoryCode": "01", "address": "30 BARRHEAD CRESCENT", "city": "REXDALE", "province": "ON", "country": "CA", "postalCode": "M9W3Z7", "twitter": "None", "instagram": "None", "facebook": "None", "youtube": "None", "website": "None", "summary": "None", "logo": "None", "latitude": 43.71925287261236, "longitude": -79.56678944390924}, "788618486RR0001": {"name": "MANECK HOMI ITALIA FOUNDATION", "designationCode": "B", "categoryCode": "03", "address": "PO BOX 49123                  STN BENTALL CENTRE", "city": "VANCOUVER", "province": "BC", "country": "CA", "postalCode": "V7X1J2", "twitter": "None", "instagram": "None", "facebook": "None", "youtube": "None", "website": "None", "summary": "None", "logo": "None", "latitude": 49.286055733749365, "longitude": -123.11861287615625}, "107659369RR0001": {"name": "MANHATTAN BEACH RETREAT CENTRE", "designationCode": "C", "categoryCode": "56", "address": "BOX 62                        1 MAIN STREET", "city": "NINETTE", "province": "MB", "country": "CA", "postalCode": "R0K1R0", "twitter": "None", "instagram": "None", "facebook": "None", "youtube": "None", "website": "None", "summary": "None", "logo": "None", "latitude": 49.59312644982818, "longitude": -99.67634338931516}, "107659401RR0001": {"name": "MANI-JEUNES INC.", "designationCode": "C", "categoryCode": "09", "address": "86 RUE ROY                    CP 513", "city": "MANIWAKI", "province": "QC", "country": "CA", "postalCode": "J9E3G9", "twitter": "None", "instagram": "None", "facebook": "None", "youtube": "None", "website": "None", "summary": "None", "logo": "None", "latitude": 46.37868677185642, "longitude": -75.97399244269714}, "898202759RR0001": {"name": "MANIFESTED WORD FELLOWSHIP", "designationCode": "C", "categoryCode": "39", "address": "21 MCKEOUGH STREET", "city": "CHATHAM", "province": "ON", "country": "CA", "postalCode": "N7L1J3", "twitter": "None", "instagram": "None", "facebook": "None", "youtube": "None", "website": "None", "summary": "None", "logo": "None", "latitude": 42.408955193461765, "longitude": -82.19370588372084}, "892529165RR0001": {"name": "MANILLA LIBRARY ASSOCIATION", "designationCode": "C", "categoryCode": "50", "address": "132 PARK ST BOX 85", "city": "CANNINGTON", "province": "ON", "country": "CA", "postalCode": "L0E1E0", "twitter": "None", "instagram": "None", "facebook": "None", "youtube": "None", "website": "None", "summary": "None", "logo": "None", "latitude": 44.346634849270174, "longitude": -79.0435667679613}, "887278380RR0001": {"name": "MANITOBA A.L.I.V.E. INC", "designationCode": "C", "categoryCode": "23", "address": "1203-99 WELLINGTON CRES.", "city": "WINNIPEG", "province": "MB", "country": "CA", "postalCode": "R3M0A2", "twitter": "None", "instagram": "None", "facebook": "None", "youtube": "None", "website": "None", "summary": "None", "logo": "None", "latitude": 49.87666801191658, "longitude": -97.15116155265697}, "891418196RR0001": {"name": "MANITOBA ACADEMY OF CHINESE STUDIES INC", "designationCode": "C", "categoryCode": "20", "address": "PO BOX 1415", "city": "WINNIPEG", "province": "MB", "country": "CA", "postalCode": "R3C2Z1", "twitter": "None", "instagram": "None", "facebook": "None", "youtube": "None", "website": "None", "summary": "None", "logo": "None", "latitude": 49.899525000000054, "longitude": -97.14112999999993}, "103480711RR0001": {"name": "MANITOBA ADOLESCENT TREATMENT CENTRE INC.", "designationCode": "C", "categoryCode": "10", "address": "120 TECUMSEH", "city": "WINNIPEG", "province": "MB", "country": "CA", "postalCode": "R3E2A9", "twitter": "None", "instagram": "None", "facebook": "None", "youtube": "None", "website": "None", "summary": "None", "logo": "None", "latitude": 49.90593687872918, "longitude": -97.16292173472175}, "103480729RR0001": {"name": "MANITOBA AGRICULTURAL HALL OF FAME INC.", "designationCode": "C", "categoryCode": "50", "address": "1129 QUEENS AVE", "city": "BRANDON", "province": "MB", "country": "CA", "postalCode": "R7A1L9", "twitter": "None", "instagram": "None", "facebook": "None", "youtube": "None", "website": "None", "summary": "None", "logo": "None", "latitude": 49.8302244865829, "longitude": -99.95238080682671}, "119029957RR0001": {"name": "MANITOBA AGRICULTURAL MUSEUM INC.", "designationCode": "C", "categoryCode": "50", "address": "PO BOX 10", "city": "AUSTIN", "province": "MB", "country": "CA", "postalCode": "R0H0C0", "twitter": "None", "instagram": "None", "facebook": "None", "youtube": "None", "website": "None", "summary": "None", "logo": "None", "latitude": 49.95037000000008, "longitude": -98.93634999999995}, "888542248RR0001": {"name": "MANITOBA ALPHA OMEGA FUND", "designationCode": "C", "categoryCode": "05", "address": "210-93 LOMBARD AVE.", "city": "WINNIPEG", "province": "MB", "country": "CA", "postalCode": "R3B3B1", "twitter": "None", "instagram": "None", "facebook": "None", "youtube": "None", "website": "None", "summary": "None", "logo": "None", "latitude": 49.89555917626507, "longitude": -97.13431388882807}, "131806630RR0001": {"name": "MANITOBA AMATEUR RADIO MUSEUM INC", "designationCode": "C", "categoryCode": "50", "address": "25 QUEENS CRESCENT", "city": "BRANDON", "province": "MB", "country": "CA", "postalCode": "R7B1G1", "twitter": "None", "instagram": "None", "facebook": "None", "youtube": "None", "website": "None", "summary": "None", "logo": "None", "latitude": 49.82941446768412, "longitude": -99.9714015}, "124655358RR0001": {"name": "MANITOBA ARCHAEOLOGICAL SOCIETY INCORPORATED", "designationCode": "C", "categoryCode": "21", "address": "BOX 1171", "city": "WINNIPEG 1", "province": "MB", "country": "CA", "postalCode": "R3C2Y4", "twitter": "None", "instagram": "None", "facebook": "None", "youtube": "None", "website": "None", "summary": "None", "logo": "None", "latitude": 49.899525000000054, "longitude": -97.14112999999993}, "871219440RR0001": {"name": "MANITOBA ARTS COUNCIL", "designationCode": "A", "categoryCode": "23", "address": "525-93 LOMBARD AVENUE", "city": "WINNIPEG", "province": "MB", "country": "CA", "postalCode": "R3B3B1", "twitter": "None", "instagram": "None", "facebook": "None", "youtube": "None", "website": "None", "summary": "None", "logo": "None", "latitude": 49.89555917626507, "longitude": -97.13431388882807}, "103480778RR0001": {"name": "MANITOBA ARYA SAMAJ INC.", "designationCode": "C", "categoryCode": "48", "address": "2 FRIGATE BAY", "city": "WINNIPEG", "province": "MB", "country": "CA", "postalCode": "R3X2E9", "twitter": "None", "instagram": "None", "facebook": "None", "youtube": "None", "website": "None", "summary": "None", "logo": "None", "latitude": 49.82843858338636, "longitude": -97.0579563008541}, "119030054RR0001": {"name": "MANITOBA ASSOCIATION FOR RIGHTS AND LIBERTIES INC.", "designationCode": "C", "categoryCode": "59", "address": "580 MAIN ST", "city": "WINNIPEG", "province": "MB", "country": "CA", "postalCode": "R3B1C7", "twitter": "None", "instagram": "None", "facebook": "None", "youtube": "None", "website": "None", "summary": "None", "logo": "None", "latitude": 49.90151937774824, "longitude": -97.13691035931079}, "898586466RR0001": {"name": "MANITOBA ASSOCIATION OF PARENT COUNCILS, INC.", "designationCode": "C", "categoryCode": "21", "address": "1005 401 YORK AVE", "city": "WINNIPEG", "province": "MB", "country": "CA", "postalCode": "R3C0P8", "twitter": "None", "instagram": "None", "facebook": "None", "youtube": "None", "website": "None", "summary": "None", "logo": "None", "latitude": 49.88793138776022, "longitude": -97.14708316348313}, "103480828RR0001": {"name": "MANITOBA ASSOCIATION OF PLAYWRIGHTS INC.", "designationCode": "C", "categoryCode": "22", "address": "503-100 ARTHUR ST", "city": "WINNIPEG", "province": "MB", "country": "CA", "postalCode": "R3B1H3", "twitter": "None", "instagram": "None", "facebook": "None", "youtube": "None", "website": "None", "summary": "None", "logo": "None", "latitude": 49.897593000000015, "longitude": -97.1406225}, "880786892RR0001": {"name": "MANITOBA ASSOCIATION OF WOMEN'S SHELTERS, INC.", "designationCode": "C", "categoryCode": "59", "address": "PO BOX 337", "city": "SELKIRK", "province": "MB", "country": "CA", "postalCode": "R1A2B3", "twitter": "None", "instagram": "None", "facebook": "None", "youtube": "None", "website": "None", "summary": "None", "logo": "None", "latitude": 50.14571100000006, "longitude": -96.87391999999993}, "119030104RR0001": {"name": "MANITOBA BAND ASSOCIATION INC.", "designationCode": "C", "categoryCode": "22", "address": "131 ROUGE RD", "city": "WINNIPEG", "province": "MB", "country": "CA", "postalCode": "R3K1J5", "twitter": "None", "instagram": "None", "facebook": "None", "youtube": "None", "website": "None", "summary": "None", "logo": "None"}, "119030120RR0001": {"name": "MANITOBA BAPTIST ASSOCIATION INC.", "designationCode": "C", "categoryCode": "31", "address": "P.O. BOX 34106                RPO FORT RICHMOND", "city": "WINNIPEG", "province": "MB", "country": "CA", "postalCode": "R3T5T5", "twitter": "None", "instagram": "None", "facebook": "None", "youtube": "None", "website": "None", "summary": "None", "logo": "None", "latitude": 49.79192000000006, "longitude": -97.13961999999998}, "129519849RR0001": {"name": "MANITOBA BAPTIST HOME SOCIETY INC", "designationCode": "C", "categoryCode": "01", "address": "577 ST. ANNE'S ROAD", "city": "WINNIPEG", "province": "MB", "country": "CA", "postalCode": "R2M5B2", "twitter": "None", "instagram": "None", "facebook": "None", "youtube": "None", "website": "None", "summary": "None", "logo": "None", "latitude": 49.83434837443, "longitude": -97.0906167344629}, "891493769RR0001": {"name": "MANITOBA BASEBALL HALL OF FAME & MUSEUM INCORPORATED", "designationCode": "C", "categoryCode": "50", "address": "103-2000 ST MARY'S RD", "city": "WINNIPEG", "province": "MB", "country": "CA", "postalCode": "R2N0J2", "twitter": "None", "instagram": "None", "facebook": "None", "youtube": "None", "website": "None", "summary": "None", "logo": "None", "latitude": 49.80764480373461, "longitude": -97.11372412275982}, "103481602RR0001": {"name": "MANITOBA BLIND SPORTS ASSOCIATION INC.", "designationCode": "C", "categoryCode": "56", "address": "145 PACIFIC AVE", "city": "WINNIPEG", "province": "MB", "country": "CA", "postalCode": "R3B2Z6", "twitter": "None", "instagram": "None", "facebook": "None", "youtube": "None", "website": "None", "summary": "None", "logo": "None", "latitude": 49.90059471331283, "longitude": -97.13508410156398}}