{"119265197RR0001": {"name": "TIVERTON BAPTIST CHURCH,", "designationCode": "C", "categoryCode": "31", "address": "PO BOX 49", "city": "TIVERTON", "province": "ON", "country": "CA", "postalCode": "N0G2T0", "twitter": "None", "instagram": "None", "facebook": "None", "youtube": "None", "website": "None", "summary": "None", "logo": "None", "latitude": 44.267900000000054, "longitude": -81.54410999999999}, "885806752RR0001": {"name": "TIVERTON CHRISTIAN CHURCH", "designationCode": "C", "categoryCode": "39", "address": "BOX 624", "city": "TIVERTON", "province": "NS", "country": "CA", "postalCode": "B0V1G0", "twitter": "None", "instagram": "None", "facebook": "None", "youtube": "None", "website": "None", "summary": "None", "logo": "None", "latitude": 44.38408000000004, "longitude": -66.21753999999999}, "119265221RR0001": {"name": "TIVERTON UNITED BAPTIST CHURCH,", "designationCode": "C", "categoryCode": "31", "address": "PO BOX 671 TIVERTON", "city": "DIGBY CO", "province": "NS", "country": "CA", "postalCode": "B0V1G0", "twitter": "None", "instagram": "None", "facebook": "None", "youtube": "None", "website": "None", "summary": "None", "logo": "None", "latitude": 44.38408000000004, "longitude": -66.21753999999999}, "807208897RR0001": {"name": "TJ's Gift Foundation Inc.", "designationCode": "A", "categoryCode": "23", "address": "38 HAWKINS CRESCENT", "city": "WINNIPEG", "province": "MB", "country": "CA", "postalCode": "R2N1G9", "twitter": "None", "instagram": "None", "facebook": "None", "youtube": "None", "website": "None", "summary": "None", "logo": "None", "latitude": 49.82530619565478, "longitude": -97.09944079043808}, "830193439RR0001": {"name": "TJX Canada Foundation", "designationCode": "B", "categoryCode": "03", "address": "60 STANDISH CRT", "city": "MISSISSAUGA", "province": "ON", "country": "CA", "postalCode": "L5R0G1", "twitter": "None", "instagram": "None", "facebook": "None", "youtube": "None", "website": "None", "summary": "None", "logo": "None", "latitude": 43.625601288084255, "longitude": -79.68310213418144}, "860895937RR0001": {"name": "TKC-CNC FOUNDATION", "designationCode": "B", "categoryCode": "03", "address": "51-2603 162ND ST", "city": "SURREY", "province": "BC", "country": "CA", "postalCode": "V3S2L4", "twitter": "None", "instagram": "None", "facebook": "None", "youtube": "None", "website": "None", "summary": "None", "logo": "None", "latitude": 49.111329067300275, "longitude": -122.77241099999999}, "898867684RR0001": {"name": "TL'OONDIH HEALING SOCIETY", "designationCode": "C", "categoryCode": "09", "address": "BOX 267", "city": "FORT MCPHERSON", "province": "NT", "country": "CA", "postalCode": "X0E0J0", "twitter": "None", "instagram": "None", "facebook": "None", "youtube": "None", "website": "None", "summary": "None", "logo": "None", "latitude": 67.43352000000004, "longitude": -134.87908}, "831470265RR0001": {"name": "TLC Community Thrift Shop & Training Center Society", "designationCode": "C", "categoryCode": "09", "address": "4612 NORTH ACCESS ROAD        BOX 1968", "city": "CHETWYND", "province": "BC", "country": "CA", "postalCode": "V0C1J0", "twitter": "None", "instagram": "None", "facebook": "None", "youtube": "None", "website": "None", "summary": "None", "logo": "None", "latitude": 55.69562393923469, "longitude": -121.6156227764154}, "862358348RR0001": {"name": "TLC CENTRE INC.", "designationCode": "C", "categoryCode": "01", "address": "BOX 1589", "city": "CARMAN", "province": "MB", "country": "CA", "postalCode": "R0G0J0", "twitter": "None", "instagram": "None", "facebook": "None", "youtube": "None", "website": "None", "summary": "None", "logo": "None", "latitude": 49.50860000000006, "longitude": -98.00231999999994}, "842356891RR0001": {"name": "TLC Daycare Inc.", "designationCode": "C", "categoryCode": "01", "address": "PO BOX 847", "city": "BIRCH HILLS", "province": "SK", "country": "CA", "postalCode": "S0J0G0", "twitter": "None", "instagram": "None", "facebook": "None", "youtube": "None", "website": "None", "summary": "None", "logo": "None", "latitude": 56.325968466910076, "longitude": -103.2432009425047}, "889028338RR0001": {"name": "TLC THE LAND CONSERVANCY OF BRITISH COLUMBIA", "designationCode": "C", "categoryCode": "54", "address": "P.O. BOX 50054                RPO FAIRFIELD PLAZA", "city": "VICTORIA", "province": "BC", "country": "CA", "postalCode": "V8S5L8", "twitter": "None", "instagram": "None", "facebook": "None", "youtube": "None", "website": "None", "summary": "None", "logo": "None", "latitude": 48.412379211710814, "longitude": -123.33598666847247}, "893121244RR0001": {"name": "TLELL WATERSHED SOCIETY", "designationCode": "C", "categoryCode": "52", "address": "PO BOX 81", "city": "TLELL", "province": "BC", "country": "CA", "postalCode": "V0T1Y0", "twitter": "None", "instagram": "None", "facebook": "None", "youtube": "None", "website": "None", "summary": "None", "logo": "None", "latitude": 53.558290000000056, "longitude": -131.92857999999995}, "868691585RR0001": {"name": "TLI CHO CHRISTIAN FELLOWSHIP", "designationCode": "C", "categoryCode": "39", "address": "POST OFFICE BOX 285           BUILDING 522", "city": "BECHOKO", "province": "NT", "country": "CA", "postalCode": "X0E0Y0", "twitter": "None", "instagram": "None", "facebook": "None", "youtube": "None", "website": "None", "summary": "None", "logo": "None", "latitude": 62.827647000000056, "longitude": -116.05212349999994}, "828601922RR0001": {"name": "TLI CHO COMMUNITY SERVICES AGENCY", "designationCode": "C", "categoryCode": "20", "address": "BAG 5", "city": "RAE EDZO", "province": "NT", "country": "CA", "postalCode": "X0E0Y0", "twitter": "None", "instagram": "None", "facebook": "None", "youtube": "None", "website": "None", "summary": "None", "logo": "None", "latitude": 62.800410000000056, "longitude": -116.05270999999999}, "885587147RR0001": {"name": "TMS TRANSIT MUSEUM SOCIETY", "designationCode": "C", "categoryCode": "50", "address": "3825 W. 22ND AVENUE", "city": "VANCOUVER", "province": "BC", "country": "CA", "postalCode": "V6S1J8", "twitter": "None", "instagram": "None", "facebook": "None", "youtube": "None", "website": "None", "summary": "None", "logo": "None", "latitude": 49.25291751875455, "longitude": -123.1888407485429}, "836727644RR0001": {"name": "TNC Canada", "designationCode": "C", "categoryCode": "59", "address": "331 - 366 ADELAIDE ST E", "city": "TORONTO", "province": "ON", "country": "CA", "postalCode": "M5A3X9", "twitter": "None", "instagram": "None", "facebook": "None", "youtube": "None", "website": "None", "summary": "None", "logo": "None", "latitude": 43.652393126320256, "longitude": -79.36739551201032}, "126589910RR0001": {"name": "TNL", "designationCode": "C", "categoryCode": "22", "address": "PO BOX 655", "city": "CORNER BROOK", "province": "NL", "country": "CA", "postalCode": "A2H6G1", "twitter": "None", "instagram": "None", "facebook": "None", "youtube": "None", "website": "None", "summary": "None", "logo": "None", "latitude": 48.95097900000006, "longitude": -57.950103499999926}, "883540015RR0001": {"name": "TNT SHARPEI RESCUE", "designationCode": "C", "categoryCode": "54", "address": "PO BOX 254", "city": "HOPE", "province": "BC", "country": "CA", "postalCode": "V0X1L0", "twitter": "None", "instagram": "None", "facebook": "None", "youtube": "None", "website": "None", "summary": "None", "logo": "None", "latitude": 49.37911800000006, "longitude": -121.44296149999994}, "899061485RR0001": {"name": "TNW THEATRE NORTH WEST SOCIETY", "designationCode": "C", "categoryCode": "22", "address": "36-556 NORTH NECHAKO RD", "city": "PRINCE GEORGE", "province": "BC", "country": "CA", "postalCode": "V2K1A1", "twitter": "None", "instagram": "None", "facebook": "None", "youtube": "None", "website": "None", "summary": "None", "logo": "None", "latitude": 53.93118924938793, "longitude": -122.78078176069265}, "865999999RR0001": {"name": "TO THE NATIONS FELLOWSHIP", "designationCode": "C", "categoryCode": "47", "address": "1580 LANCASTER DR, UNIT 37", "city": "OAKVILLE", "province": "ON", "country": "CA", "postalCode": "L6H2Z5", "twitter": "None", "instagram": "None", "facebook": "None", "youtube": "None", "website": "None", "summary": "None", "logo": "None", "latitude": 43.48264371790769, "longitude": -79.68986898468881}, "810253609RR0001": {"name": "TOBERMORY HEALTH SERVICES AUXILIARY", "designationCode": "C", "categoryCode": "19", "address": "PO BOX 241, 7275 HWY 6", "city": "TOBERMORY", "province": "ON", "country": "CA", "postalCode": "N0H2R0", "twitter": "None", "instagram": "None", "facebook": "None", "youtube": "None", "website": "None", "summary": "None", "logo": "None", "latitude": 45.24279546568163, "longitude": -81.65230088688092}, "108111550RR0001": {"name": "TOBERMORY PASTORAL CHARGE", "designationCode": "C", "categoryCode": "44", "address": "BOX 129", "city": "TOBERMORY", "province": "ON", "country": "CA", "postalCode": "N0H2R0", "twitter": "None", "instagram": "None", "facebook": "None", "youtube": "None", "website": "None", "summary": "None", "logo": "None", "latitude": 45.253840000000025, "longitude": -81.66510999999997}, "865599039RR0001": {"name": "TOBERMORY PRIMARY PLACE", "designationCode": "C", "categoryCode": "56", "address": "P.O. BOX 132", "city": "TOBERMORY", "province": "ON", "country": "CA", "postalCode": "N0H2R0", "twitter": "None", "instagram": "None", "facebook": "None", "youtube": "None", "website": "None", "summary": "None", "logo": "None", "latitude": 45.253840000000025, "longitude": -81.66510999999997}, "131923286RR0001": {"name": "TOBIAS HOUSE OF TORONTO - ATTENDANT CARE INCORPORATED", "designationCode": "C", "categoryCode": "01", "address": "2398 YONGE ST", "city": "TORONTO", "province": "ON", "country": "CA", "postalCode": "M4P2H4", "twitter": "None", "instagram": "None", "facebook": "None", "youtube": "None", "website": "None", "summary": "None", "logo": "None", "latitude": 43.70974908298232, "longitude": -79.39903877938691}, "889134862RR0001": {"name": "TOBIQUE VALLEY ALUMNI ASSOCIATION - ELDON OLMSTEAD MEMORIAL", "designationCode": "C", "categoryCode": "21", "address": "67 HILLCREST STREET", "city": "PLASTER ROCK", "province": "NB", "country": "CA", "postalCode": "E7G1V2", "twitter": "None", "instagram": "None", "facebook": "None", "youtube": "None", "website": "None", "summary": "None", "logo": "None", "latitude": 46.91073193920006, "longitude": -67.39761855272721}, "896338266RR0001": {"name": "TOBIQUE VALLEY HEALTH CARE FOUNDATION INC.", "designationCode": "A", "categoryCode": "13", "address": "205 MAIN ST", "city": "PLASTER ROCK", "province": "NB", "country": "CA", "postalCode": "E7G2G8", "twitter": "None", "instagram": "None", "facebook": "None", "youtube": "None", "website": "None", "summary": "None", "logo": "None", "latitude": 46.90396845045876, "longitude": -67.39632215436517}, "119265270RR0001": {"name": "TOBIQUE VALLEY MANOR INC", "designationCode": "C", "categoryCode": "01", "address": "5 MANOR DRIVE", "city": "PLASTER ROCK", "province": "NB", "country": "CA", "postalCode": "E7G2H6", "twitter": "None", "instagram": "None", "facebook": "None", "youtube": "None", "website": "None", "summary": "None", "logo": "None", "latitude": 46.89778655645822, "longitude": -67.39545455849974}, "890581945RR0001": {"name": "TODAY INTERNATIONAL", "designationCode": "C", "categoryCode": "09", "address": "404 RANKIN", "city": "WINDSOR", "province": "ON", "country": "CA", "postalCode": "N9B2R7", "twitter": "None", "instagram": "None", "facebook": "None", "youtube": "None", "website": "None", "summary": "None", "logo": "None", "latitude": 42.30828122537362, "longitude": -83.06135419703976}, "119265296RR0001": {"name": "TODAY'S CHILD-TOMORROW'S FUTURE CHILDREN'S CENTRE INCORPORATED", "designationCode": "C", "categoryCode": "01", "address": "290 BLANTYRE AVENUE", "city": "TORONTO", "province": "ON", "country": "CA", "postalCode": "M1N2S4", "twitter": "None", "instagram": "None", "facebook": "None", "youtube": "None", "website": "None", "summary": "None", "logo": "None", "latitude": 43.68525623867516, "longitude": -79.28307442097015}, "107971590RR0001": {"name": "TODAY'S FAMILY - CARING FOR YOUR CHILD", "designationCode": "C", "categoryCode": "01", "address": "44 GREENDALE DRIVE", "city": "HAMILTON", "province": "ON", "country": "CA", "postalCode": "L9C5Z4", "twitter": "None", "instagram": "None", "facebook": "None", "youtube": "None", "website": "None", "summary": "None", "logo": "None"}, "860079458RR0001": {"name": "TODAY'S INNOVATIVE MUSIC EDMONTON (T.I.M.E.) ASSOCIATION", "designationCode": "C", "categoryCode": "22", "address": "PO BOX 68134 NW               RPO BONNIE DOON SHO", "city": "EDMONTON", "province": "AB", "country": "CA", "postalCode": "T6C4N6", "twitter": "None", "instagram": "None", "facebook": "None", "youtube": "None", "website": "None", "summary": "None", "logo": "None"}, "872180294RR0001": {"name": "TODDLE INN DAY CARE SOCIETY", "designationCode": "C", "categoryCode": "01", "address": "309 2ND AVENUE", "city": "STRATHMORE", "province": "AB", "country": "CA", "postalCode": "T1P1B3", "twitter": "None", "instagram": "None", "facebook": "None", "youtube": "None", "website": "None", "summary": "None", "logo": "None", "latitude": 51.04212006797868, "longitude": -113.3987954682037}, "893056572RR0001": {"name": "TODMORDEN MILLS WILDFLOWER PRESERVE", "designationCode": "C", "categoryCode": "52", "address": "331 LINSMORE CRES.", "city": "TORONTO", "province": "ON", "country": "CA", "postalCode": "M4J4M1", "twitter": "None", "instagram": "None", "facebook": "None", "youtube": "None", "website": "None", "summary": "None", "logo": "None", "latitude": 43.69545859117664, "longitude": -79.33555719481807}, "108112020RR0001": {"name": "TOFIELD ALLIANCE CHURCH", "designationCode": "C", "categoryCode": "39", "address": "BOX 458", "city": "TOFIELD", "province": "AB", "country": "CA", "postalCode": "T0B4J0", "twitter": "None", "instagram": "None", "facebook": "None", "youtube": "None", "website": "None", "summary": "None", "logo": "None", "latitude": 53.36988000000008, "longitude": -112.66557999999998}, "861293025RR0001": {"name": "TOFIELD AND AREA HEALTH SERVICES FOUNDATION", "designationCode": "C", "categoryCode": "15", "address": "BOX 1155", "city": "TOFIELD", "province": "AB", "country": "CA", "postalCode": "T0B4J0", "twitter": "None", "instagram": "None", "facebook": "None", "youtube": "None", "website": "None", "summary": "None", "logo": "None", "latitude": 53.36988000000008, "longitude": -112.66557999999998}, "119265361RR0001": {"name": "TOFIELD COMMUNITY CHURCH", "designationCode": "C", "categoryCode": "34", "address": "BOX 598", "city": "TOFIELD", "province": "AB", "country": "CA", "postalCode": "T0B4J0", "twitter": "None", "instagram": "None", "facebook": "None", "youtube": "None", "website": "None", "summary": "None", "logo": "None", "latitude": 53.36988000000008, "longitude": -112.66557999999998}, "119288918RR0325": {"name": "TOFIELD CONGREGATION OF JEHOVAH'S WITNESSES", "designationCode": "C", "categoryCode": "61", "address": "20302- TOWNSHIP ROAD 504", "city": "BEAVER COUNTY", "province": "AB", "country": "CA", "postalCode": "T0B4J2", "twitter": "None", "instagram": "None", "facebook": "None", "youtube": "None", "website": "None", "summary": "None", "logo": "None", "latitude": 53.33778453375819, "longitude": -112.856553}, "898228853RR0001": {"name": "TOFIELD HANDIVAN SOCIETY", "designationCode": "C", "categoryCode": "09", "address": "BOX 30", "city": "TOFIELD", "province": "AB", "country": "CA", "postalCode": "T0B4J0", "twitter": "None", "instagram": "None", "facebook": "None", "youtube": "None", "website": "None", "summary": "None", "logo": "None", "latitude": 53.36988000000008, "longitude": -112.66557999999998}, "119265379RR0001": {"name": "TOFIELD UNITED CHURCH", "designationCode": "C", "categoryCode": "39", "address": "PO BOX 267", "city": "TOFIELD", "province": "AB", "country": "CA", "postalCode": "T0B4J0", "twitter": "None", "instagram": "None", "facebook": "None", "youtube": "None", "website": "None", "summary": "None", "logo": "None", "latitude": 53.36988000000008, "longitude": -112.66557999999998}, "119265387RR0001": {"name": "TOFINO BIBLE FELLOWSHIP, TOFINO , B C", "designationCode": "C", "categoryCode": "47", "address": "BOX 769", "city": "TOFINO", "province": "BC", "country": "CA", "postalCode": "V0R2Z0", "twitter": "None", "instagram": "None", "facebook": "None", "youtube": "None", "website": "None", "summary": "None", "logo": "None", "latitude": 49.15262000000007, "longitude": -125.90403999999995}, "872755202RR0001": {"name": "TOFINO BOTANICAL GARDENS FOUNDATION", "designationCode": "C", "categoryCode": "50", "address": "P.O. BOX 886", "city": "TOFINO", "province": "BC", "country": "CA", "postalCode": "V0R2Z0", "twitter": "None", "instagram": "None", "facebook": "None", "youtube": "None", "website": "None", "summary": "None", "logo": "None", "latitude": 49.15262000000007, "longitude": -125.90403999999995}, "880902705RR0001": {"name": "TOFINO COMMUNITY ENRICHMENT SOCIETY", "designationCode": "C", "categoryCode": "56", "address": "P.O. BOX 9                    121 THIRD ST.", "city": "TOFINO", "province": "BC", "country": "CA", "postalCode": "V0R2Z0", "twitter": "None", "instagram": "None", "facebook": "None", "youtube": "None", "website": "None", "summary": "None", "logo": "None", "latitude": 49.15274007041676, "longitude": -125.9043954582296}, "890315641RR0001": {"name": "TOFINO GENERAL HOSPITAL FOUNDATION", "designationCode": "C", "categoryCode": "19", "address": "PO BOX 190", "city": "TOFINO", "province": "BC", "country": "CA", "postalCode": "V0R2Z0", "twitter": "None", "instagram": "None", "facebook": "None", "youtube": "None", "website": "None", "summary": "None", "logo": "None", "latitude": 49.15262000000007, "longitude": -125.90403999999995}, "136946720RR0001": {"name": "TOFINO SALMON ENHANCEMENT SOCIETY", "designationCode": "C", "categoryCode": "52", "address": "P O BOX 476", "city": "TOFINO", "province": "BC", "country": "CA", "postalCode": "V0R2Z0", "twitter": "None", "instagram": "None", "facebook": "None", "youtube": "None", "website": "None", "summary": "None", "logo": "None", "latitude": 49.15262000000007, "longitude": -125.90403999999995}, "140709858RR0001": {"name": "TOGETHER AGAINST POVERTY SOCIETY (TAPS)", "designationCode": "C", "categoryCode": "09", "address": "302-895 FORT ST", "city": "VICTORIA", "province": "BC", "country": "CA", "postalCode": "V8W1H7", "twitter": "None", "instagram": "None", "facebook": "None", "youtube": "None", "website": "None", "summary": "None", "logo": "None", "latitude": 48.4240415683827, "longitude": -123.36002399584505}, "837478924RR0001": {"name": "TOGETHER CHURCH", "designationCode": "C", "categoryCode": "39", "address": "1474 PATE COURT", "city": "MISSISSAUGA", "province": "ON", "country": "CA", "postalCode": "L5V2Y8", "twitter": "None", "instagram": "None", "facebook": "None", "youtube": "None", "website": "None", "summary": "None", "logo": "None", "latitude": 43.59778299720139, "longitude": -79.70831769634728}, "883065302RR0001": {"name": "TOGETHER FOR JESUS", "designationCode": "C", "categoryCode": "49", "address": "5 PENN DRIVE", "city": "WESTON", "province": "ON", "country": "CA", "postalCode": "M9L2A6", "twitter": "None", "instagram": "None", "facebook": "None", "youtube": "None", "website": "None", "summary": "None", "logo": "None", "latitude": 43.75123688533697, "longitude": -79.55367389174226}, "140672130RR0001": {"name": "TOGETHER WE CAN DRUG & ALCOHOL RECOVERY & EDUCATION SOCIETY", "designationCode": "C", "categoryCode": "57", "address": "2831 KINGSWAY", "city": "VANCOUVER", "province": "BC", "country": "CA", "postalCode": "V5R5H9", "twitter": "None", "instagram": "None", "facebook": "None", "youtube": "None", "website": "None", "summary": "None", "logo": "None", "latitude": 49.23683457120999, "longitude": -123.04695184719269}, "887596468RR0001": {"name": "TOGO & DISTRICT CEMETERY COMPANY", "designationCode": "C", "categoryCode": "59", "address": "BOX 107", "city": "TOGO", "province": "SK", "country": "CA", "postalCode": "S0A4E0", "twitter": "None", "instagram": "None", "facebook": "None", "youtube": "None", "website": "None", "summary": "None", "logo": "None", "latitude": 51.638369937887795, "longitude": -101.65001744992163}, "870226511RR0001": {"name": "TOGS \"N\" TREASURES INC.", "designationCode": "C", "categoryCode": "09", "address": "BOX 1883", "city": "BEAUSEJOUR", "province": "MB", "country": "CA", "postalCode": "R0E0C0", "twitter": "None", "instagram": "None", "facebook": "None", "youtube": "None", "website": "None", "summary": "None", "logo": "None", "latitude": 50.061750000000075, "longitude": -96.50519999999995}, "119265403RR0001": {"name": "TOJO'S CHRISTIAN MINISTRIES", "designationCode": "C", "categoryCode": "39", "address": "2043 SOUTH ORR LAKE RD        RR 3", "city": "ELMVALE", "province": "ON", "country": "CA", "postalCode": "L0L1P0", "twitter": "None", "instagram": "None", "facebook": "None", "youtube": "None", "website": "None", "summary": "None", "logo": "None", "latitude": 44.5973347417047, "longitude": -79.81001659908603}, "759247497RR0001": {"name": "TOL Bible Study", "designationCode": "C", "categoryCode": "47", "address": "17 MISTY MOOR DR", "city": "RICHMOND HILL", "province": "ON", "country": "CA", "postalCode": "L4C6P9", "twitter": "None", "instagram": "None", "facebook": "None", "youtube": "None", "website": "None", "summary": "None", "logo": "None", "latitude": 43.83271331640602, "longitude": -79.44259568356533}, "886715796RR0001": {"name": "TOLLGATE ROAD CHURCH OF CHRIST", "designationCode": "C", "categoryCode": "39", "address": "841 ALEXANDER AVE", "city": "CORNWALL", "province": "ON", "country": "CA", "postalCode": "K6H3R8", "twitter": "None", "instagram": "None", "facebook": "None", "youtube": "None", "website": "None", "summary": "None", "logo": "None", "latitude": 45.029821285042395, "longitude": -74.72923371911254}, "889851796RR0001": {"name": "TOLLINGTON PARKS ENDOWMENT FUND", "designationCode": "B", "categoryCode": "55", "address": "1402 - 1 KING ST W", "city": "HAMILTON", "province": "ON", "country": "CA", "postalCode": "L8P1A4", "twitter": "None", "instagram": "None", "facebook": "None", "youtube": "None", "website": "None", "summary": "None", "logo": "None", "latitude": 43.26019321073324, "longitude": -79.88135629363086}, "108112301RR0002": {"name": "TOLMIE MEMORIAL PRESBYTERIAN CHURCH", "designationCode": "C", "categoryCode": "37", "address": "BOX 1239 699 GODERICH STREET", "city": "PORT ELGIN", "province": "ON", "country": "CA", "postalCode": "N0H2C0", "twitter": "None", "instagram": "None", "facebook": "None", "youtube": "None", "website": "None", "summary": "None", "logo": "None", "latitude": 44.43809553101281, "longitude": -81.38730301602149}, "119265429RR0001": {"name": "TOM AND ANNIE KOHN CHARITABLE FOUNDATION", "designationCode": "B", "categoryCode": "03", "address": "5400 YONGE ST SUITE 301", "city": "TORONTO", "province": "ON", "country": "CA", "postalCode": "M2N5R5", "twitter": "None", "instagram": "None", "facebook": "None", "youtube": "None", "website": "None", "summary": "None", "logo": "None", "latitude": 43.77470856841135, "longitude": -79.4143287951986}, "801277401RR0001": {"name": "TOM Capital Foundation", "designationCode": "B", "categoryCode": "03", "address": "1210 11 AVE SW                SUITE 200", "city": "CALGARY", "province": "AB", "country": "CA", "postalCode": "T3C0M4", "twitter": "None", "instagram": "None", "facebook": "None", "youtube": "None", "website": "None", "summary": "None", "logo": "None", "latitude": 51.04314449321934, "longitude": -114.08975219455826}, "852770924RR0001": {"name": "TOM LEE SAE FOUNDATION", "designationCode": "B", "categoryCode": "03", "address": "2771 SUNRIDGE WAY N.E.", "city": "CALGARY", "province": "AB", "country": "CA", "postalCode": "T1Y7K7", "twitter": "None", "instagram": "None", "facebook": "None", "youtube": "None", "website": "None", "summary": "None", "logo": "None", "latitude": 51.072828571834556, "longitude": -113.99889686403768}, "119265510RR0001": {"name": "TOM THUMB PRESCHOOL (COUNCIL OF PARENT PARTICIPATION PRESCHOOLS IN BRITISH COLUMBIA", "designationCode": "C", "categoryCode": "20", "address": "3737 WEST 27TH AVE", "city": "VANCOUVER", "province": "BC", "country": "CA", "postalCode": "V6S1R2", "twitter": "None", "instagram": "None", "facebook": "None", "youtube": "None", "website": "None", "summary": "None", "logo": "None", "latitude": 49.248131467684104, "longitude": -123.18747177407812}, "119265437RR0001": {"name": "TOMCHEI SHABBOS OF MONTREAL", "designationCode": "C", "categoryCode": "09", "address": "6580 WILDERTON", "city": "MONTREAL", "province": "QC", "country": "CA", "postalCode": "H3S2L5", "twitter": "None", "instagram": "None", "facebook": "None", "youtube": "None", "website": "None", "summary": "None", "logo": "None"}, "108065004RR0001": {"name": "TOMMY DOUGLAS CENTRE INC.", "designationCode": "C", "categoryCode": "52", "address": "BOX 487", "city": "WEYBURN", "province": "SK", "country": "CA", "postalCode": "S4H2K3", "twitter": "None", "instagram": "None", "facebook": "None", "youtube": "None", "website": "None", "summary": "None", "logo": "None", "latitude": 49.66802700000005, "longitude": -103.85818999999994}, "128047149RR0001": {"name": "TOMORROW FOUNDATION FOR A SUSTAINABLE FUTURE", "designationCode": "C", "categoryCode": "59", "address": "103-10535 78 AVENUE NW", "city": "EDMONTON", "province": "AB", "country": "CA", "postalCode": "T6E1P3", "twitter": "None", "instagram": "None", "facebook": "None", "youtube": "None", "website": "None", "summary": "None", "logo": "None", "latitude": 53.514210532315886, "longitude": -113.50217258381903}, "119265460RR0001": {"name": "TOMPKINS & DISTRICT COMBINED APPEAL-DONORS CHOICE", "designationCode": "A", "categoryCode": "05", "address": "BOX 161", "city": "TOMPKINS", "province": "SK", "country": "CA", "postalCode": "S0N2S0", "twitter": "None", "instagram": "None", "facebook": "None", "youtube": "None", "website": "None", "summary": "None", "logo": "None", "latitude": 50.063720000000046, "longitude": -108.80139999999994}, "141049643RR0001": {"name": "TOMPKINS CHARITABLE TRUST", "designationCode": "B", "categoryCode": "39", "address": "50-1ST AVE NE", "city": "SWIFT CURRENT", "province": "SK", "country": "CA", "postalCode": "S9H4W4", "twitter": "None", "instagram": "None", "facebook": "None", "youtube": "None", "website": "None", "summary": "None", "logo": "None", "latitude": 50.282664378132, "longitude": -107.79863205289816}, "108112673RR0001": {"name": "TOMPKINS UNITED CHURCH", "designationCode": "C", "categoryCode": "44", "address": "BOX 395", "city": "TOMPKINS", "province": "SK", "country": "CA", "postalCode": "S0N2S0", "twitter": "None", "instagram": "None", "facebook": "None", "youtube": "None", "website": "None", "summary": "None", "logo": "None", "latitude": 50.063720000000046, "longitude": -108.80139999999994}, "119265502RR0001": {"name": "TOMSTOWN PRESBYTERIAN CHURCH", "designationCode": "C", "categoryCode": "37", "address": "BOX 1106", "city": "ENGLEHART", "province": "ON", "country": "CA", "postalCode": "P0J1H0", "twitter": "None", "instagram": "None", "facebook": "None", "youtube": "None", "website": "None", "summary": "None", "logo": "None"}, "883453102RR0001": {"name": "TONE CLUSTER", "designationCode": "C", "categoryCode": "22", "address": "P.O. BOX 87011, 332 BANK      BANK-GILMOUR POSTAL OUTLET", "city": "OTTAWA", "province": "ON", "country": "CA", "postalCode": "K2P2P1", "twitter": "None", "instagram": "None", "facebook": "None", "youtube": "None", "website": "None", "summary": "None", "logo": "None", "latitude": 45.41426366221373, "longitude": -75.69547519833785}, "888220662RR0001": {"name": "TONG SUN TEMPLE (ONTARIO) CORPORATION", "designationCode": "C", "categoryCode": "39", "address": "71 CHARTWELL RD", "city": "ETOBICOKE", "province": "ON", "country": "CA", "postalCode": "M8Z4G7", "twitter": "None", "instagram": "None", "facebook": "None", "youtube": "None", "website": "None", "summary": "None", "logo": "None", "latitude": 43.63075433250616, "longitude": -79.51333000496301}, "828672154RR0001": {"name": "TONY & BETTY INFILISE FAMILY FOUNDATION / FONDATION FAMILIALE TONY & BETTY INFILISE", "designationCode": "B", "categoryCode": "03", "address": "690 MAIN ROAD", "city": "HUDSON", "province": "QC", "country": "CA", "postalCode": "J0P1H0", "twitter": "None", "instagram": "None", "facebook": "None", "youtube": "None", "website": "None", "summary": "None", "logo": "None", "latitude": 45.46911266233978, "longitude": -74.17013585728616}, "852701432RR0001": {"name": "TOP CHR\u00c9TIEN QU\u00c9BEC", "designationCode": "C", "categoryCode": "39", "address": "9578 RIVERIN", "city": "BROSSARD", "province": "QC", "country": "CA", "postalCode": "J4X2Z2", "twitter": "None", "instagram": "None", "facebook": "None", "youtube": "None", "website": "None", "summary": "None", "logo": "None", "latitude": 45.432011419931875, "longitude": -73.48873119807804}, "108113390RR0001": {"name": "TOP O' THE HILL NURSERY SCHOOL INC.", "designationCode": "C", "categoryCode": "01", "address": "166 STEPHEN ST", "city": "RICHMOND HILL", "province": "ON", "country": "CA", "postalCode": "L4C5R1", "twitter": "None", "instagram": "None", "facebook": "None", "youtube": "None", "website": "None", "summary": "None", "logo": "None", "latitude": 43.852762045270715, "longitude": -79.45799422119002}, "868343468RR0001": {"name": "TOPSAIL UNITED CHURCH", "designationCode": "C", "categoryCode": "44", "address": "P.O. BOX 13010                STATION TOPSAIL", "city": "CONCEPTION BAY SOUTH", "province": "NL", "country": "CA", "postalCode": "A1W2K1", "twitter": "None", "instagram": "None", "facebook": "None", "youtube": "None", "website": "None", "summary": "None", "logo": "None", "latitude": 47.53896323837952, "longitude": -52.93666456018887}, "867556466RR0001": {"name": "TORA FOUNDATION/FONDATION TORA", "designationCode": "B", "categoryCode": "03", "address": "1170 PEEL STREET, 8TH FLOOR", "city": "MONTREAL", "province": "QC", "country": "CA", "postalCode": "H3B4P2", "twitter": "None", "instagram": "None", "facebook": "None", "youtube": "None", "website": "None", "summary": "None", "logo": "None", "latitude": 45.49919599330624, "longitude": -73.57126662118391}, "886778695RR0001": {"name": "TORAH ACADEMY OF OTTAWA", "designationCode": "C", "categoryCode": "20", "address": "1119 LAZARD ST", "city": "OTTAWA", "province": "ON", "country": "CA", "postalCode": "K2C2R5", "twitter": "None", "instagram": "None", "facebook": "None", "youtube": "None", "website": "None", "summary": "None", "logo": "None", "latitude": 45.35993410687276, "longitude": -75.76410937878744}, "890695349RR0001": {"name": "TORAH IN MOTION", "designationCode": "C", "categoryCode": "49", "address": "307-3910 BATHURST ST", "city": "TORONTO", "province": "ON", "country": "CA", "postalCode": "M3H5Z3", "twitter": "None", "instagram": "None", "facebook": "None", "youtube": "None", "website": "None", "summary": "None", "logo": "None", "latitude": 43.744909233135225, "longitude": -79.43591811313382}, "119265619RR0001": {"name": "TORAH PUBLICATION INSTITUTE", "designationCode": "C", "categoryCode": "49", "address": "35 BRYANT STREET", "city": "TORONTO", "province": "ON", "country": "CA", "postalCode": "M3H5A2", "twitter": "None", "instagram": "None", "facebook": "None", "youtube": "None", "website": "None", "summary": "None", "logo": "None", "latitude": 43.756287170696496, "longitude": -79.44414008448285}, "131168791RR0001": {"name": "TORAH RESEARCH ACADEMY", "designationCode": "C", "categoryCode": "20", "address": "50 BRISBANE ROAD", "city": "DOWNSVIEW", "province": "ON", "country": "CA", "postalCode": "M3J2K2", "twitter": "None", "instagram": "None", "facebook": "None", "youtube": "None", "website": "None", "summary": "None", "logo": "None", "latitude": 43.77196112245333, "longitude": -79.47367805386907}, "119265635RR0001": {"name": "TORAH SCHOOLS FOR ISRAEL,", "designationCode": "C", "categoryCode": "23", "address": "6927 PARK AVENUE, # 200", "city": "MONTREAL", "province": "QC", "country": "CA", "postalCode": "H3N1X7", "twitter": "None", "instagram": "None", "facebook": "None", "youtube": "None", "website": "None", "summary": "None", "logo": "None", "latitude": 45.52943369499095, "longitude": -73.61848342241338}, "119265643RR0001": {"name": "TORAH UMESORAH CANADA", "designationCode": "C", "categoryCode": "21", "address": "201 BRIDGELAND AVENUE", "city": "TORONTO", "province": "ON", "country": "CA", "postalCode": "M6A1Y7", "twitter": "None", "instagram": "None", "facebook": "None", "youtube": "None", "website": "None", "summary": "None", "logo": "None", "latitude": 43.724679896445465, "longitude": -79.46720435899367}, "119265650RR0001": {"name": "TORAH V'AVODAH CONGREGATION,", "designationCode": "C", "categoryCode": "42", "address": "316-4600 BATHURST STREET", "city": "TORONTO", "province": "ON", "country": "CA", "postalCode": "M2R3V1", "twitter": "None", "instagram": "None", "facebook": "None", "youtube": "None", "website": "None", "summary": "None", "logo": "None", "latitude": 43.764549213428396, "longitude": -79.4407190577642}, "890026529RR0001": {"name": "TORAT HAYIM COMMUNITY SOCIETY - CENTER FOR JEWISH LEARNING", "designationCode": "C", "categoryCode": "42", "address": "201 - 980 HOWE ST", "city": "VANCOUVER", "province": "BC", "country": "CA", "postalCode": "V6Z0C8", "twitter": "None", "instagram": "None", "facebook": "None", "youtube": "None", "website": "None", "summary": "None", "logo": "None", "latitude": 49.279956122238964, "longitude": -123.12380893611947}, "886949999RR0001": {"name": "TORATH EMETH JEWISH CENTRE", "designationCode": "C", "categoryCode": "42", "address": "1 VIEWMOUNT AVE", "city": "TORONTO", "province": "ON", "country": "CA", "postalCode": "M5B1T2", "twitter": "None", "instagram": "None", "facebook": "None", "youtube": "None", "website": "None", "summary": "None", "logo": "None", "latitude": 43.710282776559616, "longitude": -79.42831740146579}, "889767349RR0001": {"name": "TORBROOK MINES UNITED CHURCH", "designationCode": "C", "categoryCode": "44", "address": "1539 TORBROOK ROAD", "city": "WILMOT", "province": "NS", "country": "CA", "postalCode": "B0P1W0", "twitter": "None", "instagram": "None", "facebook": "None", "youtube": "None", "website": "None", "summary": "None", "logo": "None", "latitude": 44.93084204134694, "longitude": -64.9688786646083}, "119265692RR0001": {"name": "TORBROOK UNITED BAPTIST CHURCH,", "designationCode": "C", "categoryCode": "31", "address": "RR 1                          12 TRIMPER LANE", "city": "WILMOT", "province": "NS", "country": "CA", "postalCode": "B0P1W0", "twitter": "None", "instagram": "None", "facebook": "None", "youtube": "None", "website": "None", "summary": "None", "logo": "None", "latitude": 44.909864591176635, "longitude": -64.988898465982}, "119265734RR0001": {"name": "TORCH EDUCATIONAL FOUNDATION", "designationCode": "C", "categoryCode": "20", "address": "50 POPLAR PLAINS ROAD", "city": "TORONTO", "province": "ON", "country": "CA", "postalCode": "M4V2M8", "twitter": "None", "instagram": "None", "facebook": "None", "youtube": "None", "website": "None", "summary": "None", "logo": "None", "latitude": 43.67908915237461, "longitude": -79.40305928132014}, "119265742RR0001": {"name": "TORCH FOR TRUTH TABERNACLE INC", "designationCode": "C", "categoryCode": "39", "address": "P.O. BOX 581", "city": "SAINT JOHN", "province": "NB", "country": "CA", "postalCode": "E2L4A5", "twitter": "None", "instagram": "None", "facebook": "None", "youtube": "None", "website": "None", "summary": "None", "logo": "None", "latitude": 45.27342600000006, "longitude": -66.06407149999993}, "898751227RR0001": {"name": "TORCH PRESBYTERIAN CHURCH", "designationCode": "C", "categoryCode": "37", "address": "29 FESTIVAL DR", "city": "TORONTO", "province": "ON", "country": "CA", "postalCode": "M2R3T9", "twitter": "None", "instagram": "None", "facebook": "None", "youtube": "None", "website": "None", "summary": "None", "logo": "None", "latitude": 43.78886186037867, "longitude": -79.45953412155927}, "119265726RR0001": {"name": "TORCHBEARERS CAPERNWRAY CANADA SOCIETY", "designationCode": "C", "categoryCode": "39", "address": "BOX 1-10", "city": "THETIS ISLAND", "province": "BC", "country": "CA", "postalCode": "V0R2Y0", "twitter": "None", "instagram": "None", "facebook": "None", "youtube": "None", "website": "None", "summary": "None", "logo": "None", "latitude": 48.98019000000005, "longitude": -123.67730999999998}, "119265759RR0001": {"name": "TORCHLIGHT SERVICES", "designationCode": "C", "categoryCode": "59", "address": "30 EDINBURGH RD NORTH", "city": "GUELPH", "province": "ON", "country": "CA", "postalCode": "N1H7J1", "twitter": "None", "instagram": "None", "facebook": "None", "youtube": "None", "website": "None", "summary": "None", "logo": "None", "latitude": 43.5382284987306, "longitude": -80.2591492711926}, "865119499RR0001": {"name": "TORI'S BUDDIES RESEARCH FUND INCORPORATED", "designationCode": "A", "categoryCode": "13", "address": "PO BOX 30012                  RPO BROOKLIN CENTRE", "city": "WHITBY", "province": "ON", "country": "CA", "postalCode": "L1M0B5", "twitter": "None", "instagram": "None", "facebook": "None", "youtube": "None", "website": "None", "summary": "None", "logo": "None", "latitude": 43.956939984996424, "longitude": -78.95700993782101}, "119265783RR0001": {"name": "TORONTO ACHIEVEMENT CENTRE", "designationCode": "C", "categoryCode": "20", "address": "21 DELORAINE AVENUE", "city": "TORONTO", "province": "ON", "country": "CA", "postalCode": "M5M2A8", "twitter": "None", "instagram": "None", "facebook": "None", "youtube": "None", "website": "None", "summary": "None", "logo": "None", "latitude": 43.733621787668135, "longitude": -79.40556825644876}, "891154544RR0001": {"name": "TORONTO ADVENTIST DISTRICT SCHOOL BOARD (TADSB)", "designationCode": "C", "categoryCode": "20", "address": "531 FINCH AVENUE WEST", "city": "NORTH YORK", "province": "ON", "country": "CA", "postalCode": "M2R3X2", "twitter": "None", "instagram": "None", "facebook": "None", "youtube": "None", "website": "None", "summary": "None", "logo": "None", "latitude": 43.7732667395896, "longitude": -79.44604012757102}, "107910259RR0211": {"name": "TORONTO AIRPORT CATHOLIC CHAPLAINCY", "designationCode": "C", "categoryCode": "38", "address": "1155 YONGE STREET, SUITE 603", "city": "TORONTO", "province": "ON", "country": "CA", "postalCode": "M4T1W2", "twitter": "None", "instagram": "None", "facebook": "None", "youtube": "None", "website": "None", "summary": "None", "logo": "None", "latitude": 43.68216966639731, "longitude": -79.3916210252181}, "888683943RR0001": {"name": "TORONTO ALL STAR BIG BAND", "designationCode": "C", "categoryCode": "22", "address": "3822 BLOOR STREET WEST", "city": "ETOBICOKE", "province": "ON", "country": "CA", "postalCode": "M9B1K8", "twitter": "None", "instagram": "None", "facebook": "None", "youtube": "None", "website": "None", "summary": "None", "logo": "None", "latitude": 43.6414440996594, "longitude": -79.53717950903102}, "894945633RR0025": {"name": "TORONTO ALLIANCE CHURCH OF THE CHRISTIAN AND MISSIONARY ALLIANCE IN CANADA", "designationCode": "C", "categoryCode": "39", "address": "602 QUEEN ST WEST             2ND FLOOR", "city": "TORONTO", "province": "ON", "country": "CA", "postalCode": "M6J1E3", "twitter": "None", "instagram": "None", "facebook": "None", "youtube": "None", "website": "None", "summary": "None", "logo": "None", "latitude": 43.6471012018003, "longitude": -79.40457594491885}, "119265809RR0001": {"name": "TORONTO AND DISTRICT PARENT CO-OPERATIVE PRESCHOOL CORPORATION", "designationCode": "C", "categoryCode": "09", "address": "929 GENTRY CRES", "city": "OSHAWA", "province": "ON", "country": "CA", "postalCode": "L1K1L6", "twitter": "None", "instagram": "None", "facebook": "None", "youtube": "None", "website": "None", "summary": "None", "logo": "None", "latitude": 43.91860397198328, "longitude": -78.8425082961509}, "119265825RR0001": {"name": "TORONTO AND REGION ISLAMIC CONGREGATION (TARIC)", "designationCode": "C", "categoryCode": "60", "address": "99 BEVERLY HILLS DR", "city": "TORONTO", "province": "ON", "country": "CA", "postalCode": "M3L1A2", "twitter": "None", "instagram": "None", "facebook": "None", "youtube": "None", "website": "None", "summary": "None", "logo": "None", "latitude": 43.71823421842006, "longitude": -79.51610750181767}, "891726978RR0001": {"name": "TORONTO AND REGIONAL CRIME STOPPERS INC.", "designationCode": "C", "categoryCode": "59", "address": "40 COLLEGE STREET             6TH FLOOR", "city": "TORONTO", "province": "ON", "country": "CA", "postalCode": "M5G2J3", "twitter": "None", "instagram": "None", "facebook": "None", "youtube": "None", "website": "None", "summary": "None", "logo": "None", "latitude": 43.66100618016021, "longitude": -79.38495874744639}, "891910069RR0001": {"name": "TORONTO AREA ASSOCIATION OF BAPTIST CHURCHES", "designationCode": "C", "categoryCode": "49", "address": "39 BIRCHVIEW BLVD", "city": "ETOBICOKE", "province": "ON", "country": "CA", "postalCode": "M8X1H7", "twitter": "None", "instagram": "None", "facebook": "None", "youtube": "None", "website": "None", "summary": "None", "logo": "None", "latitude": 43.64758180930822, "longitude": -79.5146054568354}, "889497020RR0001": {"name": "TORONTO AREA BIBLE STUDENTS", "designationCode": "C", "categoryCode": "47", "address": "9200 RUE DUFFERIN ST          P.O. BOX 20053", "city": "CONCORD", "province": "ON", "country": "CA", "postalCode": "L4K0C6", "twitter": "None", "instagram": "None", "facebook": "None", "youtube": "None", "website": "None", "summary": "None", "logo": "None", "latitude": 43.841619639736926, "longitude": -79.48288032480185}}