{"889979571RR0001": {"name": "THE RHODODENDRON SOCIETY OF CANADA", "designationCode": "C", "categoryCode": "52", "address": "#903 100 LAKESHORE ROAD EAST", "city": "OAKVILLE", "province": "ON", "country": "CA", "postalCode": "L6J6M9", "twitter": "None", "instagram": "None", "facebook": "None", "youtube": "None", "website": "None", "summary": "None", "logo": "None", "latitude": 43.463240316184475, "longitude": -79.64937471265556}, "893432856RR0001": {"name": "THE RICHARD G. ANDISON FOUNDATION INC.", "designationCode": "B", "categoryCode": "13", "address": "2600 SEVEN EVERGREEN PLACE", "city": "WINNIPEG", "province": "MB", "country": "CA", "postalCode": "R3L2T3", "twitter": "None", "instagram": "None", "facebook": "None", "youtube": "None", "website": "None", "summary": "None", "logo": "None", "latitude": 49.88038517951556, "longitude": -97.1493727004907}, "888194503RR0001": {"name": "THE RICHARD JAMES CURRIE CHARITABLE FOUNDATION", "designationCode": "B", "categoryCode": "03", "address": "P.O. BOX 50                   FIRST CANADIAN PLACE", "city": "TORONTO", "province": "ON", "country": "CA", "postalCode": "M5X1B8", "twitter": "None", "instagram": "None", "facebook": "None", "youtube": "None", "website": "None", "summary": "None", "logo": "None", "latitude": 43.64826932503962, "longitude": -79.38190945606182}, "107894883RR0001": {"name": "THE RICHMOND ART GALLERY ASSOCIATION", "designationCode": "C", "categoryCode": "23", "address": "180-7700 MINORU GATE", "city": "RICHMOND", "province": "BC", "country": "CA", "postalCode": "V6Y1R9", "twitter": "None", "instagram": "None", "facebook": "None", "youtube": "None", "website": "None", "summary": "None", "logo": "None"}, "107895021RR0001": {"name": "THE RICHMOND CHRISTIAN SCHOOL ASSOCIATION", "designationCode": "C", "categoryCode": "20", "address": "10200 NO. 5 ROAD", "city": "RICHMOND", "province": "BC", "country": "CA", "postalCode": "V7A4E5", "twitter": "None", "instagram": "None", "facebook": "None", "youtube": "None", "website": "None", "summary": "None", "logo": "None", "latitude": 49.13862943632371, "longitude": -123.09178202423824}, "119252674RR0001": {"name": "THE RICHMOND COMMUNITY ORCHESTRA AND CHORUS ASSOCIATION", "designationCode": "C", "categoryCode": "22", "address": "130-10691 SHELLBRIDGE WAY", "city": "RICHMOND", "province": "BC", "country": "CA", "postalCode": "V6X2W8", "twitter": "None", "instagram": "None", "facebook": "None", "youtube": "None", "website": "None", "summary": "None", "logo": "None", "latitude": 49.18744050490474, "longitude": -123.10683202553523}, "893134445RR0001": {"name": "THE RICHMOND HILL COUNTRY SHUL", "designationCode": "C", "categoryCode": "49", "address": "9225 BATHURST ST", "city": "RICHMOND HILL", "province": "ON", "country": "CA", "postalCode": "L4C6C2", "twitter": "None", "instagram": "None", "facebook": "None", "youtube": "None", "website": "None", "summary": "None", "logo": "None", "latitude": 43.84708406356394, "longitude": -79.4585054894111}, "119118933RR0001": {"name": "THE RICHMOND HILL HISTORICAL SOCIETY", "designationCode": "C", "categoryCode": "50", "address": "BOX 61527 9350 YONGE ST", "city": "RICHMOND HILL", "province": "ON", "country": "CA", "postalCode": "L4C0C9", "twitter": "None", "instagram": "None", "facebook": "None", "youtube": "None", "website": "None", "summary": "None", "logo": "None", "latitude": 43.85488547209885, "longitude": -79.43346874819619}, "119118883RR0001": {"name": "THE RICHMOND HOSPITAL FOUNDATION", "designationCode": "A", "categoryCode": "13", "address": "7000 WESTMINSTER HWY", "city": "RICHMOND", "province": "BC", "country": "CA", "postalCode": "V6X1A2", "twitter": "None", "instagram": "None", "facebook": "None", "youtube": "None", "website": "None", "summary": "None", "logo": "None", "latitude": 49.170082316802294, "longitude": -123.14756352129469}, "123042418RR0001": {"name": "THE RICHMOND HOSPITAL/HEALTHCARE AUXILIARY", "designationCode": "C", "categoryCode": "13", "address": "7000 WESTMINSTER HIGHWAY", "city": "RICHMOND", "province": "BC", "country": "CA", "postalCode": "V6X1A2", "twitter": "None", "instagram": "None", "facebook": "None", "youtube": "None", "website": "None", "summary": "None", "logo": "None", "latitude": 49.170082316802294, "longitude": -123.14756352129469}, "133354605RR0001": {"name": "THE RICHMOND JEWISH DAY SCHOOL SOCIETY OF BRITISH COLUMBIA", "designationCode": "C", "categoryCode": "20", "address": "8760 NO. 5 ROAD", "city": "RICHMOND", "province": "BC", "country": "CA", "postalCode": "V6Y2V4", "twitter": "None", "instagram": "None", "facebook": "None", "youtube": "None", "website": "None", "summary": "None", "logo": "None", "latitude": 49.148324245628714, "longitude": -123.09182903321087}, "119252682RR0001": {"name": "THE RICHMOND SINGERS", "designationCode": "C", "categoryCode": "22", "address": "P.O. BOX 88059                LANSDOWNE", "city": "RICHMOND", "province": "BC", "country": "CA", "postalCode": "V6X3T6", "twitter": "None", "instagram": "None", "facebook": "None", "youtube": "None", "website": "None", "summary": "None", "logo": "None", "latitude": 49.173767999999995, "longitude": -123.12816153790521}, "139095426RR0001": {"name": "THE RICHMOND YOUTH ORCHESTRA SOCIETY", "designationCode": "C", "categoryCode": "22", "address": "150-4471 NO 6 RD", "city": "RICHMOND", "province": "BC", "country": "CA", "postalCode": "V6V1P8", "twitter": "None", "instagram": "None", "facebook": "None", "youtube": "None", "website": "None", "summary": "None", "logo": "None", "latitude": 49.182146444630376, "longitude": -123.06919203113247}, "891396483RR0001": {"name": "THE RICHTER CHARITABLE FOUNDATION/LA FONDATION CHARITABLE RICHTER", "designationCode": "A", "categoryCode": "03", "address": "1981, AVENUE MCGILL COLL\u00c8GE   12E \u00c9TAGE", "city": "MONTR\u00c9AL", "province": "QC", "country": "CA", "postalCode": "H3A0G6", "twitter": "None", "instagram": "None", "facebook": "None", "youtube": "None", "website": "None", "summary": "None", "logo": "None", "latitude": 45.50305997394517, "longitude": -73.57323951800474}, "119257871RR0001": {"name": "THE RICKY AND PETER COHEN FAMILY FOUNDATION", "designationCode": "B", "categoryCode": "03", "address": "939 EGLINTON AVENUE EAST      SUITE 200", "city": "TORONTO", "province": "ON", "country": "CA", "postalCode": "M4G4E8", "twitter": "None", "instagram": "None", "facebook": "None", "youtube": "None", "website": "None", "summary": "None", "logo": "None", "latitude": 43.714386865861265, "longitude": -79.36067810266049}, "119119485RR0001": {"name": "THE RIDEAU TRAIL ASSOCIATION INCORPORATED", "designationCode": "C", "categoryCode": "56", "address": "146 WEST VILLAGE PVT", "city": "OTTAWA", "province": "ON", "country": "CA", "postalCode": "K1Z1E3", "twitter": "None", "instagram": "None", "facebook": "None", "youtube": "None", "website": "None", "summary": "None", "logo": "None", "latitude": 45.39715359310988, "longitude": -75.74713242477931}, "119119501RR0001": {"name": "THE RIDEAU VALLEY CONSERVATION FOUNDATION", "designationCode": "C", "categoryCode": "52", "address": "3889 RIDEAU VALLEY DR         P.O BOX 988", "city": "MANOTICK", "province": "ON", "country": "CA", "postalCode": "K4M1A8", "twitter": "None", "instagram": "None", "facebook": "None", "youtube": "None", "website": "None", "summary": "None", "logo": "None", "latitude": 45.192858736849146, "longitude": -75.6405153900275}, "119119576RR0001": {"name": "THE RIDGE MEADOWS ASSOCIATION FOR COMMUNITY LIVING", "designationCode": "C", "categoryCode": "11", "address": "11641 224 ST", "city": "MAPLE RIDGE", "province": "BC", "country": "CA", "postalCode": "V2X6A1", "twitter": "None", "instagram": "None", "facebook": "None", "youtube": "None", "website": "None", "summary": "None", "logo": "None", "latitude": 49.213713048848746, "longitude": -122.6022961737549}, "133362657RR0001": {"name": "THE RIDGEWOOD COMMUNITY HALL SOCIETY", "designationCode": "B", "categoryCode": "56", "address": "PO BOX 657", "city": "PENHOLD", "province": "AB", "country": "CA", "postalCode": "T0M1R0", "twitter": "None", "instagram": "None", "facebook": "None", "youtube": "None", "website": "None", "summary": "None", "logo": "None", "latitude": 52.135244718577376, "longitude": -113.86968027922322}, "107896599RR0001": {"name": "THE RIGHT TO LIFE ASSOCIATION OF KITCHENER-WATERLOO AND AREA", "designationCode": "C", "categoryCode": "09", "address": "215 LANCASTER ST. WEST", "city": "KITCHENER", "province": "ON", "country": "CA", "postalCode": "N2H4T9", "twitter": "None", "instagram": "None", "facebook": "None", "youtube": "None", "website": "None", "summary": "None", "logo": "None", "latitude": 43.46644441326677, "longitude": -80.48426783239059}, "131809097RR0001": {"name": "THE RIGHTEOUSNESS OF CHRIST CHURCH INTERNATIONAL INC.", "designationCode": "C", "categoryCode": "39", "address": "PO BOX 37013", "city": "REGINA", "province": "SK", "country": "CA", "postalCode": "S4S7K3", "twitter": "None", "instagram": "None", "facebook": "None", "youtube": "None", "website": "None", "summary": "None", "logo": "None", "latitude": 50.448246000000054, "longitude": -104.59517299999993}, "131801789RR0001": {"name": "THE RIMBEY CHRISTIAN SCHOOL SOCIETY", "designationCode": "C", "categoryCode": "20", "address": "BOX 90", "city": "RIMBEY", "province": "AB", "country": "CA", "postalCode": "T0C2J0", "twitter": "None", "instagram": "None", "facebook": "None", "youtube": "None", "website": "None", "summary": "None", "logo": "None", "latitude": 52.63970000000006, "longitude": -114.23827999999997}, "849907365RR0001": {"name": "THE RIPPLE EFFECT WELLNESS ORGANIZATION", "designationCode": "C", "categoryCode": "11", "address": "2750-14TH AVENUE              SUITE 201", "city": "MARKHAM", "province": "ON", "country": "CA", "postalCode": "L3R0B6", "twitter": "None", "instagram": "None", "facebook": "None", "youtube": "None", "website": "None", "summary": "None", "logo": "None", "latitude": 43.8301190169942, "longitude": -79.35898787333349}, "872726708RR0001": {"name": "THE RITCHIE FOUNDATION", "designationCode": "B", "categoryCode": "03", "address": "12336 - 53 AVENUE", "city": "SURREY", "province": "BC", "country": "CA", "postalCode": "V3X3B7", "twitter": "None", "instagram": "None", "facebook": "None", "youtube": "None", "website": "None", "summary": "None", "logo": "None", "latitude": 49.0987615100989, "longitude": -122.88111227699233}, "885885319RR0001": {"name": "THE RIVER CHRISTIAN CENTER INC.", "designationCode": "C", "categoryCode": "39", "address": "BOX 3178", "city": "MELVILLE", "province": "SK", "country": "CA", "postalCode": "S0A2P0", "twitter": "None", "instagram": "None", "facebook": "None", "youtube": "None", "website": "None", "summary": "None", "logo": "None", "latitude": 50.87164886256234, "longitude": -103.09293300498788}, "873920920RR0001": {"name": "THE RIVER CHRISTIAN FELLOWSHIP", "designationCode": "C", "categoryCode": "39", "address": "26 CHAPALA GROVE SE", "city": "CALGARY", "province": "AB", "country": "CA", "postalCode": "T2X3V5", "twitter": "None", "instagram": "None", "facebook": "None", "youtube": "None", "website": "None", "summary": "None", "logo": "None", "latitude": 50.878547999999995, "longitude": -114.03500898291888}, "863005427RR0001": {"name": "THE RIVER CHRISTIAN REFORMED COMMUNITY CHURCH", "designationCode": "C", "categoryCode": "39", "address": "11520 ELLERSLIE RD SW", "city": "EDMONTON", "province": "AB", "country": "CA", "postalCode": "T6W1A2", "twitter": "None", "instagram": "None", "facebook": "None", "youtube": "None", "website": "None", "summary": "None", "logo": "None", "latitude": 53.42489533351483, "longitude": -113.5231963936459}, "856338876RR0001": {"name": "THE RIVER CHURCH", "designationCode": "C", "categoryCode": "39", "address": "10380 ATHABASCA DR.", "city": "RICHMOND", "province": "BC", "country": "CA", "postalCode": "V7A4Z4", "twitter": "None", "instagram": "None", "facebook": "None", "youtube": "None", "website": "None", "summary": "None", "logo": "None", "latitude": 49.1451032184487, "longitude": -123.10807323192313}, "896543352RR0001": {"name": "THE RIVER CHURCH OF MOOSE JAW INC.", "designationCode": "C", "categoryCode": "39", "address": "406 OMINICA ST W.", "city": "MOOSE JAW", "province": "SK", "country": "CA", "postalCode": "S6H1X8", "twitter": "None", "instagram": "None", "facebook": "None", "youtube": "None", "website": "None", "summary": "None", "logo": "None", "latitude": 50.39356459496973, "longitude": -105.5449225221163}, "886570795RR0001": {"name": "THE RIVER COMMUNITY CHURCH OF ABBOTSFORD", "designationCode": "C", "categoryCode": "39", "address": "2287 CASCADE ST", "city": "ABBOTSFORD", "province": "BC", "country": "CA", "postalCode": "V2T3G2", "twitter": "None", "instagram": "None", "facebook": "None", "youtube": "None", "website": "None", "summary": "None", "logo": "None", "latitude": 49.04340286372553, "longitude": -122.3238133995612}, "877195305RR0001": {"name": "THE RIVER EAST TRANSCONA SCHOOL DIVISION TRUST FUND", "designationCode": "A", "categoryCode": "25", "address": "589 ROCH STREET", "city": "WINNIPEG", "province": "MB", "country": "CA", "postalCode": "R2K2P7", "twitter": "None", "instagram": "None", "facebook": "None", "youtube": "None", "website": "None", "summary": "None", "logo": "None", "latitude": 49.92000485538699, "longitude": -97.1011047759827}, "865916753RR0001": {"name": "THE RIVER HARVEST FELLOWSHIP", "designationCode": "C", "categoryCode": "39", "address": "392 GIRL GUIDE CAMP ROAD      RR#2", "city": "MURRAY RIVER", "province": "PE", "country": "CA", "postalCode": "C0A1W0", "twitter": "None", "instagram": "None", "facebook": "None", "youtube": "None", "website": "None", "summary": "None", "logo": "None", "latitude": 46.0390531640314, "longitude": -62.540894294477454}, "892864166RR0001": {"name": "THE RIVER PHILIP UNITED CEMETERY SOCIETY", "designationCode": "C", "categoryCode": "59", "address": "RR #1", "city": "OXFORD JUNCTION CUMBERLAND CT", "province": "NS", "country": "CA", "postalCode": "B0M1R0", "twitter": "None", "instagram": "None", "facebook": "None", "youtube": "None", "website": "None", "summary": "None", "logo": "None", "latitude": 45.658375921940895, "longitude": -64.06070921541705}, "140554973RR0001": {"name": "THE RIVER PHILIP VALLEY TREES FOR TOMORROW ASSOCIATION", "designationCode": "C", "categoryCode": "52", "address": "P.O. BOX 220", "city": "OXFORD", "province": "NS", "country": "CA", "postalCode": "B0M1P0", "twitter": "None", "instagram": "None", "facebook": "None", "youtube": "None", "website": "None", "summary": "None", "logo": "None", "latitude": 45.73593000000005, "longitude": -63.86782999999997}, "119121044RR0001": {"name": "THE RIVER VIEW CEMETERY COMPANY (LIMITED)", "designationCode": "C", "categoryCode": "59", "address": "3415  ROUTE 114", "city": "EDGETTS LANDING", "province": "NB", "country": "CA", "postalCode": "E4H2G4", "twitter": "None", "instagram": "None", "facebook": "None", "youtube": "None", "website": "None", "summary": "None", "logo": "None", "latitude": 45.88274524614222, "longitude": -64.6141057886066}, "832161525RR0001": {"name": "THE RIVER'S EDGE", "designationCode": "C", "categoryCode": "36", "address": "209 BARRON CANYON ROAD", "city": "PEMBROKE", "province": "ON", "country": "CA", "postalCode": "K8A6W7", "twitter": "None", "instagram": "None", "facebook": "None", "youtube": "None", "website": "None", "summary": "None", "logo": "None", "latitude": 45.833144901762616, "longitude": -77.25822522679967}, "105245856RR0001": {"name": "THE RIVERDALE COLLEGIATE CHARITABLE FOUNDATION", "designationCode": "C", "categoryCode": "21", "address": "127-21 BURKEBROOK PLACE", "city": "TORONTO", "province": "ON", "country": "CA", "postalCode": "M4G0A2", "twitter": "None", "instagram": "None", "facebook": "None", "youtube": "None", "website": "None", "summary": "None", "logo": "None", "latitude": 43.7181407796467, "longitude": -79.37602854959948}, "858884307RR0001": {"name": "THE RIVERDALE HARVEST FOOD BANK INC.", "designationCode": "C", "categoryCode": "09", "address": "BOX 737", "city": "RIVERS", "province": "MB", "country": "CA", "postalCode": "R0K1X0", "twitter": "None", "instagram": "None", "facebook": "None", "youtube": "None", "website": "None", "summary": "None", "logo": "None", "latitude": 49.55658299999999, "longitude": -99.0937665}, "891540221RR0001": {"name": "THE RIVERSIDE CEMETERY COMPANY", "designationCode": "C", "categoryCode": "59", "address": "188 WELLINGTON ST", "city": "MIRAMICHI", "province": "NB", "country": "CA", "postalCode": "E1N1M4", "twitter": "None", "instagram": "None", "facebook": "None", "youtube": "None", "website": "None", "summary": "None", "logo": "None", "latitude": 47.03005815955932, "longitude": -65.46621615551996}, "119288918RR1400": {"name": "THE RIVERSIDE CONGREGATION OF JEHOVAH'S WITNESSES, GUELPH, ONTARIO", "designationCode": "C", "categoryCode": "61", "address": "639 ERAMOSA ROAD", "city": "GUELPH", "province": "ON", "country": "CA", "postalCode": "N1E2N8", "twitter": "None", "instagram": "None", "facebook": "None", "youtube": "None", "website": "None", "summary": "None", "logo": "None", "latitude": 43.571841391338246, "longitude": -80.24721284537502}, "137564811RR0001": {"name": "THE RIVERSIDE MINOR BASEBALL CLUB", "designationCode": "C", "categoryCode": "56", "address": "6865 ONTARIO ST.", "city": "WINDSOR", "province": "ON", "country": "CA", "postalCode": "N8S1W7", "twitter": "None", "instagram": "None", "facebook": "None", "youtube": "None", "website": "None", "summary": "None", "logo": "None", "latitude": 42.32913616622444, "longitude": -82.95349493836932}, "889418034RR0001": {"name": "THE RIVERWOOD CONSERVANCY", "designationCode": "C", "categoryCode": "52", "address": "4300 RIVERWOOD PARK LANE", "city": "MISSISSAUGA", "province": "ON", "country": "CA", "postalCode": "L5C2S7", "twitter": "None", "instagram": "None", "facebook": "None", "youtube": "None", "website": "None", "summary": "None", "logo": "None", "latitude": 43.56575385014536, "longitude": -79.67357434940257}, "119121317RR0001": {"name": "THE RIX FAMILY FOUNDATION", "designationCode": "B", "categoryCode": "09", "address": "PO BOX 514", "city": "NANAIMO", "province": "BC", "country": "CA", "postalCode": "V9R5L5", "twitter": "None", "instagram": "None", "facebook": "None", "youtube": "None", "website": "None", "summary": "None", "logo": "None", "latitude": 49.164243000000056, "longitude": -123.93616399999993}, "896674918RR0001": {"name": "THE ROAD AHEAD SOCIETY OF CALGARY: FUTURE PLANNING RESOURCES FOR OUR FAMILY MEMBERS WITH A DISABILITY", "designationCode": "C", "categoryCode": "11", "address": "101 - 223 12 AVE SW", "city": "CALGARY", "province": "AB", "country": "CA", "postalCode": "T2R0G9", "twitter": "None", "instagram": "None", "facebook": "None", "youtube": "None", "website": "None", "summary": "None", "logo": "None", "latitude": 51.04147448845882, "longitude": -114.0671642216227}, "872109962RR0001": {"name": "THE ROB FREEMAN FOUNDATION", "designationCode": "B", "categoryCode": "23", "address": "PLOVER MILLS FARM             22946 VALLEYVIEW ROAD", "city": "THORNDALE", "province": "ON", "country": "CA", "postalCode": "N0M2P0", "twitter": "None", "instagram": "None", "facebook": "None", "youtube": "None", "website": "None", "summary": "None", "logo": "None", "latitude": 43.145377561502826, "longitude": -81.19677912888729}, "881963607RR0001": {"name": "THE ROBBINS FOUNDATION CANADA", "designationCode": "B", "categoryCode": "05", "address": "6-140 ATHABASCAN AVE", "city": "SHERWOOD PARK", "province": "AB", "country": "CA", "postalCode": "T8A4E3", "twitter": "None", "instagram": "None", "facebook": "None", "youtube": "None", "website": "None", "summary": "None", "logo": "None", "latitude": 53.53642251875454, "longitude": -113.32425166763807}, "843936329RR0001": {"name": "THE ROBERT ALBERT WILSON MEMORIAL TRUST FUND", "designationCode": "B", "categoryCode": "15", "address": "155 WELLINGTON STREET WEST    20TH FLOOR", "city": "TORONTO", "province": "ON", "country": "CA", "postalCode": "M5V3K7", "twitter": "None", "instagram": "None", "facebook": "None", "youtube": "None", "website": "None", "summary": "None", "logo": "None", "latitude": 43.64596585316531, "longitude": -79.38574575644876}, "888120342RR0001": {"name": "THE ROBERT AND RENEE RUBINSTEIN CHARITABLE FOUNDATION", "designationCode": "B", "categoryCode": "05", "address": "3625 DUFFERIN ST. SUITE 500", "city": "DOWNSVIEW", "province": "ON", "country": "CA", "postalCode": "M3K1N4", "twitter": "None", "instagram": "None", "facebook": "None", "youtube": "None", "website": "None", "summary": "None", "logo": "None", "latitude": 43.73100228365742, "longitude": -79.458586237954}, "835924564RR0001": {"name": "THE ROBERT AND SHEILA MASTERS CHARITABLE FOUNDATION", "designationCode": "B", "categoryCode": "03", "address": "65 QUEEN STREET WEST          SUITE 440", "city": "TORONTO", "province": "ON", "country": "CA", "postalCode": "M5H2M5", "twitter": "None", "instagram": "None", "facebook": "None", "youtube": "None", "website": "None", "summary": "None", "logo": "None", "latitude": 43.651729751024405, "longitude": -79.38231815000869}, "133475491RR0001": {"name": "THE ROBERT CAMPEAU FAMILY FOUNDATION", "designationCode": "B", "categoryCode": "03", "address": "227 HILLPARK HIGH STREET      BOX 8-8", "city": "ORLEANS", "province": "ON", "country": "CA", "postalCode": "K1W0B5", "twitter": "None", "instagram": "None", "facebook": "None", "youtube": "None", "website": "None", "summary": "None", "logo": "None", "latitude": 45.42826202305373, "longitude": -75.52652843104038}, "848290920RR0001": {"name": "THE ROBERT D. & JOANNE S. BANMAN HERITAGE FOUNDATION INC.", "designationCode": "B", "categoryCode": "50", "address": "LOEWEN HENDERSON & CO         200-250 MAIN STREET", "city": "STEINBACH", "province": "MB", "country": "CA", "postalCode": "R5G1Y8", "twitter": "None", "instagram": "None", "facebook": "None", "youtube": "None", "website": "None", "summary": "None", "logo": "None", "latitude": 49.52729219099226, "longitude": -96.68664924361316}, "846012219RR0001": {"name": "THE ROBERT HARDING FOUNDATION", "designationCode": "B", "categoryCode": "03", "address": "181 BAY STREET                SUITE 300 P.O. BOX 762", "city": "TORONTO", "province": "ON", "country": "CA", "postalCode": "M5J2T3", "twitter": "None", "instagram": "None", "facebook": "None", "youtube": "None", "website": "None", "summary": "None", "logo": "None", "latitude": 43.64734187870053, "longitude": -79.37943361864508}, "119121507RR0001": {"name": "THE ROBERT L. THORNBURY MEMORIAL THEOLOGICAL BURSARY FUND", "designationCode": "C", "categoryCode": "21", "address": "25 GORE STREET WEST", "city": "PERTH", "province": "ON", "country": "CA", "postalCode": "K7H2L9", "twitter": "None", "instagram": "None", "facebook": "None", "youtube": "None", "website": "None", "summary": "None", "logo": "None", "latitude": 44.90287680850015, "longitude": -76.25300162280001}, "802527945RR0001": {"name": "THE ROBERT LAND COMMUNITY ASSOCIATION", "designationCode": "C", "categoryCode": "56", "address": "460 WENTWORTH                 STN", "city": "HAMILTON", "province": "ON", "country": "CA", "postalCode": "L8L5W8", "twitter": "None", "instagram": "None", "facebook": "None", "youtube": "None", "website": "None", "summary": "None", "logo": "None", "latitude": 43.264829158751255, "longitude": -79.84342936438937}, "821314879RR0001": {"name": "THE ROBERT LAVOIE FOUNDATION", "designationCode": "B", "categoryCode": "43", "address": "10301 102 ST", "city": "GRANDE PRAIRIE", "province": "AB", "country": "CA", "postalCode": "T8V2W2", "twitter": "None", "instagram": "None", "facebook": "None", "youtube": "None", "website": "None", "summary": "None", "logo": "None", "latitude": 55.1737344970858, "longitude": -118.80125340836202}, "108094327RR0001": {"name": "THE ROBERT MCLAUGHLIN GALLERY", "designationCode": "C", "categoryCode": "22", "address": "72 QUEEN STREET               CIVIC CENTRE", "city": "OSHAWA", "province": "ON", "country": "CA", "postalCode": "L1H3Z3", "twitter": "None", "instagram": "None", "facebook": "None", "youtube": "None", "website": "None", "summary": "None", "logo": "None", "latitude": 43.89500542962674, "longitude": -78.86573776496019}, "119121549RR0001": {"name": "THE ROBERT P. PATTERSON MEMORIAL FUND", "designationCode": "C", "categoryCode": "21", "address": "1709 HOLLIS STREET            PO BOX 457", "city": "HALIFAX", "province": "NS", "country": "CA", "postalCode": "B3J2P8", "twitter": "None", "instagram": "None", "facebook": "None", "youtube": "None", "website": "None", "summary": "None", "logo": "None", "latitude": 44.647722827370295, "longitude": -63.57286089243476}, "139543433RR0001": {"name": "THE ROBERT POPE FOUNDATION", "designationCode": "C", "categoryCode": "19", "address": "PO BOX 489", "city": "HANTSPORT", "province": "NS", "country": "CA", "postalCode": "B0P1P0", "twitter": "None", "instagram": "None", "facebook": "None", "youtube": "None", "website": "None", "summary": "None", "logo": "None", "latitude": 45.054843212991415, "longitude": -64.17704290496583}, "119121630RR0001": {"name": "THE ROBERT WALKER MEMORIAL FUND", "designationCode": "C", "categoryCode": "21", "address": "945 MAIN STREET", "city": "SUSSEX", "province": "NB", "country": "CA", "postalCode": "E4E2M7", "twitter": "None", "instagram": "None", "facebook": "None", "youtube": "None", "website": "None", "summary": "None", "logo": "None", "latitude": 45.71857690227385, "longitude": -65.49571460286205}, "119121648RR0001": {"name": "THE ROBERT WOOD SINGERS INC.", "designationCode": "C", "categoryCode": "22", "address": "23 BRITANNIA AVE", "city": "WELLAND", "province": "ON", "country": "CA", "postalCode": "L3C7H4", "twitter": "None", "instagram": "None", "facebook": "None", "youtube": "None", "website": "None", "summary": "None", "logo": "None", "latitude": 43.02336600000001, "longitude": -79.24304811368208}, "890693195RR0001": {"name": "THE ROBIN HOOD FOUNDATION", "designationCode": "A", "categoryCode": "11", "address": "141 BROADWAY BLVD", "city": "SHERWOOD PARK", "province": "AB", "country": "CA", "postalCode": "T8H2A4", "twitter": "None", "instagram": "None", "facebook": "None", "youtube": "None", "website": "None", "summary": "None", "logo": "None", "latitude": 53.54324910825775, "longitude": -113.31108903869253}, "860428903RR0001": {"name": "THE ROBIN SHARMA FOUNDATION FOR CHILDREN", "designationCode": "B", "categoryCode": "03", "address": "92B SCOLLARD ST               2ND FLOOR", "city": "TORONTO", "province": "ON", "country": "CA", "postalCode": "M5R1G2", "twitter": "None", "instagram": "None", "facebook": "None", "youtube": "None", "website": "None", "summary": "None", "logo": "None", "latitude": 43.67199317179497, "longitude": -79.39151037845697}, "891143380RR0001": {"name": "THE ROBINS, APPLEBY CHARITABLE FOUNDATION", "designationCode": "B", "categoryCode": "23", "address": "2600-120 ADELAIDE ST W", "city": "TORONTO", "province": "ON", "country": "CA", "postalCode": "M5H1T1", "twitter": "None", "instagram": "None", "facebook": "None", "youtube": "None", "website": "None", "summary": "None", "logo": "None", "latitude": 43.649477136880044, "longitude": -79.38292947726339}, "860751593RR0001": {"name": "THE ROCCO AND IRENE PANTALONE FAMILY FOUNDATION", "designationCode": "B", "categoryCode": "03", "address": "STE 1-291 EDGELEY BLVD", "city": "CONCORD", "province": "ON", "country": "CA", "postalCode": "L4K3Z4", "twitter": "None", "instagram": "None", "facebook": "None", "youtube": "None", "website": "None", "summary": "None", "logo": "None", "latitude": 43.80023908355925, "longitude": -79.5340885355768}, "108068693RR0001": {"name": "THE ROCK CHRISTIAN COMMUNITY", "designationCode": "C", "categoryCode": "39", "address": "4908 SCOTT AVE", "city": "TERRACE", "province": "BC", "country": "CA", "postalCode": "V8G2B8", "twitter": "None", "instagram": "None", "facebook": "None", "youtube": "None", "website": "None", "summary": "None", "logo": "None", "latitude": 54.52350438054686, "longitude": -128.6066478152808}, "890108293RR0001": {"name": "THE ROCK CHURCH INC", "designationCode": "C", "categoryCode": "39", "address": "BOX 7875", "city": "SASKATOON", "province": "SK", "country": "CA", "postalCode": "S7K4R5", "twitter": "None", "instagram": "None", "facebook": "None", "youtube": "None", "website": "None", "summary": "None", "logo": "None", "latitude": 52.13049000000005, "longitude": -106.65926449999994}, "890970148RR0001": {"name": "THE ROCK LUTHERAN INNER CITY SOCIETY", "designationCode": "C", "categoryCode": "09", "address": "11004 96 ST NW", "city": "EDMONTON", "province": "AB", "country": "CA", "postalCode": "T5H2K8", "twitter": "None", "instagram": "None", "facebook": "None", "youtube": "None", "website": "None", "summary": "None", "logo": "None", "latitude": 53.55799063835194, "longitude": -113.48896742287472}, "857721773RR0001": {"name": "THE ROCK MINISTRIES AND CHURCH (VEGREVILLE)", "designationCode": "C", "categoryCode": "39", "address": "PO BOX 63                     5014 50 STREET", "city": "VEGREVILLE", "province": "AB", "country": "CA", "postalCode": "T9C1R1", "twitter": "None", "instagram": "None", "facebook": "None", "youtube": "None", "website": "None", "summary": "None", "logo": "None", "latitude": 53.49513643909046, "longitude": -112.05252125454417}, "862108412RR0001": {"name": "THE ROCK OF SALVATION COMMUNITY CHURCH", "designationCode": "C", "categoryCode": "39", "address": "13954 113A AVE", "city": "SURREY", "province": "BC", "country": "CA", "postalCode": "V3R2K2", "twitter": "None", "instagram": "None", "facebook": "None", "youtube": "None", "website": "None", "summary": "None", "logo": "None", "latitude": 49.2085585434244, "longitude": -122.83541010935426}, "832530729RR0001": {"name": "THE ROCK ON CAMPUS", "designationCode": "C", "categoryCode": "49", "address": "34388 GRANTON LINE            BOX 848", "city": "GRANTON", "province": "ON", "country": "CA", "postalCode": "N0M1V0", "twitter": "None", "instagram": "None", "facebook": "None", "youtube": "None", "website": "None", "summary": "None", "logo": "None", "latitude": 43.21685041993188, "longitude": -81.3010761907787}, "821006160RR0001": {"name": "THE ROCK UNITED PENTECOSTAL CHURCH", "designationCode": "C", "categoryCode": "39", "address": "25019 35 RD N                 SS 1", "city": "KLEEFELD", "province": "MB", "country": "CA", "postalCode": "R0A0V1", "twitter": "None", "instagram": "None", "facebook": "None", "youtube": "None", "website": "None", "summary": "None", "logo": "None", "latitude": 49.51734704780274, "longitude": -96.89268156041842}, "880419502RR0001": {"name": "THE ROCK VICTORY CHURCH", "designationCode": "C", "categoryCode": "39", "address": "BOX 1165", "city": "ONOWAY", "province": "AB", "country": "CA", "postalCode": "T0E1V0", "twitter": "None", "instagram": "None", "facebook": "None", "youtube": "None", "website": "None", "summary": "None", "logo": "None", "latitude": 53.70302000000004, "longitude": -114.19152999999994}, "119047116RR0001": {"name": "THE ROCK VINEYARD CHRISTIAN FELLOWSHIP", "designationCode": "C", "categoryCode": "39", "address": "11 WILTON RD", "city": "GUELPH", "province": "ON", "country": "CA", "postalCode": "N1E7L5", "twitter": "None", "instagram": "None", "facebook": "None", "youtube": "None", "website": "None", "summary": "None", "logo": "None", "latitude": 43.576677703012365, "longitude": -80.26947425532357}, "107907404RR0001": {"name": "THE ROCKY CHRISTIAN SCHOOL SOCIETY", "designationCode": "C", "categoryCode": "20", "address": "5204 54 AVENUE", "city": "ROCKY MOUNTAIN HOUSE", "province": "AB", "country": "CA", "postalCode": "T4T1S5", "twitter": "None", "instagram": "None", "facebook": "None", "youtube": "None", "website": "None", "summary": "None", "logo": "None", "latitude": 52.38074147821569, "longitude": -114.922422}, "119122224RR0002": {"name": "THE ROCKY MOUNTAIN HOUSE CONGREGATION OF JEHOVAH'S WITNESSES, ALBERTA", "designationCode": "C", "categoryCode": "61", "address": "#107 5735 54 ST.", "city": "ROCKY MOUNTAIN HOUSE", "province": "AB", "country": "CA", "postalCode": "T4T1S1", "twitter": "None", "instagram": "None", "facebook": "None", "youtube": "None", "website": "None", "summary": "None", "logo": "None", "latitude": 52.386795000000006, "longitude": -114.92521800360667}, "123173742RR0001": {"name": "THE ROCKY VIEW FOUNDATION", "designationCode": "C", "categoryCode": "09", "address": "#201-553 KINGSVIEW WAY SE", "city": "AIRDRIE", "province": "AB", "country": "CA", "postalCode": "T4A0C9", "twitter": "None", "instagram": "None", "facebook": "None", "youtube": "None", "website": "None", "summary": "None", "logo": "None", "latitude": 51.2612486319444, "longitude": -113.99649867487081}, "880186721RR0001": {"name": "THE ROGAN FOUNDATION", "designationCode": "B", "categoryCode": "03", "address": "5402-66 WELLINGTON ST W       TD BANK TWR BOX 166", "city": "TORONTO", "province": "ON", "country": "CA", "postalCode": "M5K1H6", "twitter": "None", "instagram": "None", "facebook": "None", "youtube": "None", "website": "None", "summary": "None", "logo": "None", "latitude": 43.64868300000006, "longitude": -79.38544399999994}, "889115176RR0001": {"name": "THE ROGERS FOUNDATION", "designationCode": "B", "categoryCode": "03", "address": "130 KING ST.W. 20TH FLOOR     BOX 430, FIRST CANADIAN PLACE", "city": "TORONTO", "province": "ON", "country": "CA", "postalCode": "M5X1K1", "twitter": "None", "instagram": "None", "facebook": "None", "youtube": "None", "website": "None", "summary": "None", "logo": "None", "latitude": 43.64826932503962, "longitude": -79.38190945606182}, "119122539RR0001": {"name": "THE ROLLING HILLS AGRICULTURAL SOCIETY", "designationCode": "C", "categoryCode": "56", "address": "PO BOX 28", "city": "ROLLING HILLS", "province": "AB", "country": "CA", "postalCode": "T0J2S0", "twitter": "None", "instagram": "None", "facebook": "None", "youtube": "None", "website": "None", "summary": "None", "logo": "None"}, "107909798RR0001": {"name": "THE ROLLING RIVER SCHOOL DIVISION", "designationCode": "C", "categoryCode": "21", "address": "PO BOX 1170", "city": "MINNEDOSA", "province": "MB", "country": "CA", "postalCode": "R0J1E0", "twitter": "None", "instagram": "None", "facebook": "None", "youtube": "None", "website": "None", "summary": "None", "logo": "None", "latitude": 50.35204290882316, "longitude": -100.20187636199029}, "130091135RR0017": {"name": "THE ROMAN CATHOLIC ARCHBISHOP OF MONCTON/L'ARCHEVEQUE CATHOLIQUE ROMAIN DE MONCTON", "designationCode": "C", "categoryCode": "38", "address": "104 - 224 ST GEORGE ST", "city": "MONCTON", "province": "NB", "country": "CA", "postalCode": "E1C0V1", "twitter": "None", "instagram": "None", "facebook": "None", "youtube": "None", "website": "None", "summary": "None", "logo": "None", "latitude": 46.091258323328, "longitude": -64.78201802616324}, "106880073RR0001": {"name": "THE ROMAN CATHOLIC BISHOP OF KAMLOOPS", "designationCode": "C", "categoryCode": "38", "address": "635A TRANQUILLE RD", "city": "KAMLOOPS", "province": "BC", "country": "CA", "postalCode": "V2B3H5", "twitter": "None", "instagram": "None", "facebook": "None", "youtube": "None", "website": "None", "summary": "None", "logo": "None", "latitude": 50.69513785619937, "longitude": -120.36046005142083}, "106880073RR0029": {"name": "THE ROMAN CATHOLIC BISHOP OF KAMLOOPS - OUR LADY OF FATIMA PARISH", "designationCode": "C", "categoryCode": "38", "address": "60-1 ST SE", "city": "SALMON ARM", "province": "BC", "country": "CA", "postalCode": "V1E4H4", "twitter": "None", "instagram": "None", "facebook": "None", "youtube": "None", "website": "None", "summary": "None", "logo": "None", "latitude": 50.69907933527614, "longitude": -119.28369864276667}, "106880073RR0009": {"name": "THE ROMAN CATHOLIC BISHOP OF KAMLOOPS BLESSED SACRAMENT PARISH", "designationCode": "C", "categoryCode": "38", "address": "PO BOX 291", "city": "CHASE", "province": "BC", "country": "CA", "postalCode": "V0E1M0", "twitter": "None", "instagram": "None", "facebook": "None", "youtube": "None", "website": "None", "summary": "None", "logo": "None", "latitude": 50.81957044779206, "longitude": -119.68762346689822}, "106880073RR0004": {"name": "THE ROMAN CATHOLIC BISHOP OF KAMLOOPS CHILCOTIN MISSIONS", "designationCode": "C", "categoryCode": "38", "address": "450 PIGEON AVE", "city": "WILLIAMS LAKE", "province": "BC", "country": "CA", "postalCode": "V2G2A9", "twitter": "None", "instagram": "None", "facebook": "None", "youtube": "None", "website": "None", "summary": "None", "logo": "None", "latitude": 52.13624280324869, "longitude": -122.146568001299}, "106880073RR0031": {"name": "THE ROMAN CATHOLIC BISHOP OF KAMLOOPS GOOD SHEPHERD PARISH", "designationCode": "C", "categoryCode": "38", "address": "PO BOX 372", "city": "VALEMOUNT", "province": "BC", "country": "CA", "postalCode": "V0E2Z0", "twitter": "None", "instagram": "None", "facebook": "None", "youtube": "None", "website": "None", "summary": "None", "logo": "None", "latitude": 52.82816000000008, "longitude": -119.27765}, "106880073RR0015": {"name": "THE ROMAN CATHOLIC BISHOP OF KAMLOOPS HOLY FAMILY PARISH", "designationCode": "C", "categoryCode": "38", "address": "2797 SUNSET DRIVE", "city": "KAMLOOPS", "province": "BC", "country": "CA", "postalCode": "V2C4K7", "twitter": "None", "instagram": "None", "facebook": "None", "youtube": "None", "website": "None", "summary": "None", "logo": "None", "latitude": 50.67269474049283, "longitude": -120.23390629404477}, "106880073RR0008": {"name": "THE ROMAN CATHOLIC BISHOP OF KAMLOOPS IMMACULATE HEART OF MARY SHRINE", "designationCode": "C", "categoryCode": "38", "address": "635A TRANQUILLE RD", "city": "KAMLOOPS", "province": "BC", "country": "CA", "postalCode": "V2B3H5", "twitter": "None", "instagram": "None", "facebook": "None", "youtube": "None", "website": "None", "summary": "None", "logo": "None", "latitude": 50.69513785619937, "longitude": -120.36046005142083}, "106880073RR0020": {"name": "THE ROMAN CATHOLIC BISHOP OF KAMLOOPS LILLOOET CATHOLIC MISSIONS", "designationCode": "C", "categoryCode": "38", "address": "PO BOX 345", "city": "LILLOOET", "province": "BC", "country": "CA", "postalCode": "V0K1V0", "twitter": "None", "instagram": "None", "facebook": "None", "youtube": "None", "website": "None", "summary": "None", "logo": "None"}, "106880073RR0014": {"name": "THE ROMAN CATHOLIC BISHOP OF KAMLOOPS OUR LADY OF LOURDES PARISH", "designationCode": "C", "categoryCode": "38", "address": "2826 BANK ROAD", "city": "KAMLOOPS", "province": "BC", "country": "CA", "postalCode": "V2B8E5", "twitter": "None", "instagram": "None", "facebook": "None", "youtube": "None", "website": "None", "summary": "None", "logo": "None", "latitude": 50.75427100167344, "longitude": -120.34750223232717}, "106880073RR0016": {"name": "THE ROMAN CATHOLIC BISHOP OF KAMLOOPS OUR LADY OF PERPETUAL HELP PARISH", "designationCode": "C", "categoryCode": "38", "address": "635 TRANQUILLE RD", "city": "KAMLOOPS", "province": "BC", "country": "CA", "postalCode": "V2B3H5", "twitter": "None", "instagram": "None", "facebook": "None", "youtube": "None", "website": "None", "summary": "None", "logo": "None", "latitude": 50.695160699694156, "longitude": -120.36044709244604}, "106880073RR0012": {"name": "THE ROMAN CATHOLIC BISHOP OF KAMLOOPS OUR LADY OF THE VALLEY PARISH", "designationCode": "C", "categoryCode": "38", "address": "2607 27 ST", "city": "VERNON", "province": "BC", "country": "CA", "postalCode": "V1T4W1", "twitter": "None", "instagram": "None", "facebook": "None", "youtube": "None", "website": "None", "summary": "None", "logo": "None", "latitude": 50.261949922009364, "longitude": -119.26654052132295}, "106880073RR0022": {"name": "THE ROMAN CATHOLIC BISHOP OF KAMLOOPS SACRED HEART PARISH", "designationCode": "C", "categoryCode": "38", "address": "PO BOX 26", "city": "LUMBY", "province": "BC", "country": "CA", "postalCode": "V0E2G0", "twitter": "None", "instagram": "None", "facebook": "None", "youtube": "None", "website": "None", "summary": "None", "logo": "None", "latitude": 50.247340000000065, "longitude": -118.96645999999998}, "106880073RR0023": {"name": "THE ROMAN CATHOLIC BISHOP OF KAMLOOPS SACRED HEART PARISH", "designationCode": "C", "categoryCode": "38", "address": "PO BOX 732 STN MAIN", "city": "MERRITT", "province": "BC", "country": "CA", "postalCode": "V1K1B8", "twitter": "None", "instagram": "None", "facebook": "None", "youtube": "None", "website": "None", "summary": "None", "logo": "None", "latitude": 50.110601889565906, "longitude": -120.80346822143058}, "106880073RR0034": {"name": "THE ROMAN CATHOLIC BISHOP OF KAMLOOPS SACRED HEART PARISH", "designationCode": "C", "categoryCode": "38", "address": "450 PIGEON AVE", "city": "WILLIAMS LAKE", "province": "BC", "country": "CA", "postalCode": "V2G2A9", "twitter": "None", "instagram": "None", "facebook": "None", "youtube": "None", "website": "None", "summary": "None", "logo": "None", "latitude": 52.13624280324869, "longitude": -122.146568001299}, "106880073RR0027": {"name": "THE ROMAN CATHOLIC BISHOP OF KAMLOOPS ST. ANN'S PARISH", "designationCode": "C", "categoryCode": "38", "address": "100 SUTHERLAND AVE", "city": "QUESNEL", "province": "BC", "country": "CA", "postalCode": "V2J2J5", "twitter": "None", "instagram": "None", "facebook": "None", "youtube": "None", "website": "None", "summary": "None", "logo": "None", "latitude": 52.98723584788518, "longitude": -122.49900622095886}, "106880073RR0024": {"name": "THE ROMAN CATHOLIC BISHOP OF KAMLOOPS ST. CHRISTOPER'S PARISH", "designationCode": "C", "categoryCode": "38", "address": "6299 LORIMER ROAD", "city": "WHISTLER", "province": "BC", "country": "CA", "postalCode": "V0N1B6", "twitter": "None", "instagram": "None", "facebook": "None", "youtube": "None", "website": "None", "summary": "None", "logo": "None", "latitude": 50.12654056670927, "longitude": -122.97086744659136}, "106880073RR0006": {"name": "THE ROMAN CATHOLIC BISHOP OF KAMLOOPS ST. GERARD'S PARISH", "designationCode": "C", "categoryCode": "38", "address": "635A TRANQUILLE RD", "city": "KAMLOOPS", "province": "BC", "country": "CA", "postalCode": "V2B3H5", "twitter": "None", "instagram": "None", "facebook": "None", "youtube": "None", "website": "None", "summary": "None", "logo": "None", "latitude": 50.69513785619937, "longitude": -120.36046005142083}, "106880073RR0032": {"name": "THE ROMAN CATHOLIC BISHOP OF KAMLOOPS ST. JAMES PARISH", "designationCode": "C", "categoryCode": "38", "address": "2607 27 ST", "city": "VERNON", "province": "BC", "country": "CA", "postalCode": "V1T4W1", "twitter": "None", "instagram": "None", "facebook": "None", "youtube": "None", "website": "None", "summary": "None", "logo": "None", "latitude": 50.261949922009364, "longitude": -119.26654052132295}, "106880073RR0019": {"name": "THE ROMAN CATHOLIC BISHOP OF KAMLOOPS ST. JOHN THE BAPTIST PARISH", "designationCode": "C", "categoryCode": "38", "address": "PO BOX 345", "city": "LILLOOET", "province": "BC", "country": "CA", "postalCode": "V0K1V0", "twitter": "None", "instagram": "None", "facebook": "None", "youtube": "None", "website": "None", "summary": "None", "logo": "None", "latitude": 50.70518720689823, "longitude": -121.90890624938581}}