{"118955954RR0001": {"name": "HEMOPHILIA ONTARIO", "designationCode": "C", "categoryCode": "11", "address": "4711 YONGE STREET #10100", "city": "TORONTO", "province": "ON", "country": "CA", "postalCode": "M2N6K8", "twitter": "None", "instagram": "None", "facebook": "None", "youtube": "None", "website": "None", "summary": "None", "logo": "None", "latitude": 43.759558172918176, "longitude": -79.41040466036738}, "119139954RR0001": {"name": "HEMOPHILIA SASKATCHEWAN", "designationCode": "C", "categoryCode": "11", "address": "2366 AVENUE C NORTH", "city": "SASKATOON", "province": "SK", "country": "CA", "postalCode": "S7L5X5", "twitter": "None", "instagram": "None", "facebook": "None", "youtube": "None", "website": "None", "summary": "None", "logo": "None", "latitude": 52.16308015774813, "longitude": -106.67418846108548}, "119030666RR0042": {"name": "HENDERSON HIGHWAY SEVENTH-DAY ADVENTIST CHURCH", "designationCode": "C", "categoryCode": "41", "address": "1004 VICTORIA AVENUE", "city": "SASKATOON", "province": "SK", "country": "CA", "postalCode": "S7N0Z8", "twitter": "None", "instagram": "None", "facebook": "None", "youtube": "None", "website": "None", "summary": "None", "logo": "None", "latitude": 52.115409, "longitude": -106.66240826773014}, "892785361RR0001": {"name": "HENNEPIN COUNCIL NO 1652 CHARITABLE TRUST", "designationCode": "A", "categoryCode": "65", "address": "6101 NORTH STREET", "city": "NIAGARA FALLS", "province": "ON", "country": "CA", "postalCode": "L2G1J7", "twitter": "None", "instagram": "None", "facebook": "None", "youtube": "None", "website": "None", "summary": "None", "logo": "None", "latitude": 43.09313150158652, "longitude": -79.09575057951986}, "858978281RR0001": {"name": "HENRI NOUWEN SOCIETY", "designationCode": "C", "categoryCode": "49", "address": "214 - 95 ST JOSEPH ST", "city": "TORONTO", "province": "ON", "country": "CA", "postalCode": "M5S2R9", "twitter": "None", "instagram": "None", "facebook": "None", "youtube": "None", "website": "None", "summary": "None", "logo": "None", "latitude": 43.66538190365883, "longitude": -79.38863533345845}, "859765364RR0001": {"name": "HENRY GUSSE FOUNDATION", "designationCode": "B", "categoryCode": "05", "address": "522 HEFFERNAN DRIVE", "city": "EDMONTON", "province": "AB", "country": "CA", "postalCode": "T6R2K5", "twitter": "None", "instagram": "None", "facebook": "None", "youtube": "None", "website": "None", "summary": "None", "logo": "None", "latitude": 53.47318112268446, "longitude": -113.60121837359328}, "119369544RR0001": {"name": "HENRY HINN MINISTRIES SOCIETY", "designationCode": "C", "categoryCode": "47", "address": "12161 59TH AVE", "city": "SURREY", "province": "BC", "country": "CA", "postalCode": "V3X3L4", "twitter": "None", "instagram": "None", "facebook": "None", "youtube": "None", "website": "None", "summary": "None", "logo": "None", "latitude": 49.10962246378896, "longitude": -122.88566160935426}, "871047361RR0001": {"name": "HENRY JAMES CAMBIE SECONDARY SCHOOL TRUST FUND", "designationCode": "C", "categoryCode": "21", "address": "4151 JACOMBS ROAD", "city": "RICHMOND", "province": "BC", "country": "CA", "postalCode": "V6V1N7", "twitter": "None", "instagram": "None", "facebook": "None", "youtube": "None", "website": "None", "summary": "None", "logo": "None", "latitude": 49.18323556215828, "longitude": -123.08038823347697}, "886298595RR0001": {"name": "HENRY M DURAND SCHOLARSHIP FOUNDATION", "designationCode": "B", "categoryCode": "21", "address": "GOLDEN SEC SCHOOL             BOX 1350", "city": "GOLDEN", "province": "BC", "country": "CA", "postalCode": "V0A1H0", "twitter": "None", "instagram": "None", "facebook": "None", "youtube": "None", "website": "None", "summary": "None", "logo": "None", "latitude": 51.30019925579286, "longitude": -117.05412925860504}, "118956044RR0001": {"name": "HENSALL PASTORAL CHARGE", "designationCode": "C", "categoryCode": "44", "address": "BOX 489", "city": "HENSALL", "province": "ON", "country": "CA", "postalCode": "N0M1X0", "twitter": "None", "instagram": "None", "facebook": "None", "youtube": "None", "website": "None", "summary": "None", "logo": "None", "latitude": 43.45618301769557, "longitude": -81.44569614528069}, "118956051RR0001": {"name": "HENSALL UNION CEMETERY", "designationCode": "C", "categoryCode": "59", "address": "40219 RODGERVILLE ROAD", "city": "HENSALL", "province": "ON", "country": "CA", "postalCode": "N0M1X0", "twitter": "None", "instagram": "None", "facebook": "None", "youtube": "None", "website": "None", "summary": "None", "logo": "None", "latitude": 43.41781962666653, "longitude": -81.48136986205209}, "862398831RR0001": {"name": "HEPATITES RESSOURCES", "designationCode": "C", "categoryCode": "11", "address": "109, RUE BRUNELLE", "city": "TROIS-RIVIERES", "province": "QC", "country": "CA", "postalCode": "G8T6A3", "twitter": "None", "instagram": "None", "facebook": "None", "youtube": "None", "website": "None", "summary": "None", "logo": "None", "latitude": 46.363435334987685, "longitude": -72.5121406608574}, "885513523RR0001": {"name": "HEPATITIS OUTREACH SOCIETY OF NOVA SCOTIA", "designationCode": "C", "categoryCode": "11", "address": "PO BOX 29120                  RPO HAL SHOP CENTRE", "city": "HALIFAX", "province": "NS", "country": "CA", "postalCode": "B3L4T8", "twitter": "None", "instagram": "None", "facebook": "None", "youtube": "None", "website": "None", "summary": "None", "logo": "None", "latitude": 44.65086900000006, "longitude": -63.61343899999993}, "118956085RR0001": {"name": "HEPBURN GOLDEN AGE CENTRE", "designationCode": "C", "categoryCode": "56", "address": "PO BOX 191", "city": "HEPBURN", "province": "SK", "country": "CA", "postalCode": "S0K1Z0", "twitter": "None", "instagram": "None", "facebook": "None", "youtube": "None", "website": "None", "summary": "None", "logo": "None", "latitude": 52.51681000000008, "longitude": -106.73447999999996}, "107477994RR0001": {"name": "HEPBURN GOSPEL CHURCH", "designationCode": "C", "categoryCode": "34", "address": "PO BOX 288", "city": "HEPBURN", "province": "SK", "country": "CA", "postalCode": "S0K1Z0", "twitter": "None", "instagram": "None", "facebook": "None", "youtube": "None", "website": "None", "summary": "None", "logo": "None", "latitude": 52.51681000000008, "longitude": -106.73447999999996}, "107478000RR0001": {"name": "HEPBURN MENNONITE BRETHREN CHURCH", "designationCode": "C", "categoryCode": "34", "address": "BOX 237", "city": "HEPBURN", "province": "SK", "country": "CA", "postalCode": "S0K1Z0", "twitter": "None", "instagram": "None", "facebook": "None", "youtube": "None", "website": "None", "summary": "None", "logo": "None", "latitude": 52.51681000000008, "longitude": -106.73447999999996}, "138969316RR0001": {"name": "HEPBURN MUSEUM OF WHEAT, INC", "designationCode": "C", "categoryCode": "50", "address": "BOX 69", "city": "HEPBURN", "province": "SK", "country": "CA", "postalCode": "S0K1Z0", "twitter": "None", "instagram": "None", "facebook": "None", "youtube": "None", "website": "None", "summary": "None", "logo": "None", "latitude": 52.51681000000008, "longitude": -106.73447999999996}, "868004979RR0001": {"name": "HEPCBC - HEPATITIS C EDUCATION AND PREVENTION SOCIETY", "designationCode": "C", "categoryCode": "11", "address": "101-76 GORGE RD W", "city": "VICTORIA", "province": "BC", "country": "CA", "postalCode": "V9A1M1", "twitter": "None", "instagram": "None", "facebook": "None", "youtube": "None", "website": "None", "summary": "None", "logo": "None", "latitude": 48.44514401861033, "longitude": -123.39260434927016}, "880814405RR0001": {"name": "HEPPELL FAMILY FOUNDATION", "designationCode": "B", "categoryCode": "03", "address": "3788 184 ST", "city": "SURREY", "province": "BC", "country": "CA", "postalCode": "V3Z1B8", "twitter": "None", "instagram": "None", "facebook": "None", "youtube": "None", "website": "None", "summary": "None", "logo": "None"}, "118934264RR0001": {"name": "HEPWORTH BAPTIST CHURCH", "designationCode": "C", "categoryCode": "31", "address": "P.O. BOX 125", "city": "HEPWORTH", "province": "ON", "country": "CA", "postalCode": "N0H1P0", "twitter": "None", "instagram": "None", "facebook": "None", "youtube": "None", "website": "None", "summary": "None", "logo": "None", "latitude": 44.633800000000065, "longitude": -81.13093999999995}, "108084195RR0001": {"name": "HEPWORTH SAUBLE BEACH PASTORAL CHARGE", "designationCode": "C", "categoryCode": "44", "address": "899 MAIN ST", "city": "SAUBLE BEACH", "province": "ON", "country": "CA", "postalCode": "N0H2G0", "twitter": "None", "instagram": "None", "facebook": "None", "youtube": "None", "website": "None", "summary": "None", "logo": "None", "latitude": 44.63033350172982, "longitude": -81.24230294422635}, "897452405RR0001": {"name": "HER INTERNATIONAL FOUNDATION", "designationCode": "C", "categoryCode": "09", "address": "PO BOX 30034 RPO GLENMORE", "city": "KELOWNA", "province": "BC", "country": "CA", "postalCode": "V1V2M4", "twitter": "None", "instagram": "None", "facebook": "None", "youtube": "None", "website": "None", "summary": "None", "logo": "None", "latitude": 49.90126938869537, "longitude": -119.45376115282615}, "118958784RR0002": {"name": "HER MAJESTY'S ROYAL CHAPEL OF THE MOHAWKS (ST. PAUL'S)", "designationCode": "C", "categoryCode": "39", "address": "P.O. BOX 22074                794 COLBORNE ST. E.", "city": "BRANTFORD", "province": "ON", "country": "CA", "postalCode": "N3S7V1", "twitter": "None", "instagram": "None", "facebook": "None", "youtube": "None", "website": "None", "summary": "None", "logo": "None", "latitude": 43.143912044139725, "longitude": -80.22602760888155}, "820246346RR0001": {"name": "HERALD MINISTRIES INTERNATIONAL", "designationCode": "C", "categoryCode": "47", "address": "1500 WEST GEORGIA STREET      BOX 62  SUITE 1250", "city": "VANCOUVER", "province": "BC", "country": "CA", "postalCode": "V6G2Z6", "twitter": "None", "instagram": "None", "facebook": "None", "youtube": "None", "website": "None", "summary": "None", "logo": "None", "latitude": 49.29013479542975, "longitude": -123.1300069287031}, "873347769RR0001": {"name": "HERALDS OF HOPE, INC", "designationCode": "C", "categoryCode": "47", "address": "PO BOX 371", "city": "FORT FRANCES", "province": "ON", "country": "CA", "postalCode": "P9A3M7", "twitter": "None", "instagram": "None", "facebook": "None", "youtube": "None", "website": "None", "summary": "None", "logo": "None", "latitude": 48.610023000000055, "longitude": -93.39111349999993}, "893842724RR0001": {"name": "HERALDS OF THE GOSPEL CANADA - H\u00c9RAUTS DE L'\u00c9VANGILE CANADA", "designationCode": "C", "categoryCode": "47", "address": "5535 17TH SIDE ROAD", "city": "SCHOMBERG", "province": "ON", "country": "CA", "postalCode": "L0G1T0", "twitter": "None", "instagram": "None", "facebook": "None", "youtube": "None", "website": "None", "summary": "None", "logo": "None", "latitude": 43.959918342602705, "longitude": -79.6506650247298}, "883821928RR0001": {"name": "HERALDS OF THE KING TABERNACLE", "designationCode": "C", "categoryCode": "39", "address": "2 EASTPARK BLVD", "city": "SCARBOROUGH", "province": "ON", "country": "CA", "postalCode": "M1H1C4", "twitter": "None", "instagram": "None", "facebook": "None", "youtube": "None", "website": "None", "summary": "None", "logo": "None", "latitude": 43.75563116515657, "longitude": -79.23446603886542}, "118956234RR0001": {"name": "HERB ISSLER MINISTRIES", "designationCode": "C", "categoryCode": "47", "address": "24-2200 GORDON DR", "city": "KELOWNA", "province": "BC", "country": "CA", "postalCode": "V1Y8T7", "twitter": "None", "instagram": "None", "facebook": "None", "youtube": "None", "website": "None", "summary": "None", "logo": "None", "latitude": 49.874025514929485, "longitude": -119.47682813941461}, "107478281RR0001": {"name": "HERBERT GROUP HOME INC.", "designationCode": "C", "categoryCode": "01", "address": "BOX 578", "city": "HERBERT", "province": "SK", "country": "CA", "postalCode": "S0H2A0", "twitter": "None", "instagram": "None", "facebook": "None", "youtube": "None", "website": "None", "summary": "None", "logo": "None", "latitude": 50.42651921542417, "longitude": -107.22535903213169}, "892450842RR0001": {"name": "HERBERT H CARNEGIE FUTURE ACES FOUNDATION", "designationCode": "C", "categoryCode": "21", "address": "210 - 125 NORFINCH DR", "city": "NORTH YORK", "province": "ON", "country": "CA", "postalCode": "M3N1W8", "twitter": "None", "instagram": "None", "facebook": "None", "youtube": "None", "website": "None", "summary": "None", "logo": "None", "latitude": 43.76251858618498, "longitude": -79.52945431398275}, "120659768RR0001": {"name": "HERBERT HERITAGE ASSOCIASTION INC", "designationCode": "C", "categoryCode": "52", "address": "BOX 202", "city": "HERBERT", "province": "SK", "country": "CA", "postalCode": "S0H2A0", "twitter": "None", "instagram": "None", "facebook": "None", "youtube": "None", "website": "None", "summary": "None", "logo": "None", "latitude": 50.42651921542417, "longitude": -107.22535903213169}, "131295792RR0001": {"name": "HERBERT HERITAGE MANOR", "designationCode": "C", "categoryCode": "01", "address": "P.O. BOX 10", "city": "HERBERT", "province": "SK", "country": "CA", "postalCode": "S0H2A0", "twitter": "None", "instagram": "None", "facebook": "None", "youtube": "None", "website": "None", "summary": "None", "logo": "None", "latitude": 50.42651921542417, "longitude": -107.22535903213169}, "118956200RR0001": {"name": "HERBERT NEW HORIZON GROUP INC.", "designationCode": "C", "categoryCode": "56", "address": "PO BOX 275", "city": "HERBERT", "province": "SK", "country": "CA", "postalCode": "S0H2A0", "twitter": "None", "instagram": "None", "facebook": "None", "youtube": "None", "website": "None", "summary": "None", "logo": "None", "latitude": 50.42651921542417, "longitude": -107.22535903213169}, "856019336RR0001": {"name": "HEREDITARY BREAST OVARIAN CANCER SOCIETY OF ALBERTA", "designationCode": "C", "categoryCode": "11", "address": "114 11728 KINGSWAY AVE", "city": "EDMONTON", "province": "AB", "country": "CA", "postalCode": "T5G0X5", "twitter": "None", "instagram": "None", "facebook": "None", "youtube": "None", "website": "None", "summary": "None", "logo": "None", "latitude": 53.56690621039864, "longitude": -113.52172624920674}, "118956242RR0001": {"name": "HERITAGE ACTON", "designationCode": "C", "categoryCode": "52", "address": "19 WILLOW STREET NORTH", "city": "ACTON", "province": "ON", "country": "CA", "postalCode": "L7J1Z6", "twitter": "None", "instagram": "None", "facebook": "None", "youtube": "None", "website": "None", "summary": "None", "logo": "None", "latitude": 43.630906976138235, "longitude": -80.04135489549317}, "132646126RR0001": {"name": "HERITAGE ALLIANCE CHURCH", "designationCode": "C", "categoryCode": "39", "address": "3440 MT-LEHMAN RD", "city": "ABBOTSFORD", "province": "BC", "country": "CA", "postalCode": "V4X2M9", "twitter": "None", "instagram": "None", "facebook": "None", "youtube": "None", "website": "None", "summary": "None", "logo": "None", "latitude": 49.06469658090484, "longitude": -122.38115806769021}, "132974239RR0001": {"name": "HERITAGE ALLIANCE CHURCH", "designationCode": "C", "categoryCode": "39", "address": "3575 HILLSDALE ST", "city": "REGINA", "province": "SK", "country": "CA", "postalCode": "S4S3Y4", "twitter": "None", "instagram": "None", "facebook": "None", "youtube": "None", "website": "None", "summary": "None", "logo": "None", "latitude": 50.42242825145709, "longitude": -104.60150991139179}, "888669462RR0001": {"name": "HERITAGE ASSOCIATION OF ANTIGONISH", "designationCode": "C", "categoryCode": "50", "address": "20 EAST MAIN ST.", "city": "ANTIGONISH", "province": "NS", "country": "CA", "postalCode": "B2G2E9", "twitter": "None", "instagram": "None", "facebook": "None", "youtube": "None", "website": "None", "summary": "None", "logo": "None", "latitude": 45.62475796367341, "longitude": -61.97991720840714}, "119041994RR0001": {"name": "HERITAGE BAPTIST CHURCH", "designationCode": "C", "categoryCode": "39", "address": "3139 PALMER DR", "city": "BURLINGTON", "province": "ON", "country": "CA", "postalCode": "L7M1L3", "twitter": "None", "instagram": "None", "facebook": "None", "youtube": "None", "website": "None", "summary": "None", "logo": "None", "latitude": 43.36576923925209, "longitude": -79.81635202181297}, "858237670RR0001": {"name": "HERITAGE BAPTIST CHURCH", "designationCode": "C", "categoryCode": "31", "address": "580 HIGHWAY 224", "city": "MILFORD", "province": "NS", "country": "CA", "postalCode": "B0N1Y0", "twitter": "None", "instagram": "None", "facebook": "None", "youtube": "None", "website": "None", "summary": "None", "logo": "None", "latitude": 45.060098656803774, "longitude": -63.4327736493657}, "107478786RR0001": {"name": "HERITAGE BAPTIST CHURCH OF BARRIE ONTARIO", "designationCode": "C", "categoryCode": "31", "address": "79 ARDAGH", "city": "BARRIE", "province": "ON", "country": "CA", "postalCode": "L4N9B6", "twitter": "None", "instagram": "None", "facebook": "None", "youtube": "None", "website": "None", "summary": "None", "logo": "None", "latitude": 44.35767791144912, "longitude": -79.70278456036128}, "118842772RR0001": {"name": "HERITAGE BAPTIST CHURCH OF YORKTON INC.", "designationCode": "C", "categoryCode": "31", "address": "345 DARLINGTON STREET EAST", "city": "YORKTON", "province": "SK", "country": "CA", "postalCode": "S3N3Y9", "twitter": "None", "instagram": "None", "facebook": "None", "youtube": "None", "website": "None", "summary": "None", "logo": "None", "latitude": 51.21654152207277, "longitude": -102.43892152553522}, "107641581RR0001": {"name": "HERITAGE BAPTIST COLLEGE AND HERITAGE THEOLOGICAL SEMINARY", "designationCode": "C", "categoryCode": "20", "address": "175 HOLIDAY INN DRIVE", "city": "CAMBRIDGE", "province": "ON", "country": "CA", "postalCode": "N3C3T2", "twitter": "None", "instagram": "None", "facebook": "None", "youtube": "None", "website": "None", "summary": "None", "logo": "None", "latitude": 43.41700271665971, "longitude": -80.32373649371027}, "102333176RR0001": {"name": "HERITAGE BENEVOLENT ASSOCIATION OF MANITOBA INC.", "designationCode": "C", "categoryCode": "09", "address": "1325 ERIN STREET", "city": "WINNIPEG", "province": "MB", "country": "CA", "postalCode": "R3E3R6", "twitter": "None", "instagram": "None", "facebook": "None", "youtube": "None", "website": "None", "summary": "None", "logo": "None", "latitude": 49.898788596168295, "longitude": -97.1839816807667}, "888163045RR0001": {"name": "HERITAGE BRANCH TRUST OF THE UNITED EMPIRE LOYALISTS", "designationCode": "C", "categoryCode": "21", "address": "383 CLARKE AVE.", "city": "WESTMOUNT", "province": "QC", "country": "CA", "postalCode": "H3Z2E7", "twitter": "None", "instagram": "None", "facebook": "None", "youtube": "None", "website": "None", "summary": "None", "logo": "None", "latitude": 45.48639332696625, "longitude": -73.59333866942708}, "850221144RR0001": {"name": "HERITAGE CEMETERIES PROJECT INC.", "designationCode": "C", "categoryCode": "52", "address": "BOX 670", "city": "LANGENBURG", "province": "SK", "country": "CA", "postalCode": "S0A2A0", "twitter": "None", "instagram": "None", "facebook": "None", "youtube": "None", "website": "None", "summary": "None", "logo": "None", "latitude": 50.84159000000005, "longitude": -101.69833999999997}, "886054758RR0001": {"name": "HERITAGE CHARLEVOIX INC.", "designationCode": "C", "categoryCode": "59", "address": "135 BOULEVARD MALCOLM-FRASER", "city": "LA MALBAIE", "province": "QC", "country": "CA", "postalCode": "G5A1A2", "twitter": "None", "instagram": "None", "facebook": "None", "youtube": "None", "website": "None", "summary": "None", "logo": "None", "latitude": 47.65594450361585, "longitude": -70.12861353417284}, "840123590RR0001": {"name": "HERITAGE CHILLIWACK SOCIETY", "designationCode": "C", "categoryCode": "50", "address": "PO BOX 526 STN MAIN", "city": "CHILLIWACK", "province": "BC", "country": "CA", "postalCode": "V2P7V5", "twitter": "None", "instagram": "None", "facebook": "None", "youtube": "None", "website": "None", "summary": "None", "logo": "None", "latitude": 49.169860930294725, "longitude": -121.95627179555584}, "861278596RR0001": {"name": "HERITAGE CHRISTIAN EDUCATION SOCIETY CALGARY", "designationCode": "C", "categoryCode": "20", "address": "2003 MCKNIGHT BLVD NE", "city": "CALGARY", "province": "AB", "country": "CA", "postalCode": "T2E6L2", "twitter": "None", "instagram": "None", "facebook": "None", "youtube": "None", "website": "None", "summary": "None", "logo": "None", "latitude": 51.09267053231589, "longitude": -114.00964127699233}, "856779533RR0001": {"name": "HERITAGE CHRISTIAN MINISTRIES ASSOCIATION", "designationCode": "C", "categoryCode": "20", "address": "448 OLSEN CLOSE", "city": "EDMONTON", "province": "AB", "country": "CA", "postalCode": "T6R1L1", "twitter": "None", "instagram": "None", "facebook": "None", "youtube": "None", "website": "None", "summary": "None", "logo": "None", "latitude": 53.46478548488081, "longitude": -113.5653246594151}, "107780009RR0001": {"name": "HERITAGE CHRISTIAN SCHOOL INC.", "designationCode": "C", "categoryCode": "20", "address": "11-20TH ST W                  PO BOX 490", "city": "BATTLEFORD", "province": "SK", "country": "CA", "postalCode": "S0M0E0", "twitter": "None", "instagram": "None", "facebook": "None", "youtube": "None", "website": "None", "summary": "None", "logo": "None", "latitude": 52.734459482504995, "longitude": -108.30237059945503}, "132530239RR0001": {"name": "HERITAGE CHRISTIAN SCHOOL SOCIETY INC", "designationCode": "C", "categoryCode": "20", "address": "159 COLBORNE STREET WEST", "city": "LINDSAY", "province": "ON", "country": "CA", "postalCode": "K9V5Z8", "twitter": "None", "instagram": "None", "facebook": "None", "youtube": "None", "website": "None", "summary": "None", "logo": "None", "latitude": 44.35663792481151, "longitude": -78.75647063835041}, "886581859RR0001": {"name": "HERITAGE COLLEGE DEVELOPMENT FUND", "designationCode": "A", "categoryCode": "23", "address": "325 CITE DES JEUNES", "city": "GATINEAU", "province": "QC", "country": "CA", "postalCode": "J8Y6T3", "twitter": "None", "instagram": "None", "facebook": "None", "youtube": "None", "website": "None", "summary": "None", "logo": "None", "latitude": 45.456777114492496, "longitude": -75.76508740457504}, "862767506RR0001": {"name": "HERITAGE COLLEGIATE AWARDS FOUNDATION INC.", "designationCode": "C", "categoryCode": "21", "address": "P. O. BOX 40", "city": "LETHBRIDGE", "province": "NL", "country": "CA", "postalCode": "A0C1V0", "twitter": "None", "instagram": "None", "facebook": "None", "youtube": "None", "website": "None", "summary": "None", "logo": "None", "latitude": 48.369740000000036, "longitude": -53.85920999999996}, "118795764RR0001": {"name": "HERITAGE COMMUNITY CHRISTIAN SCHOOL", "designationCode": "C", "categoryCode": "20", "address": "7463 COUNTY ROAD 28           RR2", "city": "ADDISON", "province": "ON", "country": "CA", "postalCode": "K0E1A0", "twitter": "None", "instagram": "None", "facebook": "None", "youtube": "None", "website": "None", "summary": "None", "logo": "None", "latitude": 44.66674270599458, "longitude": -75.80455059265114}, "890757594RR0001": {"name": "HERITAGE COMMUNITY CHURCH OF COLLINGWOOD ONTARIO INC", "designationCode": "C", "categoryCode": "39", "address": "310 SEVENTH STREET", "city": "COLLINGWOOD", "province": "ON", "country": "CA", "postalCode": "L9Y2B3", "twitter": "None", "instagram": "None", "facebook": "None", "youtube": "None", "website": "None", "summary": "None", "logo": "None", "latitude": 44.49185567830621, "longitude": -80.22362201394499}, "118893379RR0001": {"name": "HERITAGE CONGREGATION OF JEHOVAH'S WITNESSES", "designationCode": "C", "categoryCode": "61", "address": "10708-43 AVE NW", "city": "EDMONTON", "province": "AB", "country": "CA", "postalCode": "T6J7G8", "twitter": "None", "instagram": "None", "facebook": "None", "youtube": "None", "website": "None", "summary": "None", "logo": "None", "latitude": 53.480626332794614, "longitude": -113.50788677240469}, "895507150RR0001": {"name": "HERITAGE DAYS (FAIRE AT THE FORKS)", "designationCode": "C", "categoryCode": "52", "address": "1032 DUFFERIN AVE", "city": "WALLACEBURG", "province": "ON", "country": "CA", "postalCode": "N8A2V8", "twitter": "None", "instagram": "None", "facebook": "None", "youtube": "None", "website": "None", "summary": "None", "logo": "None", "latitude": 42.59293446047074, "longitude": -82.39361994601535}, "138443098RR0001": {"name": "HERITAGE ESSEX INC", "designationCode": "C", "categoryCode": "50", "address": "87 STATION STREET", "city": "ESSEX", "province": "ON", "country": "CA", "postalCode": "N8M2S6", "twitter": "None", "instagram": "None", "facebook": "None", "youtube": "None", "website": "None", "summary": "None", "logo": "None", "latitude": 42.17764210832362, "longitude": -82.82130121071393}, "107478968RR0001": {"name": "HERITAGE FELLOWSHIP BAPTIST CHURCH", "designationCode": "C", "categoryCode": "31", "address": "557 GARNER ROAD WEST", "city": "ANCASTER", "province": "ON", "country": "CA", "postalCode": "L9G3K9", "twitter": "None", "instagram": "None", "facebook": "None", "youtube": "None", "website": "None", "summary": "None", "logo": "None", "latitude": 43.19749726397925, "longitude": -80.0082375811933}, "118956325RR0001": {"name": "HERITAGE FOUNDATION FOR TERRA NOVA NATIONAL PARK", "designationCode": "C", "categoryCode": "52", "address": "GENERAL DELIVERY", "city": "GLOVERTOWN", "province": "NL", "country": "CA", "postalCode": "A0G2L0", "twitter": "None", "instagram": "None", "facebook": "None", "youtube": "None", "website": "None", "summary": "None", "logo": "None", "latitude": 48.68247300000006, "longitude": -54.03195799999993}, "872456561RR0001": {"name": "HERITAGE FOUNDATION OF HALTON HILLS", "designationCode": "C", "categoryCode": "52", "address": "232A GUELPH STREET            SUITE 201", "city": "GEORGETOWN", "province": "ON", "country": "CA", "postalCode": "L7G4B1", "twitter": "None", "instagram": "None", "facebook": "None", "youtube": "None", "website": "None", "summary": "None", "logo": "None", "latitude": 43.65015811207979, "longitude": -79.90321583991395}, "882573819RR0001": {"name": "HERITAGE FREE PRESBYTERIAN CHURCH", "designationCode": "C", "categoryCode": "37", "address": "3110 ALICE DRIVE", "city": "PRINCE GEORGE", "province": "BC", "country": "CA", "postalCode": "V2K5W7", "twitter": "None", "instagram": "None", "facebook": "None", "youtube": "None", "website": "None", "summary": "None", "logo": "None", "latitude": 54.04027637780557, "longitude": -122.78209611881798}, "107797383RR0119": {"name": "HERITAGE GHANAIAN SEVENTH-DAY ADVENTIST CHURCH", "designationCode": "C", "categoryCode": "41", "address": "P.O. BOX 506, STATION B", "city": "ETOBICOKE", "province": "ON", "country": "CA", "postalCode": "M9W5L4", "twitter": "None", "instagram": "None", "facebook": "None", "youtube": "None", "website": "None", "summary": "None", "logo": "None", "latitude": 43.71154800000005, "longitude": -79.58452399999993}, "866344252RR0001": {"name": "HERITAGE GOLDENVILLE SOCIETY", "designationCode": "C", "categoryCode": "23", "address": "299 LEAD MINES RD", "city": "ASPEN", "province": "NS", "country": "CA", "postalCode": "B0H1E0", "twitter": "None", "instagram": "None", "facebook": "None", "youtube": "None", "website": "None", "summary": "None", "logo": "None", "latitude": 45.25611805571634, "longitude": -62.09133177078857}, "118956341RR0001": {"name": "HERITAGE GREEN BAPTIST CHURCH", "designationCode": "C", "categoryCode": "31", "address": "956 PARAMOUNT DR", "city": "STONEY CREEK", "province": "ON", "country": "CA", "postalCode": "L8J2M9", "twitter": "None", "instagram": "None", "facebook": "None", "youtube": "None", "website": "None", "summary": "None", "logo": "None", "latitude": 43.19330463056164, "longitude": -79.79962766166545}, "107479016RR0001": {"name": "HERITAGE GREEN NURSING HOME", "designationCode": "C", "categoryCode": "01", "address": "353 ISAAC BROCK DR", "city": "STONEY CREEK", "province": "ON", "country": "CA", "postalCode": "L8J2J3", "twitter": "None", "instagram": "None", "facebook": "None", "youtube": "None", "website": "None", "summary": "None", "logo": "None", "latitude": 43.19354616180968, "longitude": -79.78892768365132}, "102333903RR0001": {"name": "HERITAGE GREEN SENIORS CENTRE", "designationCode": "C", "categoryCode": "01", "address": "351 ISAAC BROCK DRIVE", "city": "STONEY CREEK", "province": "ON", "country": "CA", "postalCode": "L8J1Y1", "twitter": "None", "instagram": "None", "facebook": "None", "youtube": "None", "website": "None", "summary": "None", "logo": "None", "latitude": 43.19315974854291, "longitude": -79.788929230393}, "107797383RR0048": {"name": "HERITAGE GREEN SEVENTH-DAY ADVENTIST CHURCH", "designationCode": "C", "categoryCode": "41", "address": "353 ISSAC BROCK DR.", "city": "STONEY CREEK", "province": "ON", "country": "CA", "postalCode": "L8J2J3", "twitter": "None", "instagram": "None", "facebook": "None", "youtube": "None", "website": "None", "summary": "None", "logo": "None", "latitude": 43.19354616180968, "longitude": -79.78892768365132}, "119028272RR0001": {"name": "HERITAGE HALL PRESERVATION SOCIETY", "designationCode": "C", "categoryCode": "52", "address": "HERITAGE HALL                 3102 MAIN ST MEZZANINE", "city": "VANCOUVER", "province": "BC", "country": "CA", "postalCode": "V5T3G7", "twitter": "None", "instagram": "None", "facebook": "None", "youtube": "None", "website": "None", "summary": "None", "logo": "None", "latitude": 49.257205292255776, "longitude": -123.10116061876066}, "118956358RR0001": {"name": "HERITAGE HAMILTON FOUNDATION", "designationCode": "C", "categoryCode": "52", "address": "PO BOX 89016 WESTDALE POSTAL O", "city": "HAMILTON", "province": "ON", "country": "CA", "postalCode": "L8S4R5", "twitter": "None", "instagram": "None", "facebook": "None", "youtube": "None", "website": "None", "summary": "None", "logo": "None", "latitude": 43.261962000000054, "longitude": -79.88800399999994}, "119288918RR0814": {"name": "HERITAGE HILLS CONGREGATION OF JEHOVAH'S WITNESSES, MISSISSAUGA, ONTARIO", "designationCode": "C", "categoryCode": "61", "address": "6844 CAMPBELL SETTLER CRT", "city": "MISSISSAUGA", "province": "ON", "country": "CA", "postalCode": "L5W1L7", "twitter": "None", "instagram": "None", "facebook": "None", "youtube": "None", "website": "None", "summary": "None", "logo": "None", "latitude": 43.62491909657232, "longitude": -79.7225688526457}, "118956374RR0001": {"name": "HERITAGE HILLSBOROUGH INC.", "designationCode": "C", "categoryCode": "50", "address": "40 MILLS STREET", "city": "HILLSBOROUGH", "province": "NB", "country": "CA", "postalCode": "E4H2Z8", "twitter": "None", "instagram": "None", "facebook": "None", "youtube": "None", "website": "None", "summary": "None", "logo": "None", "latitude": 45.92506329646818, "longitude": -64.64458736905591}, "886209998RR0001": {"name": "HERITAGE HOUSE AVONLEA & DISTRICT MUSEUM INC", "designationCode": "C", "categoryCode": "50", "address": "BOX 401", "city": "AVONLEA", "province": "SK", "country": "CA", "postalCode": "S0H0C0", "twitter": "None", "instagram": "None", "facebook": "None", "youtube": "None", "website": "None", "summary": "None", "logo": "None", "latitude": 50.016770000000065, "longitude": -105.06780999999995}, "868363193RR0001": {"name": "HERITAGE LAKE BIBLE CAMP", "designationCode": "C", "categoryCode": "56", "address": "134 CARDINAL CRES", "city": "SASKATOON", "province": "SK", "country": "CA", "postalCode": "S7L6H6", "twitter": "None", "instagram": "None", "facebook": "None", "youtube": "None", "website": "None", "summary": "None", "logo": "None", "latitude": 52.15308364083344, "longitude": -106.68574129886353}, "125748731RR0001": {"name": "HERITAGE LONDON FOUNDATION", "designationCode": "C", "categoryCode": "52", "address": "101 WINDERMERE RD", "city": "LONDON", "province": "ON", "country": "CA", "postalCode": "N6G2J4", "twitter": "None", "instagram": "None", "facebook": "None", "youtube": "None", "website": "None", "summary": "None", "logo": "None", "latitude": 43.010670166224436, "longitude": -81.29105454772356}, "893560318RR0001": {"name": "HERITAGE MENNONITE CHURCH", "designationCode": "C", "categoryCode": "34", "address": "6988 CHURCH ST", "city": "MILLBANK", "province": "ON", "country": "CA", "postalCode": "N0K1L0", "twitter": "None", "instagram": "None", "facebook": "None", "youtube": "None", "website": "None", "summary": "None", "logo": "None", "latitude": 43.57058772857626, "longitude": -80.83527112242464}, "872876693RR0001": {"name": "HERITAGE MOOSE JAW 1992 INC.", "designationCode": "C", "categoryCode": "50", "address": "1161-11TH AVE NW", "city": "MOOSE JAW", "province": "SK", "country": "CA", "postalCode": "S6H4L8", "twitter": "None", "instagram": "None", "facebook": "None", "youtube": "None", "website": "None", "summary": "None", "logo": "None", "latitude": 50.40191972870264, "longitude": -105.56516836392419}, "866205313RR0001": {"name": "HERITAGE MOUNTAIN COMMUNITY CHURCH", "designationCode": "C", "categoryCode": "34", "address": "353-255 NEWPORT DR", "city": "PORT MOODY", "province": "BC", "country": "CA", "postalCode": "V3H5H1", "twitter": "None", "instagram": "None", "facebook": "None", "youtube": "None", "website": "None", "summary": "None", "logo": "None", "latitude": 49.283143456454134, "longitude": -122.82590128532172}, "892534793RR0001": {"name": "HERITAGE NETHERLANDS REFORMED CONGREGATION", "designationCode": "C", "categoryCode": "39", "address": "685 MAIN ST. S.               PO BOX 105", "city": "BURGESSVILLE", "province": "ON", "country": "CA", "postalCode": "N0J1C0", "twitter": "None", "instagram": "None", "facebook": "None", "youtube": "None", "website": "None", "summary": "None", "logo": "None", "latitude": 43.01739773079795, "longitude": -80.65155483640224}, "860497312RR0001": {"name": "HERITAGE NETHERLANDS REFORMED CONGREGATIONS MISSION BOARD", "designationCode": "C", "categoryCode": "39", "address": "BOX 147", "city": "BURGESSVILLE", "province": "ON", "country": "CA", "postalCode": "N0J1C0", "twitter": "None", "instagram": "None", "facebook": "None", "youtube": "None", "website": "None", "summary": "None", "logo": "None", "latitude": 43.02421000000004, "longitude": -80.65076999999997}, "885637405RR0001": {"name": "HERITAGE NEW CARLISLE", "designationCode": "C", "categoryCode": "50", "address": "C.P. 444", "city": "NEW CARLISLE", "province": "QC", "country": "CA", "postalCode": "G0C1Z0", "twitter": "None", "instagram": "None", "facebook": "None", "youtube": "None", "website": "None", "summary": "None", "logo": "None", "latitude": 48.00876000000005, "longitude": -65.33776999999998}, "107479172RR0001": {"name": "HERITAGE PARK ALLIANCE CHURCH", "designationCode": "C", "categoryCode": "39", "address": "2501 SIXTH CONCESSION", "city": "WINDSOR", "province": "ON", "country": "CA", "postalCode": "N9H0B5", "twitter": "None", "instagram": "None", "facebook": "None", "youtube": "None", "website": "None", "summary": "None", "logo": "None", "latitude": 42.22888953199232, "longitude": -83.01678161424707}, "102334554RR0001": {"name": "HERITAGE PARK CHILDREN'S PROGRAMS INC.", "designationCode": "C", "categoryCode": "20", "address": "47 HERITAGE BLVD", "city": "WINNIPEG", "province": "MB", "country": "CA", "postalCode": "R2Y0N9", "twitter": "None", "instagram": "None", "facebook": "None", "youtube": "None", "website": "None", "summary": "None", "logo": "None", "latitude": 49.89049965670247, "longitude": -97.28402230506728}, "118956457RR0001": {"name": "HERITAGE PARK SOCIETY", "designationCode": "C", "categoryCode": "52", "address": "1900 HERITAGE DR SW", "city": "CALGARY", "province": "AB", "country": "CA", "postalCode": "T2V2X3", "twitter": "None", "instagram": "None", "facebook": "None", "youtube": "None", "website": "None", "summary": "None", "logo": "None", "latitude": 50.98332766269989, "longitude": -114.10303026295482}, "118956473RR0001": {"name": "HERITAGE PRESERVATION SOCIETY OF NEW WESTMINSTER", "designationCode": "C", "categoryCode": "50", "address": "423-104-1015 COLUMBIA ST.", "city": "NEW WESTMINSTER", "province": "BC", "country": "CA", "postalCode": "V3M6V3", "twitter": "None", "instagram": "None", "facebook": "None", "youtube": "None", "website": "None", "summary": "None", "logo": "None", "latitude": 49.200279419966876, "longitude": -122.91588162743697}, "856754601RR0001": {"name": "HERITAGE REFORMED CHURCH", "designationCode": "C", "categoryCode": "39", "address": "#510-45715 HOCKING AVE", "city": "CHILLIWACK", "province": "BC", "country": "CA", "postalCode": "V2P6Z6", "twitter": "None", "instagram": "None", "facebook": "None", "youtube": "None", "website": "None", "summary": "None", "logo": "None", "latitude": 49.15916947277894, "longitude": -121.9588653202388}, "890079973RR0001": {"name": "HERITAGE REFORMED CHURCH, BRADFORD, ONTARIO", "designationCode": "C", "categoryCode": "39", "address": "528 DURHAM RD 8", "city": "UXBRIDGE", "province": "ON", "country": "CA", "postalCode": "L9P1R1", "twitter": "None", "instagram": "None", "facebook": "None", "youtube": "None", "website": "None", "summary": "None", "logo": "None", "latitude": 44.12887800000006, "longitude": -79.05811849999994}, "118956481RR0001": {"name": "HERITAGE REGINA", "designationCode": "C", "categoryCode": "52", "address": "P.O. BOX 581", "city": "REGINA", "province": "SK", "country": "CA", "postalCode": "S4P3A3", "twitter": "None", "instagram": "None", "facebook": "None", "youtube": "None", "website": "None", "summary": "None", "logo": "None", "latitude": 50.448246000000054, "longitude": -104.59517299999993}, "118956499RR0001": {"name": "HERITAGE RENFREW", "designationCode": "C", "categoryCode": "52", "address": "PO BOX 1009", "city": "RENFREW", "province": "ON", "country": "CA", "postalCode": "K7V1G9", "twitter": "None", "instagram": "None", "facebook": "None", "youtube": "None", "website": "None", "summary": "None", "logo": "None", "latitude": 45.47037300000005, "longitude": -76.67361799999993}, "891746166RR0001": {"name": "HERITAGE SAINT-BERNARD INC", "designationCode": "C", "categoryCode": "52", "address": "480, BOULEVARD D'YOUVILLE     ILE SAINT-BERNARD", "city": "CHATEAUGUAY", "province": "QC", "country": "CA", "postalCode": "J6J5T9", "twitter": "None", "instagram": "None", "facebook": "None", "youtube": "None", "website": "None", "summary": "None", "logo": "None", "latitude": 45.383481942004664, "longitude": -73.76691807842333}, "889476370RR0001": {"name": "HERITAGE SAINT-NORBERT", "designationCode": "C", "categoryCode": "52", "address": "78 DUBOIS PL", "city": "WINNIPEG", "province": "MB", "country": "CA", "postalCode": "R3V1N1", "twitter": "None", "instagram": "None", "facebook": "None", "youtube": "None", "website": "None", "summary": "None", "logo": "None", "latitude": 49.77389572052618, "longitude": -97.16243140564939}, "855099644RR0001": {"name": "HERITAGE SENIOR STOP-IN CENTRE", "designationCode": "C", "categoryCode": "09", "address": "3036 106 ST NW", "city": "EDMONTON", "province": "AB", "country": "CA", "postalCode": "T6J5M5", "twitter": "None", "instagram": "None", "facebook": "None", "youtube": "None", "website": "None", "summary": "None", "logo": "None", "latitude": 53.46245462270969, "longitude": -113.50181301809143}, "870173739RR0001": {"name": "HERITAGE SOCIETY OF THE VILLAGE OF SEBA BEACH", "designationCode": "C", "categoryCode": "50", "address": "2284 FAIRWAYS CIRCLE", "city": "AIRDRIE", "province": "AB", "country": "CA", "postalCode": "T4B2Y8", "twitter": "None", "instagram": "None", "facebook": "None", "youtube": "None", "website": "None", "summary": "None", "logo": "None", "latitude": 51.298229474032084, "longitude": -114.04765396511662}, "119266609RR0001": {"name": "HERITAGE TORONTO", "designationCode": "C", "categoryCode": "52", "address": "157 KING ST. E 3RD FLOOR", "city": "TORONTO", "province": "ON", "country": "CA", "postalCode": "M5C1G9", "twitter": "None", "instagram": "None", "facebook": "None", "youtube": "None", "website": "None", "summary": "None", "logo": "None", "latitude": 43.65036183484345, "longitude": -79.37216467262972}, "118956531RR0001": {"name": "HERITAGE TRUST OF NOVA SCOTIA", "designationCode": "C", "categoryCode": "52", "address": "PO BOX 36111                  SPRING GARDEN ROAD RPO", "city": "HALIFAX", "province": "NS", "country": "CA", "postalCode": "B3J3S9", "twitter": "None", "instagram": "None", "facebook": "None", "youtube": "None", "website": "None", "summary": "None", "logo": "None", "latitude": 44.64321800521938, "longitude": -63.57617228611219}, "118867050RR0001": {"name": "HERITAGE UNITED CHURCH", "designationCode": "C", "categoryCode": "44", "address": "120 SYDENHAM ST", "city": "BRANTFORD", "province": "ON", "country": "CA", "postalCode": "N3R3Y8", "twitter": "None", "instagram": "None", "facebook": "None", "youtube": "None", "website": "None", "summary": "None", "logo": "None", "latitude": 43.15177794699631, "longitude": -80.26737784390312}, "118956549RR0001": {"name": "HERITAGE UNITED CHURCH", "designationCode": "C", "categoryCode": "44", "address": "P.O. BOX #400", "city": "WASHAGO", "province": "ON", "country": "CA", "postalCode": "L0K2B0", "twitter": "None", "instagram": "None", "facebook": "None", "youtube": "None", "website": "None", "summary": "None", "logo": "None", "latitude": 44.749810000000025, "longitude": -79.33484999999996}, "118956556RR0001": {"name": "HERITAGE UNITED CHURCH", "designationCode": "C", "categoryCode": "44", "address": "1050 N ARNASON ST", "city": "REGINA", "province": "SK", "country": "CA", "postalCode": "S4X4K9", "twitter": "None", "instagram": "None", "facebook": "None", "youtube": "None", "website": "None", "summary": "None", "logo": "None", "latitude": 50.494248335276126, "longitude": -104.68059568295881}, "119049682RR0001": {"name": "HERITAGE UNITED CHURCH", "designationCode": "C", "categoryCode": "44", "address": "PO BOX 86", "city": "MUSGRAVETOWN", "province": "NL", "country": "CA", "postalCode": "A0C1Z0", "twitter": "None", "instagram": "None", "facebook": "None", "youtube": "None", "website": "None", "summary": "None", "logo": "None", "latitude": 48.42187000000007, "longitude": -53.86576999999994}}