{"120705868RR0001": {"name": "MACKENZIE HIGHWAY BAPTIST CHURCH", "designationCode": "C", "categoryCode": "30", "address": "BOX 263", "city": "HIGH LEVEL", "province": "AB", "country": "CA", "postalCode": "T0H1Z0", "twitter": "None", "instagram": "None", "facebook": "None", "youtube": "None", "website": "None", "summary": "None", "logo": "None", "latitude": 58.52077909031678, "longitude": -117.13094845132863}, "119027175RR0001": {"name": "MACKENZIE INFANT CARE CENTRE INC.", "designationCode": "C", "categoryCode": "09", "address": "1308 COLLEGE AVENUE", "city": "REGINA", "province": "SK", "country": "CA", "postalCode": "S4P1B2", "twitter": "None", "instagram": "None", "facebook": "None", "youtube": "None", "website": "None", "summary": "None", "logo": "None", "latitude": 50.440857504327845, "longitude": -104.59952966472387}, "888918398RR0001": {"name": "MACKENZIE KING SCHOLARSHIPS FUND", "designationCode": "B", "categoryCode": "25", "address": "1 PLACE VILLE MARIE           5TH FLOOR SOUTH WING", "city": "MONTREAL", "province": "QC", "country": "CA", "postalCode": "H3B2B2", "twitter": "None", "instagram": "None", "facebook": "None", "youtube": "None", "website": "None", "summary": "None", "logo": "None", "latitude": 45.50188724476333, "longitude": -73.56787382018557}, "888019296RR0001": {"name": "MACKENZIE NATURE OBSERVATORY", "designationCode": "C", "categoryCode": "52", "address": "P.O. BOX 1598", "city": "MACKENZIE", "province": "BC", "country": "CA", "postalCode": "V0J2C0", "twitter": "None", "instagram": "None", "facebook": "None", "youtube": "None", "website": "None", "summary": "None", "logo": "None"}, "890825391RR0001": {"name": "MACKENZIE PRINTERY AND NEWSPAPER MUSEUM", "designationCode": "C", "categoryCode": "50", "address": "1 QUEENSTON STREET            P.O. BOX 1824", "city": "QUEENSTON", "province": "ON", "country": "CA", "postalCode": "L0S1L0", "twitter": "None", "instagram": "None", "facebook": "None", "youtube": "None", "website": "None", "summary": "None", "logo": "None", "latitude": 43.162267411045065, "longitude": -79.05382445184374}, "107021339RR0001": {"name": "MACKENZIE PUBLIC LIBRARY", "designationCode": "C", "categoryCode": "50", "address": "BOX 750", "city": "MACKENZIE", "province": "BC", "country": "CA", "postalCode": "V0J2C0", "twitter": "None", "instagram": "None", "facebook": "None", "youtube": "None", "website": "None", "summary": "None", "logo": "None", "latitude": 54.35901764398257, "longitude": -128.53940735741423}, "119027209RR0001": {"name": "MACKENZIE SIKH SOCIETY", "designationCode": "C", "categoryCode": "62", "address": "BOX 2407", "city": "MACKENZIE", "province": "BC", "country": "CA", "postalCode": "V0J2C0", "twitter": "None", "instagram": "None", "facebook": "None", "youtube": "None", "website": "None", "summary": "None", "logo": "None", "latitude": 54.35901764398257, "longitude": -128.53940735741423}, "119027217RR0001": {"name": "MACKENZIE SOCIETY VENTURES INC.", "designationCode": "C", "categoryCode": "20", "address": "BOX 983", "city": "PREECEVILLE", "province": "SK", "country": "CA", "postalCode": "S0A3B0", "twitter": "None", "instagram": "None", "facebook": "None", "youtube": "None", "website": "None", "summary": "None", "logo": "None", "latitude": 51.95420000000007, "longitude": -102.64748999999995}, "888769197RR0001": {"name": "MACKENZIE-PAPINEAU MEMORIAL FUND", "designationCode": "C", "categoryCode": "50", "address": "56 RIVERWOOD TERRACE", "city": "BOLTON", "province": "ON", "country": "CA", "postalCode": "L7E1S4", "twitter": "None", "instagram": "None", "facebook": "None", "youtube": "None", "website": "None", "summary": "None", "logo": "None", "latitude": 43.879999284494154, "longitude": -79.71999844200465}, "887850865RR0001": {"name": "MACKIE LAKE HOUSE FOUNDATION", "designationCode": "C", "categoryCode": "50", "address": "7804 KIDSTON ROAD", "city": "COLDSTREAM", "province": "BC", "country": "CA", "postalCode": "V1B1S2", "twitter": "None", "instagram": "None", "facebook": "None", "youtube": "None", "website": "None", "summary": "None", "logo": "None", "latitude": 50.22254044737856, "longitude": -119.25966664707789}, "892433665RR0001": {"name": "MACKINNON HARBOUR SURVIVAL ASSOCIATION", "designationCode": "C", "categoryCode": "59", "address": "BOX 6952", "city": "PORT HAWKESBURY", "province": "NS", "country": "CA", "postalCode": "B9A2W2", "twitter": "None", "instagram": "None", "facebook": "None", "youtube": "None", "website": "None", "summary": "None", "logo": "None", "latitude": 45.61601100000006, "longitude": -61.355122999999935}, "858070246RR0001": {"name": "MACKLIN & DISTRICT FOOD BANK & SECRET SANTA ASSOCIATION", "designationCode": "C", "categoryCode": "09", "address": "BOX 760", "city": "MACKLIN", "province": "SK", "country": "CA", "postalCode": "S0L2C0", "twitter": "None", "instagram": "None", "facebook": "None", "youtube": "None", "website": "None", "summary": "None", "logo": "None", "latitude": 52.33280000000008, "longitude": -109.93590999999998}, "898735808RR0001": {"name": "MACKLIN & DISTRICT HEALTH FOUNDATION INC.", "designationCode": "A", "categoryCode": "03", "address": "BOX 481", "city": "MACKLIN", "province": "SK", "country": "CA", "postalCode": "S0L2C0", "twitter": "None", "instagram": "None", "facebook": "None", "youtube": "None", "website": "None", "summary": "None", "logo": "None", "latitude": 52.33280000000008, "longitude": -109.93590999999998}, "119027233RR0001": {"name": "MACKLIN AND DISTRICT NEW HORIZONS ASSOCIATION INC.", "designationCode": "C", "categoryCode": "56", "address": "BOX 1035", "city": "MACKLIN", "province": "SK", "country": "CA", "postalCode": "S0L2C0", "twitter": "None", "instagram": "None", "facebook": "None", "youtube": "None", "website": "None", "summary": "None", "logo": "None", "latitude": 52.33280000000008, "longitude": -109.93590999999998}, "119027241RR0001": {"name": "MACKLIN ARTS COUNCIL", "designationCode": "C", "categoryCode": "22", "address": "BOX 52", "city": "EVESHAM", "province": "SK", "country": "CA", "postalCode": "S0L1B0", "twitter": "None", "instagram": "None", "facebook": "None", "youtube": "None", "website": "None", "summary": "None", "logo": "None", "latitude": 52.39003000000008, "longitude": -109.84079999999994}, "119027258RR0001": {"name": "MACKLIN PRO-LIFE ASSOCIATION", "designationCode": "C", "categoryCode": "09", "address": "BOX 23", "city": "CACTUS LAKE", "province": "SK", "country": "CA", "postalCode": "S0L0J0", "twitter": "None", "instagram": "None", "facebook": "None", "youtube": "None", "website": "None", "summary": "None", "logo": "None", "latitude": 52.114630000000034, "longitude": -109.81201999999996}, "133065144RR0001": {"name": "MACLAREN ART CENTRE", "designationCode": "C", "categoryCode": "50", "address": "37 MULCASTER ST", "city": "BARRIE", "province": "ON", "country": "CA", "postalCode": "L4M3M2", "twitter": "None", "instagram": "None", "facebook": "None", "youtube": "None", "website": "None", "summary": "None", "logo": "None", "latitude": 44.39007067055226, "longitude": -79.68544452648752}, "119027290RR0001": {"name": "MACLEAN MEMORIAL HOSPITAL - WAUKLEHEGAN MANOR FOUNDATION INC.", "designationCode": "A", "categoryCode": "13", "address": "11 SAUNDERS ROAD", "city": "MCADAM", "province": "NB", "country": "CA", "postalCode": "E6J1K9", "twitter": "None", "instagram": "None", "facebook": "None", "youtube": "None", "website": "None", "summary": "None", "logo": "None", "latitude": 45.58506594229311, "longitude": -67.33451055695615}, "119027308RR0001": {"name": "MACLELLAN'S BROOK AND AREA COMMUNITY ASSOCIATION", "designationCode": "C", "categoryCode": "56", "address": "RR #4", "city": "NEW GLASGOW", "province": "NS", "country": "CA", "postalCode": "B2H5C7", "twitter": "None", "instagram": "None", "facebook": "None", "youtube": "None", "website": "None", "summary": "None", "logo": "None", "latitude": 45.55645800000005, "longitude": -62.59835599999994}, "141049551RR0001": {"name": "MACMILLAN CHARITABLE TRUST", "designationCode": "B", "categoryCode": "39", "address": "3425 2 AVE S", "city": "LETHBRIDGE", "province": "AB", "country": "CA", "postalCode": "T1J4V1", "twitter": "None", "instagram": "None", "facebook": "None", "youtube": "None", "website": "None", "summary": "None", "logo": "None", "latitude": 49.696839530439966, "longitude": -112.78914308381903}, "132784596RR0001": {"name": "MACMILLAN MEMORIAL UNITED CHURCH,", "designationCode": "C", "categoryCode": "44", "address": "49 MAIN-A-DIEU RD.", "city": "CATALONE", "province": "NS", "country": "CA", "postalCode": "B1C1S5", "twitter": "None", "instagram": "None", "facebook": "None", "youtube": "None", "website": "None", "summary": "None", "logo": "None", "latitude": 45.984404398291815, "longitude": -59.981965868168935}, "899148282RR0001": {"name": "MACMORRAN COMMUNITY CENTRE", "designationCode": "C", "categoryCode": "56", "address": "PO BOX 21046", "city": "ST JOHN'S", "province": "NL", "country": "CA", "postalCode": "A1A5B2", "twitter": "None", "instagram": "None", "facebook": "None", "youtube": "None", "website": "None", "summary": "None", "logo": "None", "latitude": 47.600088000000056, "longitude": -52.692861499999935}, "119027514RR0001": {"name": "MACMURRAY FOUNDATION INC.", "designationCode": "B", "categoryCode": "03", "address": "345 ROUTE 121", "city": "BLOOMFIELD", "province": "NB", "country": "CA", "postalCode": "E5N4T1", "twitter": "None", "instagram": "None", "facebook": "None", "youtube": "None", "website": "None", "summary": "None", "logo": "None", "latitude": 45.57984392387149, "longitude": -65.78184992890415}, "889716049RR0001": {"name": "MACNAB STREET PRESBYTERIAN CHURCH,", "designationCode": "C", "categoryCode": "37", "address": "116 MACNAB STREET SOUTH", "city": "HAMILTON", "province": "ON", "country": "CA", "postalCode": "L8P3C3", "twitter": "None", "instagram": "None", "facebook": "None", "youtube": "None", "website": "None", "summary": "None", "logo": "None", "latitude": 43.25344140244675, "longitude": -79.87220471262033}, "892787763RR0001": {"name": "MACNAMARA FIELD NATURALISTS' CLUB", "designationCode": "C", "categoryCode": "52", "address": "P.O. BOX 391", "city": "ARNPRIOR", "province": "ON", "country": "CA", "postalCode": "K7S3L9", "twitter": "None", "instagram": "None", "facebook": "None", "youtube": "None", "website": "None", "summary": "None", "logo": "None", "latitude": 45.43563300000005, "longitude": -76.35842449999993}, "107653131RR0001": {"name": "MACNEILL BAPTIST CHURCH", "designationCode": "C", "categoryCode": "31", "address": "1145 KING ST WEST", "city": "HAMILTON", "province": "ON", "country": "CA", "postalCode": "L8S1L9", "twitter": "None", "instagram": "None", "facebook": "None", "youtube": "None", "website": "None", "summary": "None", "logo": "None", "latitude": 43.26020353548452, "longitude": -79.91060240860251}, "119027563RR0001": {"name": "MACOUN EVANGELICAL MISSIONARY CHURCH", "designationCode": "C", "categoryCode": "39", "address": "BOX 65", "city": "MACOUN", "province": "SK", "country": "CA", "postalCode": "S0C1P0", "twitter": "None", "instagram": "None", "facebook": "None", "youtube": "None", "website": "None", "summary": "None", "logo": "None", "latitude": 49.393172595367744, "longitude": -103.41340357241975}, "119027555RR0001": {"name": "MACOUN HAPPY GANG CLUB", "designationCode": "C", "categoryCode": "56", "address": "BOX 114", "city": "MACOUN", "province": "SK", "country": "CA", "postalCode": "S0C1P0", "twitter": "None", "instagram": "None", "facebook": "None", "youtube": "None", "website": "None", "summary": "None", "logo": "None", "latitude": 49.393172595367744, "longitude": -103.41340357241975}, "130732845RR0001": {"name": "MACPHERSON'S MILLS IMPROVEMENT SOCIETY", "designationCode": "C", "categoryCode": "52", "address": "RR 1", "city": "THORBURN", "province": "NS", "country": "CA", "postalCode": "B0K1W0", "twitter": "None", "instagram": "None", "facebook": "None", "youtube": "None", "website": "None", "summary": "None", "logo": "None", "latitude": 45.56894299795978, "longitude": -62.53528136563699}, "876310079RR0001": {"name": "MACRORIE SCHOOL HERITAGE SOCIETY INC.", "designationCode": "C", "categoryCode": "50", "address": "PO BOX 82", "city": "MACRORIE", "province": "SK", "country": "CA", "postalCode": "S0L2E0", "twitter": "None", "instagram": "None", "facebook": "None", "youtube": "None", "website": "None", "summary": "None", "logo": "None", "latitude": 51.333380000000034, "longitude": -107.08457999999996}, "108151739RR0001": {"name": "MACTAQUAC BAPTIST CHURCH", "designationCode": "C", "categoryCode": "31", "address": "1494 ROUTE 105", "city": "MACTAQUAC", "province": "NB", "country": "CA", "postalCode": "E6L1B8", "twitter": "None", "instagram": "None", "facebook": "None", "youtube": "None", "website": "None", "summary": "None", "logo": "None", "latitude": 45.938195148253754, "longitude": -66.88516360655296}, "852875749RR0001": {"name": "MACTIER RAILROAD HERITAGE SOCIETY", "designationCode": "C", "categoryCode": "50", "address": "53 B HAIG ST                  PO BOX 613", "city": "MACTIER", "province": "ON", "country": "CA", "postalCode": "P0C1H0", "twitter": "None", "instagram": "None", "facebook": "None", "youtube": "None", "website": "None", "summary": "None", "logo": "None", "latitude": 45.13452159781306, "longitude": -79.77270583989242}, "856356068RR0001": {"name": "MADA Community Center Inc. - Centre communautaire MADA inc.", "designationCode": "C", "categoryCode": "09", "address": "6875 BOUL DECARIE", "city": "MONTREAL", "province": "QC", "country": "CA", "postalCode": "H3W3E4", "twitter": "None", "instagram": "None", "facebook": "None", "youtube": "None", "website": "None", "summary": "None", "logo": "None", "latitude": 45.492567421605315, "longitude": -73.64839744376499}, "120403092RR0001": {"name": "MADAME PREND CONGE, CENTRE DE FEMMES DE POINTE ST-CHARLES", "designationCode": "C", "categoryCode": "09", "address": "1945 RUE MULLINS BUR 20", "city": "MONTREAL", "province": "QC", "country": "CA", "postalCode": "H3K1N9", "twitter": "None", "instagram": "None", "facebook": "None", "youtube": "None", "website": "None", "summary": "None", "logo": "None", "latitude": 45.48090306523738, "longitude": -73.56151176897089}, "107653321RR0001": {"name": "MADAME VANIER CHILDREN'S SERVICES", "designationCode": "C", "categoryCode": "11", "address": "871 TRAFALGAR ST", "city": "LONDON", "province": "ON", "country": "CA", "postalCode": "N5Z1E6", "twitter": "None", "instagram": "None", "facebook": "None", "youtube": "None", "website": "None", "summary": "None", "logo": "None", "latitude": 42.978986103468564, "longitude": -81.21712320035799}, "107653347RR0001": {"name": "MADAWASKA VALLEY ASSOCIATION FOR COMMUNITY LIVING", "designationCode": "C", "categoryCode": "10", "address": "19491 OPEONGO LINE            P.O. BOX 178", "city": "BARRYS'S BAY", "province": "ON", "country": "CA", "postalCode": "K0J1B0", "twitter": "None", "instagram": "None", "facebook": "None", "youtube": "None", "website": "None", "summary": "None", "logo": "None", "latitude": 45.48780810720524, "longitude": -77.67553500018327}, "890943947RR0001": {"name": "MADAWASKA VALLEY FOOD BANK", "designationCode": "C", "categoryCode": "09", "address": "P.O. BOX 161", "city": "BARRY'S BAY", "province": "ON", "country": "CA", "postalCode": "K0J1B0", "twitter": "None", "instagram": "None", "facebook": "None", "youtube": "None", "website": "None", "summary": "None", "logo": "None", "latitude": 45.43239678569254, "longitude": -77.58978439269401}, "119027712RR0001": {"name": "MADDEN AND DISTRICT AGRICULTURAL SOCIETY", "designationCode": "C", "categoryCode": "56", "address": "GENERAL DELIVERY", "city": "MADDEN", "province": "AB", "country": "CA", "postalCode": "T0M1L0", "twitter": "None", "instagram": "None", "facebook": "None", "youtube": "None", "website": "None", "summary": "None", "logo": "None", "latitude": 51.43380900000005, "longitude": -114.27969049999993}, "845790567RR0001": {"name": "MADE IN BC - DANCE ON TOUR SOCIETY", "designationCode": "C", "categoryCode": "22", "address": "226-119 WEST PENDER STREET", "city": "VANCOUVER", "province": "BC", "country": "CA", "postalCode": "V6B1S5", "twitter": "None", "instagram": "None", "facebook": "None", "youtube": "None", "website": "None", "summary": "None", "logo": "None", "latitude": 49.28123126729745, "longitude": -123.10816513168683}, "119027746RR0001": {"name": "MADISON BAPTIST CHURCH", "designationCode": "C", "categoryCode": "31", "address": "6297 MONKLAND AVE", "city": "MONTREAL", "province": "QC", "country": "CA", "postalCode": "H4B1G8", "twitter": "None", "instagram": "None", "facebook": "None", "youtube": "None", "website": "None", "summary": "None", "logo": "None", "latitude": 45.467933804056756, "longitude": -73.62982785235724}, "119027738RR0001": {"name": "MADISON COMMUNITY SERVICES", "designationCode": "C", "categoryCode": "01", "address": "400-210 DUNDAS ST W", "city": "TORONTO", "province": "ON", "country": "CA", "postalCode": "M5G2E8", "twitter": "None", "instagram": "None", "facebook": "None", "youtube": "None", "website": "None", "summary": "None", "logo": "None", "latitude": 43.65487591125808, "longitude": -79.38760564616932}, "119027787RR0001": {"name": "MADOC BAPTIST CHURCH", "designationCode": "C", "categoryCode": "31", "address": "P.O. BOX 854", "city": "MADOC", "province": "ON", "country": "CA", "postalCode": "K0K2K0", "twitter": "None", "instagram": "None", "facebook": "None", "youtube": "None", "website": "None", "summary": "None", "logo": "None", "latitude": 44.506080000000054, "longitude": -77.47461999999996}, "119027803RR0001": {"name": "MADOC C.O.P.E.", "designationCode": "C", "categoryCode": "59", "address": "P O BOX 616", "city": "MADOC", "province": "ON", "country": "CA", "postalCode": "K0K2K0", "twitter": "None", "instagram": "None", "facebook": "None", "youtube": "None", "website": "None", "summary": "None", "logo": "None", "latitude": 44.506080000000054, "longitude": -77.47461999999996}, "119288918RR0630": {"name": "MADOC CONGREGATION OF JEHOVAH'S WITNESSES", "designationCode": "C", "categoryCode": "61", "address": "P.O. BOX 4100", "city": "GEORGETOWN", "province": "ON", "country": "CA", "postalCode": "L7G4Y4", "twitter": "None", "instagram": "None", "facebook": "None", "youtube": "None", "website": "None", "summary": "None", "logo": "None", "latitude": 43.65006000000005, "longitude": -79.89909199999994}, "119288918RR0429": {"name": "MADOC ONTARIO CONGREGATION OF JEHOVAH'S WITNESSES", "designationCode": "C", "categoryCode": "61", "address": "PO BOX 904", "city": "MADOC", "province": "ON", "country": "CA", "postalCode": "K0K2K0", "twitter": "None", "instagram": "None", "facebook": "None", "youtube": "None", "website": "None", "summary": "None", "logo": "None", "latitude": 44.506080000000054, "longitude": -77.47461999999996}, "871352548RR0001": {"name": "MADOC PENTECOSTAL CHURCH", "designationCode": "C", "categoryCode": "36", "address": "32 WELLINGTON ST              P.O.BOX 859", "city": "MADOC", "province": "ON", "country": "CA", "postalCode": "K0K2K0", "twitter": "None", "instagram": "None", "facebook": "None", "youtube": "None", "website": "None", "summary": "None", "logo": "None", "latitude": 44.50746261176874, "longitude": -77.46874084659945}, "130146335RR0001": {"name": "MADOC TRINITY UNITED CHURCH", "designationCode": "C", "categoryCode": "44", "address": "BOX 426", "city": "MADOC", "province": "ON", "country": "CA", "postalCode": "K0K2K0", "twitter": "None", "instagram": "None", "facebook": "None", "youtube": "None", "website": "None", "summary": "None", "logo": "None", "latitude": 44.506080000000054, "longitude": -77.47461999999996}, "894483742RR0001": {"name": "MADONNA DI TAGLIAVIA RELIGIOUS ORGANIZATION (ONTARIO)", "designationCode": "C", "categoryCode": "38", "address": "105 NESSUS ST", "city": "WOODBRIDGE", "province": "ON", "country": "CA", "postalCode": "L4L5K6", "twitter": "None", "instagram": "None", "facebook": "None", "youtube": "None", "website": "None", "summary": "None", "logo": "None", "latitude": 43.78814191118931, "longitude": -79.57028287561344}, "123642670RR0001": {"name": "MADONNA FOUNDATION", "designationCode": "B", "categoryCode": "03", "address": "2000-1874 SCARTH STREET", "city": "REGINA", "province": "SK", "country": "CA", "postalCode": "S4P4B3", "twitter": "None", "instagram": "None", "facebook": "None", "youtube": "None", "website": "None", "summary": "None", "logo": "None", "latitude": 50.44907700000002, "longitude": -104.61085314963331}, "132286774RR0001": {"name": "MADONNA HOUSE - WINDSOR INC", "designationCode": "C", "categoryCode": "99", "address": "1374 BENJAMIN AVENUE", "city": "WINDSOR", "province": "ON", "country": "CA", "postalCode": "N8X4M9", "twitter": "None", "instagram": "None", "facebook": "None", "youtube": "None", "website": "None", "summary": "None", "logo": "None", "latitude": 42.30783501777361, "longitude": -83.01372387229523}, "855803680RR0001": {"name": "MADONNA HOUSE APOSTOLATE VANCOUVER SOCIETY", "designationCode": "C", "categoryCode": "45", "address": "5450 TRAFALGAR ST", "city": "VANCOUVER", "province": "BC", "country": "CA", "postalCode": "V6N1B9", "twitter": "None", "instagram": "None", "facebook": "None", "youtube": "None", "website": "None", "summary": "None", "logo": "None", "latitude": 49.237064161809684, "longitude": -123.16572991447886}, "119027878RR0001": {"name": "MADONNA HOUSE INCORPORATED", "designationCode": "C", "categoryCode": "99", "address": "2888 DAFOE RD.", "city": "COMBERMERE", "province": "ON", "country": "CA", "postalCode": "K0J1L0", "twitter": "None", "instagram": "None", "facebook": "None", "youtube": "None", "website": "None", "summary": "None", "logo": "None"}, "119027886RR0001": {"name": "MADONNA HOUSE OF OTTAWA", "designationCode": "C", "categoryCode": "49", "address": "440 KENSINGTON AVENUE", "city": "OTTAWA", "province": "ON", "country": "CA", "postalCode": "K1Z6G8", "twitter": "None", "instagram": "None", "facebook": "None", "youtube": "None", "website": "None", "summary": "None", "logo": "None", "latitude": 45.39377521925677, "longitude": -75.74247039122265}, "821656477RR0001": {"name": "MADONNA HOUSE PUBLICATIONS INC.", "designationCode": "C", "categoryCode": "47", "address": "2888 DAFOE ROAD", "city": "COMBERMERE", "province": "ON", "country": "CA", "postalCode": "K0J1L0", "twitter": "None", "instagram": "None", "facebook": "None", "youtube": "None", "website": "None", "summary": "None", "logo": "None", "latitude": 45.35695411131616, "longitude": -77.61241489335839}, "129884573RR0001": {"name": "MADONNA HOUSE TORONTO", "designationCode": "C", "categoryCode": "99", "address": "501 PARKSIDE DRIVE", "city": "TORONTO", "province": "ON", "country": "CA", "postalCode": "M6R2Z9", "twitter": "None", "instagram": "None", "facebook": "None", "youtube": "None", "website": "None", "summary": "None", "logo": "None", "latitude": 43.653685640862086, "longitude": -79.45952952911324}, "119027894RR0001": {"name": "MADRESA ASHRAFUL ULOOM", "designationCode": "C", "categoryCode": "39", "address": "23 BRYDON DRIVE", "city": "ETOBICOKE", "province": "ON", "country": "CA", "postalCode": "M9W4M7", "twitter": "None", "instagram": "None", "facebook": "None", "youtube": "None", "website": "None", "summary": "None", "logo": "None", "latitude": 43.71447176576824, "longitude": -79.57136230648094}, "139462279RR0001": {"name": "MADRONA SCHOOL SOCIETY", "designationCode": "C", "categoryCode": "20", "address": "530 HORNBY ST", "city": "VANCOUVER", "province": "BC", "country": "CA", "postalCode": "V6C2E7", "twitter": "None", "instagram": "None", "facebook": "None", "youtube": "None", "website": "None", "summary": "None", "logo": "None", "latitude": 49.285477562294524, "longitude": -123.11743697166615}, "830388070RR0001": {"name": "MAFEKING HERITAGE GROUP INC.", "designationCode": "C", "categoryCode": "52", "address": "112 WILLOW AVENUE             P.O. BOX 171", "city": "MAFEKING", "province": "MB", "country": "CA", "postalCode": "R0L1B0", "twitter": "None", "instagram": "None", "facebook": "None", "youtube": "None", "website": "None", "summary": "None", "logo": "None", "latitude": 38.74335283236195, "longitude": -121.2853287340006}, "100891258RR0001": {"name": "MAGASIN GENERAL RIVE-SUD SOCIETE SAINT-VINCENT-DE-PAUL", "designationCode": "C", "categoryCode": "09", "address": "106 COTE DU PASSAGE", "city": "LEVIS", "province": "QC", "country": "CA", "postalCode": "G6V5S9", "twitter": "None", "instagram": "None", "facebook": "None", "youtube": "None", "website": "None", "summary": "None", "logo": "None", "latitude": 46.805579613364955, "longitude": -71.18227703984637}, "119027902RR0001": {"name": "MAGEE MUSIC SOCIETY", "designationCode": "C", "categoryCode": "21", "address": "6360 MAPLE STREET", "city": "VANCOUVER", "province": "BC", "country": "CA", "postalCode": "V6M4M2", "twitter": "None", "instagram": "None", "facebook": "None", "youtube": "None", "website": "None", "summary": "None", "logo": "None", "latitude": 49.228087746321194, "longitude": -123.15221231467525}, "894931518RR0001": {"name": "MAGEE-SEWARD FAMILY FOUNDATION", "designationCode": "B", "categoryCode": "03", "address": "106 - 1008 BEACH AVENUE", "city": "VANCOUVER", "province": "BC", "country": "CA", "postalCode": "V6E1T7", "twitter": "None", "instagram": "None", "facebook": "None", "youtube": "None", "website": "None", "summary": "None", "logo": "None", "latitude": 49.27605260034106, "longitude": -123.13390059811259}, "107654022RR0001": {"name": "MAGEN DAVID SEPHARDIC CONGREGATION", "designationCode": "C", "categoryCode": "42", "address": "10 MCALLISTER RD", "city": "DOWNSVIEW", "province": "ON", "country": "CA", "postalCode": "M3M2M9", "twitter": "None", "instagram": "None", "facebook": "None", "youtube": "None", "website": "None", "summary": "None", "logo": "None", "latitude": 43.75337629283269, "longitude": -79.438116949218}, "852661230RR0001": {"name": "MAGENTA PUBLISHING FOR THE ARTS", "designationCode": "C", "categoryCode": "22", "address": "151 WINCHESTER STREET", "city": "TORONTO", "province": "ON", "country": "CA", "postalCode": "M4X1B5", "twitter": "None", "instagram": "None", "facebook": "None", "youtube": "None", "website": "None", "summary": "None", "logo": "None", "latitude": 43.66691582041673, "longitude": -79.36361500790585}, "140801184RR0001": {"name": "MAGGIE'S PLACE - A RESOURCE CENTRE FOR FAMILIES ASSOCIATION", "designationCode": "C", "categoryCode": "01", "address": "PO BOX 1149 STN MAIN", "city": "AMHERST", "province": "NS", "country": "CA", "postalCode": "B4H4L2", "twitter": "None", "instagram": "None", "facebook": "None", "youtube": "None", "website": "None", "summary": "None", "logo": "None", "latitude": 45.83198400000006, "longitude": -64.20979249999993}, "119027936RR0001": {"name": "MAGGIE'S RESOURCE CENTRE OF NORTH HASTINGS", "designationCode": "C", "categoryCode": "09", "address": "BOX 611", "city": "BANCROFT", "province": "ON", "country": "CA", "postalCode": "K0L1C0", "twitter": "None", "instagram": "None", "facebook": "None", "youtube": "None", "website": "None", "summary": "None", "logo": "None", "latitude": 45.03567300000006, "longitude": -77.98000849999994}, "139837561RR0001": {"name": "MAGGIE'S: TORONTO SEX WORKERS ACTION PROJECT", "designationCode": "C", "categoryCode": "09", "address": "BOX 82527                     351 QUEEN STREET EAST", "city": "TORONTO", "province": "ON", "country": "CA", "postalCode": "M5A1T8", "twitter": "None", "instagram": "None", "facebook": "None", "youtube": "None", "website": "None", "summary": "None", "logo": "None", "latitude": 43.65562594419769, "longitude": -79.36412445100702}, "884289315RR0001": {"name": "MAGICAL MEMORIES LEARNING CENTRE INC.", "designationCode": "C", "categoryCode": "01", "address": "911 26TH STREET", "city": "BRANDON", "province": "MB", "country": "CA", "postalCode": "R7B2B7", "twitter": "None", "instagram": "None", "facebook": "None", "youtube": "None", "website": "None", "summary": "None", "logo": "None", "latitude": 49.8357, "longitude": -99.97296092267318}, "865913297RR0001": {"name": "MAGICANA", "designationCode": "C", "categoryCode": "22", "address": "17 MADISON AVE", "city": "TORONTO", "province": "ON", "country": "CA", "postalCode": "M5R2S2", "twitter": "None", "instagram": "None", "facebook": "None", "youtube": "None", "website": "None", "summary": "None", "logo": "None", "latitude": 43.667978332506166, "longitude": -79.40309657435532}, "760644120RR0001": {"name": "MAGISTERRA SOLOISTS INTERNATIONAL CHAMBER PLAYERS", "designationCode": "C", "categoryCode": "22", "address": "190 GATINEAU ROAD", "city": "LONDON", "province": "ON", "country": "CA", "postalCode": "N6K2Z9", "twitter": "None", "instagram": "None", "facebook": "None", "youtube": "None", "website": "None", "summary": "None", "logo": "None", "latitude": 42.94702641661367, "longitude": -81.33037567208147}, "871262044RR0001": {"name": "MAGNETIC HILL PRAYER GARDEN ASSOCIATION INC.", "designationCode": "C", "categoryCode": "52", "address": "379 CHAMPLIAN STREET", "city": "DIEPPE", "province": "NB", "country": "CA", "postalCode": "E1A1P2", "twitter": "None", "instagram": "None", "facebook": "None", "youtube": "None", "website": "None", "summary": "None", "logo": "None", "latitude": 46.09719223065375, "longitude": -64.74002704316459}, "867890733RR0001": {"name": "MAGNIFICAT - MARY, CAUSE OF OUR JOY CHAPTER", "designationCode": "C", "categoryCode": "43", "address": "2194 KIPLING AVENUE", "city": "TORONTO", "province": "ON", "country": "CA", "postalCode": "M9W4K9", "twitter": "None", "instagram": "None", "facebook": "None", "youtube": "None", "website": "None", "summary": "None", "logo": "None", "latitude": 43.72280385039535, "longitude": -79.57204174634985}, "866751548RR0001": {"name": "MAGNIFICAT CHARISMATIC PRAYER COMMUNITY", "designationCode": "C", "categoryCode": "38", "address": "19309 WARDEN AVENUE", "city": "QUEENSVILLE", "province": "ON", "country": "CA", "postalCode": "L0G1R0", "twitter": "None", "instagram": "None", "facebook": "None", "youtube": "None", "website": "None", "summary": "None", "logo": "None", "latitude": 44.15034816169362, "longitude": -79.40141520342691}, "865901763RR0001": {"name": "MAGNIFICAT MINISTRIES @ KING'S GRANT", "designationCode": "C", "categoryCode": "47", "address": "18 HAWARDEN AVENUE", "city": "BRANTFORD", "province": "ON", "country": "CA", "postalCode": "N3T4H3", "twitter": "None", "instagram": "None", "facebook": "None", "youtube": "None", "website": "None", "summary": "None", "logo": "None", "latitude": 43.1463966500087, "longitude": -80.28380976767284}, "119027985RR0001": {"name": "MAGNUS THEATRE COMPANY NORTHWEST INCORPORATED", "designationCode": "C", "categoryCode": "22", "address": "10 SOUTH ALGOMA ST            CENTRAL SCHOOL", "city": "THUNDER BAY", "province": "ON", "country": "CA", "postalCode": "P7B3A7", "twitter": "None", "instagram": "None", "facebook": "None", "youtube": "None", "website": "None", "summary": "None", "logo": "None", "latitude": 48.43689798593441, "longitude": -89.22427374380449}, "874488075RR0001": {"name": "MAGRATH HISTORY AND MUSEUM ASSOCIATION", "designationCode": "C", "categoryCode": "50", "address": "37 NORTH 1ST STREET WEST      P.O. BOX 907", "city": "MAGRATH", "province": "AB", "country": "CA", "postalCode": "T0K1J0", "twitter": "None", "instagram": "None", "facebook": "None", "youtube": "None", "website": "None", "summary": "None", "logo": "None", "latitude": 49.41824433527614, "longitude": -112.86853780844284}, "119028033RR0001": {"name": "MAGUNDY SANDBANK CEMETERY INC.", "designationCode": "C", "categoryCode": "59", "address": "93 BURNETT DRIVE", "city": "HANWELL", "province": "NB", "country": "CA", "postalCode": "E3C2J2", "twitter": "None", "instagram": "None", "facebook": "None", "youtube": "None", "website": "None", "summary": "None", "logo": "None", "latitude": 45.91506583236193, "longitude": -66.74986999939348}, "107654394RR0001": {"name": "MAHA GANAPATHY SOCIETY OF ALBERTA", "designationCode": "C", "categoryCode": "39", "address": "128 RUNNING CREEK ROAD", "city": "EDMONTON", "province": "AB", "country": "CA", "postalCode": "T6J7B1", "twitter": "None", "instagram": "None", "facebook": "None", "youtube": "None", "website": "None", "summary": "None", "logo": "None", "latitude": 53.44350452380353, "longitude": -113.51533126005543}, "854079563RR0001": {"name": "MAHAMEVNA BHAVANA ASAPUWA TORONTO", "designationCode": "C", "categoryCode": "35", "address": "11175 KENNEDY RD", "city": "MARKHAM", "province": "ON", "country": "CA", "postalCode": "L6C1P2", "twitter": "None", "instagram": "None", "facebook": "None", "youtube": "None", "website": "None", "summary": "None", "logo": "None", "latitude": 43.926334950891444, "longitude": -79.32606638885765}, "891047441RR0001": {"name": "MAHARASHTRA MISSION SOCIETY FOR THE DEAF (CANADA)", "designationCode": "C", "categoryCode": "47", "address": "PO BOX 498", "city": "AGASSIZ", "province": "BC", "country": "CA", "postalCode": "V0M1A0", "twitter": "None", "instagram": "None", "facebook": "None", "youtube": "None", "website": "None", "summary": "None", "logo": "None", "latitude": 49.23862800000006, "longitude": -121.76060749999994}, "107654410RR0001": {"name": "MAHARASHTRA SEVA SAMITI ORGANIZATION", "designationCode": "C", "categoryCode": "22", "address": "68 PRESTWICK ACRES LANE SE", "city": "CALGARY", "province": "AB", "country": "CA", "postalCode": "T2Z3Y1", "twitter": "None", "instagram": "None", "facebook": "None", "youtube": "None", "website": "None", "summary": "None", "logo": "None", "latitude": 50.92293188259567, "longitude": -113.95904681958}, "132207986RR0001": {"name": "MAHARISHI AGE OF ENLIGHTENMENT SCHOOL SOCIETY", "designationCode": "C", "categoryCode": "20", "address": "2820 BELMONT AVENUE", "city": "VICTORIA", "province": "BC", "country": "CA", "postalCode": "V8R4B1", "twitter": "None", "instagram": "None", "facebook": "None", "youtube": "None", "website": "None", "summary": "None", "logo": "None", "latitude": 48.4403751618097, "longitude": -123.339003896647}, "898845433RR0001": {"name": "MAHATMA GANDHI CANADIAN FOUNDATION FOR WORLD PEACE", "designationCode": "C", "categoryCode": "21", "address": "PO BOX 60002 RPO U OF ALBERTA U OF A POSTAL OU", "city": "EDMONTON", "province": "AB", "country": "CA", "postalCode": "T6G2S4", "twitter": "None", "instagram": "None", "facebook": "None", "youtube": "None", "website": "None", "summary": "None", "logo": "None", "latitude": 53.54623500000005, "longitude": -113.49037249999994}, "887417665RR0001": {"name": "MAHAYANA ZENGONG ASSOCIATION OF CANADA", "designationCode": "C", "categoryCode": "39", "address": "401-905 WEST PENDER ST.", "city": "VANCOUVER", "province": "BC", "country": "CA", "postalCode": "V6C1L6", "twitter": "None", "instagram": "None", "facebook": "None", "youtube": "None", "website": "None", "summary": "None", "logo": "None", "latitude": 49.28605188372086, "longitude": -123.11692467871791}, "139768980RR0001": {"name": "MAHMOWENCHIKE FAMILY DEVELOPMENT CENTRE OF THUNDER BAY INC", "designationCode": "C", "categoryCode": "09", "address": "150 REDWOOD AVENUE", "city": "THUNDER BAY", "province": "ON", "country": "CA", "postalCode": "P7C1Z6", "twitter": "None", "instagram": "None", "facebook": "None", "youtube": "None", "website": "None", "summary": "None", "logo": "None", "latitude": 48.39392848066852, "longitude": -89.28451052983439}, "874204027RR0001": {"name": "MAHONE BAY SUMMER CONCERTS SOCIETY", "designationCode": "C", "categoryCode": "22", "address": "P.O. BOX 391", "city": "MAHONE BAY", "province": "NS", "country": "CA", "postalCode": "B0J2E0", "twitter": "None", "instagram": "None", "facebook": "None", "youtube": "None", "website": "None", "summary": "None", "logo": "None", "latitude": 44.5107664683721, "longitude": -64.5603343504879}, "119028090RR0001": {"name": "MAHONE BAY UNITED BAPTIST CHURCH", "designationCode": "C", "categoryCode": "31", "address": "6446 ST MARGARETS BAY RD.", "city": "HEAD OF ST MARGARETS BAY", "province": "NS", "country": "CA", "postalCode": "B3Z1Y6", "twitter": "None", "instagram": "None", "facebook": "None", "youtube": "None", "website": "None", "summary": "None", "logo": "None", "latitude": 44.67488606466045, "longitude": -63.923543499827105}, "876725300RR0001": {"name": "MAHONE ISLANDS CONSERVATION ASSOCIATION", "designationCode": "C", "categoryCode": "53", "address": "P.O. BOX 427", "city": "MAHONE BAY", "province": "NS", "country": "CA", "postalCode": "B0J2E0", "twitter": "None", "instagram": "None", "facebook": "None", "youtube": "None", "website": "None", "summary": "None", "logo": "None", "latitude": 44.5107664683721, "longitude": -64.5603343504879}, "131818494RR0001": {"name": "MAIDSTONE BAPTIST CHURCH INC", "designationCode": "C", "categoryCode": "31", "address": "BOX 448, 212 - 4TH AVE EAST", "city": "MAIDSTONE", "province": "SK", "country": "CA", "postalCode": "S0M1M0", "twitter": "None", "instagram": "None", "facebook": "None", "youtube": "None", "website": "None", "summary": "None", "logo": "None", "latitude": 53.08890539395498, "longitude": -109.28100569494724}, "119028124RR0001": {"name": "MAIDSTONE CONGREGATION OF JEHOVAH'S WITNESSES INC.", "designationCode": "C", "categoryCode": "61", "address": "BOX 172", "city": "MAIDSTONE", "province": "SK", "country": "CA", "postalCode": "S0M1M0", "twitter": "None", "instagram": "None", "facebook": "None", "youtube": "None", "website": "None", "summary": "None", "logo": "None", "latitude": 53.087690000000066, "longitude": -109.29660999999999}, "122790827RR0001": {"name": "MAIDSTONE GROUP HOME SOCIETY INC", "designationCode": "C", "categoryCode": "01", "address": "BOX 195", "city": "MAIDSTONE", "province": "SK", "country": "CA", "postalCode": "S0M1M0", "twitter": "None", "instagram": "None", "facebook": "None", "youtube": "None", "website": "None", "summary": "None", "logo": "None", "latitude": 53.087690000000066, "longitude": -109.29660999999999}, "119028140RR0001": {"name": "MAIDSTONE HEALTH CARE HOSPITAL AUXILIARY", "designationCode": "C", "categoryCode": "19", "address": "BOX 301", "city": "MAIDSTONE", "province": "SK", "country": "CA", "postalCode": "S0M1M0", "twitter": "None", "instagram": "None", "facebook": "None", "youtube": "None", "website": "None", "summary": "None", "logo": "None", "latitude": 53.087690000000066, "longitude": -109.29660999999999}, "119028173RR0001": {"name": "MAIDSTONE SENIOR CITIZENS' DROP-IN CENTRE", "designationCode": "C", "categoryCode": "56", "address": "BOX 672", "city": "MAIDSTONE", "province": "SK", "country": "CA", "postalCode": "S0M1M0", "twitter": "None", "instagram": "None", "facebook": "None", "youtube": "None", "website": "None", "summary": "None", "logo": "None", "latitude": 53.087690000000066, "longitude": -109.29660999999999}, "119028199RR0001": {"name": "MAIDSTONE UNITED CHURCH", "designationCode": "C", "categoryCode": "44", "address": "PO BOX 417", "city": "MAIDSTONE", "province": "SK", "country": "CA", "postalCode": "S0M1M0", "twitter": "None", "instagram": "None", "facebook": "None", "youtube": "None", "website": "None", "summary": "None", "logo": "None", "latitude": 53.087690000000066, "longitude": -109.29660999999999}, "888787991RR0001": {"name": "MAIEROVITS FAMILY CHARITABLE FOUNDATION", "designationCode": "B", "categoryCode": "03", "address": "2885 BATHURST ST.", "city": "TORONTO", "province": "ON", "country": "CA", "postalCode": "M6B3A7", "twitter": "None", "instagram": "None", "facebook": "None", "youtube": "None", "website": "None", "summary": "None", "logo": "None", "latitude": 43.71398170081934, "longitude": -79.42848351592727}, "118922640RR0001": {"name": "MAIMONIDES HOSPITAL FOUNDATION", "designationCode": "A", "categoryCode": "13", "address": "5795 CALDWELL AVENUE", "city": "COTE ST LUC", "province": "QC", "country": "CA", "postalCode": "H4W1W3", "twitter": "None", "instagram": "None", "facebook": "None", "youtube": "None", "website": "None", "summary": "None", "logo": "None", "latitude": 45.4704915745282, "longitude": -73.66721109824576}, "898125448RR0002": {"name": "MAIMONIDES MEDICAL RESEARCH FOUNDATION/FONDATION DE RECHERCHE MEDICALE MAIMONIDES", "designationCode": "A", "categoryCode": "13", "address": "5795 CALDWELL AVENUE", "city": "COTE-SAINT-LUC", "province": "QC", "country": "CA", "postalCode": "H4W1W3", "twitter": "None", "instagram": "None", "facebook": "None", "youtube": "None", "website": "None", "summary": "None", "logo": "None", "latitude": 45.4704915745282, "longitude": -73.66721109824576}, "886333194RR0001": {"name": "MAIMONIDES SCHOOL SOCIETY", "designationCode": "C", "categoryCode": "20", "address": "1100 - 1177 HASTINGS ST W", "city": "VANCOUVER", "province": "BC", "country": "CA", "postalCode": "V6E4T5", "twitter": "None", "instagram": "None", "facebook": "None", "youtube": "None", "website": "None", "summary": "None", "logo": "None", "latitude": 49.288649048588965, "longitude": -123.1221220732588}, "103459277RR0001": {"name": "MAIMONIDES SCHOOLS FOR JEWISH STUDIES", "designationCode": "C", "categoryCode": "20", "address": "125 CLINE AVENUE SOUTH", "city": "HAMILTON", "province": "ON", "country": "CA", "postalCode": "L8S1X2", "twitter": "None", "instagram": "None", "facebook": "None", "youtube": "None", "website": "None", "summary": "None", "logo": "None", "latitude": 43.25674722147847, "longitude": -79.9109174250391}, "892984873RR0001": {"name": "MAIN CENTRE CHARITABLE TRUST", "designationCode": "B", "categoryCode": "39", "address": "50-1ST AVE NE", "city": "SWIFT CURRENT", "province": "SK", "country": "CA", "postalCode": "S9H4W4", "twitter": "None", "instagram": "None", "facebook": "None", "youtube": "None", "website": "None", "summary": "None", "logo": "None", "latitude": 50.282664378132, "longitude": -107.79863205289816}, "107654980RR0001": {"name": "MAIN SQUARE DAY CARE CENTRE", "designationCode": "C", "categoryCode": "01", "address": "265 MAIN ST                   BUILDING C", "city": "TORONTO", "province": "ON", "country": "CA", "postalCode": "M4C4X3", "twitter": "None", "instagram": "None", "facebook": "None", "youtube": "None", "website": "None", "summary": "None", "logo": "None", "latitude": 43.68741721957389, "longitude": -79.30144034179793}}