{"118882133RR0001": {"name": "DANISH LUTHERAN CHURCH", "designationCode": "C", "categoryCode": "32", "address": "210 10 AVE NE", "city": "CALGARY", "province": "AB", "country": "CA", "postalCode": "T2E0W9", "twitter": "None", "instagram": "None", "facebook": "None", "youtube": "None", "website": "None", "summary": "None", "logo": "None", "latitude": 51.06167726852271, "longitude": -114.05958722807007}, "118882158RR0001": {"name": "DANISH LUTHERAN CHURCH OF THE NIAGARA PENINSULA", "designationCode": "C", "categoryCode": "32", "address": "130 MAIN ST. EAST", "city": "GRIMSBY", "province": "ON", "country": "CA", "postalCode": "L3M1N8", "twitter": "None", "instagram": "None", "facebook": "None", "youtube": "None", "website": "None", "summary": "None", "logo": "None", "latitude": 43.188979885336984, "longitude": -79.5481794363205}, "118882141RR0001": {"name": "DANISH LUTHERAN CHURCH, \"GRANLY\", SURREY", "designationCode": "C", "categoryCode": "32", "address": "15144- 92 A AVE", "city": "SURREY", "province": "BC", "country": "CA", "postalCode": "V3R7A6", "twitter": "None", "instagram": "None", "facebook": "None", "youtube": "None", "website": "None", "summary": "None", "logo": "None", "latitude": 49.17097551788916, "longitude": -122.80288402553523}, "129101085RR0001": {"name": "DANISH SENIOR CITIZEN'S APARTMENT FOUNDATION", "designationCode": "C", "categoryCode": "01", "address": "1102 - 1818 SIMCOE BLVD SW", "city": "CALGARY", "province": "AB", "country": "CA", "postalCode": "T3H3L9", "twitter": "None", "instagram": "None", "facebook": "None", "youtube": "None", "website": "None", "summary": "None", "logo": "None", "latitude": 51.03600660421836, "longitude": -114.17866944099505}, "118882166RR0001": {"name": "DANNEVIRKE LUTHERAN CHURCH", "designationCode": "C", "categoryCode": "32", "address": "LAUST LAURITSEN               BOX 155", "city": "REDVERS", "province": "SK", "country": "CA", "postalCode": "S0C2H0", "twitter": "None", "instagram": "None", "facebook": "None", "youtube": "None", "website": "None", "summary": "None", "logo": "None", "latitude": 49.573392000000055, "longitude": -101.69623249999994}, "863490975RR0001": {"name": "DANNY & JESSICA ANGEL FOUNDATION INC.", "designationCode": "C", "categoryCode": "09", "address": "86 PORTAGE PIT RD", "city": "PORTAGE VALE", "province": "NB", "country": "CA", "postalCode": "E4Z3C2", "twitter": "None", "instagram": "None", "facebook": "None", "youtube": "None", "website": "None", "summary": "None", "logo": "None", "latitude": 45.81330413552371, "longitude": -65.29383467092762}, "118882174RR0001": {"name": "DANNY HOWELL MEMORIAL BURSARY", "designationCode": "C", "categoryCode": "21", "address": "950 KING STREET WEST", "city": "HAMILTON", "province": "ON", "country": "CA", "postalCode": "L8S1K8", "twitter": "None", "instagram": "None", "facebook": "None", "youtube": "None", "website": "None", "summary": "None", "logo": "None", "latitude": 43.2628524363205, "longitude": -79.90357388302836}, "867322331RR0001": {"name": "DANSE DANSE INC.", "designationCode": "C", "categoryCode": "22", "address": "2, RUE SAINTE-CATHERINE E     PORTE 200", "city": "MONTREAL", "province": "QC", "country": "CA", "postalCode": "H2X1K4", "twitter": "None", "instagram": "None", "facebook": "None", "youtube": "None", "website": "None", "summary": "None", "logo": "None", "latitude": 45.510085917565966, "longitude": -73.56356677378967}, "893331165RR0001": {"name": "DANSE IM\u00c9DIA O.S.B.L.", "designationCode": "C", "categoryCode": "22", "address": "75 SQUARE-SIR-GEORGES-ETIENNE CARTIER SUITE 217", "city": "MONTR\u00c9AL", "province": "QC", "country": "CA", "postalCode": "H4C3A1", "twitter": "None", "instagram": "None", "facebook": "None", "youtube": "None", "website": "None", "summary": "None", "logo": "None", "latitude": 45.47273916322333, "longitude": -73.58398005326347}, "130483423RR0001": {"name": "DANSE KALASHAS", "designationCode": "C", "categoryCode": "22", "address": "6186, NOTRE-DAME-DE-GRACE S 27", "city": "MONTREAL", "province": "QC", "country": "CA", "postalCode": "H4B1K8", "twitter": "None", "instagram": "None", "facebook": "None", "youtube": "None", "website": "None", "summary": "None", "logo": "None", "latitude": 45.467346447400345, "longitude": -73.62420820301237}, "120048624RR0001": {"name": "DANSE-CIT\u00c9 INC.", "designationCode": "C", "categoryCode": "22", "address": "3680 JEANNE MANCE             BUREAU 426", "city": "MONTREAL", "province": "QC", "country": "CA", "postalCode": "H2X2K5", "twitter": "None", "instagram": "None", "facebook": "None", "youtube": "None", "website": "None", "summary": "None", "logo": "None", "latitude": 45.51161383345846, "longitude": -73.57612466876323}, "118882208RR0001": {"name": "DANSKIN MENNONITE CHURCH", "designationCode": "C", "categoryCode": "34", "address": "26754 KEEFE'S LANDING RD.", "city": "BURNS LAKE", "province": "BC", "country": "CA", "postalCode": "V0J1E4", "twitter": "None", "instagram": "None", "facebook": "None", "youtube": "None", "website": "None", "summary": "None", "logo": "None", "latitude": 53.98954404162575, "longitude": -125.79133902832501}, "119111938RR0001": {"name": "DANSTABAT PERFORMANCE SOCIETY", "designationCode": "C", "categoryCode": "22", "address": "214 - 330 7TH AVE E", "city": "VANCOUVER", "province": "BC", "country": "CA", "postalCode": "V5T4K5", "twitter": "None", "instagram": "None", "facebook": "None", "youtube": "None", "website": "None", "summary": "None", "logo": "None", "latitude": 49.26455252120741, "longitude": -123.09831224715793}, "887941466RR0001": {"name": "DANTE ALIGHIERI CULTURAL SOCIETY INC.", "designationCode": "C", "categoryCode": "22", "address": "1055 WILKES AVENUE", "city": "WINNIPEG", "province": "MB", "country": "CA", "postalCode": "R3P2L7", "twitter": "None", "instagram": "None", "facebook": "None", "youtube": "None", "website": "None", "summary": "None", "logo": "None", "latitude": 49.846939454411235, "longitude": -97.1929035}, "101266781RR0001": {"name": "DANTE DAY NURSERY INC.", "designationCode": "C", "categoryCode": "01", "address": "358 COCKBURN STREET N", "city": "WINNIPEG", "province": "MB", "country": "CA", "postalCode": "R3M2P5", "twitter": "None", "instagram": "None", "facebook": "None", "youtube": "None", "website": "None", "summary": "None", "logo": "None", "latitude": 49.86720815208616, "longitude": -97.14986987180428}, "889736369RR0001": {"name": "DANUBE CANADIAN BENEVOLENT SOCIETY", "designationCode": "C", "categoryCode": "22", "address": "1686 ELLESMERE RD", "city": "SCARBOROUGH", "province": "ON", "country": "CA", "postalCode": "M1H2V5", "twitter": "None", "instagram": "None", "facebook": "None", "youtube": "None", "website": "None", "summary": "None", "logo": "None", "latitude": 43.77274410355453, "longitude": -79.24908608272251}, "107001497RR0001": {"name": "DANVILLE-ASBESTOS TRINITY UNITED CHURCH", "designationCode": "C", "categoryCode": "44", "address": "P.O. BOX 68", "city": "DANVILLE", "province": "QC", "country": "CA", "postalCode": "J0A1A0", "twitter": "None", "instagram": "None", "facebook": "None", "youtube": "None", "website": "None", "summary": "None", "logo": "None", "latitude": 45.78654300000005, "longitude": -72.02058649999994}, "866565682RR0001": {"name": "DAO EN TEMPLE", "designationCode": "C", "categoryCode": "39", "address": "677 VICTORIA", "city": "BAIE D'URFE", "province": "QC", "country": "CA", "postalCode": "H9X2K1", "twitter": "None", "instagram": "None", "facebook": "None", "youtube": "None", "website": "None", "summary": "None", "logo": "None", "latitude": 45.41450546436588, "longitude": -73.92017452706443}, "859983876RR0001": {"name": "DAR-UL-IHSAN CENTRE FOR ISLAMIC EDUCATION AND MUSLIM SCHOOL", "designationCode": "C", "categoryCode": "60", "address": "54 - 708 TWELFTH ST E", "city": "CORNWALL", "province": "ON", "country": "CA", "postalCode": "K6H7G3", "twitter": "None", "instagram": "None", "facebook": "None", "youtube": "None", "website": "None", "summary": "None", "logo": "None", "latitude": 45.03414773149447, "longitude": -74.73465909134721}, "106893522RR0001": {"name": "DARE-DARE CENTRE DIFFUSION D'ART MULTIDISCIPLINAIRE DE MONTREAL INC.", "designationCode": "C", "categoryCode": "22", "address": "CP 72126 CSP ATWATER", "city": "MONTREAL", "province": "QC", "country": "CA", "postalCode": "H3J2Z6", "twitter": "None", "instagram": "None", "facebook": "None", "youtube": "None", "website": "None", "summary": "None", "logo": "None", "latitude": 45.48222913368028, "longitude": -73.57850738020817}, "886917764RR0002": {"name": "DAREARTS FOUNDATION INC", "designationCode": "C", "categoryCode": "22", "address": "3030 CONCESSION RD. 3 ADJALA  RR 1, (HOCKEY VALLEY)", "city": "PALGRAVE", "province": "ON", "country": "CA", "postalCode": "L0N1P0", "twitter": "None", "instagram": "None", "facebook": "None", "youtube": "None", "website": "None", "summary": "None", "logo": "None", "latitude": 43.96720200000006, "longitude": -80.05246549999994}, "856638036RR0001": {"name": "DARFUR DIASPORA ASSOCIATION", "designationCode": "C", "categoryCode": "02", "address": "3570 ASH ROW CRESCENT", "city": "MISSISSAUGA", "province": "ON", "country": "CA", "postalCode": "L5L1K4", "twitter": "None", "instagram": "None", "facebook": "None", "youtube": "None", "website": "None", "summary": "None", "logo": "None", "latitude": 43.538995667205384, "longitude": -79.69155478587912}, "889107371RR0001": {"name": "DARLING UKRAINIAN CATHOLIC CHURCH OF HOLY SPIRIT", "designationCode": "C", "categoryCode": "38", "address": "RR#1", "city": "WASKATENAU", "province": "AB", "country": "CA", "postalCode": "T0A3P0", "twitter": "None", "instagram": "None", "facebook": "None", "youtube": "None", "website": "None", "summary": "None", "logo": "None", "latitude": 54.09378000000004, "longitude": -112.78504001226229}, "888971199RR0001": {"name": "DARLING WHITE LAKE COMMUNITY CENTRE INC.", "designationCode": "C", "categoryCode": "56", "address": "384 LAKESHORE RD", "city": "WHITE LAKE", "province": "ON", "country": "CA", "postalCode": "K0A3L0", "twitter": "None", "instagram": "None", "facebook": "None", "youtube": "None", "website": "None", "summary": "None", "logo": "None", "latitude": 45.259808298949515, "longitude": -76.54931380327734}, "888436243RR0001": {"name": "DARLINGFORD MEMORIAL PARK INC.", "designationCode": "C", "categoryCode": "59", "address": "RR 1, 2W, #NW 17", "city": "DARLINGFORD", "province": "MB", "country": "CA", "postalCode": "R0G0L0", "twitter": "None", "instagram": "None", "facebook": "None", "youtube": "None", "website": "None", "summary": "None", "logo": "None", "latitude": 49.10354539473696, "longitude": -97.55923732982444}, "118882356RR0001": {"name": "DARLINGFORD SCHOOL HERITAGE FUND", "designationCode": "C", "categoryCode": "50", "address": "P.O BOX 146", "city": "DARLING FORD", "province": "MB", "country": "CA", "postalCode": "R0G0L0", "twitter": "None", "instagram": "None", "facebook": "None", "youtube": "None", "website": "None", "summary": "None", "logo": "None", "latitude": 49.50251000000003, "longitude": -97.99024999999995}, "118882372RR0001": {"name": "DARREL S. MOFFAT MEMORIAL CHURCH", "designationCode": "C", "categoryCode": "44", "address": "PO BOX 580", "city": "TILBURY", "province": "ON", "country": "CA", "postalCode": "N0P2L0", "twitter": "None", "instagram": "None", "facebook": "None", "youtube": "None", "website": "None", "summary": "None", "logo": "None", "latitude": 42.246438000000055, "longitude": -82.43606599999994}, "118882364RR0001": {"name": "DARRELL AND EMILY LAING FOUNDATION", "designationCode": "B", "categoryCode": "23", "address": "PO BOX 457                    HALIFAX CENTRAL", "city": "HALIFAX", "province": "NS", "country": "CA", "postalCode": "B3J2P8", "twitter": "None", "instagram": "None", "facebook": "None", "youtube": "None", "website": "None", "summary": "None", "logo": "None", "latitude": 44.643410000000074, "longitude": -63.57542999999998}, "118882380RR0001": {"name": "DARTMOUTH ASSOCIATION FOR THE MENTALLY HANDICAPPED", "designationCode": "C", "categoryCode": "11", "address": "30 OCEANLEA DRIVE", "city": "EASTERN PASSAGE", "province": "NS", "country": "CA", "postalCode": "B3G1E4", "twitter": "None", "instagram": "None", "facebook": "None", "youtube": "None", "website": "None", "summary": "None", "logo": "None", "latitude": 44.61042640937165, "longitude": -63.47750541629654}, "106926694RR0001": {"name": "DARTMOUTH CHURCH OF THE NAZARENE", "designationCode": "C", "categoryCode": "39", "address": "3 HENRY ST", "city": "DARTMOUTH", "province": "NS", "country": "CA", "postalCode": "B3A3C3", "twitter": "None", "instagram": "None", "facebook": "None", "youtube": "None", "website": "None", "summary": "None", "logo": "None", "latitude": 44.67237301136831, "longitude": -63.586432877027086}, "107002131RR0001": {"name": "DARTMOUTH DAY CARE CENTRE", "designationCode": "C", "categoryCode": "01", "address": "PO BOX 2715  STN EAST", "city": "DARTMOUTH", "province": "NS", "country": "CA", "postalCode": "B2W4R4", "twitter": "None", "instagram": "None", "facebook": "None", "youtube": "None", "website": "None", "summary": "None", "logo": "None", "latitude": 44.644397759138585, "longitude": -63.54216547359514}, "135120756RR0001": {"name": "DARTMOUTH DEVELOPMENTAL CENTRE", "designationCode": "C", "categoryCode": "20", "address": "61 BOLAND RD", "city": "DARTMOUTH", "province": "NS", "country": "CA", "postalCode": "B3A3G7", "twitter": "None", "instagram": "None", "facebook": "None", "youtube": "None", "website": "None", "summary": "None", "logo": "None", "latitude": 44.672885097985954, "longitude": -63.58059394812149}, "140914755RR0001": {"name": "DARTMOUTH FAMILY CENTRE", "designationCode": "C", "categoryCode": "09", "address": "107 ALBRO LAKE RD", "city": "DARTMOUTH", "province": "NS", "country": "CA", "postalCode": "B3A3Y7", "twitter": "None", "instagram": "None", "facebook": "None", "youtube": "None", "website": "None", "summary": "None", "logo": "None", "latitude": 44.680135283945894, "longitude": -63.58332059120527}, "122455611RR0001": {"name": "DARTMOUTH GENERAL HOSPITAL CHARITABLE FOUNDATION", "designationCode": "A", "categoryCode": "13", "address": "325 PLEASANT ST", "city": "DARTMOUTH", "province": "NS", "country": "CA", "postalCode": "B2Y4G8", "twitter": "None", "instagram": "None", "facebook": "None", "youtube": "None", "website": "None", "summary": "None", "logo": "None", "latitude": 44.6536658637542, "longitude": -63.54856487445961}, "890030521RR0001": {"name": "DARTMOUTH HERITAGE MUSEUM SOCIETY", "designationCode": "C", "categoryCode": "50", "address": "26 NEWCASTLE ST", "city": "DARTMOUTH", "province": "NS", "country": "CA", "postalCode": "B2Y3M5", "twitter": "None", "instagram": "None", "facebook": "None", "youtube": "None", "website": "None", "summary": "None", "logo": "None", "latitude": 44.66673651788918, "longitude": -63.56000152553523}, "888771466RR0001": {"name": "DARTMOUTH HISTORICAL ASSOCIATION", "designationCode": "C", "categoryCode": "50", "address": "15 LAWNSDALE DR", "city": "DARTMOUTH", "province": "NS", "country": "CA", "postalCode": "B3A2N1", "twitter": "None", "instagram": "None", "facebook": "None", "youtube": "None", "website": "None", "summary": "None", "logo": "None", "latitude": 44.68139771689084, "longitude": -63.56906275396726}, "133089102RR0001": {"name": "DARTMOUTH LEARNING NETWORK SOCIETY", "designationCode": "C", "categoryCode": "21", "address": "200 - 260 WYSE RD", "city": "DARTMOUTH", "province": "NS", "country": "CA", "postalCode": "B3A1N3", "twitter": "None", "instagram": "None", "facebook": "None", "youtube": "None", "website": "None", "summary": "None", "logo": "None", "latitude": 44.675683322522836, "longitude": -63.58626497833125}, "889456976RR0001": {"name": "DARTMOUTH PLAYERS SOCIETY", "designationCode": "C", "categoryCode": "22", "address": "PO BOX 66 STN MAIN", "city": "DARTMOUTH", "province": "NS", "country": "CA", "postalCode": "B2Y3Y2", "twitter": "None", "instagram": "None", "facebook": "None", "youtube": "None", "website": "None", "summary": "None", "logo": "None", "latitude": 44.67403500000006, "longitude": -63.57535099999993}, "864666953RR0001": {"name": "DARTMOUTH PRE-SCHOOL (2002) SOCIETY", "designationCode": "C", "categoryCode": "20", "address": "16 FOXGROVE LANE", "city": "DARTMOUTH", "province": "NS", "country": "CA", "postalCode": "B2Y4N8", "twitter": "None", "instagram": "None", "facebook": "None", "youtube": "None", "website": "None", "summary": "None", "logo": "None", "latitude": 44.668401224248434, "longitude": -63.54549994659228}, "107791006RR0001": {"name": "DARTMOUTH SENIOR CARE SOCIETY", "designationCode": "C", "categoryCode": "10", "address": "10 MOUNT HOPE AVE", "city": "DARTMOUTH", "province": "NS", "country": "CA", "postalCode": "B2Y4K1", "twitter": "None", "instagram": "None", "facebook": "None", "youtube": "None", "website": "None", "summary": "None", "logo": "None", "latitude": 44.65419249174836, "longitude": -63.54525907028727}, "107002230RR0001": {"name": "DARTMOUTH SENIOR CITIZENS SERVICE CENTRE COMMISSION", "designationCode": "C", "categoryCode": "09", "address": "45 OCHTERLONEY STREET", "city": "DARTMOUTH", "province": "NS", "country": "CA", "postalCode": "B2Y4M7", "twitter": "None", "instagram": "None", "facebook": "None", "youtube": "None", "website": "None", "summary": "None", "logo": "None", "latitude": 44.66647857536492, "longitude": -63.56865286568743}, "107669848RR0018": {"name": "DARTMOUTH SEVENTH-DAY ADVENTIST CHURCH", "designationCode": "C", "categoryCode": "41", "address": "121 SALISBURY RD", "city": "MONCTON", "province": "NB", "country": "CA", "postalCode": "E1E1A6", "twitter": "None", "instagram": "None", "facebook": "None", "youtube": "None", "website": "None", "summary": "None", "logo": "None", "latitude": 46.0711640413756, "longitude": -64.82144086984238}, "118882539RR0001": {"name": "DARTMOUTH WORK ACTIVITY SOCIETY", "designationCode": "C", "categoryCode": "09", "address": "15 POSEIDON COURT", "city": "DARTMOUTH", "province": "NS", "country": "CA", "postalCode": "B2Y4T9", "twitter": "None", "instagram": "None", "facebook": "None", "youtube": "None", "website": "None", "summary": "None", "logo": "None", "latitude": 44.659111514859404, "longitude": -63.544833078336424}, "118882547RR0001": {"name": "DARUL-ULOOM AL-MADANIA", "designationCode": "C", "categoryCode": "20", "address": "11140 SHEPPARD AVENUE EAST", "city": "TORONTO", "province": "ON", "country": "CA", "postalCode": "M1B1G2", "twitter": "None", "instagram": "None", "facebook": "None", "youtube": "None", "website": "None", "summary": "None", "logo": "None", "latitude": 43.801901356973524, "longitude": -79.15298978111859}, "874884406RR0001": {"name": "DARULKHAIR ISLAMIC CENTRE", "designationCode": "C", "categoryCode": "60", "address": "1110-25 ST DENNIS DR", "city": "TORONTO", "province": "ON", "country": "CA", "postalCode": "M3C1E7", "twitter": "None", "instagram": "None", "facebook": "None", "youtube": "None", "website": "None", "summary": "None", "logo": "None", "latitude": 43.71792886254304, "longitude": -79.33329526738436}, "130018591RR0001": {"name": "DARWIN PRE-KINDERGARTEN INC", "designationCode": "C", "categoryCode": "01", "address": "PO BOX 123", "city": "WINNIPEG", "province": "MB", "country": "CA", "postalCode": "R2N3X9", "twitter": "None", "instagram": "None", "facebook": "None", "youtube": "None", "website": "None", "summary": "None", "logo": "None", "latitude": 49.78970700000005, "longitude": -97.09262449999993}, "805854312RR0001": {"name": "DARYL DUKE FOUNDATION", "designationCode": "C", "categoryCode": "22", "address": "1600-130 KING STREET WEST", "city": "TORONTO", "province": "ON", "country": "CA", "postalCode": "M5X1J5", "twitter": "None", "instagram": "None", "facebook": "None", "youtube": "None", "website": "None", "summary": "None", "logo": "None", "latitude": 43.64798216515656, "longitude": -79.38336717805407}, "107002453RR0001": {"name": "DASC - DARTMOUTH ADULT SERVICE CENTRE ASSOCIATION", "designationCode": "C", "categoryCode": "09", "address": "59 DOREY AVENUE", "city": "DARTMOUTH", "province": "NS", "country": "CA", "postalCode": "B3B0B2", "twitter": "None", "instagram": "None", "facebook": "None", "youtube": "None", "website": "None", "summary": "None", "logo": "None", "latitude": 44.71033416988844, "longitude": -63.58171848519791}, "137303368RR0001": {"name": "DASH DIRECTORATE OF AGENCIES FOR SCHOOL HEALTH BRITISH COLUMBIA ASSOCIATION", "designationCode": "C", "categoryCode": "11", "address": "1205 - 700 WEST PENDER ST", "city": "VANCOUVER", "province": "BC", "country": "CA", "postalCode": "V6C1G8", "twitter": "None", "instagram": "None", "facebook": "None", "youtube": "None", "website": "None", "summary": "None", "logo": "None", "latitude": 49.28475671218765, "longitude": -123.11502780979822}, "107002479RR0001": {"name": "DASHMESH CULTURE CENTRE", "designationCode": "C", "categoryCode": "39", "address": "135 MARTINDALE BLVD NE", "city": "CALGARY", "province": "AB", "country": "CA", "postalCode": "T3J2X5", "twitter": "None", "instagram": "None", "facebook": "None", "youtube": "None", "website": "None", "summary": "None", "logo": "None", "latitude": 51.11419664556529, "longitude": -113.95509737399732}, "118882588RR0001": {"name": "DASMESH PUNJABI EDUCATIONAL ASSOCIATION", "designationCode": "C", "categoryCode": "20", "address": "5930 RIVERSIDE STREET", "city": "ABBOTSFORD", "province": "BC", "country": "CA", "postalCode": "V4X1T8", "twitter": "None", "instagram": "None", "facebook": "None", "youtube": "None", "website": "None", "summary": "None", "logo": "None", "latitude": 49.10963441909516, "longitude": -122.29421852383312}, "815806070RR0001": {"name": "DATA FOUNDATION", "designationCode": "A", "categoryCode": "03", "address": "1250-1500 WEST GEORGIA ST     BOX 62", "city": "VANCOUVER", "province": "BC", "country": "CA", "postalCode": "V6G2Z6", "twitter": "None", "instagram": "None", "facebook": "None", "youtube": "None", "website": "None", "summary": "None", "logo": "None", "latitude": 49.290187500000016, "longitude": -123.130035}, "886726751RR0001": {"name": "DATTA YOGA CENTRE OF CANADA", "designationCode": "C", "categoryCode": "39", "address": "5422 ERIN SECOND LINE", "city": "ACTON", "province": "ON", "country": "CA", "postalCode": "L7J2L9", "twitter": "None", "instagram": "None", "facebook": "None", "youtube": "None", "website": "None", "summary": "None", "logo": "None", "latitude": 43.63106100000006, "longitude": -80.06386399999994}, "895530954RR0001": {"name": "DAUGHTERS OF ST. MARY OF LEUCA", "designationCode": "C", "categoryCode": "46", "address": "125-RUE COULONGE", "city": "LONGUEUIL", "province": "QC", "country": "CA", "postalCode": "J4G1H7", "twitter": "None", "instagram": "None", "facebook": "None", "youtube": "None", "website": "None", "summary": "None", "logo": "None", "latitude": 45.56905012187639, "longitude": -73.48333418803739}, "107002693RR0001": {"name": "DAUGHTERS OF ST. PAUL", "designationCode": "C", "categoryCode": "46", "address": "3022 DUFFERIN ST", "city": "TORONTO", "province": "ON", "country": "CA", "postalCode": "M6B3T5", "twitter": "None", "instagram": "None", "facebook": "None", "youtube": "None", "website": "None", "summary": "None", "logo": "None", "latitude": 43.71234916097297, "longitude": -79.45437697685936}, "898081757RR0001": {"name": "DAUPHIN & DISTRICT COMMUNITY FOUNDATION INC.", "designationCode": "A", "categoryCode": "53", "address": "P.O. BOX 6", "city": "DAUPHIN", "province": "MB", "country": "CA", "postalCode": "R7N2T9", "twitter": "None", "instagram": "None", "facebook": "None", "youtube": "None", "website": "None", "summary": "None", "logo": "None", "latitude": 51.150138000000055, "longitude": -100.04934049999993}, "118882620RR0001": {"name": "DAUPHIN & DISTRICT HANDI-VAN ASSOCIATION INC.", "designationCode": "C", "categoryCode": "09", "address": "37 3RD AVE NW", "city": "DAUPHIN", "province": "MB", "country": "CA", "postalCode": "R7N1H7", "twitter": "None", "instagram": "None", "facebook": "None", "youtube": "None", "website": "None", "summary": "None", "logo": "None", "latitude": 51.15162265860704, "longitude": -100.04897250403936}, "118882612RR0001": {"name": "DAUPHIN ALLIED ARTS COUNCIL INC.", "designationCode": "C", "categoryCode": "22", "address": "104 1ST AVE NW", "city": "DAUPHIN", "province": "MB", "country": "CA", "postalCode": "R7N1G9", "twitter": "None", "instagram": "None", "facebook": "None", "youtube": "None", "website": "None", "summary": "None", "logo": "None", "latitude": 51.150520414103504, "longitude": -100.0516604516995}, "865162366RR0001": {"name": "DAUPHIN AND DISTRICT COMMUNITY FOOD BANK SOCIETY INC.", "designationCode": "C", "categoryCode": "09", "address": "BOX 1003", "city": "DAUPHIN", "province": "MB", "country": "CA", "postalCode": "R7N3L9", "twitter": "None", "instagram": "None", "facebook": "None", "youtube": "None", "website": "None", "summary": "None", "logo": "None", "latitude": 51.150138000000055, "longitude": -100.04934049999993}, "107764573RR0022": {"name": "DAUPHIN BIBLE CAMP", "designationCode": "C", "categoryCode": "47", "address": "BOX 686", "city": "DAUPHIN", "province": "MB", "country": "CA", "postalCode": "R7N3B3", "twitter": "None", "instagram": "None", "facebook": "None", "youtube": "None", "website": "None", "summary": "None", "logo": "None", "latitude": 51.150138000000055, "longitude": -100.04934049999993}, "864254701RR0002": {"name": "DAUPHIN CHURCH OF CHRIST 2004 INC.", "designationCode": "C", "categoryCode": "39", "address": "POST OFFICE BOX 70", "city": "DAUPHIN", "province": "MB", "country": "CA", "postalCode": "R7N2T9", "twitter": "None", "instagram": "None", "facebook": "None", "youtube": "None", "website": "None", "summary": "None", "logo": "None", "latitude": 51.150138000000055, "longitude": -100.04934049999993}, "864015466RR0001": {"name": "DAUPHIN FIRST BAPTIST CHURCH INC.", "designationCode": "C", "categoryCode": "31", "address": "PO BOX 167", "city": "DAUPHIN", "province": "MB", "country": "CA", "postalCode": "R7N2V1", "twitter": "None", "instagram": "None", "facebook": "None", "youtube": "None", "website": "None", "summary": "None", "logo": "None"}, "107002768RR0001": {"name": "DAUPHIN FIRST UNITED CHURCH", "designationCode": "C", "categoryCode": "44", "address": "37-3RD AVE N W", "city": "DAUPHIN", "province": "MB", "country": "CA", "postalCode": "R7N1H7", "twitter": "None", "instagram": "None", "facebook": "None", "youtube": "None", "website": "None", "summary": "None", "logo": "None", "latitude": 51.15162265860704, "longitude": -100.04897250403936}, "118882661RR0001": {"name": "DAUPHIN FRIENDSHIP CENTRE INC.", "designationCode": "C", "categoryCode": "59", "address": "210 - 1ST AVE. N.E.", "city": "DAUPHIN", "province": "MB", "country": "CA", "postalCode": "R7N1A7", "twitter": "None", "instagram": "None", "facebook": "None", "youtube": "None", "website": "None", "summary": "None", "logo": "None", "latitude": 51.14722033749783, "longitude": -100.04465740882337}, "101278349RR0001": {"name": "DAUPHIN MULTI-PURPOSE SENIOR CENTRE INC.", "designationCode": "C", "categoryCode": "56", "address": "55-1ST AVE. S.E.", "city": "DAUPHIN", "province": "MB", "country": "CA", "postalCode": "R7N2A2", "twitter": "None", "instagram": "None", "facebook": "None", "youtube": "None", "website": "None", "summary": "None", "logo": "None", "latitude": 51.14785862585844, "longitude": -100.04882595296893}, "134751817RR0001": {"name": "DAUPHIN RECREATION SERVICES", "designationCode": "C", "categoryCode": "56", "address": "PO BOX 195 STN MAIN", "city": "DAUPHIN", "province": "MB", "country": "CA", "postalCode": "R7N2V1", "twitter": "None", "instagram": "None", "facebook": "None", "youtube": "None", "website": "None", "summary": "None", "logo": "None", "latitude": 51.15237227291329, "longitude": -100.04667768863382}, "101278414RR0001": {"name": "DAUPHIN SCHOOL AGE DAY CARE INC.", "designationCode": "C", "categoryCode": "01", "address": "BOX 884", "city": "DAUPHIN", "province": "MB", "country": "CA", "postalCode": "R7N3J5", "twitter": "None", "instagram": "None", "facebook": "None", "youtube": "None", "website": "None", "summary": "None", "logo": "None", "latitude": 51.150138000000055, "longitude": -100.04934049999993}, "119030666RR0004": {"name": "DAUPHIN SEVENTH-DAY ADVENTIST CHURCH", "designationCode": "C", "categoryCode": "41", "address": "1004 VICTORIA AVE", "city": "SASKATOON", "province": "SK", "country": "CA", "postalCode": "S7N0Z8", "twitter": "None", "instagram": "None", "facebook": "None", "youtube": "None", "website": "None", "summary": "None", "logo": "None", "latitude": 52.115409, "longitude": -106.66240826773014}, "119288918RR0231": {"name": "DAUPHIN, MANITOBA CONGREGATION OF JEHOVAH'S WITNESSES", "designationCode": "C", "categoryCode": "61", "address": "BOX 548", "city": "GILBERT PLAINS", "province": "MB", "country": "CA", "postalCode": "R0L0X0", "twitter": "None", "instagram": "None", "facebook": "None", "youtube": "None", "website": "None", "summary": "None", "logo": "None", "latitude": 51.144900000000064, "longitude": -100.48893999999996}, "107002917RR0001": {"name": "DAVAR CHILD CARE SOCIETY", "designationCode": "C", "categoryCode": "01", "address": "P.O. BOX 37053                #116 817 19TH STREET NE", "city": "CALGARY", "province": "AB", "country": "CA", "postalCode": "T2E8V1", "twitter": "None", "instagram": "None", "facebook": "None", "youtube": "None", "website": "None", "summary": "None", "logo": "None", "latitude": 51.05880976519132, "longitude": -114.01325097157924}, "893013961RR0001": {"name": "DAVE LEDE FAMILY CHARITABLE FOUNDATION", "designationCode": "B", "categoryCode": "03", "address": "210 5324 CALGARY TRAIL S", "city": "EDMONTON", "province": "AB", "country": "CA", "postalCode": "T6H4J8", "twitter": "None", "instagram": "None", "facebook": "None", "youtube": "None", "website": "None", "summary": "None", "logo": "None", "latitude": 53.49463000000003, "longitude": -113.49773006665096}, "889926242RR0001": {"name": "DAVE SMITH YOUTH TREATMENT CENTRE/CENTRE DE TRAITEMENT POUR JEUNES DAVE SMITH", "designationCode": "C", "categoryCode": "57", "address": "1883 BRADLEY SIDE ROAD", "city": "CARP", "province": "ON", "country": "CA", "postalCode": "K0A1L0", "twitter": "None", "instagram": "None", "facebook": "None", "youtube": "None", "website": "None", "summary": "None", "logo": "None", "latitude": 45.30773523991309, "longitude": -75.9554396324625}, "876047804RR0001": {"name": "DAVE THOMAS FOUNDATION FOR ADOPTION (CANADA)", "designationCode": "A", "categoryCode": "03", "address": "201 - 5515 NORTH SERVICE RD", "city": "BURLINGTON", "province": "ON", "country": "CA", "postalCode": "L7L6G4", "twitter": "None", "instagram": "None", "facebook": "None", "youtube": "None", "website": "None", "summary": "None", "logo": "None", "latitude": 43.39615967496699, "longitude": -79.76250875662164}, "119288918RR1028": {"name": "DAVENPORT CONGREGATION OF JEHOVAH'S WITNESSES, TORONTO, ONTARIO", "designationCode": "C", "categoryCode": "61", "address": "58 UXBRIDGE AVE", "city": "TORONTO", "province": "ON", "country": "CA", "postalCode": "M6N2Y2", "twitter": "None", "instagram": "None", "facebook": "None", "youtube": "None", "website": "None", "summary": "None", "logo": "None", "latitude": 43.66916725506377, "longitude": -79.45657353387377}, "118882711RR0001": {"name": "DAVENPORT GOSPEL HALL", "designationCode": "C", "categoryCode": "39", "address": "1451 EVENSIDE CRES", "city": "MISSISSAUGA", "province": "ON", "country": "CA", "postalCode": "L5M3X8", "twitter": "None", "instagram": "None", "facebook": "None", "youtube": "None", "website": "None", "summary": "None", "logo": "None", "latitude": 43.589087477090516, "longitude": -79.70257587480539}, "889555181RR0001": {"name": "DAVENPORT PERTH COMMUNITY MINISTRY", "designationCode": "C", "categoryCode": "44", "address": "1900 DAVENPORT RD", "city": "TORONTO", "province": "ON", "country": "CA", "postalCode": "M6N1B7", "twitter": "None", "instagram": "None", "facebook": "None", "youtube": "None", "website": "None", "summary": "None", "logo": "None", "latitude": 43.670493384442, "longitude": -79.45469543617627}, "107003063RR0001": {"name": "DAVENPORT-PERTH COMMUNITY CHURCH", "designationCode": "C", "categoryCode": "44", "address": "1900 DAVENPORT RD", "city": "TORONTO", "province": "ON", "country": "CA", "postalCode": "M6N1B7", "twitter": "None", "instagram": "None", "facebook": "None", "youtube": "None", "website": "None", "summary": "None", "logo": "None", "latitude": 43.670493384442, "longitude": -79.45469543617627}, "833313760RR0001": {"name": "DAVID & LENA DISTAULO MINISTRIES INC./MINISTERES DAVID & LENA DISTAULO INC.", "designationCode": "C", "categoryCode": "47", "address": "12427 AV LANTHIER", "city": "MONTREAL", "province": "QC", "country": "CA", "postalCode": "H1G4R9", "twitter": "None", "instagram": "None", "facebook": "None", "youtube": "None", "website": "None", "summary": "None", "logo": "None", "latitude": 45.614720828207005, "longitude": -73.6325090899072}, "118882828RR0001": {"name": "DAVID & RACHEL EPSTEIN FOUNDATION TRUST FUND", "designationCode": "B", "categoryCode": "05", "address": "PO BOX 10085", "city": "VANCOUVER", "province": "BC", "country": "CA", "postalCode": "V7Y1B6", "twitter": "None", "instagram": "None", "facebook": "None", "youtube": "None", "website": "None", "summary": "None", "logo": "None", "latitude": 49.26037200000006, "longitude": -123.11336149999994}, "118882745RR0001": {"name": "DAVID AND DOROTHY LAM FOUNDATION", "designationCode": "B", "categoryCode": "43", "address": "2075 COMOX STREET 2304", "city": "VANCOUVER", "province": "BC", "country": "CA", "postalCode": "V6G1S2", "twitter": "None", "instagram": "None", "facebook": "None", "youtube": "None", "website": "None", "summary": "None", "logo": "None", "latitude": 49.29127829560266, "longitude": -123.14365346875196}, "892557752RR0001": {"name": "DAVID BUSBY STREET CENTRE", "designationCode": "C", "categoryCode": "09", "address": "88 MULCASTER ST", "city": "BARRIE", "province": "ON", "country": "CA", "postalCode": "L4M3M5", "twitter": "None", "instagram": "None", "facebook": "None", "youtube": "None", "website": "None", "summary": "None", "logo": "None", "latitude": 44.392797, "longitude": -79.68564097740762}, "119143261RR0001": {"name": "DAVID C. COOK FOUNDATION", "designationCode": "C", "categoryCode": "47", "address": "55 WOODSLEE AVE               PO BOX 89", "city": "PARIS", "province": "ON", "country": "CA", "postalCode": "N3L3E5", "twitter": "None", "instagram": "None", "facebook": "None", "youtube": "None", "website": "None", "summary": "None", "logo": "None", "latitude": 43.21461234058492, "longitude": -80.3986168297362}, "889161576RR0001": {"name": "DAVID DOUGLAS BOTANICAL GARDEN SOCIETY", "designationCode": "C", "categoryCode": "50", "address": "POST OFFICE BOX 1305", "city": "PRINCE GEORGE", "province": "BC", "country": "CA", "postalCode": "V2L4V3", "twitter": "None", "instagram": "None", "facebook": "None", "youtube": "None", "website": "None", "summary": "None", "logo": "None", "latitude": 53.91241800000006, "longitude": -122.74463149999994}, "107004210RR0001": {"name": "DAVID FOSTER FOUNDATION", "designationCode": "C", "categoryCode": "09", "address": "212 HENRY ST", "city": "VICTORIA", "province": "BC", "country": "CA", "postalCode": "V9A3H9", "twitter": "None", "instagram": "None", "facebook": "None", "youtube": "None", "website": "None", "summary": "None", "logo": "None", "latitude": 48.43212246681873, "longitude": -123.38385261226844}, "897201745RR0001": {"name": "DAVID L. SQUIRES FOUNDATION", "designationCode": "C", "categoryCode": "21", "address": "4267 MOORPARK PLACE", "city": "VICTORIA", "province": "BC", "country": "CA", "postalCode": "V8Z6P1", "twitter": "None", "instagram": "None", "facebook": "None", "youtube": "None", "website": "None", "summary": "None", "logo": "None", "latitude": 48.48635583735359, "longitude": -123.39355842795331}, "882588619RR0001": {"name": "DAVID MCANTONY GIBSON FOUNDATION", "designationCode": "C", "categoryCode": "19", "address": "33 BELVIA RD", "city": "ETOBICOKE", "province": "ON", "country": "CA", "postalCode": "M8W3R2", "twitter": "None", "instagram": "None", "facebook": "None", "youtube": "None", "website": "None", "summary": "None", "logo": "None", "latitude": 43.6032897160828, "longitude": -79.52751889947523}, "867924177RR0001": {"name": "DAVID ORCHARD FOUNDATION FOR CANADA", "designationCode": "A", "categoryCode": "03", "address": "44-1656 ADANAC STREET", "city": "VANCOUVER", "province": "BC", "country": "CA", "postalCode": "V5L2C6", "twitter": "None", "instagram": "None", "facebook": "None", "youtube": "None", "website": "None", "summary": "None", "logo": "None", "latitude": 49.27757454674261, "longitude": -123.07184380252755}, "886279280RR0001": {"name": "DAVID ROLAND VOYE MEMORIAL BURSARY TRUST", "designationCode": "C", "categoryCode": "21", "address": "47 HATLEY CRES", "city": "SUMMERSIDE", "province": "PE", "country": "CA", "postalCode": "C1N5E9", "twitter": "None", "instagram": "None", "facebook": "None", "youtube": "None", "website": "None", "summary": "None", "logo": "None", "latitude": 46.414168155981315, "longitude": -63.80108458881069}, "107764573RR0019": {"name": "DAVID THOMPSON BIBLE CAMP", "designationCode": "C", "categoryCode": "56", "address": "BOX 2455", "city": "FAIRVIEW", "province": "AB", "country": "CA", "postalCode": "T0H1L0", "twitter": "None", "instagram": "None", "facebook": "None", "youtube": "None", "website": "None", "summary": "None", "logo": "None", "latitude": 56.06862000000007, "longitude": -118.39200999999997}, "138551122RR0001": {"name": "DAVID THOMPSON JR HIGH BAND SOCIETY", "designationCode": "C", "categoryCode": "22", "address": "9320 ARBOUR CRES SE", "city": "CALGARY", "province": "AB", "country": "CA", "postalCode": "T2J0X8", "twitter": "None", "instagram": "None", "facebook": "None", "youtube": "None", "website": "None", "summary": "None", "logo": "None", "latitude": 50.969381118975605, "longitude": -114.0552514993115}, "118882851RR0001": {"name": "DAVIDSON AND DISTRICT DONORS CHOICE CHARITABLE APPEAL ASSOCIATION", "designationCode": "A", "categoryCode": "05", "address": "PO BOX 72", "city": "DAVIDSON", "province": "SK", "country": "CA", "postalCode": "S0G1A0", "twitter": "None", "instagram": "None", "facebook": "None", "youtube": "None", "website": "None", "summary": "None", "logo": "None", "latitude": 51.26742000000007, "longitude": -105.99597999999997}, "118792019RR0001": {"name": "DAVIDSON COMMUNITY BIBLE CHURCH", "designationCode": "C", "categoryCode": "39", "address": "PO BOX 398", "city": "DAVIDSON", "province": "SK", "country": "CA", "postalCode": "S0G1A0", "twitter": "None", "instagram": "None", "facebook": "None", "youtube": "None", "website": "None", "summary": "None", "logo": "None", "latitude": 51.26742000000007, "longitude": -105.99597999999997}, "891614687RR0001": {"name": "DAVIDSON FOUNDATION", "designationCode": "B", "categoryCode": "43", "address": "385 ISLAND PARK DRIVE", "city": "OTTAWA", "province": "ON", "country": "CA", "postalCode": "K1Y0B1", "twitter": "None", "instagram": "None", "facebook": "None", "youtube": "None", "website": "None", "summary": "None", "logo": "None", "latitude": 45.396464992238386, "longitude": -75.74156036355265}, "131373425RR0001": {"name": "DAVIDSON PASTORAL CHARGE,", "designationCode": "C", "categoryCode": "44", "address": "BOX 195", "city": "DAVIDSON", "province": "SK", "country": "CA", "postalCode": "S0G1A0", "twitter": "None", "instagram": "None", "facebook": "None", "youtube": "None", "website": "None", "summary": "None", "logo": "None", "latitude": 51.26742000000007, "longitude": -105.99597999999997}, "872121371RR0001": {"name": "DAVIES WARD PHILLIPS & VINEBERG FOUNDATION / FONDATION DE DAVIES WARD PHILLIPS & VINEBERG", "designationCode": "A", "categoryCode": "05", "address": "155 WELLINGTON STREET WEST", "city": "TORONTO", "province": "ON", "country": "CA", "postalCode": "M5V3J7", "twitter": "None", "instagram": "None", "facebook": "None", "youtube": "None", "website": "None", "summary": "None", "logo": "None", "latitude": 43.64596585316531, "longitude": -79.38574575644876}, "107007932RR0001": {"name": "DAWES ROAD GOSPEL CHURCH", "designationCode": "C", "categoryCode": "39", "address": "383 DAWES ROAD", "city": "TORONTO", "province": "ON", "country": "CA", "postalCode": "M4B2E3", "twitter": "None", "instagram": "None", "facebook": "None", "youtube": "None", "website": "None", "summary": "None", "logo": "None", "latitude": 43.701246785734895, "longitude": -79.29688504382842}, "133105619RR0001": {"name": "DAWN & DUSK BEFORE AND AFTER SCHOOL PROGRAM INC", "designationCode": "C", "categoryCode": "09", "address": "1020 LOUELDA STREET", "city": "WINNIPEG", "province": "MB", "country": "CA", "postalCode": "R2K3Z4", "twitter": "None", "instagram": "None", "facebook": "None", "youtube": "None", "website": "None", "summary": "None", "logo": "None", "latitude": 49.923196970886764, "longitude": -97.06107439113575}, "107007981RR0001": {"name": "DAWN HOUSE WOMEN'S SHELTER (KINGSTON) INC.", "designationCode": "C", "categoryCode": "09", "address": "965 MILFORD DR", "city": "KINGSTON", "province": "ON", "country": "CA", "postalCode": "K7P1S2", "twitter": "None", "instagram": "None", "facebook": "None", "youtube": "None", "website": "None", "summary": "None", "logo": "None", "latitude": 44.252817958624426, "longitude": -76.58897801194522}, "118882984RR0001": {"name": "DAWN PATROL CHILD & YOUTH SERVICES INC.", "designationCode": "C", "categoryCode": "01", "address": "82 VICTORIA AVE S", "city": "HAMILTON", "province": "ON", "country": "CA", "postalCode": "L8N2S7", "twitter": "None", "instagram": "None", "facebook": "None", "youtube": "None", "website": "None", "summary": "None", "logo": "None", "latitude": 43.250657594235044, "longitude": -79.85798165240328}, "107008021RR0001": {"name": "DAWN VALLEY BIBLE METHODIST CHURCH", "designationCode": "C", "categoryCode": "39", "address": "2643 BENTPATH LINE            RR3", "city": "SOMBRA", "province": "ON", "country": "CA", "postalCode": "N0P2H0", "twitter": "None", "instagram": "None", "facebook": "None", "youtube": "None", "website": "None", "summary": "None", "logo": "None", "latitude": 42.71360251399403, "longitude": -82.2677342216227}}