{"120715784RR0001": {"name": "MANITOBA BRAIN INJURY ASSOCIATION INC.", "designationCode": "C", "categoryCode": "11", "address": "825 SHERBROOK ST", "city": "WINNIPEG", "province": "MB", "country": "CA", "postalCode": "R3A1M5", "twitter": "None", "instagram": "None", "facebook": "None", "youtube": "None", "website": "None", "summary": "None", "logo": "None", "latitude": 49.90293714680605, "longitude": -97.15654520699444}, "119030146RR0001": {"name": "MANITOBA BUDDHIST ASSOCIATION INC.", "designationCode": "C", "categoryCode": "35", "address": "39 TECUMSEH ST.", "city": "WINNIPEG", "province": "MB", "country": "CA", "postalCode": "R3E0J8", "twitter": "None", "instagram": "None", "facebook": "None", "youtube": "None", "website": "None", "summary": "None", "logo": "None", "latitude": 49.904020917565965, "longitude": -97.16426654342439}, "859649923RR0001": {"name": "MANITOBA BUDDHIST VIHARA AND CULTURAL ASSOCIATION INC.", "designationCode": "C", "categoryCode": "35", "address": "PO BOX 70049 RPO KENASTON", "city": "WINNIPEG", "province": "MB", "country": "CA", "postalCode": "R3P0X6", "twitter": "None", "instagram": "None", "facebook": "None", "youtube": "None", "website": "None", "summary": "None", "logo": "None", "latitude": 49.839328868097475, "longitude": -97.20888453637167}, "130223951RR0001": {"name": "MANITOBA CAMPING ASSOCIATION INC", "designationCode": "C", "categoryCode": "56", "address": "F - 1215 HENDERSON HWY", "city": "WINNIPEG", "province": "MB", "country": "CA", "postalCode": "R2G1L8", "twitter": "None", "instagram": "None", "facebook": "None", "youtube": "None", "website": "None", "summary": "None", "logo": "None", "latitude": 49.94035964917196, "longitude": -97.09052751745648}, "870460540RR0001": {"name": "MANITOBA CARDIAC INSTITUTE (REH-FIT) FOUNDATION INC", "designationCode": "A", "categoryCode": "03", "address": "1390 TAYLOR AVE", "city": "WINNIPEG", "province": "MB", "country": "CA", "postalCode": "R3M3V8", "twitter": "None", "instagram": "None", "facebook": "None", "youtube": "None", "website": "None", "summary": "None", "logo": "None", "latitude": 49.85126952657006, "longitude": -97.18044189709113}, "107659765RR0001": {"name": "MANITOBA CARDIAC INSTITUTE (REH-FIT) INC.", "designationCode": "C", "categoryCode": "11", "address": "1390 TAYLOR AVENUE", "city": "WINNIPEG", "province": "MB", "country": "CA", "postalCode": "R3M3V8", "twitter": "None", "instagram": "None", "facebook": "None", "youtube": "None", "website": "None", "summary": "None", "logo": "None", "latitude": 49.85126952657006, "longitude": -97.18044189709113}, "119030161RR0001": {"name": "MANITOBA CEREBRAL PALSY SPORTS ASSOCIATION INCORPORATED", "designationCode": "C", "categoryCode": "19", "address": "145 PACIFIC AVENUE", "city": "WINNIPEG", "province": "MB", "country": "CA", "postalCode": "R3B2Z6", "twitter": "None", "instagram": "None", "facebook": "None", "youtube": "None", "website": "None", "summary": "None", "logo": "None", "latitude": 49.90059471331283, "longitude": -97.13508410156398}, "119030179RR0001": {"name": "MANITOBA CGIT BOARD OF MANITOBA AND NORTHWESTERN ONTARIO", "designationCode": "C", "categoryCode": "29", "address": "113 GLENLAWN AVE.", "city": "WINNIPEG", "province": "MB", "country": "CA", "postalCode": "R2M0X9", "twitter": "None", "instagram": "None", "facebook": "None", "youtube": "None", "website": "None", "summary": "None", "logo": "None", "latitude": 49.852740015840375, "longitude": -97.11976972926874}, "119030187RR0001": {"name": "MANITOBA CHAMBER ORCHESTRA INC.", "designationCode": "C", "categoryCode": "22", "address": "393 PORTAGE AV                UNIT Y300, PORTAGE PLACE", "city": "WINNIPEG", "province": "MB", "country": "CA", "postalCode": "R3B3H6", "twitter": "None", "instagram": "None", "facebook": "None", "youtube": "None", "website": "None", "summary": "None", "logo": "None", "latitude": 49.89219003332557, "longitude": -97.14776000779024}, "131620742RR0001": {"name": "MANITOBA CHAPTER OF THE CANADIAN HARD OF HEARING ASSOCIATION", "designationCode": "C", "categoryCode": "11", "address": "825 SHERBROOK STREET", "city": "WINNIPEG", "province": "MB", "country": "CA", "postalCode": "R3A1M5", "twitter": "None", "instagram": "None", "facebook": "None", "youtube": "None", "website": "None", "summary": "None", "logo": "None", "latitude": 49.90293714680605, "longitude": -97.15654520699444}, "890543242RR0001": {"name": "MANITOBA CHAPTER OF THE NINETYNINES", "designationCode": "C", "categoryCode": "21", "address": "125 DYSART RD  ROOM 464       WALLACE BUILDING", "city": "WINNIPEG", "province": "MB", "country": "CA", "postalCode": "R3T2N2", "twitter": "None", "instagram": "None", "facebook": "None", "youtube": "None", "website": "None", "summary": "None", "logo": "None", "latitude": 49.81146624565737, "longitude": -97.13596452954593}, "103480943RR0001": {"name": "MANITOBA CHILDREN'S MUSEUM INC.", "designationCode": "C", "categoryCode": "50", "address": "45 FORKS MARKET RD.", "city": "WINNIPEG", "province": "MB", "country": "CA", "postalCode": "R3C4T6", "twitter": "None", "instagram": "None", "facebook": "None", "youtube": "None", "website": "None", "summary": "None", "logo": "None", "latitude": 49.88749886339492, "longitude": -97.1289244535797}, "130070220RR0001": {"name": "MANITOBA CHORAL ASSOCIATION INC", "designationCode": "C", "categoryCode": "22", "address": "5-276 MARION ST", "city": "WINNIPEG", "province": "MB", "country": "CA", "postalCode": "R2H0T7", "twitter": "None", "instagram": "None", "facebook": "None", "youtube": "None", "website": "None", "summary": "None", "logo": "None", "latitude": 49.881597256368764, "longitude": -97.11889949258743}, "119288918RR1364": {"name": "MANITOBA CIRCUIT IC OF JEHOVAH'S WITNESSES", "designationCode": "C", "categoryCode": "61", "address": "1045 9TH STREET", "city": "BRANDON", "province": "MB", "country": "CA", "postalCode": "R7A4C2", "twitter": "None", "instagram": "None", "facebook": "None", "youtube": "None", "website": "None", "summary": "None", "logo": "None", "latitude": 49.833765, "longitude": -99.95000042988654}, "119288918RR0975": {"name": "MANITOBA CIRCUIT 1-A OF JEHOVAH'S WITNESSES", "designationCode": "C", "categoryCode": "61", "address": "1111 SPRUCE ST", "city": "WINNIPEG", "province": "MB", "country": "CA", "postalCode": "R3G3A1", "twitter": "None", "instagram": "None", "facebook": "None", "youtube": "None", "website": "None", "summary": "None", "logo": "None", "latitude": 49.89648420843673, "longitude": -97.18696953202743}, "119288918RR0971": {"name": "MANITOBA CIRCUIT 1-B OF JEHOVAH'S WITNESSES", "designationCode": "C", "categoryCode": "61", "address": "1501 - 155 WELLINGTON CRES", "city": "WINNIPEG", "province": "MB", "country": "CA", "postalCode": "R3M0A3", "twitter": "None", "instagram": "None", "facebook": "None", "youtube": "None", "website": "None", "summary": "None", "logo": "None", "latitude": 49.87555264802627, "longitude": -97.150491}, "119288918RR1184": {"name": "MANITOBA CIRCUIT 2-A OF JEHOVAH'S WITNESSES", "designationCode": "C", "categoryCode": "61", "address": "BOX 125  A  RR#5", "city": "WPG", "province": "MB", "country": "CA", "postalCode": "R2C2Z2", "twitter": "None", "instagram": "None", "facebook": "None", "youtube": "None", "website": "None", "summary": "None", "logo": "None", "latitude": 49.92420300000006, "longitude": -96.99564499999994}, "119288918RR0995": {"name": "MANITOBA CIRCUIT 2-B OF JEHOVAH'S WITNESSES", "designationCode": "C", "categoryCode": "61", "address": "480 PAUFELD DR", "city": "WINNIPEG", "province": "MB", "country": "CA", "postalCode": "R2G0V3", "twitter": "None", "instagram": "None", "facebook": "None", "youtube": "None", "website": "None", "summary": "None", "logo": "None", "latitude": 49.940049144584336, "longitude": -97.07091054192385}, "119288918RR1410": {"name": "MANITOBA CIRCUIT 2-C OF JEHOVAH'S WITNESSES", "designationCode": "C", "categoryCode": "61", "address": "201 GARTON AVE.", "city": "WINNIPEG", "province": "MB", "country": "CA", "postalCode": "R2R2C3", "twitter": "None", "instagram": "None", "facebook": "None", "youtube": "None", "website": "None", "summary": "None", "logo": "None", "latitude": 49.949541670003995, "longitude": -97.20164980492214}, "853468874RR0001": {"name": "MANITOBA COUNCIL FOR EXCEPTIONAL CHILDREN", "designationCode": "C", "categoryCode": "09", "address": "PO BOX 43035                  74-1555 REGENT AVE W", "city": "WINNIPEG", "province": "MB", "country": "CA", "postalCode": "R2C4J2", "twitter": "None", "instagram": "None", "facebook": "None", "youtube": "None", "website": "None", "summary": "None", "logo": "None", "latitude": 49.89706429283269, "longitude": -97.06128894142773}, "103481032RR0001": {"name": "MANITOBA COUNCIL FOR INTERNATIONAL CO-OPERATION INC.", "designationCode": "A", "categoryCode": "03", "address": "302-280 SMITH ST", "city": "WINNIPEG", "province": "MB", "country": "CA", "postalCode": "R3C1K2", "twitter": "None", "instagram": "None", "facebook": "None", "youtube": "None", "website": "None", "summary": "None", "logo": "None", "latitude": 49.889618529684356, "longitude": -97.13985366263815}, "118877539RR0001": {"name": "MANITOBA CRAFT COUNCIL INC.", "designationCode": "C", "categoryCode": "22", "address": "1 - 329 CUMBERLAND AVE", "city": "WINNIPEG", "province": "MB", "country": "CA", "postalCode": "R3B1T2", "twitter": "None", "instagram": "None", "facebook": "None", "youtube": "None", "website": "None", "summary": "None", "logo": "None", "latitude": 49.89613289205939, "longitude": -97.14568200525146}, "872004411RR0001": {"name": "MANITOBA CRAFTS MUSEUM AND LIBRARY INC.", "designationCode": "C", "categoryCode": "50", "address": "1 - 329 CUMBERLAND AVE", "city": "WINNIPEG", "province": "MB", "country": "CA", "postalCode": "R3B1T2", "twitter": "None", "instagram": "None", "facebook": "None", "youtube": "None", "website": "None", "summary": "None", "logo": "None", "latitude": 49.89613289205939, "longitude": -97.14568200525146}, "120260211RR0001": {"name": "MANITOBA CRIME STOPPERS ASSOCIATION INC", "designationCode": "C", "categoryCode": "59", "address": "PO BOX 5650", "city": "WINNIPEG", "province": "MB", "country": "CA", "postalCode": "R3C3K2", "twitter": "None", "instagram": "None", "facebook": "None", "youtube": "None", "website": "None", "summary": "None", "logo": "None", "latitude": 49.899525000000054, "longitude": -97.14112999999993}, "119030286RR0001": {"name": "MANITOBA CURLING HALL OF FAME & MUSEUM INC.", "designationCode": "C", "categoryCode": "50", "address": "309 - 145 PACIFIC AVE", "city": "WINNIPEG", "province": "MB", "country": "CA", "postalCode": "R3B2Z6", "twitter": "None", "instagram": "None", "facebook": "None", "youtube": "None", "website": "None", "summary": "None", "logo": "None", "latitude": 49.90059471331283, "longitude": -97.13508410156398}, "131925711RR0001": {"name": "MANITOBA DOWN SYNDROME SOCIETY INC.", "designationCode": "C", "categoryCode": "11", "address": "204-825 SHERBROOK ST", "city": "WINNIPEG", "province": "MB", "country": "CA", "postalCode": "R3A1M5", "twitter": "None", "instagram": "None", "facebook": "None", "youtube": "None", "website": "None", "summary": "None", "logo": "None", "latitude": 49.905053935370574, "longitude": -97.15499593846792}, "128446846RR0001": {"name": "MANITOBA ECO-NETWORK INC /RESEAU ECOLOGIQUE DU MANITOBA INC", "designationCode": "C", "categoryCode": "21", "address": "3 303 PORTAGE AVE", "city": "WINNIPEG", "province": "MB", "country": "CA", "postalCode": "R3B2B4", "twitter": "None", "instagram": "None", "facebook": "None", "youtube": "None", "website": "None", "summary": "None", "logo": "None", "latitude": 49.89387673163469, "longitude": -97.14316980740362}, "886218858RR0001": {"name": "MANITOBA FAMILIES FOR EFFECTIVE AUTISM TREATMENT, INC.", "designationCode": "C", "categoryCode": "11", "address": "58 RUTTAN BAY", "city": "WINNIPEG", "province": "MB", "country": "CA", "postalCode": "R3T0H6", "twitter": "None", "instagram": "None", "facebook": "None", "youtube": "None", "website": "None", "summary": "None", "logo": "None", "latitude": 49.84282481542506, "longitude": -97.14313676545113}, "866744626RR0001": {"name": "MANITOBA FARMERS WITH DISABILITIES", "designationCode": "C", "categoryCode": "59", "address": "BOX 367", "city": "ELM CREEK", "province": "MB", "country": "CA", "postalCode": "R0G0N0", "twitter": "None", "instagram": "None", "facebook": "None", "youtube": "None", "website": "None", "summary": "None", "logo": "None", "latitude": 49.19148365941253, "longitude": -97.76211492346253}, "868015645RR0001": {"name": "MANITOBA FERRET ASSOCIATION INC", "designationCode": "C", "categoryCode": "54", "address": "11 SOLACE KEY", "city": "WINNIPEG", "province": "MB", "country": "CA", "postalCode": "R2G2N5", "twitter": "None", "instagram": "None", "facebook": "None", "youtube": "None", "website": "None", "summary": "None", "logo": "None", "latitude": 49.94425870136761, "longitude": -97.065421336834}, "119030310RR0001": {"name": "MANITOBA FORESTRY ASSOCIATION INCORPORATED", "designationCode": "C", "categoryCode": "52", "address": "900 CORYDON AVE", "city": "WINNIPEG", "province": "MB", "country": "CA", "postalCode": "R3M0Y4", "twitter": "None", "instagram": "None", "facebook": "None", "youtube": "None", "website": "None", "summary": "None", "logo": "None", "latitude": 49.86886215179771, "longitude": -97.15907354910854}, "864177993RR0001": {"name": "MANITOBA FOSTER FAMILY NETWORK INC.", "designationCode": "B", "categoryCode": "09", "address": "90 TERRACON PL", "city": "WINNIPEG", "province": "MB", "country": "CA", "postalCode": "R2J4G7", "twitter": "None", "instagram": "None", "facebook": "None", "youtube": "None", "website": "None", "summary": "None", "logo": "None", "latitude": 49.888381311364974, "longitude": -97.05964461614086}, "136030038RR0001": {"name": "MANITOBA FOUNDATION FOR SPORTS INC", "designationCode": "A", "categoryCode": "53", "address": "145 PACIFIC AVENUE", "city": "WINNIPEG", "province": "MB", "country": "CA", "postalCode": "R3B2Z6", "twitter": "None", "instagram": "None", "facebook": "None", "youtube": "None", "website": "None", "summary": "None", "logo": "None", "latitude": 49.90059471331283, "longitude": -97.13508410156398}, "897912663RR0001": {"name": "MANITOBA FOUNDATION FOR THE ARTS, INC.", "designationCode": "A", "categoryCode": "23", "address": "525 - 93 LOMBARD AVENUE", "city": "WINNIPEG", "province": "MB", "country": "CA", "postalCode": "R3B3B1", "twitter": "None", "instagram": "None", "facebook": "None", "youtube": "None", "website": "None", "summary": "None", "logo": "None", "latitude": 49.89555917626507, "longitude": -97.13431388882807}, "107660151RR0001": {"name": "MANITOBA GENEALOGICAL SOCIETY INC.", "designationCode": "C", "categoryCode": "21", "address": "E - 1045 ST JAMES ST", "city": "WINNIPEG", "province": "MB", "country": "CA", "postalCode": "R3H1B1", "twitter": "None", "instagram": "None", "facebook": "None", "youtube": "None", "website": "None", "summary": "None", "logo": "None", "latitude": 49.89540177711769, "longitude": -97.20045905303685}, "893257980RR0001": {"name": "MANITOBA GOLF HALL OF FAME AND MUSEUM INC.", "designationCode": "C", "categoryCode": "50", "address": "420 - 145 PACIFIC AVE", "city": "WINNIPEG", "province": "MB", "country": "CA", "postalCode": "R3B2Z6", "twitter": "None", "instagram": "None", "facebook": "None", "youtube": "None", "website": "None", "summary": "None", "logo": "None", "latitude": 49.90059471331283, "longitude": -97.13508410156398}, "898823539RR0001": {"name": "MANITOBA GOLF SCHOLARSHIP FUND INC.", "designationCode": "C", "categoryCode": "21", "address": "145 PACIFIC AVENUE", "city": "WINNIPEG", "province": "MB", "country": "CA", "postalCode": "R3B2Z6", "twitter": "None", "instagram": "None", "facebook": "None", "youtube": "None", "website": "None", "summary": "None", "logo": "None", "latitude": 49.90059471331283, "longitude": -97.13508410156398}, "119030369RR0001": {"name": "MANITOBA HIGH SCHOOLS ATHLETIC ASSOCIATION INC.", "designationCode": "C", "categoryCode": "21", "address": "145 PACIFIC AVE", "city": "WINNIPEG", "province": "MB", "country": "CA", "postalCode": "R3B2Z6", "twitter": "None", "instagram": "None", "facebook": "None", "youtube": "None", "website": "None", "summary": "None", "logo": "None", "latitude": 49.90059471331283, "longitude": -97.13508410156398}, "886706795RR0001": {"name": "MANITOBA HINDU DHARMIK SABHA INC", "designationCode": "C", "categoryCode": "48", "address": "240 MANITOBA AVENUE", "city": "WINNIPEG", "province": "MB", "country": "CA", "postalCode": "R2W2E7", "twitter": "None", "instagram": "None", "facebook": "None", "youtube": "None", "website": "None", "summary": "None", "logo": "None", "latitude": 49.913690984159636, "longitude": -97.13326170373354}, "119030385RR0001": {"name": "MANITOBA HOCKEY HALL OF FAME & MUSEUM INC.", "designationCode": "C", "categoryCode": "50", "address": "200 - 1695 HENDERSON HWY", "city": "WINNIPEG", "province": "MB", "country": "CA", "postalCode": "R2G1P1", "twitter": "None", "instagram": "None", "facebook": "None", "youtube": "None", "website": "None", "summary": "None", "logo": "None", "latitude": 49.9520986258125, "longitude": -97.07849528432142}, "890110869RR0001": {"name": "MANITOBA HORTICULTURAL ASSOCIATION", "designationCode": "C", "categoryCode": "56", "address": "135 THOM AVE E", "city": "WINNIPEG", "province": "MB", "country": "CA", "postalCode": "R2C1A2", "twitter": "None", "instagram": "None", "facebook": "None", "youtube": "None", "website": "None", "summary": "None", "logo": "None", "latitude": 49.90701246768411, "longitude": -97.00027225145709}, "119030401RR0001": {"name": "MANITOBA HOSPICE FOUNDATION INC.- FONDATION DE L'HOSPICE DU MANITOBA INC.", "designationCode": "A", "categoryCode": "03", "address": "2109 PORTAGE AVE", "city": "WINNIPEG", "province": "MB", "country": "CA", "postalCode": "R3J0L3", "twitter": "None", "instagram": "None", "facebook": "None", "youtube": "None", "website": "None", "summary": "None", "logo": "None", "latitude": 49.877290418344415, "longitude": -97.23539480365272}, "871745022RR0001": {"name": "MANITOBA HOUSE DROP-IN AND RESOURCE CENTRE INC.", "designationCode": "C", "categoryCode": "01", "address": "289 MANITOBA AVENUE", "city": "WINNIPEG", "province": "MB", "country": "CA", "postalCode": "R2W2E8", "twitter": "None", "instagram": "None", "facebook": "None", "youtube": "None", "website": "None", "summary": "None", "logo": "None", "latitude": 49.91430099030513, "longitude": -97.13510535455028}, "119030419RR0001": {"name": "MANITOBA HYDRO EMPLOYEES OF GREATER WINNIPEG CHARITABLE DONATIONS FUND", "designationCode": "A", "categoryCode": "05", "address": "360 PORTAGE AVENUE,11TH FLOOR", "city": "WINNIPEG", "province": "MB", "country": "CA", "postalCode": "R3C0G8", "twitter": "None", "instagram": "None", "facebook": "None", "youtube": "None", "website": "None", "summary": "None", "logo": "None", "latitude": 49.89242929721877, "longitude": -97.14660007934697}, "107660292RR0001": {"name": "MANITOBA INDIGENOUS CULTURAL EDUCATION CENTRE INC.", "designationCode": "C", "categoryCode": "22", "address": "BOX 279", "city": "PEGUIS", "province": "MB", "country": "CA", "postalCode": "R0C3J0", "twitter": "None", "instagram": "None", "facebook": "None", "youtube": "None", "website": "None", "summary": "None", "logo": "None"}, "861370070RR0001": {"name": "MANITOBA INSTITUTE FOR PATIENT SAFETY INC./INSTITUT MANITOBAIN SUR LA SECURITE DES PATIENTS INC", "designationCode": "C", "categoryCode": "11", "address": "102-175 CARLTON STREET", "city": "WINNIPEG", "province": "MB", "country": "CA", "postalCode": "R3C3H9", "twitter": "None", "instagram": "None", "facebook": "None", "youtube": "None", "website": "None", "summary": "None", "logo": "None", "latitude": 49.88938703220033, "longitude": -97.14404030180638}, "119030435RR0001": {"name": "MANITOBA INTERFAITH IMMIGRATION COUNCIL INC.", "designationCode": "C", "categoryCode": "09", "address": "521 BANNATYNE AVENUE", "city": "WINNIPEG", "province": "MB", "country": "CA", "postalCode": "R3A0E4", "twitter": "None", "instagram": "None", "facebook": "None", "youtube": "None", "website": "None", "summary": "None", "logo": "None", "latitude": 49.901512880950875, "longitude": -97.15104368399803}, "107660367RR0001": {"name": "MANITOBA ISLAMIC ASSOCIATION INC.", "designationCode": "C", "categoryCode": "60", "address": "2445 WAVERLEY ST", "city": "WINNIPEG", "province": "MB", "country": "CA", "postalCode": "R3Y1S3", "twitter": "None", "instagram": "None", "facebook": "None", "youtube": "None", "website": "None", "summary": "None", "logo": "None", "latitude": 49.79139285345378, "longitude": -97.1739544114195}, "107660409RR0001": {"name": "MANITOBA KOREAN PRESBYTERIAN CHURCH INC.", "designationCode": "C", "categoryCode": "39", "address": "621 OXFORD ST", "city": "WINNIPEG", "province": "MB", "country": "CA", "postalCode": "R3M3J3", "twitter": "None", "instagram": "None", "facebook": "None", "youtube": "None", "website": "None", "summary": "None", "logo": "None", "latitude": 49.85933565528881, "longitude": -97.17657478258955}, "803388222RR0001": {"name": "MANITOBA LIBRARY ASSOCIATION INC.", "designationCode": "C", "categoryCode": "50", "address": "606 100 ARTHUR ST", "city": "WINNIPEG", "province": "MB", "country": "CA", "postalCode": "R3B1H3", "twitter": "None", "instagram": "None", "facebook": "None", "youtube": "None", "website": "None", "summary": "None", "logo": "None", "latitude": 49.897593000000015, "longitude": -97.1406225}, "119030492RR0001": {"name": "MANITOBA MARATHON FOUNDATION INC.", "designationCode": "A", "categoryCode": "03", "address": "4 1080 WAVERLY ST", "city": "WINNIPEG", "province": "MB", "country": "CA", "postalCode": "R3T5S4", "twitter": "None", "instagram": "None", "facebook": "None", "youtube": "None", "website": "None", "summary": "None", "logo": "None", "latitude": 49.82056453832428, "longitude": -97.1794125}, "119030518RR0001": {"name": "MANITOBA MEDICAL SERVICE FOUNDATION INC.", "designationCode": "B", "categoryCode": "13", "address": "PO BOX 1046 STN MAIN", "city": "WINNIPEG", "province": "MB", "country": "CA", "postalCode": "R3C2X7", "twitter": "None", "instagram": "None", "facebook": "None", "youtube": "None", "website": "None", "summary": "None", "logo": "None", "latitude": 49.886161958421624, "longitude": -97.13345310241456}, "119030526RR0001": {"name": "MANITOBA MENNONITE HISTORICAL SOCIETY INC.", "designationCode": "C", "categoryCode": "50", "address": "600 SHAFTESBURY BLVD.", "city": "WINNIPEG", "province": "MB", "country": "CA", "postalCode": "R3P0M4", "twitter": "None", "instagram": "None", "facebook": "None", "youtube": "None", "website": "None", "summary": "None", "logo": "None", "latitude": 49.85723602553523, "longitude": -97.23061411959645}, "119030542RR0001": {"name": "MANITOBA NATURALISTS SOCIETY INCORPORATED", "designationCode": "C", "categoryCode": "52", "address": "401-63 ALBERT STREET", "city": "WINNIPEG", "province": "MB", "country": "CA", "postalCode": "R3B1G4", "twitter": "None", "instagram": "None", "facebook": "None", "youtube": "None", "website": "None", "summary": "None", "logo": "None", "latitude": 49.89691645148467, "longitude": -97.14020873611877}, "133011684RR0001": {"name": "MANITOBA OIL MUSEUM", "designationCode": "C", "categoryCode": "50", "address": "POST OFFICE BOX 2397", "city": "VIRDEN", "province": "MB", "country": "CA", "postalCode": "R0M2C0", "twitter": "None", "instagram": "None", "facebook": "None", "youtube": "None", "website": "None", "summary": "None", "logo": "None", "latitude": 49.85688000000005, "longitude": -100.92262999999997}, "119030583RR0001": {"name": "MANITOBA OPERA ASSOCIATION INC.", "designationCode": "C", "categoryCode": "22", "address": "1060-555 MAIN ST", "city": "WINNIPEG", "province": "MB", "country": "CA", "postalCode": "R3B1C3", "twitter": "None", "instagram": "None", "facebook": "None", "youtube": "None", "website": "None", "summary": "None", "logo": "None", "latitude": 49.90007376516268, "longitude": -97.13779693190669}, "892750019RR0001": {"name": "MANITOBA ORGANIZATION FOR VICTIM ASSISTANCE INC.", "designationCode": "C", "categoryCode": "59", "address": "580 MAIN ST", "city": "WINNIPEG", "province": "MB", "country": "CA", "postalCode": "R3B1C7", "twitter": "None", "instagram": "None", "facebook": "None", "youtube": "None", "website": "None", "summary": "None", "logo": "None", "latitude": 49.90151937774824, "longitude": -97.13691035931079}, "119030609RR0001": {"name": "MANITOBA PARAPLEGIA FOUNDATION INC.", "designationCode": "A", "categoryCode": "13", "address": "825 SHERBROOK STREET", "city": "WINNIPEG", "province": "MB", "country": "CA", "postalCode": "R3A1M5", "twitter": "None", "instagram": "None", "facebook": "None", "youtube": "None", "website": "None", "summary": "None", "logo": "None", "latitude": 49.90293714680605, "longitude": -97.15654520699444}, "103481446RR0001": {"name": "MANITOBA PARENTS FOR UKRAINIAN EDUCATION INC.", "designationCode": "C", "categoryCode": "22", "address": "1215-F HENDERSON HWY", "city": "WINNIPEG", "province": "MB", "country": "CA", "postalCode": "R2G1L8", "twitter": "None", "instagram": "None", "facebook": "None", "youtube": "None", "website": "None", "summary": "None", "logo": "None", "latitude": 49.94035964917196, "longitude": -97.09052751745648}, "107660680RR0001": {"name": "MANITOBA PRINTMAKERS ASSOCIATION INC.", "designationCode": "C", "categoryCode": "22", "address": "11 MARTHA STREET", "city": "WINNIPEG", "province": "MB", "country": "CA", "postalCode": "R3B1A2", "twitter": "None", "instagram": "None", "facebook": "None", "youtube": "None", "website": "None", "summary": "None", "logo": "None", "latitude": 49.900284744099515, "longitude": -97.13541895585446}, "889071882RR0001": {"name": "MANITOBA PROSTATE CANCER SUPPORT GROUP", "designationCode": "C", "categoryCode": "09", "address": "315-971 CORYDON AVENUE", "city": "WINNIPEG", "province": "MB", "country": "CA", "postalCode": "R3M3S7", "twitter": "None", "instagram": "None", "facebook": "None", "youtube": "None", "website": "None", "summary": "None", "logo": "None", "latitude": 49.867883290437526, "longitude": -97.16209214839748}, "119030633RR0001": {"name": "MANITOBA PUPPET THEATRE INC.", "designationCode": "C", "categoryCode": "22", "address": "753 SPRUCE STREET", "city": "WINNIPEG", "province": "MB", "country": "CA", "postalCode": "R3G2Z4", "twitter": "None", "instagram": "None", "facebook": "None", "youtube": "None", "website": "None", "summary": "None", "logo": "None", "latitude": 49.88802426089217, "longitude": -97.18759069966549}, "893999763RR0001": {"name": "MANITOBA RECREATIONAL TRAILS ASSOCIATION INC.", "designationCode": "C", "categoryCode": "59", "address": "3 - 303 PORTAGE AVE", "city": "WINNIPEG", "province": "MB", "country": "CA", "postalCode": "R3B2B4", "twitter": "None", "instagram": "None", "facebook": "None", "youtube": "None", "website": "None", "summary": "None", "logo": "None", "latitude": 49.89387673163469, "longitude": -97.14316980740362}, "131579724RR0001": {"name": "MANITOBA RETT SYNDROME ASSOCIATION", "designationCode": "C", "categoryCode": "11", "address": "204 - 825 SHERBROOK ST", "city": "WINNIPEG", "province": "MB", "country": "CA", "postalCode": "R3A1M5", "twitter": "None", "instagram": "None", "facebook": "None", "youtube": "None", "website": "None", "summary": "None", "logo": "None", "latitude": 49.905053935370574, "longitude": -97.15499593846792}, "119030641RR0001": {"name": "MANITOBA RIDING FOR THE DISABLED ASSOCIATION INC.", "designationCode": "C", "categoryCode": "56", "address": "145 PACIFIC AVENUE", "city": "WINNIPEG", "province": "MB", "country": "CA", "postalCode": "R3B2Z6", "twitter": "None", "instagram": "None", "facebook": "None", "youtube": "None", "website": "None", "summary": "None", "logo": "None", "latitude": 49.90059471331283, "longitude": -97.13508410156398}, "859026411RR0001": {"name": "MANITOBA SAESOON PRESBYTERIAN CHURCH INC.", "designationCode": "C", "categoryCode": "37", "address": "736 WAVERLEY STREET", "city": "WINNIPEG", "province": "MB", "country": "CA", "postalCode": "R3M3L7", "twitter": "None", "instagram": "None", "facebook": "None", "youtube": "None", "website": "None", "summary": "None", "logo": "None", "latitude": 49.855156459893834, "longitude": -97.17836105366753}, "119030658RR0001": {"name": "MANITOBA SAFETY COUNCIL", "designationCode": "C", "categoryCode": "59", "address": "3-1680 NOTRE DAME AVENUE", "city": "WINNIPEG", "province": "MB", "country": "CA", "postalCode": "R3H1H6", "twitter": "None", "instagram": "None", "facebook": "None", "youtube": "None", "website": "None", "summary": "None", "logo": "None", "latitude": 49.91579532799706, "longitude": -97.19466980637986}, "889383998RR0001": {"name": "MANITOBA SCHIZOPHRENIA SOCIETY, INC", "designationCode": "C", "categoryCode": "09", "address": "100-4 FORT STREET", "city": "WINNIPEG", "province": "MB", "country": "CA", "postalCode": "R3C1C4", "twitter": "None", "instagram": "None", "facebook": "None", "youtube": "None", "website": "None", "summary": "None", "logo": "None", "latitude": 49.886708437965275, "longitude": -97.1353738065669}, "870328291RR0001": {"name": "MANITOBA SCHOOL IMPROVEMENT PROGRAM INC", "designationCode": "C", "categoryCode": "21", "address": "201-357 BANNATYNE AVE", "city": "WINNIPEG", "province": "MB", "country": "CA", "postalCode": "R3A0E3", "twitter": "None", "instagram": "None", "facebook": "None", "youtube": "None", "website": "None", "summary": "None", "logo": "None", "latitude": 49.89945992812619, "longitude": -97.14467500484743}, "128675790RR0001": {"name": "MANITOBA SCHOOLS SCIENCE SYMPOSIUM", "designationCode": "C", "categoryCode": "56", "address": "1153 HURON AVE", "city": "WINNIPEG", "province": "MB", "country": "CA", "postalCode": "R2X1J7", "twitter": "None", "instagram": "None", "facebook": "None", "youtube": "None", "website": "None", "summary": "None", "logo": "None", "latitude": 49.93714688816424, "longitude": -97.16531476060369}, "872592415RR0001": {"name": "MANITOBA SIKH CULTURAL AND SENIORS CENTRE INC.", "designationCode": "C", "categoryCode": "56", "address": "45 WESTWATER DR", "city": "WINNIPEG", "province": "MB", "country": "CA", "postalCode": "R3X2G3", "twitter": "None", "instagram": "None", "facebook": "None", "youtube": "None", "website": "None", "summary": "None", "logo": "None", "latitude": 49.82482955955323, "longitude": -97.07523161910643}, "119030708RR0001": {"name": "MANITOBA SOCIETY OF ARTISTS OPEN JURIED COMPETITION AND EXHIBITION", "designationCode": "C", "categoryCode": "22", "address": "723 - 20 CAL GARDNER DR", "city": "WINNIPEG", "province": "MB", "country": "CA", "postalCode": "R3W0K7", "twitter": "None", "instagram": "None", "facebook": "None", "youtube": "None", "website": "None", "summary": "None", "logo": "None", "latitude": 49.90005900000001, "longitude": -97.04971799999998}, "888598521RR0001": {"name": "MANITOBA SOFTBALL HALL OF FAME AND MUSEUM, INC.", "designationCode": "C", "categoryCode": "50", "address": "321-145 PACIFIC AVE", "city": "WINNIPEG", "province": "MB", "country": "CA", "postalCode": "R3B2Z6", "twitter": "None", "instagram": "None", "facebook": "None", "youtube": "None", "website": "None", "summary": "None", "logo": "None", "latitude": 49.90059471331283, "longitude": -97.13508410156398}, "119030757RR0001": {"name": "MANITOBA SPORTS HALL OF FAME AND MUSEUM, INCORPORATED", "designationCode": "C", "categoryCode": "50", "address": "145 PACIFIC AVE", "city": "WINNIPEG", "province": "MB", "country": "CA", "postalCode": "R3B2Z6", "twitter": "None", "instagram": "None", "facebook": "None", "youtube": "None", "website": "None", "summary": "None", "logo": "None", "latitude": 49.90059471331283, "longitude": -97.13508410156398}, "808194971RR0001": {"name": "MANITOBA SWIMABILITY INC.", "designationCode": "C", "categoryCode": "56", "address": "10 RUSHMORE RD", "city": "WINNIPEG", "province": "MB", "country": "CA", "postalCode": "R2G3L6", "twitter": "None", "instagram": "None", "facebook": "None", "youtube": "None", "website": "None", "summary": "None", "logo": "None", "latitude": 49.940368282532226, "longitude": -97.04917511146039}, "119030781RR0001": {"name": "MANITOBA THEATRE CENTRE FOUNDATION", "designationCode": "A", "categoryCode": "55", "address": "174 MARKET AVE", "city": "WINNIPEG", "province": "MB", "country": "CA", "postalCode": "R3B0P8", "twitter": "None", "instagram": "None", "facebook": "None", "youtube": "None", "website": "None", "summary": "None", "logo": "None", "latitude": 49.89883604965681, "longitude": -97.13688230157524}, "887751659RR0001": {"name": "MANITOBA TRANSIT HERITAGE ASSOCIATION INC", "designationCode": "C", "categoryCode": "50", "address": "P.O. BOX 2388, STATION MAIN", "city": "WINNIPEG", "province": "MB", "country": "CA", "postalCode": "R3C4A6", "twitter": "None", "instagram": "None", "facebook": "None", "youtube": "None", "website": "None", "summary": "None", "logo": "None", "latitude": 49.899525000000054, "longitude": -97.14112999999993}, "130651102RR0001": {"name": "MANITOBA WHEELCHAIR SPORT ASSOCIATION INC", "designationCode": "C", "categoryCode": "56", "address": "145 PACIFIC AVE", "city": "WINNIPEG", "province": "MB", "country": "CA", "postalCode": "R3B2Z6", "twitter": "None", "instagram": "None", "facebook": "None", "youtube": "None", "website": "None", "summary": "None", "logo": "None", "latitude": 49.90059471331283, "longitude": -97.13508410156398}, "119030823RR0001": {"name": "MANITOBA WILDLIFE FEDERATION INC.", "designationCode": "C", "categoryCode": "54", "address": "70 STEVENSON RD", "city": "WINNIPEG", "province": "MB", "country": "CA", "postalCode": "R3H0W7", "twitter": "None", "instagram": "None", "facebook": "None", "youtube": "None", "website": "None", "summary": "None", "logo": "None", "latitude": 49.91419653563411, "longitude": -97.21547349861503}, "107660979RR0001": {"name": "MANITOBA WOMENS INSTITUTE", "designationCode": "C", "categoryCode": "52", "address": "1129 QUEEN'S AV", "city": "BRANDON", "province": "MB", "country": "CA", "postalCode": "R7A1L9", "twitter": "None", "instagram": "None", "facebook": "None", "youtube": "None", "website": "None", "summary": "None", "logo": "None", "latitude": 49.8302244865829, "longitude": -99.95238080682671}, "130698319RR0001": {"name": "MANITOBA WORLDWIDE MARRIAGE ENCOUNTER INC", "designationCode": "C", "categoryCode": "09", "address": "18 MEADOWSIDE DR.", "city": "WINNIPEG", "province": "MB", "country": "CA", "postalCode": "R3K2C8", "twitter": "None", "instagram": "None", "facebook": "None", "youtube": "None", "website": "None", "summary": "None", "logo": "None", "latitude": 49.875519553955975, "longitude": -97.28445425007212}, "119030856RR0001": {"name": "MANITOBA WRITERS' GUILD INC.", "designationCode": "C", "categoryCode": "22", "address": "218-100 ARTHUR ST", "city": "WINNIPEG", "province": "MB", "country": "CA", "postalCode": "R3B1H3", "twitter": "None", "instagram": "None", "facebook": "None", "youtube": "None", "website": "None", "summary": "None", "logo": "None", "latitude": 49.897593000000015, "longitude": -97.1406225}, "785545898RR0001": {"name": "MANITOBA 4-H COUNCIL INCORPORATED", "designationCode": "C", "categoryCode": "29", "address": "1129 QUEENS AVENUE", "city": "BRANDON", "province": "MB", "country": "CA", "postalCode": "R7A1L9", "twitter": "None", "instagram": "None", "facebook": "None", "youtube": "None", "website": "None", "summary": "None", "logo": "None", "latitude": 49.8302244865829, "longitude": -99.95238080682671}, "119030898RR0001": {"name": "MANITOBA 4-H FOUNDATION INC.", "designationCode": "A", "categoryCode": "23", "address": "1129 QUEENS AVE", "city": "BRANDON", "province": "MB", "country": "CA", "postalCode": "R7A1L9", "twitter": "None", "instagram": "None", "facebook": "None", "youtube": "None", "website": "None", "summary": "None", "logo": "None", "latitude": 49.8302244865829, "longitude": -99.95238080682671}, "119030567RR0001": {"name": "MANITOBA/NORTHWESTERN ONTARIO SYNOD OF THE EVANGELICAL LUTHERAN CHURCH IN CANADA INC.", "designationCode": "C", "categoryCode": "32", "address": "935 NESBITT BAY", "city": "WINNIPEG", "province": "MB", "country": "CA", "postalCode": "R3T1W6", "twitter": "None", "instagram": "None", "facebook": "None", "youtube": "None", "website": "None", "summary": "None", "logo": "None", "latitude": 49.834076979773556, "longitude": -97.14762844682343}, "871938312RR0001": {"name": "MANITOBANS FOR GERMAN LANGUAGE EDUCATION (MGLE) INC.", "designationCode": "C", "categoryCode": "21", "address": "811 DAY STR.", "city": "WINNIPEG", "province": "MB", "country": "CA", "postalCode": "R2C1B6", "twitter": "None", "instagram": "None", "facebook": "None", "youtube": "None", "website": "None", "summary": "None", "logo": "None", "latitude": 49.89967116180969, "longitude": -97.00263460675718}, "123079121RR0001": {"name": "MANITOU AGRICULTURAL SOCIETY", "designationCode": "C", "categoryCode": "59", "address": "BOX 152", "city": "MANITOU", "province": "MB", "country": "CA", "postalCode": "R0G1G0", "twitter": "None", "instagram": "None", "facebook": "None", "youtube": "None", "website": "None", "summary": "None", "logo": "None", "latitude": 49.23673000000008, "longitude": -98.53495999999996}, "133832394RR0001": {"name": "MANITOU CONFERENCE - THE UNITED CHURCH OF CANADA", "designationCode": "C", "categoryCode": "44", "address": "319 MCKENZIE AV", "city": "NORTH BAY", "province": "ON", "country": "CA", "postalCode": "P1B7E3", "twitter": "None", "instagram": "None", "facebook": "None", "youtube": "None", "website": "None", "summary": "None", "logo": "None", "latitude": 46.32865847735032, "longitude": -79.45357066763806}, "119030930RR0001": {"name": "MANITOU EVANGELICAL FREE CHURCH", "designationCode": "C", "categoryCode": "39", "address": "BOX 176", "city": "NEILBURG", "province": "SK", "country": "CA", "postalCode": "S0M2C0", "twitter": "None", "instagram": "None", "facebook": "None", "youtube": "None", "website": "None", "summary": "None", "logo": "None", "latitude": 52.83345000000003, "longitude": -109.63480999999996}, "119030948RR0001": {"name": "MANITOU FRIENDSHIP CENTRE", "designationCode": "C", "categoryCode": "56", "address": "PO BOX 534                    421 MAIN ST", "city": "MANITOU", "province": "MB", "country": "CA", "postalCode": "R0G1G0", "twitter": "None", "instagram": "None", "facebook": "None", "youtube": "None", "website": "None", "summary": "None", "logo": "None", "latitude": 49.24174029589084, "longitude": -98.53702910507465}, "893416784RR0001": {"name": "MANITOU MOUNDS FOUNDATION", "designationCode": "C", "categoryCode": "52", "address": "PO BOX 450,                   MANITOU RAPIDS", "city": "EMO", "province": "ON", "country": "CA", "postalCode": "P0W1E0", "twitter": "None", "instagram": "None", "facebook": "None", "youtube": "None", "website": "None", "summary": "None", "logo": "None", "latitude": 48.63385000000005, "longitude": -93.91516999999999}, "898190681RR0001": {"name": "MANITOU OPERA HOUSE FOUNDATION INC.", "designationCode": "C", "categoryCode": "22", "address": "PO BOX 63", "city": "MANITOU", "province": "MB", "country": "CA", "postalCode": "R0G1G0", "twitter": "None", "instagram": "None", "facebook": "None", "youtube": "None", "website": "None", "summary": "None", "logo": "None", "latitude": 49.23673000000008, "longitude": -98.53495999999996}, "860598911RR0001": {"name": "MANITOU PIONEERS' MUSEUM", "designationCode": "C", "categoryCode": "50", "address": "BOX 336", "city": "NEILBURG", "province": "SK", "country": "CA", "postalCode": "S0M2C0", "twitter": "None", "instagram": "None", "facebook": "None", "youtube": "None", "website": "None", "summary": "None", "logo": "None", "latitude": 52.83345000000003, "longitude": -109.63480999999996}, "130396716RR0001": {"name": "MANITOU REGIONAL LIBRARY", "designationCode": "C", "categoryCode": "50", "address": "BOX 432", "city": "MANITOU", "province": "MB", "country": "CA", "postalCode": "R0G1G0", "twitter": "None", "instagram": "None", "facebook": "None", "youtube": "None", "website": "None", "summary": "None", "logo": "None", "latitude": 49.23673000000008, "longitude": -98.53495999999996}, "119030997RR0001": {"name": "MANITOU UNITED CHURCH", "designationCode": "C", "categoryCode": "44", "address": "PO BOX 481", "city": "MANITOU", "province": "MB", "country": "CA", "postalCode": "R0G1G0", "twitter": "None", "instagram": "None", "facebook": "None", "youtube": "None", "website": "None", "summary": "None", "logo": "None", "latitude": 49.23673000000008, "longitude": -98.53495999999996}, "107661035RR0001": {"name": "MANITOULIN CENTENNIAL MANOR HOME FOR THE AGED", "designationCode": "C", "categoryCode": "01", "address": "70 ROBINSON ST                POSTAL BAG 460", "city": "LITTLE CURRENT", "province": "ON", "country": "CA", "postalCode": "P0P1K0", "twitter": "None", "instagram": "None", "facebook": "None", "youtube": "None", "website": "None", "summary": "None", "logo": "None", "latitude": 45.98323297496689, "longitude": -81.93561638470054}, "897301495RR0001": {"name": "MANITOULIN DISTRICT CENOTAPH", "designationCode": "C", "categoryCode": "52", "address": "BOX 656", "city": "LITTLE CURRENT", "province": "ON", "country": "CA", "postalCode": "P0P1K0", "twitter": "None", "instagram": "None", "facebook": "None", "youtube": "None", "website": "None", "summary": "None", "logo": "None", "latitude": 45.82642761199063, "longitude": -82.15772370619678}, "130184674RR0001": {"name": "MANITOULIN FAMILY RESOURCES INC.", "designationCode": "C", "categoryCode": "09", "address": "P.O. BOX 181", "city": "MINDEMOYA", "province": "ON", "country": "CA", "postalCode": "P0P1S0", "twitter": "None", "instagram": "None", "facebook": "None", "youtube": "None", "website": "None", "summary": "None", "logo": "None", "latitude": 45.741940000000056, "longitude": -82.14143999999999}, "119030963RR0001": {"name": "MANITOULIN HEALTH CENTRE", "designationCode": "C", "categoryCode": "10", "address": "P.O.BOX 640", "city": "LITTLE CURRENT", "province": "ON", "country": "CA", "postalCode": "P0P1K0", "twitter": "None", "instagram": "None", "facebook": "None", "youtube": "None", "website": "None", "summary": "None", "logo": "None", "latitude": 45.82642761199063, "longitude": -82.15772370619678}, "839328721RR0001": {"name": "MANITOULIN ISLAND CHRISTADELPHIAN ECCLESIA", "designationCode": "C", "categoryCode": "39", "address": "P.O. BOX 167", "city": "MANITOWANING", "province": "ON", "country": "CA", "postalCode": "P0P1N0", "twitter": "None", "instagram": "None", "facebook": "None", "youtube": "None", "website": "None", "summary": "None", "logo": "None", "latitude": 45.975226935529044, "longitude": -81.92327500984123}}