{"125307827RR0001": {"name": "EMMANUEL LUTHERAN CHURCH,", "designationCode": "C", "categoryCode": "32", "address": "BOX 204", "city": "CZAR", "province": "AB", "country": "CA", "postalCode": "T0B0Z0", "twitter": "None", "instagram": "None", "facebook": "None", "youtube": "None", "website": "None", "summary": "None", "logo": "None", "latitude": 52.45013000000006, "longitude": -110.83493999999996}, "888026390RR0001": {"name": "EMMANUEL LUTHERAN CHURCH,", "designationCode": "C", "categoryCode": "32", "address": "5003 GEORGE ST", "city": "BEAMSVILLE", "province": "ON", "country": "CA", "postalCode": "L0R1B7", "twitter": "None", "instagram": "None", "facebook": "None", "youtube": "None", "website": "None", "summary": "None", "logo": "None", "latitude": 43.15823108224908, "longitude": -79.47688839226667}, "129477055RR0001": {"name": "EMMANUEL LUTHERAN MANOR VICTORIA VILLAGE", "designationCode": "C", "categoryCode": "01", "address": "1684 VICTORIA PARK AVE", "city": "NORTH YORK", "province": "ON", "country": "CA", "postalCode": "M1R1R1", "twitter": "None", "instagram": "None", "facebook": "None", "youtube": "None", "website": "None", "summary": "None", "logo": "None", "latitude": 43.73294844295696, "longitude": -79.3061040769228}, "118899145RR0001": {"name": "EMMANUEL MENNONITE BRETHERN CHURCH", "designationCode": "C", "categoryCode": "34", "address": "403-510 PEREHUDOFF CRES.", "city": "SASKATOON", "province": "SK", "country": "CA", "postalCode": "S7N4H6", "twitter": "None", "instagram": "None", "facebook": "None", "youtube": "None", "website": "None", "summary": "None", "logo": "None", "latitude": 52.145415489901104, "longitude": -106.57179}, "108080581RR0001": {"name": "EMMANUEL MENNONITE CHURCH", "designationCode": "C", "categoryCode": "34", "address": "3471 CLEARBROOK RD", "city": "ABBOTSFORD", "province": "BC", "country": "CA", "postalCode": "V2T5C1", "twitter": "None", "instagram": "None", "facebook": "None", "youtube": "None", "website": "None", "summary": "None", "logo": "None", "latitude": 49.065138524006024, "longitude": -122.33815337965189}, "107303257RR0001": {"name": "EMMANUEL MENNONITE CHURCH INC.", "designationCode": "C", "categoryCode": "34", "address": "750 15 ST", "city": "WINKLER", "province": "MB", "country": "CA", "postalCode": "R6W1M1", "twitter": "None", "instagram": "None", "facebook": "None", "youtube": "None", "website": "None", "summary": "None", "logo": "None", "latitude": 49.19187600002579, "longitude": -97.95604828623215}, "866252604RR0001": {"name": "EMMANUEL ORTHODOX PRESBYTERIAN CHURCH", "designationCode": "C", "categoryCode": "37", "address": "173 RIVER RD", "city": "FEVERSHAM", "province": "ON", "country": "CA", "postalCode": "N0C1C0", "twitter": "None", "instagram": "None", "facebook": "None", "youtube": "None", "website": "None", "summary": "None", "logo": "None", "latitude": 44.34299646878061, "longitude": -80.37177891704634}, "864759139RR0001": {"name": "EMMANUEL PARISH CELESTIAL CHURCH OF CHRIST", "designationCode": "C", "categoryCode": "43", "address": "9 SHOREHAM COURT, UNIT 7", "city": "TORONTO", "province": "ON", "country": "CA", "postalCode": "M3N1T4", "twitter": "None", "instagram": "None", "facebook": "None", "youtube": "None", "website": "None", "summary": "None", "logo": "None", "latitude": 43.76938677669549, "longitude": -79.51877009641416}, "107303315RR0001": {"name": "EMMANUEL PENTECOSTAL CHURCH", "designationCode": "C", "categoryCode": "39", "address": "13447 112TH AVENUE", "city": "SURREY", "province": "BC", "country": "CA", "postalCode": "V3R2E7", "twitter": "None", "instagram": "None", "facebook": "None", "youtube": "None", "website": "None", "summary": "None", "logo": "None", "latitude": 49.206266496537566, "longitude": -122.8497601902591}, "107833394RR0109": {"name": "EMMANUEL PENTECOSTAL CHURCH", "designationCode": "C", "categoryCode": "36", "address": "PO BOX 5668", "city": "CLARENVILLE", "province": "NL", "country": "CA", "postalCode": "A5A3A2", "twitter": "None", "instagram": "None", "facebook": "None", "youtube": "None", "website": "None", "summary": "None", "logo": "None", "latitude": 48.17855400000006, "longitude": -54.05186149999993}, "871101242RR0001": {"name": "EMMANUEL PENTECOSTAL CHURCH", "designationCode": "C", "categoryCode": "36", "address": "GENERAL DELIVERY", "city": "SACHIGO LAKE", "province": "ON", "country": "CA", "postalCode": "P0V2P0", "twitter": "None", "instagram": "None", "facebook": "None", "youtube": "None", "website": "None", "summary": "None", "logo": "None", "latitude": 53.870757000000054, "longitude": -92.17693249999994}, "887205995RR0001": {"name": "EMMANUEL PENTECOSTAL FELLOWSHIP", "designationCode": "C", "categoryCode": "36", "address": "1231-104TH STREET", "city": "NORTH BATTLEFORD", "province": "SK", "country": "CA", "postalCode": "S9A1N8", "twitter": "None", "instagram": "None", "facebook": "None", "youtube": "None", "website": "None", "summary": "None", "logo": "None", "latitude": 52.77544891598532, "longitude": -108.29315736789484}, "893681726RR0001": {"name": "EMMANUEL PENTECOSTAL TABERNACLE", "designationCode": "C", "categoryCode": "36", "address": "90 HIRTLE ROAD", "city": "MIDDLEWOOD", "province": "NS", "country": "CA", "postalCode": "B4V6K2", "twitter": "None", "instagram": "None", "facebook": "None", "youtube": "None", "website": "None", "summary": "None", "logo": "None", "latitude": 44.226213611431724, "longitude": -64.57296028619623}, "891609661RR0001": {"name": "EMMANUEL PRAIRIE GARDENS", "designationCode": "C", "categoryCode": "59", "address": "PO BOX 405", "city": "ASSINIBOIA", "province": "SK", "country": "CA", "postalCode": "S0H0B0", "twitter": "None", "instagram": "None", "facebook": "None", "youtube": "None", "website": "None", "summary": "None", "logo": "None", "latitude": 49.63287300000006, "longitude": -105.99348049999993}, "890116114RR0001": {"name": "EMMANUEL PRAISE AND WORSHIP CENTRE", "designationCode": "C", "categoryCode": "39", "address": "1521 HARWOOD AVE N", "city": "AJAX", "province": "ON", "country": "CA", "postalCode": "L1T4T9", "twitter": "None", "instagram": "None", "facebook": "None", "youtube": "None", "website": "None", "summary": "None", "logo": "None", "latitude": 43.88752083265041, "longitude": -79.03709786672664}, "118899236RR0001": {"name": "EMMANUEL PRESBYTERIAN CHURCH", "designationCode": "C", "categoryCode": "37", "address": "BOX 12", "city": "NOTTAWA", "province": "ON", "country": "CA", "postalCode": "L0M1P0", "twitter": "None", "instagram": "None", "facebook": "None", "youtube": "None", "website": "None", "summary": "None", "logo": "None", "latitude": 44.459610000000055, "longitude": -80.20835999999997}, "893353169RR0001": {"name": "EMMANUEL PROTESTANT CHAPEL, BFC BAGOTVILLE", "designationCode": "A", "categoryCode": "39", "address": "C.P 290", "city": "ALOUETTE", "province": "QC", "country": "CA", "postalCode": "G0V1A0", "twitter": "None", "instagram": "None", "facebook": "None", "youtube": "None", "website": "None", "summary": "None", "logo": "None", "latitude": 46.64028051122408, "longitude": -72.60962802660308}, "118899251RR0001": {"name": "EMMANUEL REFORMED CHURCH", "designationCode": "C", "categoryCode": "39", "address": "401 ROSSLAND RD W", "city": "WHITBY", "province": "ON", "country": "CA", "postalCode": "L1N3J1", "twitter": "None", "instagram": "None", "facebook": "None", "youtube": "None", "website": "None", "summary": "None", "logo": "None", "latitude": 43.89641982373493, "longitude": -78.95485393559936}, "139837132RR0001": {"name": "EMMANUEL REFORMED CHURCH OF NEERLANDIA", "designationCode": "C", "categoryCode": "39", "address": "5021 49 ST                    RR 1", "city": "NEERLANDIA", "province": "AB", "country": "CA", "postalCode": "T0G1R0", "twitter": "None", "instagram": "None", "facebook": "None", "youtube": "None", "website": "None", "summary": "None", "logo": "None", "latitude": 54.29794654862764, "longitude": -113.48084670584369}, "107303380RR0001": {"name": "EMMANUEL REFORMED CHURCH OF WOODSTOCK", "designationCode": "C", "categoryCode": "39", "address": "170 CLARKE ST N", "city": "WOODSTOCK", "province": "ON", "country": "CA", "postalCode": "N4S7M7", "twitter": "None", "instagram": "None", "facebook": "None", "youtube": "None", "website": "None", "summary": "None", "logo": "None", "latitude": 43.13952048182238, "longitude": -80.73656845017031}, "118899285RR0001": {"name": "EMMANUEL RELIEF AND REHABILITATION INTERNATIONAL", "designationCode": "C", "categoryCode": "47", "address": "P.O. BOX 4050 - STATION MAIN", "city": "STOUFFVILLE", "province": "ON", "country": "CA", "postalCode": "L4A8B6", "twitter": "None", "instagram": "None", "facebook": "None", "youtube": "None", "website": "None", "summary": "None", "logo": "None", "latitude": 43.97107200000005, "longitude": -79.24805449999994}, "118899277RR0001": {"name": "EMMANUEL RELIEF AND REHABILITATION INTERNATIONAL OF CANADA", "designationCode": "C", "categoryCode": "47", "address": "PO BOX 1179 STN MAIN", "city": "STOUFFVILLE", "province": "ON", "country": "CA", "postalCode": "L4A8A2", "twitter": "None", "instagram": "None", "facebook": "None", "youtube": "None", "website": "None", "summary": "None", "logo": "None", "latitude": 43.97028268018356, "longitude": -79.251601854151}, "859077372RR0001": {"name": "EMMANUEL ROMANIAN PENTECOSTAL CHURCH", "designationCode": "C", "categoryCode": "39", "address": "17811-93A AVE", "city": "SURREY", "province": "BC", "country": "CA", "postalCode": "V4N3Z8", "twitter": "None", "instagram": "None", "facebook": "None", "youtube": "None", "website": "None", "summary": "None", "logo": "None", "latitude": 49.172683514859415, "longitude": -122.72879177699232}, "107301558RR0001": {"name": "EMMANUEL UNITED CHURCH", "designationCode": "C", "categoryCode": "44", "address": "224 BENNETT BLVD", "city": "SAULT STE MARIE", "province": "ON", "country": "CA", "postalCode": "P6A4N1", "twitter": "None", "instagram": "None", "facebook": "None", "youtube": "None", "website": "None", "summary": "None", "logo": "None", "latitude": 46.51018452264971, "longitude": -84.27133353136361}, "107303489RR0001": {"name": "EMMANUEL UNITED CHURCH", "designationCode": "C", "categoryCode": "44", "address": "420 BALMORAL DRIVE", "city": "BRAMPTON", "province": "ON", "country": "CA", "postalCode": "L6T1V9", "twitter": "None", "instagram": "None", "facebook": "None", "youtube": "None", "website": "None", "summary": "None", "logo": "None", "latitude": 43.713742472127514, "longitude": -79.70799936378286}, "118899335RR0001": {"name": "EMMANUEL UNITED CHURCH", "designationCode": "C", "categoryCode": "44", "address": "BOX 38", "city": "PALMER RAPIDS", "province": "ON", "country": "CA", "postalCode": "K0J2E0", "twitter": "None", "instagram": "None", "facebook": "None", "youtube": "None", "website": "None", "summary": "None", "logo": "None"}, "118899343RR0001": {"name": "EMMANUEL UNITED CHURCH", "designationCode": "C", "categoryCode": "44", "address": "P.O. BOX 37", "city": "FOXBORO", "province": "ON", "country": "CA", "postalCode": "K0K2B0", "twitter": "None", "instagram": "None", "facebook": "None", "youtube": "None", "website": "None", "summary": "None", "logo": "None", "latitude": 44.25125000000003, "longitude": -77.43910999999997}, "118899368RR0001": {"name": "EMMANUEL UNITED CHURCH", "designationCode": "C", "categoryCode": "44", "address": "691 SMYTH ROAD", "city": "OTTAWA", "province": "ON", "country": "CA", "postalCode": "K1G1N7", "twitter": "None", "instagram": "None", "facebook": "None", "youtube": "None", "website": "None", "summary": "None", "logo": "None", "latitude": 45.40003342108574, "longitude": -75.63890449001669}, "118899418RR0001": {"name": "EMMANUEL UNITED CHURCH", "designationCode": "C", "categoryCode": "44", "address": "22 BRIDGEPORT RD W", "city": "WATERLOO", "province": "ON", "country": "CA", "postalCode": "N2L2Y3", "twitter": "None", "instagram": "None", "facebook": "None", "youtube": "None", "website": "None", "summary": "None", "logo": "None", "latitude": 43.467461077442394, "longitude": -80.52469808174155}, "118899426RR0001": {"name": "EMMANUEL UNITED CHURCH", "designationCode": "C", "categoryCode": "44", "address": "BOX 44", "city": "SEBRINGVILLE", "province": "ON", "country": "CA", "postalCode": "N0K1X0", "twitter": "None", "instagram": "None", "facebook": "None", "youtube": "None", "website": "None", "summary": "None", "logo": "None", "latitude": 43.40518000000003, "longitude": -81.05678999999998}, "129534293RR0001": {"name": "EMMANUEL UNITED CHURCH", "designationCode": "C", "categoryCode": "44", "address": "1728 LINCOLN ROAD", "city": "WINDSOR", "province": "ON", "country": "CA", "postalCode": "N8W2P7", "twitter": "None", "instagram": "None", "facebook": "None", "youtube": "None", "website": "None", "summary": "None", "logo": "None", "latitude": 42.30308505052219, "longitude": -83.0039224161523}, "890585847RR0001": {"name": "EMMANUEL UNITED CHURCH", "designationCode": "C", "categoryCode": "44", "address": "14 CHURCH ST. KINGSPORT       RR#2", "city": "CANNING", "province": "NS", "country": "CA", "postalCode": "B0P1H0", "twitter": "None", "instagram": "None", "facebook": "None", "youtube": "None", "website": "None", "summary": "None", "logo": "None", "latitude": 45.15972262254024, "longitude": -64.36269607825045}, "129900007RR0001": {"name": "EMMANUEL UNITED CHURCH,", "designationCode": "C", "categoryCode": "44", "address": "871 UPPER OTTAWA ST", "city": "HAMILTON", "province": "ON", "country": "CA", "postalCode": "L8T3V4", "twitter": "None", "instagram": "None", "facebook": "None", "youtube": "None", "website": "None", "summary": "None", "logo": "None", "latitude": 43.21436336245613, "longitude": -79.83408772055577}, "130632706RR0001": {"name": "EMMANUEL UNITED CHURCH,", "designationCode": "C", "categoryCode": "44", "address": "395 LAKESHORE DR", "city": "NORTH BAY", "province": "ON", "country": "CA", "postalCode": "P1A2C5", "twitter": "None", "instagram": "None", "facebook": "None", "youtube": "None", "website": "None", "summary": "None", "logo": "None", "latitude": 46.278592722170956, "longitude": -79.44609181034647}, "118899483RR0001": {"name": "EMMANUEL UNITED PENTECOSTAL CHURCH", "designationCode": "C", "categoryCode": "39", "address": "441 LEILA AVE", "city": "WINNIPEG", "province": "MB", "country": "CA", "postalCode": "R2V1M2", "twitter": "None", "instagram": "None", "facebook": "None", "youtube": "None", "website": "None", "summary": "None", "logo": "None", "latitude": 49.94615393923469, "longitude": -97.12516320953324}, "118899061RR0001": {"name": "EMMANUEL, L'AMOUR QUI SAUVE", "designationCode": "C", "categoryCode": "09", "address": "575 RUE LETELLIER", "city": "DRUMMONDVILLE", "province": "QC", "country": "CA", "postalCode": "J2B8V2", "twitter": "None", "instagram": "None", "facebook": "None", "youtube": "None", "website": "None", "summary": "None", "logo": "None", "latitude": 45.86578864060228, "longitude": -72.42381321813158}, "862784238RR0001": {"name": "EMMANUEL'S WISH FOUNDATION", "designationCode": "B", "categoryCode": "01", "address": "474-65 CEDAR POINTE DR", "city": "BARRIE", "province": "ON", "country": "CA", "postalCode": "L4N9R3", "twitter": "None", "instagram": "None", "facebook": "None", "youtube": "None", "website": "None", "summary": "None", "logo": "None", "latitude": 44.38389599999999, "longitude": -79.71144208477132}, "118899491RR0001": {"name": "EMMAUS CANADIEN DE MONTREAL", "designationCode": "A", "categoryCode": "03", "address": "2000 RUE SHERBROOKE OUEST", "city": "MONTREAL", "province": "QC", "country": "CA", "postalCode": "H3H1G4", "twitter": "None", "instagram": "None", "facebook": "None", "youtube": "None", "website": "None", "summary": "None", "logo": "None", "latitude": 45.49368344489018, "longitude": -73.5842704953837}, "892271578RR0001": {"name": "EMMAUS HOUSE", "designationCode": "C", "categoryCode": "09", "address": "26 MOUNTBATTEN DR", "city": "ST. JOHN'S", "province": "NL", "country": "CA", "postalCode": "A1A3X7", "twitter": "None", "instagram": "None", "facebook": "None", "youtube": "None", "website": "None", "summary": "None", "logo": "None", "latitude": 47.594197751024424, "longitude": -52.696248149604656}, "864518840RR0001": {"name": "EMMAUS INTERNATIONAL SUPPORT SERVICES", "designationCode": "C", "categoryCode": "11", "address": "981 NOTRE DAME DRIVE", "city": "LONDON", "province": "ON", "country": "CA", "postalCode": "N6J3C3", "twitter": "None", "instagram": "None", "facebook": "None", "youtube": "None", "website": "None", "summary": "None", "logo": "None", "latitude": 42.94103107682702, "longitude": -81.26670901811366}, "107303588RR0001": {"name": "EMMAUS LUTHERAN CHURCH", "designationCode": "C", "categoryCode": "32", "address": "6344 SPERLING AVE", "city": "BURNABY", "province": "BC", "country": "CA", "postalCode": "V5E2V4", "twitter": "None", "instagram": "None", "facebook": "None", "youtube": "None", "website": "None", "summary": "None", "logo": "None", "latitude": 49.226435360811365, "longitude": -122.9647103955801}, "118899533RR0001": {"name": "EMMAUS LUTHERAN CHURCH", "designationCode": "C", "categoryCode": "32", "address": "RR #2 BOX 23 SITE 12", "city": "SEXSMITH", "province": "AB", "country": "CA", "postalCode": "T0H3C0", "twitter": "None", "instagram": "None", "facebook": "None", "youtube": "None", "website": "None", "summary": "None", "logo": "None", "latitude": 55.348512000000056, "longitude": -118.78231399999993}, "132328899RR0001": {"name": "EMMAUS LUTHERAN CHURCH INCORPORATED, OF DRAYTON VALLEY, ALBERTA", "designationCode": "C", "categoryCode": "32", "address": "4604-50 AVENUE", "city": "DRAYTON VALLEY", "province": "AB", "country": "CA", "postalCode": "T7A1C6", "twitter": "None", "instagram": "None", "facebook": "None", "youtube": "None", "website": "None", "summary": "None", "logo": "None", "latitude": 53.22159592785768, "longitude": -114.96910533153931}, "118899566RR0001": {"name": "EMMAUS LUTHERAN CHURCH OF CALAHOO", "designationCode": "C", "categoryCode": "32", "address": "55202 RGE RD 274", "city": "STURGEON COUNTY", "province": "AB", "country": "CA", "postalCode": "T8R0N3", "twitter": "None", "instagram": "None", "facebook": "None", "youtube": "None", "website": "None", "summary": "None", "logo": "None", "latitude": 53.74521827699232, "longitude": -113.96752892910715}, "107303570RR0001": {"name": "EMMAUS LUTHERAN CHURCH, EDMONTON", "designationCode": "C", "categoryCode": "32", "address": "5015-144 AVE", "city": "EDMONTON", "province": "AB", "country": "CA", "postalCode": "T5A4P9", "twitter": "None", "instagram": "None", "facebook": "None", "youtube": "None", "website": "None", "summary": "None", "logo": "None", "latitude": 53.60683247735032, "longitude": -113.41909936219632}, "118899574RR0001": {"name": "EMMAUS MENNONITE CHURCH", "designationCode": "C", "categoryCode": "34", "address": "BOX 26", "city": "WYMARK", "province": "SK", "country": "CA", "postalCode": "S0N2Y0", "twitter": "None", "instagram": "None", "facebook": "None", "youtube": "None", "website": "None", "summary": "None", "logo": "None", "latitude": 50.10697000000005, "longitude": -107.73681999999997}, "895287449RR0001": {"name": "EMMAUS PLACE SOCIETY", "designationCode": "C", "categoryCode": "20", "address": "6373 HILLCREST PL", "city": "PRINCE GEORGE", "province": "BC", "country": "CA", "postalCode": "V2N5R1", "twitter": "None", "instagram": "None", "facebook": "None", "youtube": "None", "website": "None", "summary": "None", "logo": "None", "latitude": 53.86052832053782, "longitude": -122.79116926634642}, "866932932RR0001": {"name": "EMMAUS ROAD MINISTRIES", "designationCode": "C", "categoryCode": "39", "address": "179 HESS ST N", "city": "HAMILTON", "province": "ON", "country": "CA", "postalCode": "L8R2T1", "twitter": "None", "instagram": "None", "facebook": "None", "youtube": "None", "website": "None", "summary": "None", "logo": "None", "latitude": 43.264483145161265, "longitude": -79.87491417848676}, "867817132RR0001": {"name": "EMO & DISTRICT HOSPITAL AUXILIARY", "designationCode": "C", "categoryCode": "19", "address": "POST OFFICE BOX 505", "city": "EMO", "province": "ON", "country": "CA", "postalCode": "P0W1E0", "twitter": "None", "instagram": "None", "facebook": "None", "youtube": "None", "website": "None", "summary": "None", "logo": "None", "latitude": 48.662577540629606, "longitude": -93.82672263965895}, "124546391RR0001": {"name": "EMO CHRISTIAN REFORMED CHURCH", "designationCode": "C", "categoryCode": "39", "address": "PO BOX 209", "city": "EMO", "province": "ON", "country": "CA", "postalCode": "P0W1E0", "twitter": "None", "instagram": "None", "facebook": "None", "youtube": "None", "website": "None", "summary": "None", "logo": "None", "latitude": 48.662577540629606, "longitude": -93.82672263965895}, "118899616RR0001": {"name": "EMO MEALS ON WHEELS", "designationCode": "C", "categoryCode": "09", "address": "BOX 353", "city": "EMO", "province": "ON", "country": "CA", "postalCode": "P0W1E0", "twitter": "None", "instagram": "None", "facebook": "None", "youtube": "None", "website": "None", "summary": "None", "logo": "None", "latitude": 48.662577540629606, "longitude": -93.82672263965895}, "107303679RR0001": {"name": "EMO-DEVLIN PASTORAL CHARGE", "designationCode": "C", "categoryCode": "44", "address": "PO BOX 95", "city": "DEVLIN", "province": "ON", "country": "CA", "postalCode": "P0W1C0", "twitter": "None", "instagram": "None", "facebook": "None", "youtube": "None", "website": "None", "summary": "None", "logo": "None", "latitude": 48.76641600000005, "longitude": -93.66987049999993}, "118899624RR0001": {"name": "EMPATHY HOUSE OF RECOVERY", "designationCode": "C", "categoryCode": "57", "address": "360 SUNNYSIDE AVE", "city": "OTTAWA", "province": "ON", "country": "CA", "postalCode": "K1S0S4", "twitter": "None", "instagram": "None", "facebook": "None", "youtube": "None", "website": "None", "summary": "None", "logo": "None", "latitude": 45.39303258921474, "longitude": -75.6863117561603}, "101633501RR0001": {"name": "EMPLOI-JEUNESSE 16-25 INC.", "designationCode": "C", "categoryCode": "29", "address": "205, RUE JARRY EST", "city": "MONTREAL", "province": "QC", "country": "CA", "postalCode": "H2P1T6", "twitter": "None", "instagram": "None", "facebook": "None", "youtube": "None", "website": "None", "summary": "None", "logo": "None", "latitude": 45.540891471002325, "longitude": -73.63024430310446}, "130344773RR0001": {"name": "EMPLOYABILITIES SOCIETY OF ALBERTA", "designationCode": "C", "categoryCode": "09", "address": "402, 10909 JASPER AVENUE", "city": "EDMONTON", "province": "AB", "country": "CA", "postalCode": "T5J3L9", "twitter": "None", "instagram": "None", "facebook": "None", "youtube": "None", "website": "None", "summary": "None", "logo": "None", "latitude": 53.54092800000001, "longitude": -113.49749290147058}, "861942993RR0001": {"name": "EMPLOYABILITY ASSOCIATION OF CAPE BRETON", "designationCode": "C", "categoryCode": "59", "address": "250 - 500 GEORGE ST", "city": "SYDNEY", "province": "NS", "country": "CA", "postalCode": "B1P1K6", "twitter": "None", "instagram": "None", "facebook": "None", "youtube": "None", "website": "None", "summary": "None", "logo": "None", "latitude": 46.136660140898876, "longitude": -60.19204975654232}, "118899772RR0001": {"name": "EMPLOYEES' COMMUNITY CONTRIBUTION OF DILLON CONSULTING LIMITED", "designationCode": "A", "categoryCode": "05", "address": "PO BOX 426 STATION B", "city": "LONDON", "province": "ON", "country": "CA", "postalCode": "N6A4W7", "twitter": "None", "instagram": "None", "facebook": "None", "youtube": "None", "website": "None", "summary": "None", "logo": "None", "latitude": 42.98689500000006, "longitude": -81.24624349999993}, "128077039RR0001": {"name": "EMPLOYMENT AND EDUCATION RESOURCE CENTRE OF CORNWALL AND DISTRICT INC", "designationCode": "C", "categoryCode": "59", "address": "144 PITT ST.", "city": "CORNWALL", "province": "ON", "country": "CA", "postalCode": "K6J3P4", "twitter": "None", "instagram": "None", "facebook": "None", "youtube": "None", "website": "None", "summary": "None", "logo": "None", "latitude": 45.017647166801346, "longitude": -74.7283741855559}, "895176139RR0001": {"name": "EMPLOYMENT PLANNING AND COUNSELLING-PETERBOROUGH", "designationCode": "C", "categoryCode": "59", "address": "418 SHERIDAN STREET", "city": "PETERBOROUGH", "province": "ON", "country": "CA", "postalCode": "K9H3J9", "twitter": "None", "instagram": "None", "facebook": "None", "youtube": "None", "website": "None", "summary": "None", "logo": "None", "latitude": 44.306542403831706, "longitude": -78.31697292336567}, "815475827RR0001": {"name": "EMPOWER GLOBAL INC.", "designationCode": "C", "categoryCode": "09", "address": "485 KERR STREET", "city": "OAKVILLE", "province": "ON", "country": "CA", "postalCode": "L6K3C6", "twitter": "None", "instagram": "None", "facebook": "None", "youtube": "None", "website": "None", "summary": "None", "logo": "None", "latitude": 43.44625847045407, "longitude": -79.6860970681229}, "858042872RR0001": {"name": "EMPOWER MINISTRIES", "designationCode": "C", "categoryCode": "47", "address": "PO BOX 84 STN MAIN", "city": "BARRIE", "province": "ON", "country": "CA", "postalCode": "L4M4S9", "twitter": "None", "instagram": "None", "facebook": "None", "youtube": "None", "website": "None", "summary": "None", "logo": "None", "latitude": 44.38929300000005, "longitude": -79.68626449999994}, "891974222RR0001": {"name": "EMPOWERING CITIZENS FOR HEALTH AND OPPORTUNITY SOCIETY", "designationCode": "C", "categoryCode": "09", "address": "BOX 2096 4723 50 AVE", "city": "WHITECOURT", "province": "AB", "country": "CA", "postalCode": "T7S1P7", "twitter": "None", "instagram": "None", "facebook": "None", "youtube": "None", "website": "None", "summary": "None", "logo": "None", "latitude": 54.14049619757675, "longitude": -115.67744497708115}, "833800352RR0001": {"name": "EMPOWERMENT THROUGH ACHIEVEMENT VAUGHAN WOMEN'S SHELTER", "designationCode": "C", "categoryCode": "09", "address": "136 TEEFY AVE", "city": "RICHMOND HILL", "province": "ON", "country": "CA", "postalCode": "L4C8C4", "twitter": "None", "instagram": "None", "facebook": "None", "youtube": "None", "website": "None", "summary": "None", "logo": "None", "latitude": 43.84371520180028, "longitude": -79.4561879222978}, "896422813RR0001": {"name": "EMPRESS & DISTRICT HISTORICAL SOCIETY", "designationCode": "C", "categoryCode": "50", "address": "BOX 272", "city": "EMPRESS", "province": "AB", "country": "CA", "postalCode": "T0J1E0", "twitter": "None", "instagram": "None", "facebook": "None", "youtube": "None", "website": "None", "summary": "None", "logo": "None", "latitude": 50.95013000000006, "longitude": -110.00161999999995}, "891657371RR0001": {"name": "EMPRESS FRIENDSHIP CENTRE", "designationCode": "C", "categoryCode": "56", "address": "GENERAL DELIVERY", "city": "EMPRESS", "province": "AB", "country": "CA", "postalCode": "T0J1E0", "twitter": "None", "instagram": "None", "facebook": "None", "youtube": "None", "website": "None", "summary": "None", "logo": "None", "latitude": 50.95574700000006, "longitude": -110.00788999999993}, "108153933RR0001": {"name": "EMPRESS-BUFFALO PASTORAL CHARGE", "designationCode": "C", "categoryCode": "44", "address": "BOX 47", "city": "BINDLOSS", "province": "AB", "country": "CA", "postalCode": "T0J0H0", "twitter": "None", "instagram": "None", "facebook": "None", "youtube": "None", "website": "None", "summary": "None", "logo": "None", "latitude": 50.87915000000004, "longitude": -110.27566999999999}, "861690931RR0001": {"name": "EMPTY STOCKING FUND INC.", "designationCode": "C", "categoryCode": "09", "address": "BOX 657                       1171-101 ST.", "city": "NORTH BATTLEFORD", "province": "SK", "country": "CA", "postalCode": "S9A2Y7", "twitter": "None", "instagram": "None", "facebook": "None", "youtube": "None", "website": "None", "summary": "None", "logo": "None", "latitude": 52.77452425145711, "longitude": -108.29760589442532}, "848595641RR0001": {"name": "EMS Cadets Parents Council", "designationCode": "C", "categoryCode": "29", "address": "10710 97 STREET", "city": "GRANDE PRAIRIE", "province": "AB", "country": "CA", "postalCode": "T8V7G6", "twitter": "None", "instagram": "None", "facebook": "None", "youtube": "None", "website": "None", "summary": "None", "logo": "None", "latitude": 55.16836705481795, "longitude": -118.82259693006023}, "880343413RR0001": {"name": "EMSDALE AGRICULTURAL SOCIETY", "designationCode": "C", "categoryCode": "56", "address": "PO BOX 328", "city": "EMSDALE", "province": "ON", "country": "CA", "postalCode": "P0A1J0", "twitter": "None", "instagram": "None", "facebook": "None", "youtube": "None", "website": "None", "summary": "None", "logo": "None", "latitude": 45.520201928995085, "longitude": -79.31388920338162}, "892100983RR0001": {"name": "EMSDALE PASTORAL CHARGE", "designationCode": "C", "categoryCode": "44", "address": "PO BOX 239", "city": "EMSDALE", "province": "ON", "country": "CA", "postalCode": "P0A1J0", "twitter": "None", "instagram": "None", "facebook": "None", "youtube": "None", "website": "None", "summary": "None", "logo": "None", "latitude": 45.520201928995085, "longitude": -79.31388920338162}, "894859958RR0001": {"name": "EMU SCHOOL AGE CENTRE INCORPORATED", "designationCode": "C", "categoryCode": "01", "address": "25 REGINA PLACE", "city": "WINNIPEG", "province": "MB", "country": "CA", "postalCode": "R2C0S5", "twitter": "None", "instagram": "None", "facebook": "None", "youtube": "None", "website": "None", "summary": "None", "logo": "None", "latitude": 49.902894314184316, "longitude": -96.99536743868737}, "118899939RR0001": {"name": "EN COEUR, LA FONDATION QU\u00c9B\u00c9COISE POUR LES ENFANTS MALADES DU COEUR", "designationCode": "C", "categoryCode": "09", "address": "310 - 8585 BOUL SAINT-LAURENT", "city": "MONTREAL", "province": "QC", "country": "CA", "postalCode": "H2P2M9", "twitter": "None", "instagram": "None", "facebook": "None", "youtube": "None", "website": "None", "summary": "None", "logo": "None", "latitude": 45.541150950343194, "longitude": -73.63877402218834}, "898131438RR0001": {"name": "EN MARGE 12-17", "designationCode": "C", "categoryCode": "01", "address": "1278 RUE SAINT-CHRISTOPHE", "city": "MONTREAL", "province": "QC", "country": "CA", "postalCode": "H2L3W6", "twitter": "None", "instagram": "None", "facebook": "None", "youtube": "None", "website": "None", "summary": "None", "logo": "None", "latitude": 45.51550757478802, "longitude": -73.55765145143971}, "141350025RR0001": {"name": "EN SON NOM - Vie consacr\u00e9e aujourd'hui", "designationCode": "C", "categoryCode": "47", "address": "2715 CH. C\u00d4TE STE-CATHERINE", "city": "MONTR\u00c9AL", "province": "QC", "country": "CA", "postalCode": "H3T1B6", "twitter": "None", "instagram": "None", "facebook": "None", "youtube": "None", "website": "None", "summary": "None", "logo": "None", "latitude": 45.50668659703366, "longitude": -73.62023772932606}, "805131679RR0001": {"name": "EN TOUT C.A.S.(CONCERTATION, AIDE, SOUTIEN) JEUNESSE", "designationCode": "C", "categoryCode": "09", "address": "C.P. 52    SUCC. A", "city": "RIMOUSKI", "province": "QC", "country": "CA", "postalCode": "G5L7B7", "twitter": "None", "instagram": "None", "facebook": "None", "youtube": "None", "website": "None", "summary": "None", "logo": "None", "latitude": 48.44933700000006, "longitude": -68.52474349999993}, "894242791RR0001": {"name": "ENAAHTIG HEALING LODGE AND LEARNING CENTRE", "designationCode": "C", "categoryCode": "23", "address": "4184 VASEY ROAD", "city": "VICTORIA HARBOUR", "province": "ON", "country": "CA", "postalCode": "L0K2A0", "twitter": "None", "instagram": "None", "facebook": "None", "youtube": "None", "website": "None", "summary": "None", "logo": "None", "latitude": 44.68851226392005, "longitude": -79.71506562386601}, "806918678RR0001": {"name": "ENABLIS FOUNDATION CANADA / FONDATION ENABLIS CANADA", "designationCode": "C", "categoryCode": "59", "address": "460 RUE MCGILL                5TH FLOOR", "city": "MONTREAL", "province": "QC", "country": "CA", "postalCode": "H2Y2H2", "twitter": "None", "instagram": "None", "facebook": "None", "youtube": "None", "website": "None", "summary": "None", "logo": "None", "latitude": 45.50073031943577, "longitude": -73.55883192827041}, "859975534RR0001": {"name": "ENACTUS CANADA", "designationCode": "C", "categoryCode": "21", "address": "800-920 YONGE ST", "city": "TORONTO", "province": "ON", "country": "CA", "postalCode": "M4W3C7", "twitter": "None", "instagram": "None", "facebook": "None", "youtube": "None", "website": "None", "summary": "None", "logo": "None", "latitude": 43.674218340816054, "longitude": -79.3884529969989}, "889584264RR0001": {"name": "ENBRIDGE GAS DISTRIBUTION INC. - EMPLOYEES' CHARITABLE FUND", "designationCode": "B", "categoryCode": "75", "address": "PO BOX 650", "city": "SCARBOROUGH", "province": "ON", "country": "CA", "postalCode": "M1K5E3", "twitter": "None", "instagram": "None", "facebook": "None", "youtube": "None", "website": "None", "summary": "None", "logo": "None", "latitude": 43.72579500000006, "longitude": -79.26285049999993}, "895674257RR0001": {"name": "ENCANA CARES FOUNDATION", "designationCode": "B", "categoryCode": "75", "address": "500 CENTRE STREET SE          PO BOX 2850", "city": "CALGARY", "province": "AB", "country": "CA", "postalCode": "T2P2S5", "twitter": "None", "instagram": "None", "facebook": "None", "youtube": "None", "website": "None", "summary": "None", "logo": "None", "latitude": 51.04531500000006, "longitude": -114.06301099999993}, "888530292RR0001": {"name": "ENCHANT CHARITABLE TRUST", "designationCode": "B", "categoryCode": "11", "address": "3425 2 AVENUE SOUTH", "city": "LETHBRIDGE", "province": "AB", "country": "CA", "postalCode": "T1J4V1", "twitter": "None", "instagram": "None", "facebook": "None", "youtube": "None", "website": "None", "summary": "None", "logo": "None", "latitude": 49.696839530439966, "longitude": -112.78914308381903}, "803968940RR0001": {"name": "ENCHARIS MANAGEMENT AND SUPPORT SERVICES", "designationCode": "C", "categoryCode": "09", "address": "900-285030 LUTHER ROSE BLVD NE", "city": "CALGARY", "province": "AB", "country": "CA", "postalCode": "T1X1M9", "twitter": "None", "instagram": "None", "facebook": "None", "youtube": "None", "website": "None", "summary": "None", "logo": "None", "latitude": 51.06140700000006, "longitude": -113.89145299999993}, "822815148RR0001": {"name": "ENCORE MUSICAL STAGE", "designationCode": "C", "categoryCode": "22", "address": "GIFFEN LEE                    PO BOX 2396 STATION C", "city": "KITCHENER", "province": "ON", "country": "CA", "postalCode": "N2H6M3", "twitter": "None", "instagram": "None", "facebook": "None", "youtube": "None", "website": "None", "summary": "None", "logo": "None", "latitude": 43.45123200000006, "longitude": -80.49304249999993}, "891512642RR0001": {"name": "ENCORE SYMPHONIC CONCERT BAND", "designationCode": "C", "categoryCode": "22", "address": "23 ARLINGTON WAY", "city": "THORNHILL", "province": "ON", "country": "CA", "postalCode": "L3T7W9", "twitter": "None", "instagram": "None", "facebook": "None", "youtube": "None", "website": "None", "summary": "None", "logo": "None", "latitude": 43.80333972606611, "longitude": -79.39976823478001}, "885677237RR0001": {"name": "ENCORE THE CONCERT BAND", "designationCode": "C", "categoryCode": "22", "address": "PO BOX 27111 RPO MASONVILLE", "city": "LONDON", "province": "ON", "country": "CA", "postalCode": "N5X3X5", "twitter": "None", "instagram": "None", "facebook": "None", "youtube": "None", "website": "None", "summary": "None", "logo": "None", "latitude": 43.02232199999999, "longitude": -81.2749635}, "890587181RR0001": {"name": "END OF STEEL HERITAGE SOCIETY", "designationCode": "C", "categoryCode": "52", "address": "BOX 686", "city": "HINES CREEK", "province": "AB", "country": "CA", "postalCode": "T0H2A0", "twitter": "None", "instagram": "None", "facebook": "None", "youtube": "None", "website": "None", "summary": "None", "logo": "None", "latitude": 56.24589996667458, "longitude": -118.60465996667448}, "840930127RR0001": {"name": "END POVERTY NOW SOCIETY/Soci\u00e9t\u00e9 pour l'\u00e9limination de la pauvret\u00e9", "designationCode": "C", "categoryCode": "09", "address": "3450 RUE SAINT-DENIS          SUITE #164", "city": "MONTR\u00c9AL", "province": "QC", "country": "CA", "postalCode": "H2X3L3", "twitter": "None", "instagram": "None", "facebook": "None", "youtube": "None", "website": "None", "summary": "None", "logo": "None", "latitude": 45.5172570227366, "longitude": -73.56827273385638}, "107304727RR0001": {"name": "END TIME MESSAGE TABERNACLE EDMONTON", "designationCode": "C", "categoryCode": "47", "address": "9200 156 ST NW", "city": "EDMONTON", "province": "AB", "country": "CA", "postalCode": "T5R1Z1", "twitter": "None", "instagram": "None", "facebook": "None", "youtube": "None", "website": "None", "summary": "None", "logo": "None", "latitude": 53.527032167638055, "longitude": -113.59053972540227}, "891086944RR0001": {"name": "END TIME VICTORY OUTREACH", "designationCode": "C", "categoryCode": "39", "address": "477 WESLEMKOON LAKE RD        RR 2", "city": "GILMOUR", "province": "ON", "country": "CA", "postalCode": "K0L1W0", "twitter": "None", "instagram": "None", "facebook": "None", "youtube": "None", "website": "None", "summary": "None", "logo": "None", "latitude": 44.823087776063886, "longitude": -77.61172453370236}, "118900091RR0001": {"name": "END-TIME MINISTRIES INC.", "designationCode": "C", "categoryCode": "36", "address": "181 LACROIX STREET BOX 653", "city": "CHATHAM", "province": "ON", "country": "CA", "postalCode": "N7M5K8", "twitter": "None", "instagram": "None", "facebook": "None", "youtube": "None", "website": "None", "summary": "None", "logo": "None", "latitude": 42.396906834035384, "longitude": -82.18777188438467}, "851526129RR0001": {"name": "END-TIME WORLD REVIVAL MINISTRY", "designationCode": "C", "categoryCode": "39", "address": "3831 BAYSWATER CRESCENT", "city": "MISSISSAUGA", "province": "ON", "country": "CA", "postalCode": "L4T2G6", "twitter": "None", "instagram": "None", "facebook": "None", "youtube": "None", "website": "None", "summary": "None", "logo": "None", "latitude": 43.73025301136832, "longitude": -79.63923010294896}, "890325640RR0001": {"name": "ENDANGERED SPECIES FUND OF CANADA", "designationCode": "C", "categoryCode": "54", "address": "3667 CONCESSION ROAD 6        POST OFFICE BOX 370", "city": "ORONO", "province": "ON", "country": "CA", "postalCode": "L0B1M0", "twitter": "None", "instagram": "None", "facebook": "None", "youtube": "None", "website": "None", "summary": "None", "logo": "None", "latitude": 43.993934950834145, "longitude": -78.60739576115195}, "118899970RR0001": {"name": "ENDEAVOUR FELLOWSHIP CHAPEL", "designationCode": "C", "categoryCode": "39", "address": "P.O. BOX 111", "city": "ENDEAVOUR", "province": "SK", "country": "CA", "postalCode": "S0A0W0", "twitter": "None", "instagram": "None", "facebook": "None", "youtube": "None", "website": "None", "summary": "None", "logo": "None", "latitude": 52.16668000000004, "longitude": -102.65094999999997}, "888998432RR0001": {"name": "ENDERBY & DISTRICT COMMUNITY RESOURCE CENTRE SOCIETY", "designationCode": "C", "categoryCode": "20", "address": "P. O. BOX 1001", "city": "ENDERBY", "province": "BC", "country": "CA", "postalCode": "V0E1V0", "twitter": "None", "instagram": "None", "facebook": "None", "youtube": "None", "website": "None", "summary": "None", "logo": "None", "latitude": 50.55260000000004, "longitude": -119.14013999999997}, "118900034RR0001": {"name": "ENDERBY & DISTRICT SENIOR CITIZENS COMPLEX", "designationCode": "C", "categoryCode": "56", "address": "BOX 702", "city": "ENDERBY", "province": "BC", "country": "CA", "postalCode": "V0E1V0", "twitter": "None", "instagram": "None", "facebook": "None", "youtube": "None", "website": "None", "summary": "None", "logo": "None", "latitude": 50.55260000000004, "longitude": -119.14013999999997}, "886183250RR0001": {"name": "ENDERBY AND DISTRICT ARTS COUNCIL SOCIETY", "designationCode": "C", "categoryCode": "22", "address": "PO BOX 757", "city": "ENDERBY", "province": "BC", "country": "CA", "postalCode": "V0E1V0", "twitter": "None", "instagram": "None", "facebook": "None", "youtube": "None", "website": "None", "summary": "None", "logo": "None", "latitude": 50.55260000000004, "longitude": -119.14013999999997}, "107304586RR0001": {"name": "ENDERBY EVANGELICAL CHAPEL", "designationCode": "C", "categoryCode": "31", "address": "BOX 940", "city": "ENDERBY", "province": "BC", "country": "CA", "postalCode": "V0E1V0", "twitter": "None", "instagram": "None", "facebook": "None", "youtube": "None", "website": "None", "summary": "None", "logo": "None", "latitude": 50.55260000000004, "longitude": -119.14013999999997}, "118900059RR0001": {"name": "ENDERBY PASTORAL CHARGE", "designationCode": "C", "categoryCode": "44", "address": "PO BOX 304", "city": "ENDERBY", "province": "BC", "country": "CA", "postalCode": "V0E1V0", "twitter": "None", "instagram": "None", "facebook": "None", "youtube": "None", "website": "None", "summary": "None", "logo": "None", "latitude": 50.55260000000004, "longitude": -119.14013999999997}, "107304610RR0001": {"name": "ENDERBY PRESCHOOL SOCIETY", "designationCode": "C", "categoryCode": "01", "address": "BOX 384", "city": "ENDERBY", "province": "BC", "country": "CA", "postalCode": "V0E1V0", "twitter": "None", "instagram": "None", "facebook": "None", "youtube": "None", "website": "None", "summary": "None", "logo": "None", "latitude": 50.55260000000004, "longitude": -119.14013999999997}, "118818491RR0018": {"name": "ENDERBY SEVENTH-DAY ADVENTIST CHURCH", "designationCode": "C", "categoryCode": "41", "address": "PO 1000", "city": "ABBOTSFORD", "province": "BC", "country": "CA", "postalCode": "V2S4P5", "twitter": "None", "instagram": "None", "facebook": "None", "youtube": "None", "website": "None", "summary": "None", "logo": "None", "latitude": 49.03851300000005, "longitude": -122.29441549999993}}