{"827192881RR0001": {"name": "Wellness Through Living Society", "designationCode": "C", "categoryCode": "29", "address": "1275 - 3RD AVENUE SOUTH", "city": "LETHBRIDGE", "province": "AB", "country": "CA", "postalCode": "T1J0K2", "twitter": "None", "instagram": "None", "facebook": "None", "youtube": "None", "website": "None", "summary": "None", "logo": "None", "latitude": 49.696522600845334, "longitude": -112.8252302649}, "816456867RR0001": {"name": "Wells for Well-Being Inc.", "designationCode": "C", "categoryCode": "09", "address": "19354 HERON ROAD              R R #2", "city": "WILLIAMSTOWN", "province": "ON", "country": "CA", "postalCode": "K0C2J0", "twitter": "None", "instagram": "None", "facebook": "None", "youtube": "None", "website": "None", "summary": "None", "logo": "None", "latitude": 45.150116521784305, "longitude": -74.61747578864907}, "765372925RR0001": {"name": "Wells Family Foundation", "designationCode": "B", "categoryCode": "03", "address": "833 - 4445 CALGARY TRAIL NW", "city": "EDMONTON", "province": "AB", "country": "CA", "postalCode": "T6H5R7", "twitter": "None", "instagram": "None", "facebook": "None", "youtube": "None", "website": "None", "summary": "None", "logo": "None", "latitude": 53.48582391128899, "longitude": -113.49489419362304}, "835255217RR0001": {"name": "Wells Salvation Church / \u00c9glise Aux Sources du Salut", "designationCode": "C", "categoryCode": "39", "address": "P.O. BOX 42080 RPO ST-LAURENT", "city": "OTTAWA", "province": "ON", "country": "CA", "postalCode": "K1K4L8", "twitter": "None", "instagram": "None", "facebook": "None", "youtube": "None", "website": "None", "summary": "None", "logo": "None", "latitude": 45.4366961562365, "longitude": -75.64443699310992}, "820483428RR0001": {"name": "Wellspring of Life Church", "designationCode": "C", "categoryCode": "39", "address": "8353 EDGEVALLEY DR NW", "city": "CALGARY", "province": "AB", "country": "CA", "postalCode": "T3A4X2", "twitter": "None", "instagram": "None", "facebook": "None", "youtube": "None", "website": "None", "summary": "None", "logo": "None", "latitude": 51.13098849708581, "longitude": -114.14806423578963}, "839986080RR0001": {"name": "Wellspring Christian Community Outreach", "designationCode": "C", "categoryCode": "39", "address": "11 FIRE HALL ROAD             POST OFFICE BOX 31", "city": "NEW GERMANY", "province": "NS", "country": "CA", "postalCode": "B0R1E0", "twitter": "None", "instagram": "None", "facebook": "None", "youtube": "None", "website": "None", "summary": "None", "logo": "None", "latitude": 44.54768312487751, "longitude": -64.72372416016489}, "118821313RR0001": {"name": "Wellspring Church", "designationCode": "C", "categoryCode": "39", "address": "4457 NEW ST", "city": "BURLINGTON", "province": "ON", "country": "CA", "postalCode": "L7L1T8", "twitter": "None", "instagram": "None", "facebook": "None", "youtube": "None", "website": "None", "summary": "None", "logo": "None", "latitude": 43.36536003638391, "longitude": -79.75578108788706}, "845692409RR0001": {"name": "Wellspring Edmonton", "designationCode": "C", "categoryCode": "01", "address": "11306 65 AVE NW", "city": "EDMONTON", "province": "AB", "country": "CA", "postalCode": "T6H2Z8", "twitter": "None", "instagram": "None", "facebook": "None", "youtube": "None", "website": "None", "summary": "None", "logo": "None", "latitude": 53.501856011975796, "longitude": -113.52310837785632}, "842316028RR0001": {"name": "Wellsprings Victory Church Inc.", "designationCode": "C", "categoryCode": "39", "address": "1280 CAMERON STREET", "city": "REGINA", "province": "SK", "country": "CA", "postalCode": "S4T2T1", "twitter": "None", "instagram": "None", "facebook": "None", "youtube": "None", "website": "None", "summary": "None", "logo": "None", "latitude": 50.45846425145709, "longitude": -104.6254441823819}, "119049351RR0001": {"name": "WellSpring Presbyterian Church", "designationCode": "C", "categoryCode": "37", "address": "4727 ROUTE 17                 RR 4", "city": "MONTAGUE", "province": "PE", "country": "CA", "postalCode": "C0A1R0", "twitter": "None", "instagram": "None", "facebook": "None", "youtube": "None", "website": "None", "summary": "None", "logo": "None", "latitude": 46.066026552311186, "longitude": -62.47856973062507}, "890885445RR0001": {"name": "Wembley United Church", "designationCode": "C", "categoryCode": "44", "address": "BOX 534", "city": "WEMBLEY", "province": "AB", "country": "CA", "postalCode": "T0H3S0", "twitter": "None", "instagram": "None", "facebook": "None", "youtube": "None", "website": "None", "summary": "None", "logo": "None", "latitude": 55.15416000000005, "longitude": -119.14110999999997}, "870212115RR0001": {"name": "Wen Zhou Friendship Society", "designationCode": "C", "categoryCode": "09", "address": "4266 HAZELBRIDGE WAY", "city": "RICHMOND", "province": "BC", "country": "CA", "postalCode": "V6X0J5", "twitter": "None", "instagram": "None", "facebook": "None", "youtube": "None", "website": "None", "summary": "None", "logo": "None", "latitude": 49.18252826562154, "longitude": -123.13340428739338}, "891879132RR0001": {"name": "Wendat Support Opportunities", "designationCode": "C", "categoryCode": "11", "address": "237 SECOND STREET             P.O. BOX 832", "city": "MIDLAND", "province": "ON", "country": "CA", "postalCode": "L4R3P7", "twitter": "None", "instagram": "None", "facebook": "None", "youtube": "None", "website": "None", "summary": "None", "logo": "None", "latitude": 44.74999289199855, "longitude": -79.8889462600915}, "130355746RR0001": {"name": "Weneeda Park Lodge", "designationCode": "C", "categoryCode": "09", "address": "PO BOX 310                    BRENDA HOLTE, ADMINISTRATOR", "city": "WADENA", "province": "SK", "country": "CA", "postalCode": "S0A4J0", "twitter": "None", "instagram": "None", "facebook": "None", "youtube": "None", "website": "None", "summary": "None", "logo": "None", "latitude": 51.94494600000006, "longitude": -103.80008599999994}, "851124818RR0001": {"name": "Wentworth Africa Foundation", "designationCode": "C", "categoryCode": "09", "address": "3210 - 715 5 AVE SW", "city": "CALGARY", "province": "AB", "country": "CA", "postalCode": "T2P2X6", "twitter": "None", "instagram": "None", "facebook": "None", "youtube": "None", "website": "None", "summary": "None", "logo": "None", "latitude": 51.049102357620384, "longitude": -114.08736691042554}, "133244699RR0001": {"name": "Wentworth Fire Department", "designationCode": "C", "categoryCode": "59", "address": "700 HWY 246", "city": "WENTWORTH", "province": "NS", "country": "CA", "postalCode": "B0M1Z0", "twitter": "None", "instagram": "None", "facebook": "None", "youtube": "None", "website": "None", "summary": "None", "logo": "None", "latitude": 45.62986113736738, "longitude": -63.51032492775687}, "856281092RR0001": {"name": "Wentworth-Brant Reformed Christian Education Association", "designationCode": "C", "categoryCode": "20", "address": "331 GERMAN SCHOOL ROAD        R.R.#1", "city": "PARIS", "province": "ON", "country": "CA", "postalCode": "N3L3E1", "twitter": "None", "instagram": "None", "facebook": "None", "youtube": "None", "website": "None", "summary": "None", "logo": "None", "latitude": 43.223700256332265, "longitude": -80.28635873166334}, "829288059RR0001": {"name": "Wertz Family Foundation", "designationCode": "B", "categoryCode": "05", "address": "1500 W. GEORGIA ST.           1250, BOX 62", "city": "VANCOUVER", "province": "BC", "country": "CA", "postalCode": "V6G2Z6", "twitter": "None", "instagram": "None", "facebook": "None", "youtube": "None", "website": "None", "summary": "None", "logo": "None", "latitude": 49.29013479542975, "longitude": -123.1300069287031}, "820250090RR0001": {"name": "Wesley Bruno Ministries Inc.", "designationCode": "C", "categoryCode": "39", "address": "149 STREAMSIDE CRESCENT", "city": "KANATA", "province": "ON", "country": "CA", "postalCode": "K2W0A8", "twitter": "None", "instagram": "None", "facebook": "None", "youtube": "None", "website": "None", "summary": "None", "logo": "None", "latitude": 45.35987413517793, "longitude": -75.93163579130346}, "829342435RR0001": {"name": "Wesley Methodist Church Edmonton", "designationCode": "C", "categoryCode": "39", "address": "PO BOX 62101 RPO WESTMOUNT", "city": "EDMONTON", "province": "AB", "country": "CA", "postalCode": "T5M4B5", "twitter": "None", "instagram": "None", "facebook": "None", "youtube": "None", "website": "None", "summary": "None", "logo": "None", "latitude": 53.55254000000008, "longitude": -113.54029999999995}, "119291755RR0001": {"name": "Wesley United Church", "designationCode": "C", "categoryCode": "44", "address": "1745 ROUTE 960", "city": "UPPER CAPE", "province": "NB", "country": "CA", "postalCode": "E4M2T7", "twitter": "None", "instagram": "None", "facebook": "None", "youtube": "None", "website": "None", "summary": "None", "logo": "None", "latitude": 46.057385158622296, "longitude": -63.959335241179794}, "890621949RR0001": {"name": "West Carleton Food Access Centre", "designationCode": "C", "categoryCode": "09", "address": "5670 CARP RD, LOWER LEVEL", "city": "KINBURN", "province": "ON", "country": "CA", "postalCode": "K0A2H0", "twitter": "None", "instagram": "None", "facebook": "None", "youtube": "None", "website": "None", "summary": "None", "logo": "None", "latitude": 45.415056915113105, "longitude": -76.14773265049963}, "834347213RR0001": {"name": "West Champlain Healthy Community Corporation", "designationCode": "C", "categoryCode": "11", "address": "315 PEMBROKE ST E", "city": "PEMBROKE", "province": "ON", "country": "CA", "postalCode": "K8A3K2", "twitter": "None", "instagram": "None", "facebook": "None", "youtube": "None", "website": "None", "summary": "None", "logo": "None", "latitude": 45.82739288028636, "longitude": -77.10571819128947}, "846945087RR0001": {"name": "West Chilcotin Museum & Historical Society", "designationCode": "C", "categoryCode": "50", "address": "POST OFFICE BOX 25", "city": "TATLA LAKE", "province": "BC", "country": "CA", "postalCode": "V0L1V0", "twitter": "None", "instagram": "None", "facebook": "None", "youtube": "None", "website": "None", "summary": "None", "logo": "None", "latitude": 51.89563000000004, "longitude": -124.62351999999998}, "835742610RR0001": {"name": "West Chilcotin Search and Rescue Society", "designationCode": "C", "categoryCode": "59", "address": "BOX 76                        16665 HIGHWAY 20", "city": "TATLA LAKE", "province": "BC", "country": "CA", "postalCode": "V0L1V0", "twitter": "None", "instagram": "None", "facebook": "None", "youtube": "None", "website": "None", "summary": "None", "logo": "None"}, "813333754RR0001": {"name": "West Coast Multiplex Society", "designationCode": "C", "categoryCode": "56", "address": "BOX 554", "city": "UCLUELET", "province": "BC", "country": "CA", "postalCode": "V0R3A0", "twitter": "None", "instagram": "None", "facebook": "None", "youtube": "None", "website": "None", "summary": "None", "logo": "None", "latitude": 48.938210000000026, "longitude": -125.54276999999996}, "846826428RR0001": {"name": "West Coast Rottweiler Rescue", "designationCode": "C", "categoryCode": "54", "address": "48-7074 138 ST", "city": "SURREY", "province": "BC", "country": "CA", "postalCode": "V3W7V7", "twitter": "None", "instagram": "None", "facebook": "None", "youtube": "None", "website": "None", "summary": "None", "logo": "None", "latitude": 49.13092800000001, "longitude": -122.83852850608818}, "891493389RR0001": {"name": "West Colchester Medical Society", "designationCode": "C", "categoryCode": "11", "address": "5245 HWY #2                   P.O. BOX 45", "city": "BASS RIVER", "province": "NS", "country": "CA", "postalCode": "B0M1B0", "twitter": "None", "instagram": "None", "facebook": "None", "youtube": "None", "website": "None", "summary": "None", "logo": "None", "latitude": 45.40632184444573, "longitude": -63.79940425401661}, "119288918RR0187": {"name": "West Congregation of Jehovah's Witnesses, Aldergrove, British Columbia", "designationCode": "C", "categoryCode": "61", "address": "26640 32ND AVE", "city": "ALDERGROVE", "province": "BC", "country": "CA", "postalCode": "V4W3N8", "twitter": "None", "instagram": "None", "facebook": "None", "youtube": "None", "website": "None", "summary": "None", "logo": "None", "latitude": 49.06030548456368, "longitude": -122.4858297783773}, "119288918RR0662": {"name": "West Congregation of Jehovah's Witnesses, Kemptville, Ontario", "designationCode": "C", "categoryCode": "61", "address": "PO BOX 1362", "city": "KEMPTVILLE", "province": "ON", "country": "CA", "postalCode": "K0G1J0", "twitter": "None", "instagram": "None", "facebook": "None", "youtube": "None", "website": "None", "summary": "None", "logo": "None", "latitude": 44.98774800000005, "longitude": -75.69332899999993}, "119288918RR0313": {"name": "West Congregation of Jehovah's Witnesses, Kingston, Ontario", "designationCode": "C", "categoryCode": "61", "address": "849 DEVELOPMENT DRIVE", "city": "KINGSTON", "province": "ON", "country": "CA", "postalCode": "K7M4W6", "twitter": "None", "instagram": "None", "facebook": "None", "youtube": "None", "website": "None", "summary": "None", "logo": "None", "latitude": 44.240658561169354, "longitude": -76.58039141603673}, "119288918RR0791": {"name": "West Congregation of Jehovah's Witnesses, St John's, Newfoundland", "designationCode": "C", "categoryCode": "61", "address": "24 JUNIPER DRIVE", "city": "PARADISE", "province": "NL", "country": "CA", "postalCode": "A1L1A9", "twitter": "None", "instagram": "None", "facebook": "None", "youtube": "None", "website": "None", "summary": "None", "logo": "None", "latitude": 47.54029347879261, "longitude": -52.839303998615016}, "869653238RR0001": {"name": "West Edge Community Church", "designationCode": "C", "categoryCode": "36", "address": "42 LAKEFIELD ROAD", "city": "BRAMPTON", "province": "ON", "country": "CA", "postalCode": "L7A1W5", "twitter": "None", "instagram": "None", "facebook": "None", "youtube": "None", "website": "None", "summary": "None", "logo": "None", "latitude": 43.735635619193346, "longitude": -79.82879849321932}, "801456989RR0001": {"name": "West Edmonton Chinese Christian Church Society", "designationCode": "C", "categoryCode": "39", "address": "5011 122A ST NW", "city": "EDMONTON", "province": "AB", "country": "CA", "postalCode": "T6H3S8", "twitter": "None", "instagram": "None", "facebook": "None", "youtube": "None", "website": "None", "summary": "None", "logo": "None", "latitude": 53.488097832361944, "longitude": -113.54216530734631}, "119292720RR0001": {"name": "West Elgin Daffodil Auxiliary", "designationCode": "C", "categoryCode": "19", "address": "10915 GRAHAM RD RR2", "city": "WEST LORNE", "province": "ON", "country": "CA", "postalCode": "N0L2P0", "twitter": "None", "instagram": "None", "facebook": "None", "youtube": "None", "website": "None", "summary": "None", "logo": "None", "latitude": 42.592642260892156, "longitude": -81.59307242867445}, "119292738RR0001": {"name": "West Ellesmere Community Church", "designationCode": "C", "categoryCode": "44", "address": "37 MARCHINGTON CIRCLE", "city": "SCARBOROUGH", "province": "ON", "country": "CA", "postalCode": "M1R3M6", "twitter": "None", "instagram": "None", "facebook": "None", "youtube": "None", "website": "None", "summary": "None", "logo": "None", "latitude": 43.75875694419771, "longitude": -79.30746592547179}, "837913458RR0001": {"name": "West End Islamic Center", "designationCode": "C", "categoryCode": "60", "address": "12-13 4161 SLADEVIEW CRES", "city": "MISSISSAUGA", "province": "ON", "country": "CA", "postalCode": "L5L5R3", "twitter": "None", "instagram": "None", "facebook": "None", "youtube": "None", "website": "None", "summary": "None", "logo": "None", "latitude": 43.5307348082117, "longitude": -79.71907592933829}, "119288918RR1471": {"name": "West Hart Congregation of Jehovah's Witnesses", "designationCode": "C", "categoryCode": "61", "address": "6720 DAGG ROAD", "city": "PRINCE GEORGE", "province": "BC", "country": "CA", "postalCode": "V2K2R7", "twitter": "None", "instagram": "None", "facebook": "None", "youtube": "None", "website": "None", "summary": "None", "logo": "None", "latitude": 53.99051962264068, "longitude": -122.78506002184756}, "808196158RR0001": {"name": "West Head Cemetary Club", "designationCode": "B", "categoryCode": "59", "address": "BOX 232", "city": "CLARK'S HARBOUR", "province": "NS", "country": "CA", "postalCode": "B0W1P0", "twitter": "None", "instagram": "None", "facebook": "None", "youtube": "None", "website": "None", "summary": "None", "logo": "None", "latitude": 43.44549995614297, "longitude": -65.63261007328738}, "123764284RR0001": {"name": "West Hillhurst Community Association", "designationCode": "C", "categoryCode": "56", "address": "1940 6 AVE NW", "city": "CALGARY", "province": "AB", "country": "CA", "postalCode": "T2N0W3", "twitter": "None", "instagram": "None", "facebook": "None", "youtube": "None", "website": "None", "summary": "None", "logo": "None", "latitude": 51.0577028705693, "longitude": -114.10455852699931}, "840986822RR0001": {"name": "West Interlake Watershed Conservation District", "designationCode": "C", "categoryCode": "52", "address": "PO BOX 732", "city": "LUNDAR", "province": "MB", "country": "CA", "postalCode": "R0C1Y0", "twitter": "None", "instagram": "None", "facebook": "None", "youtube": "None", "website": "None", "summary": "None", "logo": "None", "latitude": 50.697610000000054, "longitude": -98.03051999999997}, "855212221RR0001": {"name": "West Island Cancer Wellness Centre / Centre de bien-\u00eatre de l'Ouest-de-l'\u00cele pour personnes atteintes de cancer", "designationCode": "C", "categoryCode": "11", "address": "115 RUE DU BARRY", "city": "KIRKLAND", "province": "QC", "country": "CA", "postalCode": "H9H0C4", "twitter": "None", "instagram": "None", "facebook": "None", "youtube": "None", "website": "None", "summary": "None", "logo": "None", "latitude": 45.45808700865952, "longitude": -73.8637253134375}, "739718294RR0001": {"name": "West Isle Ministries Inc.", "designationCode": "C", "categoryCode": "39", "address": "402 MASCARENE RD", "city": "MASCARENE", "province": "NB", "country": "CA", "postalCode": "E5C2R9", "twitter": "None", "instagram": "None", "facebook": "None", "youtube": "None", "website": "None", "summary": "None", "logo": "None", "latitude": 45.093193945618495, "longitude": -66.90940195085713}, "815854278RR0001": {"name": "West Jasper Pentecostal Living Waters Assembly of God Church", "designationCode": "C", "categoryCode": "39", "address": "15830 118 AVE NW", "city": "EDMONTON", "province": "AB", "country": "CA", "postalCode": "T5V1C4", "twitter": "None", "instagram": "None", "facebook": "None", "youtube": "None", "website": "None", "summary": "None", "logo": "None", "latitude": 53.57053651933147, "longitude": -113.5942425}, "119295665RR0001": {"name": "West Kelowna Community Policing Society", "designationCode": "C", "categoryCode": "59", "address": "2390 DOBBIN RD", "city": "WEST KELOWNA", "province": "BC", "country": "CA", "postalCode": "V4T2H9", "twitter": "None", "instagram": "None", "facebook": "None", "youtube": "None", "website": "None", "summary": "None", "logo": "None", "latitude": 49.82925828201265, "longitude": -119.62290901255079}, "121277917RR0001": {"name": "West Kildonan Tiny Tots Inc.", "designationCode": "C", "categoryCode": "20", "address": "346 PERTH AVE", "city": "WINNIPEG", "province": "MB", "country": "CA", "postalCode": "R2V0T7", "twitter": "None", "instagram": "None", "facebook": "None", "youtube": "None", "website": "None", "summary": "None", "logo": "None", "latitude": 49.93768807793333, "longitude": -97.12585026940359}, "801873332RR0001": {"name": "West Kootenay Environmental Centre Society", "designationCode": "C", "categoryCode": "52", "address": "206-507 BAKER ST", "city": "NELSON", "province": "BC", "country": "CA", "postalCode": "V1L4J2", "twitter": "None", "instagram": "None", "facebook": "None", "youtube": "None", "website": "None", "summary": "None", "logo": "None", "latitude": 49.492120713312815, "longitude": -117.29370048225506}, "119294148RR0001": {"name": "West Lake Community Church", "designationCode": "C", "categoryCode": "39", "address": "1901 COUNTY RD 12             RR 1", "city": "PICTON", "province": "ON", "country": "CA", "postalCode": "K0K2T0", "twitter": "None", "instagram": "None", "facebook": "None", "youtube": "None", "website": "None", "summary": "None", "logo": "None", "latitude": 43.91896727911162, "longitude": -77.26523179957601}, "847232360RR0001": {"name": "West Lorne Heritage Homes Charitable Corporation", "designationCode": "C", "categoryCode": "09", "address": "17-154 MUNROE STREET", "city": "WEST LORNE", "province": "ON", "country": "CA", "postalCode": "N0L2P0", "twitter": "None", "instagram": "None", "facebook": "None", "youtube": "None", "website": "None", "summary": "None", "logo": "None", "latitude": 42.603641166478795, "longitude": -81.60842059711656}, "891874976RR0001": {"name": "West Montrose Pastoral Charge", "designationCode": "C", "categoryCode": "44", "address": "10 ANITA DRIVE", "city": "ST CLEMENTS", "province": "ON", "country": "CA", "postalCode": "N0B2M0", "twitter": "None", "instagram": "None", "facebook": "None", "youtube": "None", "website": "None", "summary": "None", "logo": "None", "latitude": 43.52437086565879, "longitude": -80.64417294930492}, "797934890RR0001": {"name": "West Muskoka Food Bank", "designationCode": "C", "categoryCode": "09", "address": "1374 MORTIMERS POINT ROAD,", "city": "PORT CARLING", "province": "ON", "country": "CA", "postalCode": "P0B1J0", "twitter": "None", "instagram": "None", "facebook": "None", "youtube": "None", "website": "None", "summary": "None", "logo": "None", "latitude": 45.07495911434592, "longitude": -79.59433314516126}, "808354567RR0001": {"name": "West New Annan Community Church", "designationCode": "C", "categoryCode": "39", "address": "340 MILLBURN RD", "city": "TATAMAGOUCHE", "province": "NS", "country": "CA", "postalCode": "B0K1V0", "twitter": "None", "instagram": "None", "facebook": "None", "youtube": "None", "website": "None", "summary": "None", "logo": "None", "latitude": 45.66421898952574, "longitude": -63.3766628810082}, "119019875RR0001": {"name": "West Niagara Agricultural Society", "designationCode": "C", "categoryCode": "56", "address": "7402 MUD STREET", "city": "GRASSIE", "province": "ON", "country": "CA", "postalCode": "L0R1M0", "twitter": "None", "instagram": "None", "facebook": "None", "youtube": "None", "website": "None", "summary": "None", "logo": "None", "latitude": 43.14805143419376, "longitude": -79.58157800830983}, "823018023RR0001": {"name": "West Ottawa Church of Christ", "designationCode": "C", "categoryCode": "39", "address": "361 VIEWMOUNT DRIVE,", "city": "OTTAWA", "province": "ON", "country": "CA", "postalCode": "K2E7R9", "twitter": "None", "instagram": "None", "facebook": "None", "youtube": "None", "website": "None", "summary": "None", "logo": "None", "latitude": 45.34968634390313, "longitude": -75.71440405995725}, "130182884RR0001": {"name": "West Park Presbyterian Church", "designationCode": "C", "categoryCode": "37", "address": "3628 57 AVE", "city": "RED DEER", "province": "AB", "country": "CA", "postalCode": "T4N4R5", "twitter": "None", "instagram": "None", "facebook": "None", "youtube": "None", "website": "None", "summary": "None", "logo": "None", "latitude": 52.25726700000001, "longitude": -113.82965687376617}, "807864962RR0001": {"name": "West Plains Foundation", "designationCode": "C", "categoryCode": "21", "address": "2431 4 AVE NW", "city": "CALGARY", "province": "AB", "country": "CA", "postalCode": "T2N0P3", "twitter": "None", "instagram": "None", "facebook": "None", "youtube": "None", "website": "None", "summary": "None", "logo": "None", "latitude": 51.0562614884588, "longitude": -114.11731341618096}, "108153057RR0001": {"name": "West River Pastoral Charge", "designationCode": "C", "categoryCode": "44", "address": "PO BOX 89", "city": "CORNWALL", "province": "PE", "country": "CA", "postalCode": "C0A1H0", "twitter": "None", "instagram": "None", "facebook": "None", "youtube": "None", "website": "None", "summary": "None", "logo": "None", "latitude": 46.241144818530714, "longitude": -63.21831691777574}, "119249050RR0001": {"name": "West River Road Reformed Church", "designationCode": "C", "categoryCode": "39", "address": "22 MUNDY CRES", "city": "CAMBRIDGE", "province": "ON", "country": "CA", "postalCode": "N1R5K2", "twitter": "None", "instagram": "None", "facebook": "None", "youtube": "None", "website": "None", "summary": "None", "logo": "None", "latitude": 43.36892449711446, "longitude": -80.29957167346645}, "119288918RR1724": {"name": "West Russian Congregation of Jehovah's Witnesses, Ottawa, Ontario", "designationCode": "C", "categoryCode": "61", "address": "253 BRIDGESTONE DRIVE", "city": "KANATA", "province": "ON", "country": "CA", "postalCode": "K2M0C5", "twitter": "None", "instagram": "None", "facebook": "None", "youtube": "None", "website": "None", "summary": "None", "logo": "None", "latitude": 45.28836307048885, "longitude": -75.85812536681262}, "806875894RR0001": {"name": "West Toronto Keys to Inclusion", "designationCode": "C", "categoryCode": "59", "address": "179 GEOFFREY STREET,", "city": "TORONTO", "province": "ON", "country": "CA", "postalCode": "M6R1P6", "twitter": "None", "instagram": "None", "facebook": "None", "youtube": "None", "website": "None", "summary": "None", "logo": "None", "latitude": 43.64733279488149, "longitude": -79.45321803344108}, "834422495RR0001": {"name": "West Vancouver Community Centres Services Society", "designationCode": "C", "categoryCode": "56", "address": "2121 MARINE DR", "city": "WEST VANCOUVER", "province": "BC", "country": "CA", "postalCode": "V7V4Y2", "twitter": "None", "instagram": "None", "facebook": "None", "youtube": "None", "website": "None", "summary": "None", "logo": "None", "latitude": 49.33011582877463, "longitude": -123.16860877761171}, "862230695RR0001": {"name": "West Vancouver Fire Fighters Charitable Society", "designationCode": "A", "categoryCode": "53", "address": "PO BOX 91255", "city": "WEST VANCOUVER", "province": "BC", "country": "CA", "postalCode": "V7V3N9", "twitter": "None", "instagram": "None", "facebook": "None", "youtube": "None", "website": "None", "summary": "None", "logo": "None", "latitude": 49.331148000000056, "longitude": -123.16023349999993}, "821032687RR0001": {"name": "West Vancouver Marine Rescue Society", "designationCode": "C", "categoryCode": "59", "address": "4805 MEADFIELD ROAD", "city": "WEST VANCOUVER", "province": "BC", "country": "CA", "postalCode": "V7W3E6", "twitter": "None", "instagram": "None", "facebook": "None", "youtube": "None", "website": "None", "summary": "None", "logo": "None", "latitude": 49.34434331115454, "longitude": -123.25800625604474}, "866720618RR0001": {"name": "West Vancouver Streamkeeper Society", "designationCode": "C", "categoryCode": "52", "address": "PO BOX 91166", "city": "WEST VANCOUVER", "province": "BC", "country": "CA", "postalCode": "V7V3N6", "twitter": "None", "instagram": "None", "facebook": "None", "youtube": "None", "website": "None", "summary": "None", "logo": "None", "latitude": 49.331148000000056, "longitude": -123.16023349999993}, "800799066RR0001": {"name": "West Vancouver 2010 Legacy Foundation", "designationCode": "A", "categoryCode": "03", "address": "555-999 CANADA PLACE", "city": "VANCOUVER", "province": "BC", "country": "CA", "postalCode": "V6C3E1", "twitter": "None", "instagram": "None", "facebook": "None", "youtube": "None", "website": "None", "summary": "None", "logo": "None", "latitude": 49.288056542222115, "longitude": -123.11484240492399}, "812265114RR0001": {"name": "West Village Church Society", "designationCode": "C", "categoryCode": "39", "address": "2797 GUYTON WAY", "city": "VICTORIA", "province": "BC", "country": "CA", "postalCode": "V9B5T5", "twitter": "None", "instagram": "None", "facebook": "None", "youtube": "None", "website": "None", "summary": "None", "logo": "None", "latitude": 48.452623321136095, "longitude": -123.5317905396923}, "848362489RR0001": {"name": "West Zorra Gospel Hall", "designationCode": "C", "categoryCode": "39", "address": "150 ST GEORGE ST", "city": "ST THOMAS", "province": "ON", "country": "CA", "postalCode": "N5P2M4", "twitter": "None", "instagram": "None", "facebook": "None", "youtube": "None", "website": "None", "summary": "None", "logo": "None", "latitude": 42.79123886092694, "longitude": -81.204965825033}, "724422894RR0001": {"name": "Westbrook Community Evangelical Missionary Church Fellowship", "designationCode": "C", "categoryCode": "39", "address": "BOX 443", "city": "COCHRANE", "province": "AB", "country": "CA", "postalCode": "T4C1A6", "twitter": "None", "instagram": "None", "facebook": "None", "youtube": "None", "website": "None", "summary": "None", "logo": "None", "latitude": 51.19089900000006, "longitude": -114.46804249999994}, "893404582RR0001": {"name": "Westbrook United Church", "designationCode": "C", "categoryCode": "44", "address": "3526 PRINCESS ST", "city": "KINGSTON", "province": "ON", "country": "CA", "postalCode": "K7P3A8", "twitter": "None", "instagram": "None", "facebook": "None", "youtube": "None", "website": "None", "summary": "None", "logo": "None", "latitude": 44.26597535832984, "longitude": -76.62627691020836}, "808118400RR0001": {"name": "Westcan Sephardic Association", "designationCode": "C", "categoryCode": "39", "address": "1249 39TH AVE W", "city": "VANCOUVER", "province": "BC", "country": "CA", "postalCode": "V6M1S9", "twitter": "None", "instagram": "None", "facebook": "None", "youtube": "None", "website": "None", "summary": "None", "logo": "None", "latitude": 49.236033518754546, "longitude": -123.13364027546311}, "855270757RR0001": {"name": "Westcoast Amateur Radio Association", "designationCode": "C", "categoryCode": "29", "address": "PO BOX 48047", "city": "VICTORIA", "province": "BC", "country": "CA", "postalCode": "V8Z7H5", "twitter": "None", "instagram": "None", "facebook": "None", "youtube": "None", "website": "None", "summary": "None", "logo": "None", "latitude": 48.481719000000055, "longitude": -123.40460599999994}, "837212448RR0001": {"name": "Westcoast Boys Club Network Foundation", "designationCode": "C", "categoryCode": "09", "address": "SUITE 315                     1641 LONSDALE AVENUE", "city": "NORTH VANCOUVER", "province": "BC", "country": "CA", "postalCode": "V7M2J5", "twitter": "None", "instagram": "None", "facebook": "None", "youtube": "None", "website": "None", "summary": "None", "logo": "None", "latitude": 49.323529833130316, "longitude": -123.07236431983682}, "731390324RR0001": {"name": "Westdale Cinema Group", "designationCode": "C", "categoryCode": "22", "address": "1014 KING ST W", "city": "HAMILTON", "province": "ON", "country": "CA", "postalCode": "L8S1L4", "twitter": "None", "instagram": "None", "facebook": "None", "youtube": "None", "website": "None", "summary": "None", "logo": "None", "latitude": 43.262215385250066, "longitude": -79.90554275105306}, "107406316RR0018": {"name": "Westdale Park Free Methodist Church", "designationCode": "C", "categoryCode": "39", "address": "7 RICHMOND PARK DRIVE", "city": "NAPANEE", "province": "ON", "country": "CA", "postalCode": "K7R2Z3", "twitter": "None", "instagram": "None", "facebook": "None", "youtube": "None", "website": "None", "summary": "None", "logo": "None", "latitude": 44.240223973333165, "longitude": -76.96564487375527}, "822821427RR0001": {"name": "Westend Islamic Society of Edmonton - W I S E", "designationCode": "C", "categoryCode": "60", "address": "690 ESTATE DR", "city": "SHERWOOD PARK", "province": "AB", "country": "CA", "postalCode": "T8B1M4", "twitter": "None", "instagram": "None", "facebook": "None", "youtube": "None", "website": "None", "summary": "None", "logo": "None", "latitude": 53.507763793813645, "longitude": -113.28897088519273}, "899781215RR0001": {"name": "Western Buddhist Research Institute of British Columbia", "designationCode": "C", "categoryCode": "35", "address": "1220 200TH ST", "city": "LANGLEY", "province": "BC", "country": "CA", "postalCode": "V2Z1W5", "twitter": "None", "instagram": "None", "facebook": "None", "youtube": "None", "website": "None", "summary": "None", "logo": "None", "latitude": 49.02476339217497, "longitude": -122.66902962756147}, "839781408RR0001": {"name": "Western Canada Presbytery", "designationCode": "C", "categoryCode": "37", "address": "14304-96 AVE", "city": "EDMONTON", "province": "AB", "country": "CA", "postalCode": "T5N0C4", "twitter": "None", "instagram": "None", "facebook": "None", "youtube": "None", "website": "None", "summary": "None", "logo": "None", "latitude": 53.533676522649685, "longitude": -113.56796330682671}, "749404893RR0001": {"name": "Western Canada Surgical Foundation", "designationCode": "C", "categoryCode": "21", "address": "1015 - 1403 29 ST NW", "city": "CALGARY", "province": "AB", "country": "CA", "postalCode": "T2N2T9", "twitter": "None", "instagram": "None", "facebook": "None", "youtube": "None", "website": "None", "summary": "None", "logo": "None", "latitude": 51.06161030953006, "longitude": -114.1308094479194}, "866334907RR0001": {"name": "Western Muslim Initiative", "designationCode": "C", "categoryCode": "47", "address": "MSC 373, 2500 UNIVERSITY DR NWUNIVERSITY OF CALGARY", "city": "CALGARY", "province": "AB", "country": "CA", "postalCode": "T2N1N4", "twitter": "None", "instagram": "None", "facebook": "None", "youtube": "None", "website": "None", "summary": "None", "logo": "None", "latitude": 51.07491998831462, "longitude": -114.12851991949915}, "809079064RR0001": {"name": "Western Shore Volunteer Fire Department", "designationCode": "C", "categoryCode": "59", "address": "PO BOX 236", "city": "WESTERN SHORE", "province": "NS", "country": "CA", "postalCode": "B0J3M0", "twitter": "None", "instagram": "None", "facebook": "None", "youtube": "None", "website": "None", "summary": "None", "logo": "None", "latitude": 44.527730000000076, "longitude": -64.30865999999997}, "887690220RR0001": {"name": "Westfield Community Centre Society", "designationCode": "C", "categoryCode": "56", "address": "9564 HIGHWAY 8", "city": "CALEDONIA", "province": "NS", "country": "CA", "postalCode": "B0T1B0", "twitter": "None", "instagram": "None", "facebook": "None", "youtube": "None", "website": "None", "summary": "None", "logo": "None", "latitude": 44.377625068886815, "longitude": -65.01453042923512}, "107396905RR0086": {"name": "Westgate Foursquare Gospel Church", "designationCode": "C", "categoryCode": "39", "address": "POST OFFICE BOX 662", "city": "GOLD RIVER", "province": "BC", "country": "CA", "postalCode": "V0P1G0", "twitter": "None", "instagram": "None", "facebook": "None", "youtube": "None", "website": "None", "summary": "None", "logo": "None"}, "805260049RR0001": {"name": "Westgate Heights Attainable Housing Inc.", "designationCode": "C", "categoryCode": "09", "address": "3315 CENTENNIAL DR", "city": "SASKATOON", "province": "SK", "country": "CA", "postalCode": "S7L6V4", "twitter": "None", "instagram": "None", "facebook": "None", "youtube": "None", "website": "None", "summary": "None", "logo": "None", "latitude": 52.133981242253185, "longitude": -106.73049983842145}, "832268700RR0001": {"name": "Westie Rescue of Canada - Sauvetage de Westie du Canada", "designationCode": "C", "categoryCode": "54", "address": "227 NEWDALE CRT", "city": "NORTH VANCOUVER", "province": "BC", "country": "CA", "postalCode": "V7N3H2", "twitter": "None", "instagram": "None", "facebook": "None", "youtube": "None", "website": "None", "summary": "None", "logo": "None", "latitude": 49.351050587829754, "longitude": -123.0751601959719}, "823234893RR0001": {"name": "Westlake Community Society", "designationCode": "C", "categoryCode": "56", "address": "PO BOX 87 SITE 5, RR3", "city": "RIMBEY", "province": "AB", "country": "CA", "postalCode": "T0C2J0", "twitter": "None", "instagram": "None", "facebook": "None", "youtube": "None", "website": "None", "summary": "None", "logo": "None", "latitude": 52.63970000000006, "longitude": -114.23827999999997}, "886946797RR0001": {"name": "Westlane Secondary School Scholarship and Bursary Fund", "designationCode": "C", "categoryCode": "21", "address": "5960 PITTON RD", "city": "NIAGARA FALLS", "province": "ON", "country": "CA", "postalCode": "L2H1T5", "twitter": "None", "instagram": "None", "facebook": "None", "youtube": "None", "website": "None", "summary": "None", "logo": "None", "latitude": 43.08675294754457, "longitude": -79.13217636568837}, "119160489RR0001": {"name": "Westlife Church Calgary of the Christian and Missionary Alliance in Canada", "designationCode": "C", "categoryCode": "39", "address": "32242 TOWNSHIP RD 245", "city": "CALGARY", "province": "AB", "country": "CA", "postalCode": "T3Z2N9", "twitter": "None", "instagram": "None", "facebook": "None", "youtube": "None", "website": "None", "summary": "None", "logo": "None", "latitude": 51.081656010830265, "longitude": -114.34163879045003}, "820313047RR0001": {"name": "Westlock Foundation", "designationCode": "C", "categoryCode": "09", "address": "10247 104 STREET", "city": "WESTLOCK", "province": "AB", "country": "CA", "postalCode": "T7P1V4", "twitter": "None", "instagram": "None", "facebook": "None", "youtube": "None", "website": "None", "summary": "None", "logo": "None", "latitude": 54.15626823893495, "longitude": -113.85206095597003}, "119294346RR0001": {"name": "Westlock Intermunicipal Library Board", "designationCode": "C", "categoryCode": "50", "address": "10007 100 AVE", "city": "WESTLOCK", "province": "AB", "country": "CA", "postalCode": "T7P2H5", "twitter": "None", "instagram": "None", "facebook": "None", "youtube": "None", "website": "None", "summary": "None", "logo": "None", "latitude": 54.15242839912851, "longitude": -113.858439227538}, "724973490RR0001": {"name": "Westminster Housing Society Foundation", "designationCode": "A", "categoryCode": "05", "address": "400 ST MARY AVENUE            9TH FLOOR", "city": "WINNIPEG", "province": "MB", "country": "CA", "postalCode": "R3C4K5", "twitter": "None", "instagram": "None", "facebook": "None", "youtube": "None", "website": "None", "summary": "None", "logo": "None", "latitude": 49.88950684205681, "longitude": -97.14666363307181}, "119295095RR0001": {"name": "Westmount Public Library", "designationCode": "C", "categoryCode": "50", "address": "4574 SHERBROOKE ST. WEST", "city": "WESTMOUNT", "province": "QC", "country": "CA", "postalCode": "H3Z1G1", "twitter": "None", "instagram": "None", "facebook": "None", "youtube": "None", "website": "None", "summary": "None", "logo": "None", "latitude": 45.483384636130225, "longitude": -73.59836283276596}, "856995824RR0001": {"name": "Weston Frontlines Centre", "designationCode": "C", "categoryCode": "56", "address": "1844 WESTON ROAD", "city": "TORONTO", "province": "ON", "country": "CA", "postalCode": "M9N1V8", "twitter": "None", "instagram": "None", "facebook": "None", "youtube": "None", "website": "None", "summary": "None", "logo": "None", "latitude": 43.699428388828075, "longitude": -79.5143114937676}, "867215014RR0001": {"name": "Weston Islamic Benevolence Society", "designationCode": "C", "categoryCode": "49", "address": "16 DALERIDGE CRES", "city": "BRAMPTON", "province": "ON", "country": "CA", "postalCode": "L6P2X6", "twitter": "None", "instagram": "None", "facebook": "None", "youtube": "None", "website": "None", "summary": "None", "logo": "None", "latitude": 43.78497643493552, "longitude": -79.68172695920133}, "119288918RR1612": {"name": "Weston Japanese Congregation of Jehovah's Witnesses, Toronto, Ontario", "designationCode": "C", "categoryCode": "61", "address": "5 MAPLE LEAF DRIVE", "city": "NORTH YORK", "province": "ON", "country": "CA", "postalCode": "M6L1N4", "twitter": "None", "instagram": "None", "facebook": "None", "youtube": "None", "website": "None", "summary": "None", "logo": "None", "latitude": 43.70940867773697, "longitude": -79.50452675116864}, "119288918RR0464": {"name": "Westphal Congregation of Jehovah's Witnesses, Dartmouth, Nova Scotia", "designationCode": "C", "categoryCode": "61", "address": "23 WAMPHRAY CRES", "city": "DARTMOUTH", "province": "NS", "country": "CA", "postalCode": "B2W5B4", "twitter": "None", "instagram": "None", "facebook": "None", "youtube": "None", "website": "None", "summary": "None", "logo": "None", "latitude": 44.68379842131688, "longitude": -63.50349389021305}, "891467771RR0001": {"name": "Westpointe Community Church", "designationCode": "C", "categoryCode": "34", "address": "11305 PINNACLE BLVD", "city": "GRAND PRAIRIE", "province": "AB", "country": "CA", "postalCode": "T8W0C6", "twitter": "None", "instagram": "None", "facebook": "None", "youtube": "None", "website": "None", "summary": "None", "logo": "None", "latitude": 55.14796616680133, "longitude": -118.8367837327312}, "813751229RR0001": {"name": "Westshore Community Church", "designationCode": "C", "categoryCode": "39", "address": "PO BOX 28025                  RPO WESTSHORE", "city": "VICTORIA", "province": "BC", "country": "CA", "postalCode": "V9B6K8", "twitter": "None", "instagram": "None", "facebook": "None", "youtube": "None", "website": "None", "summary": "None", "logo": "None", "latitude": 48.49310400000006, "longitude": -123.50297599999993}, "886276831RR0001": {"name": "Westshore Watershed Society", "designationCode": "C", "categoryCode": "59", "address": "1035 LOCH GLEN PL", "city": "VICTORIA", "province": "BC", "country": "CA", "postalCode": "V9B4N9", "twitter": "None", "instagram": "None", "facebook": "None", "youtube": "None", "website": "None", "summary": "None", "logo": "None", "latitude": 48.43878411238401, "longitude": -123.52023814311245}, "894146984RR0001": {"name": "Westside Presbyterian Church", "designationCode": "C", "categoryCode": "37", "address": "130 VICTORIA AVENUE", "city": "CAMBRIDGE", "province": "ON", "country": "CA", "postalCode": "N1S1Y2", "twitter": "None", "instagram": "None", "facebook": "None", "youtube": "None", "website": "None", "summary": "None", "logo": "None", "latitude": 43.35028323454887, "longitude": -80.32659678157994}, "876029224RR0001": {"name": "Westside Regional Recreation Society", "designationCode": "C", "categoryCode": "56", "address": "2000 - 69TH STREET SW", "city": "CALGARY", "province": "AB", "country": "CA", "postalCode": "T3H4V7", "twitter": "None", "instagram": "None", "facebook": "None", "youtube": "None", "website": "None", "summary": "None", "logo": "None", "latitude": 51.03624733686359, "longitude": -114.18742879306382}}