{"890333040RR0001": {"name": "JEUNESSE OUVRIERE CHRETIENNE REGION DU QUEBEC", "designationCode": "C", "categoryCode": "49", "address": "435 RUE DU ROI", "city": "QUEBEC", "province": "QC", "country": "CA", "postalCode": "G1K2X1", "twitter": "None", "instagram": "None", "facebook": "None", "youtube": "None", "website": "None", "summary": "None", "logo": "None", "latitude": 46.815010166801336, "longitude": -71.22461457132555}, "894952530RR0001": {"name": "JEUNESSE SANS FRONTIERES DE LA VALLEE DE LA GATINEAU", "designationCode": "C", "categoryCode": "09", "address": "119 RUE SAINT-JOSEPH          C.P. 324", "city": "GRACEFIELD", "province": "QC", "country": "CA", "postalCode": "J0X1W0", "twitter": "None", "instagram": "None", "facebook": "None", "youtube": "None", "website": "None", "summary": "None", "logo": "None", "latitude": 46.09585502415026, "longitude": -76.05162700320264}, "118974062RR0001": {"name": "JEUNESSES MUSICALES CANADA", "designationCode": "C", "categoryCode": "22", "address": "305 AV DU MONT-ROYAL EST", "city": "MONTREAL", "province": "QC", "country": "CA", "postalCode": "H2T1P8", "twitter": "None", "instagram": "None", "facebook": "None", "youtube": "None", "website": "None", "summary": "None", "logo": "None", "latitude": 45.523047268393995, "longitude": -73.5837473437589}, "101836542RR0001": {"name": "JEVI CENTRE DE PREVENTION DU SUICIDE - ESTRIE", "designationCode": "C", "categoryCode": "01", "address": "120, 11E AVENUE NORD", "city": "SHERBROOKE", "province": "QC", "country": "CA", "postalCode": "J1E2T8", "twitter": "None", "instagram": "None", "facebook": "None", "youtube": "None", "website": "None", "summary": "None", "logo": "None", "latitude": 45.41032925728547, "longitude": -71.87162293254093}, "118974096RR0001": {"name": "JEWELS FOR JESUS ADOPTION AGENCY INCORPORATED", "designationCode": "C", "categoryCode": "09", "address": "6655 KITIMAT RD.              UNIT 5", "city": "MISSISSAUGA", "province": "ON", "country": "CA", "postalCode": "L5N6J2", "twitter": "None", "instagram": "None", "facebook": "None", "youtube": "None", "website": "None", "summary": "None", "logo": "None", "latitude": 43.602349681400966, "longitude": -79.73494223879072}, "118974104RR0001": {"name": "JEWELS FOR JESUS MISSION INC.", "designationCode": "C", "categoryCode": "09", "address": "5-6655 KITIMAT RD", "city": "MISSISSAUGA", "province": "ON", "country": "CA", "postalCode": "L5N6J4", "twitter": "None", "instagram": "None", "facebook": "None", "youtube": "None", "website": "None", "summary": "None", "logo": "None", "latitude": 43.60225667418759, "longitude": -79.73483125321745}, "872861893RR0001": {"name": "JEWISH ARCHIVES & HISTORICAL SOCIETY OF EDMONTON AND NORTHERn", "designationCode": "C", "categoryCode": "50", "address": "10220-156 SR, SUITE 200", "city": "EDMONTON", "province": "AB", "country": "CA", "postalCode": "T5P2R1", "twitter": "None", "instagram": "None", "facebook": "None", "youtube": "None", "website": "None", "summary": "None", "logo": "None", "latitude": 53.54370900000001, "longitude": -113.590396762046}, "885436006RR0001": {"name": "JEWISH BUCHARIAN CENTRE OF TORONTO", "designationCode": "C", "categoryCode": "49", "address": "144 BIRCH AVENUE", "city": "RICHMOND HILL", "province": "ON", "country": "CA", "postalCode": "L4C6C7", "twitter": "None", "instagram": "None", "facebook": "None", "youtube": "None", "website": "None", "summary": "None", "logo": "None", "latitude": 43.84517921622701, "longitude": -79.45780617805407}, "866011646RR0001": {"name": "JEWISH CANADIAN MILITARY ARCHIVES INC.", "designationCode": "C", "categoryCode": "50", "address": "788 MARLEE AVE. SUITE 308", "city": "TORONTO", "province": "ON", "country": "CA", "postalCode": "M6B3K1", "twitter": "None", "instagram": "None", "facebook": "None", "youtube": "None", "website": "None", "summary": "None", "logo": "None", "latitude": 43.71502855231121, "longitude": -79.44629568959527}, "107534703RR0001": {"name": "JEWISH CHILD AND FAMILY SERVICE", "designationCode": "C", "categoryCode": "09", "address": "C 200 123 DONCASTER ST", "city": "WINNIPEG", "province": "MB", "country": "CA", "postalCode": "R3N2B2", "twitter": "None", "instagram": "None", "facebook": "None", "youtube": "None", "website": "None", "summary": "None", "logo": "None", "latitude": 49.872266622540245, "longitude": -97.20828227653004}, "118974146RR0001": {"name": "JEWISH COMMUNITY CAMPUS OF OTTAWA INC.", "designationCode": "C", "categoryCode": "59", "address": "21 NADOLNY SACHS PRIVATE", "city": "OTTAWA", "province": "ON", "country": "CA", "postalCode": "K2A1R9", "twitter": "None", "instagram": "None", "facebook": "None", "youtube": "None", "website": "None", "summary": "None", "logo": "None", "latitude": 45.375832560101486, "longitude": -75.75231223766554}, "139847867RR0001": {"name": "JEWISH COMMUNITY CAMPUS OF WINNIPEG INC.", "designationCode": "C", "categoryCode": "53", "address": "C150-123 DONCASTER ST", "city": "WINNIPEG", "province": "MB", "country": "CA", "postalCode": "R3N2B2", "twitter": "None", "instagram": "None", "facebook": "None", "youtube": "None", "website": "None", "summary": "None", "logo": "None", "latitude": 49.86779026460563, "longitude": -97.20862592209049}, "107534711RR0001": {"name": "JEWISH COMMUNITY CENTRE OF EDMONTON", "designationCode": "C", "categoryCode": "09", "address": "220-10220 156 ST", "city": "EDMONTON", "province": "AB", "country": "CA", "postalCode": "T5P2R1", "twitter": "None", "instagram": "None", "facebook": "None", "youtube": "None", "website": "None", "summary": "None", "logo": "None", "latitude": 53.54370900000001, "longitude": -113.590396762046}, "108167313RR0001": {"name": "JEWISH COMMUNITY CENTRE OF GREATER VANCOUVER", "designationCode": "C", "categoryCode": "56", "address": "950 WEST 41ST AVENUE", "city": "VANCOUVER", "province": "BC", "country": "CA", "postalCode": "V5Z2N7", "twitter": "None", "instagram": "None", "facebook": "None", "youtube": "None", "website": "None", "summary": "None", "logo": "None", "latitude": 49.23387050620376, "longitude": -123.12594479822836}, "138607643RR0001": {"name": "JEWISH COMMUNITY CENTRE OF VICTORIA", "designationCode": "C", "categoryCode": "56", "address": "3636 SHELBOURNE ST", "city": "VICTORIA", "province": "BC", "country": "CA", "postalCode": "V8P4H2", "twitter": "None", "instagram": "None", "facebook": "None", "youtube": "None", "website": "None", "summary": "None", "logo": "None", "latitude": 48.45971792200936, "longitude": -123.3330049405041}, "897933420RR0001": {"name": "JEWISH COMMUNITY ENDOWMENT FUND OF WINDSOR", "designationCode": "A", "categoryCode": "53", "address": "1641 OUELLETTE AVE", "city": "WINDSOR", "province": "ON", "country": "CA", "postalCode": "N8X1K9", "twitter": "None", "instagram": "None", "facebook": "None", "youtube": "None", "website": "None", "summary": "None", "logo": "None", "latitude": 42.297327661377, "longitude": -83.0260792052914}, "896356771RR0001": {"name": "JEWISH COMMUNITY FOUNDATION OF CALGARY", "designationCode": "A", "categoryCode": "53", "address": "1607 90 AVE SW", "city": "CALGARY", "province": "AB", "country": "CA", "postalCode": "T2V4V7", "twitter": "None", "instagram": "None", "facebook": "None", "youtube": "None", "website": "None", "summary": "None", "logo": "None", "latitude": 50.97216051067581, "longitude": -114.0993315}, "118974179RR0001": {"name": "JEWISH COMMUNITY FOUNDATION OF MONTREAL/LA FOUNDATION COMMUNAUTAIRE JUIVE DE MONTREAL", "designationCode": "A", "categoryCode": "03", "address": "1 CARRE CUMMINGS SQUARE", "city": "MONTREAL", "province": "QC", "country": "CA", "postalCode": "H3W1M6", "twitter": "None", "instagram": "None", "facebook": "None", "youtube": "None", "website": "None", "summary": "None", "logo": "None", "latitude": 45.48925656614425, "longitude": -73.63588473115946}, "842189920RR0001": {"name": "JEWISH COMMUNITY HAVURA INC.", "designationCode": "C", "categoryCode": "49", "address": "48 KENMOUNT ROAD              P.O.BOX 28167", "city": "ST. JOHN'S", "province": "NL", "country": "CA", "postalCode": "A1B4J8", "twitter": "None", "instagram": "None", "facebook": "None", "youtube": "None", "website": "None", "summary": "None", "logo": "None", "latitude": 47.55923313642354, "longitude": -52.75201821935239}, "883219768RR0001": {"name": "JEWISH COMMUNITY OF OTTAWA DEVELOPMENT FOUNDATION", "designationCode": "A", "categoryCode": "53", "address": "21 NADOLNY SACHS PRIVATE", "city": "OTTAWA", "province": "ON", "country": "CA", "postalCode": "K2A1R9", "twitter": "None", "instagram": "None", "facebook": "None", "youtube": "None", "website": "None", "summary": "None", "logo": "None"}, "118974187RR0001": {"name": "JEWISH CONGREGATION BETH YOSEF", "designationCode": "C", "categoryCode": "42", "address": "7946 CH WAVELL", "city": "COTE SAINT-LUC", "province": "QC", "country": "CA", "postalCode": "H4W1L7", "twitter": "None", "instagram": "None", "facebook": "None", "youtube": "None", "website": "None", "summary": "None", "logo": "None", "latitude": 45.461170351924565, "longitude": -73.6645510799239}, "118974211RR0001": {"name": "JEWISH EDUCATION PROGRAM", "designationCode": "C", "categoryCode": "20", "address": "PRESIDENT                     3133 VAN HORNE AVE", "city": "MONTREAL", "province": "QC", "country": "CA", "postalCode": "H2V1B4", "twitter": "None", "instagram": "None", "facebook": "None", "youtube": "None", "website": "None", "summary": "None", "logo": "None", "latitude": 45.52575144318431, "longitude": -73.61020566031712}, "123876302RR0001": {"name": "JEWISH EDUCATION PROGRAM CHARITABLE FOUNDATION", "designationCode": "C", "categoryCode": "20", "address": "2939 BATHURST STREET", "city": "TORONTO", "province": "ON", "country": "CA", "postalCode": "M6B3B2", "twitter": "None", "instagram": "None", "facebook": "None", "youtube": "None", "website": "None", "summary": "None", "logo": "None", "latitude": 43.71620865168213, "longitude": -79.42900636952527}, "891503245RR0001": {"name": "JEWISH EDUCATION THROUGH TORAH (JET)", "designationCode": "C", "categoryCode": "29", "address": "21 NADOLNY SACHS PRIVATE", "city": "OTTAWA", "province": "ON", "country": "CA", "postalCode": "K2A1R9", "twitter": "None", "instagram": "None", "facebook": "None", "youtube": "None", "website": "None", "summary": "None", "logo": "None", "latitude": 45.375832560101486, "longitude": -75.75231223766554}, "898715305RR0001": {"name": "JEWISH EDUCATIONAL SERVICES", "designationCode": "C", "categoryCode": "20", "address": "7601 BATHURST STREET          #207", "city": "THORNHILL", "province": "ON", "country": "CA", "postalCode": "L4J4H5", "twitter": "None", "instagram": "None", "facebook": "None", "youtube": "None", "website": "None", "summary": "None", "logo": "None", "latitude": 43.81021072020906, "longitude": -79.44756422393039}, "133180174RR0001": {"name": "JEWISH ELDERCARE (MONTREAL CHSLD) AUXILIARY / AUXILIARE DU CHSLD JUIF DE MONTREAL", "designationCode": "C", "categoryCode": "19", "address": "5750 LAVOIE", "city": "MONTREAL", "province": "QC", "country": "CA", "postalCode": "H3W3H5", "twitter": "None", "instagram": "None", "facebook": "None", "youtube": "None", "website": "None", "summary": "None", "logo": "None", "latitude": 45.494739748485586, "longitude": -73.63218470696484}, "891481541RR0001": {"name": "JEWISH FAMILY & CHILD SERVICE OF METROPOLITAN TORONTO EMPLOYEES CHARITABLE FUND", "designationCode": "C", "categoryCode": "75", "address": "4600 BATHURST STREET", "city": "TORONTO", "province": "ON", "country": "CA", "postalCode": "M2R3V3", "twitter": "None", "instagram": "None", "facebook": "None", "youtube": "None", "website": "None", "summary": "None", "logo": "None", "latitude": 43.764549213428396, "longitude": -79.4407190577642}, "118974229RR0001": {"name": "JEWISH FAMILY AND CHILD SERVICE OF GREATER TORONTO", "designationCode": "C", "categoryCode": "01", "address": "4600 BATHURST STREET          6TH FLOOR", "city": "WILLOWDALE", "province": "ON", "country": "CA", "postalCode": "M2R3V3", "twitter": "None", "instagram": "None", "facebook": "None", "youtube": "None", "website": "None", "summary": "None", "logo": "None", "latitude": 43.764549213428396, "longitude": -79.4407190577642}, "118974252RR0001": {"name": "JEWISH FAMILY SERVICE (CALGARY)", "designationCode": "C", "categoryCode": "09", "address": "420-5920 1A ST SW", "city": "CALGARY", "province": "AB", "country": "CA", "postalCode": "T2H0G3", "twitter": "None", "instagram": "None", "facebook": "None", "youtube": "None", "website": "None", "summary": "None", "logo": "None", "latitude": 51.00018319900167, "longitude": -114.06761737298771}, "107534802RR0001": {"name": "JEWISH FAMILY SERVICES", "designationCode": "C", "categoryCode": "09", "address": "100 - 8702 MEADOWLARK RD NW", "city": "EDMONTON", "province": "AB", "country": "CA", "postalCode": "T5R5W5", "twitter": "None", "instagram": "None", "facebook": "None", "youtube": "None", "website": "None", "summary": "None", "logo": "None", "latitude": 53.52145406559799, "longitude": -113.5958369896544}, "107534794RR0001": {"name": "JEWISH FAMILY SERVICES AGENCY OF VANCOUVER", "designationCode": "C", "categoryCode": "09", "address": "201 - 475 BROADWAY E", "city": "VANCOUVER", "province": "BC", "country": "CA", "postalCode": "V5T1W9", "twitter": "None", "instagram": "None", "facebook": "None", "youtube": "None", "website": "None", "summary": "None", "logo": "None", "latitude": 49.26258411728751, "longitude": -123.09365404919943}, "119239358RR0001": {"name": "JEWISH FAMILY SERVICES OF OTTAWA", "designationCode": "C", "categoryCode": "09", "address": "301-2255 CARLING AVENUE", "city": "OTTAWA", "province": "ON", "country": "CA", "postalCode": "K2B7Z5", "twitter": "None", "instagram": "None", "facebook": "None", "youtube": "None", "website": "None", "summary": "None", "logo": "None", "latitude": 45.36898618875855, "longitude": -75.77361449780695}, "891604266RR0001": {"name": "JEWISH FAMILY SERVICES OF VANCOUVER ISLAND", "designationCode": "C", "categoryCode": "09", "address": "3636 SHELBOURNE ST", "city": "VICTORIA", "province": "BC", "country": "CA", "postalCode": "V8P4H2", "twitter": "None", "instagram": "None", "facebook": "None", "youtube": "None", "website": "None", "summary": "None", "logo": "None", "latitude": 48.45971792200936, "longitude": -123.3330049405041}, "118974278RR0001": {"name": "JEWISH FEDERATION OF GREATER VANCOUVER", "designationCode": "A", "categoryCode": "53", "address": "200-950 WEST 41ST AVENUE", "city": "VANCOUVER", "province": "BC", "country": "CA", "postalCode": "V5Z2N7", "twitter": "None", "instagram": "None", "facebook": "None", "youtube": "None", "website": "None", "summary": "None", "logo": "None", "latitude": 49.23387050620376, "longitude": -123.12594479822836}, "833229743RR0001": {"name": "JEWISH FEDERATION OF OTTAWA", "designationCode": "A", "categoryCode": "05", "address": "21 NADOLNY SACHS PRIVATE", "city": "OTTAWA", "province": "ON", "country": "CA", "postalCode": "K2A1R9", "twitter": "None", "instagram": "None", "facebook": "None", "youtube": "None", "website": "None", "summary": "None", "logo": "None", "latitude": 45.375832560101486, "longitude": -75.75231223766554}, "129879102RR0001": {"name": "JEWISH FEDERATION OF WINNIPEG/COMBINED JEWISH APPEAL, INC", "designationCode": "A", "categoryCode": "03", "address": "C300 123 DONCASTER ST", "city": "WINNIPEG", "province": "MB", "country": "CA", "postalCode": "R3N2B2", "twitter": "None", "instagram": "None", "facebook": "None", "youtube": "None", "website": "None", "summary": "None", "logo": "None", "latitude": 49.86779026460563, "longitude": -97.20862592209049}, "108122417RR0001": {"name": "JEWISH FREE LOAN TORONTO", "designationCode": "C", "categoryCode": "09", "address": "ROOM 340 4600 BATHURST ST", "city": "WILLOWDALE", "province": "ON", "country": "CA", "postalCode": "M2R3V3", "twitter": "None", "instagram": "None", "facebook": "None", "youtube": "None", "website": "None", "summary": "None", "logo": "None", "latitude": 43.764549213428396, "longitude": -79.4407190577642}, "140068404RR0001": {"name": "JEWISH FUTURES OF ONTARIO", "designationCode": "C", "categoryCode": "49", "address": "84 ELISE TERRACE", "city": "TORONTO", "province": "ON", "country": "CA", "postalCode": "M2R2X1", "twitter": "None", "instagram": "None", "facebook": "None", "youtube": "None", "website": "None", "summary": "None", "logo": "None", "latitude": 43.789726583386354, "longitude": -79.441712108806}, "858154701RR0001": {"name": "JEWISH GORSKY ASSOCIATION OF CANADA", "designationCode": "C", "categoryCode": "42", "address": "196 CRESTWOOD RD", "city": "THORNHILL", "province": "ON", "country": "CA", "postalCode": "L4J1A9", "twitter": "None", "instagram": "None", "facebook": "None", "youtube": "None", "website": "None", "summary": "None", "logo": "None", "latitude": 43.796425176841986, "longitude": -79.44117670748444}, "871775821RR0001": {"name": "JEWISH HERITAGE CENTRE OF WESTERN CANADA INC", "designationCode": "C", "categoryCode": "50", "address": "C140-123 DONCASTER ST", "city": "WINNIPEG", "province": "MB", "country": "CA", "postalCode": "R3N2B2", "twitter": "None", "instagram": "None", "facebook": "None", "youtube": "None", "website": "None", "summary": "None", "logo": "None", "latitude": 49.86779026460563, "longitude": -97.20862592209049}, "898938105RR0001": {"name": "JEWISH HERITAGE FOUNDATION INTERNATIONAL", "designationCode": "C", "categoryCode": "21", "address": "358 FLINT ROAD", "city": "DOWNSVIEW", "province": "ON", "country": "CA", "postalCode": "M3J2K4", "twitter": "None", "instagram": "None", "facebook": "None", "youtube": "None", "website": "None", "summary": "None", "logo": "None", "latitude": 43.771256332931394, "longitude": -79.48019147983226}, "118974294RR0001": {"name": "JEWISH HERITAGE FOUNDATION OF CANADA", "designationCode": "A", "categoryCode": "23", "address": "32 BROOKVIEW DR.", "city": "TORONTO", "province": "ON", "country": "CA", "postalCode": "M6A2K2", "twitter": "None", "instagram": "None", "facebook": "None", "youtube": "None", "website": "None", "summary": "None", "logo": "None", "latitude": 43.719924269490505, "longitude": -79.43668020220431}, "121811913RR0001": {"name": "JEWISH HISTORICAL SOCIETY OF SOUTHERN ALBERTA", "designationCode": "C", "categoryCode": "50", "address": "1607 - 90 AVENUE S.W.", "city": "CALGARY", "province": "AB", "country": "CA", "postalCode": "T2V4V7", "twitter": "None", "instagram": "None", "facebook": "None", "youtube": "None", "website": "None", "summary": "None", "logo": "None", "latitude": 50.97216051067581, "longitude": -114.0993315}, "107534828RR0001": {"name": "JEWISH HOME FOR THE AGED OF BRITISH COLUMBIA", "designationCode": "C", "categoryCode": "01", "address": "1055 W 41ST AVE", "city": "VANCOUVER", "province": "BC", "country": "CA", "postalCode": "V6M1W9", "twitter": "None", "instagram": "None", "facebook": "None", "youtube": "None", "website": "None", "summary": "None", "logo": "None", "latitude": 49.234071446507144, "longitude": -123.129333855178}, "892425364RR0001": {"name": "JEWISH HOSPITAL OF HOPE ELDERCARE FOUNDATION", "designationCode": "A", "categoryCode": "03", "address": "5725 VICTORIA AVENUE", "city": "MONTREAL", "province": "QC", "country": "CA", "postalCode": "H3W3H6", "twitter": "None", "instagram": "None", "facebook": "None", "youtube": "None", "website": "None", "summary": "None", "logo": "None", "latitude": 45.49259822208404, "longitude": -73.6336117386465}, "839400744RR0001": {"name": "JEWISH LITERACY FOUNDATION OF CANADA", "designationCode": "C", "categoryCode": "20", "address": "4600 BATHURST STREET", "city": "TORONTO", "province": "ON", "country": "CA", "postalCode": "M2R3V2", "twitter": "None", "instagram": "None", "facebook": "None", "youtube": "None", "website": "None", "summary": "None", "logo": "None"}, "861187201RR0001": {"name": "JEWISH MEMORIAL GARDENS", "designationCode": "C", "categoryCode": "59", "address": "21 NADOLNY SACHS PRIVATE", "city": "OTTAWA", "province": "ON", "country": "CA", "postalCode": "K2A1R9", "twitter": "None", "instagram": "None", "facebook": "None", "youtube": "None", "website": "None", "summary": "None", "logo": "None", "latitude": 45.375832560101486, "longitude": -75.75231223766554}, "877695312RR0001": {"name": "JEWISH POVERTY RELIEF PROGRAM", "designationCode": "A", "categoryCode": "03", "address": "4850 KEELE STREET             1ST FLOOR", "city": "TORONTO", "province": "ON", "country": "CA", "postalCode": "M3J3K1", "twitter": "None", "instagram": "None", "facebook": "None", "youtube": "None", "website": "None", "summary": "None", "logo": "None", "latitude": 43.778470062755886, "longitude": -79.49482859163797}, "130633258RR0001": {"name": "JEWISH PUBLIC LIBRARY,", "designationCode": "C", "categoryCode": "50", "address": "5151 CH COTE-SAINTE-CATHERINE", "city": "MONTREAL", "province": "QC", "country": "CA", "postalCode": "H3W1M6", "twitter": "None", "instagram": "None", "facebook": "None", "youtube": "None", "website": "None", "summary": "None", "logo": "None", "latitude": 45.488925385538515, "longitude": -73.63610869559653}, "118974401RR0001": {"name": "JEWISH RUSSIAN CHARITY FUND (CHAMAH)", "designationCode": "C", "categoryCode": "09", "address": "6280 WESTBURY AVE", "city": "MONTREAL", "province": "QC", "country": "CA", "postalCode": "H3W2X3", "twitter": "None", "instagram": "None", "facebook": "None", "youtube": "None", "website": "None", "summary": "None", "logo": "None", "latitude": 45.491910989988035, "longitude": -73.64174504068309}, "107534976RR0001": {"name": "JEWISH RUSSIAN SPEAKING COMMUNITY OF TORONTO", "designationCode": "C", "categoryCode": "42", "address": "3-5987 BATHURST ST", "city": "TORONTO", "province": "ON", "country": "CA", "postalCode": "M2R1Z3", "twitter": "None", "instagram": "None", "facebook": "None", "youtube": "None", "website": "None", "summary": "None", "logo": "None", "latitude": 43.78613104524208, "longitude": -79.44605454827183}, "118974427RR0001": {"name": "JEWISH SENIOR CITIZENS CENTRE", "designationCode": "C", "categoryCode": "09", "address": "PO BOX 17017 RPO UPTOWN", "city": "EDMONTON", "province": "AB", "country": "CA", "postalCode": "T5K0G4", "twitter": "None", "instagram": "None", "facebook": "None", "youtube": "None", "website": "None", "summary": "None", "logo": "None", "latitude": 53.54623500000005, "longitude": -113.49037249999994}, "883621401RR0001": {"name": "JEWISH SENIORS ALLIANCE OF GREATER VANCOUVER", "designationCode": "C", "categoryCode": "09", "address": "949 WEST 49 AVE", "city": "VANCOUVER", "province": "BC", "country": "CA", "postalCode": "V5Z2T1", "twitter": "None", "instagram": "None", "facebook": "None", "youtube": "None", "website": "None", "summary": "None", "logo": "None", "latitude": 49.22653944993916, "longitude": -123.12757091756595}, "107535015RR0001": {"name": "JEWISH VOCATIONAL SERVICE OF METROPOLITAN TORONTO", "designationCode": "C", "categoryCode": "01", "address": "74 TYCOS DR", "city": "TORONTO", "province": "ON", "country": "CA", "postalCode": "M6B1V9", "twitter": "None", "instagram": "None", "facebook": "None", "youtube": "None", "website": "None", "summary": "None", "logo": "None", "latitude": 43.70510414741162, "longitude": -79.45591657550915}, "815029145RR0001": {"name": "JEWISH VOICE MINISTRIES CANADA", "designationCode": "C", "categoryCode": "39", "address": "PO BOX 476", "city": "MAPLE RIDGE", "province": "BC", "country": "CA", "postalCode": "V2X3P2", "twitter": "None", "instagram": "None", "facebook": "None", "youtube": "None", "website": "None", "summary": "None", "logo": "None", "latitude": 49.21686600000005, "longitude": -122.60537449999993}, "896457801RR0001": {"name": "JEWISH WAR VETERANS OF CANADA TORONTO REGION", "designationCode": "C", "categoryCode": "59", "address": "421 - 4600 BATHURST ST", "city": "NORTH YORK", "province": "ON", "country": "CA", "postalCode": "M2R3V3", "twitter": "None", "instagram": "None", "facebook": "None", "youtube": "None", "website": "None", "summary": "None", "logo": "None", "latitude": 43.764549213428396, "longitude": -79.4407190577642}, "118974468RR0001": {"name": "JEWISH WOMEN'S ORTHODOX LEAGUE OF LUBAVITH", "designationCode": "C", "categoryCode": "47", "address": "4675 CARLTON AVE", "city": "MONTREAL", "province": "QC", "country": "CA", "postalCode": "H3W1G5", "twitter": "None", "instagram": "None", "facebook": "None", "youtube": "None", "website": "None", "summary": "None", "logo": "None", "latitude": 45.49644968027577, "longitude": -73.63857765877992}, "107535023RR0001": {"name": "JEWS FOR JESUS / JEWS FOR JESUS CANADA", "designationCode": "C", "categoryCode": "57", "address": "10 HUNTINGDALE BLVD", "city": "SCARBOROUGH", "province": "ON", "country": "CA", "postalCode": "M1W2S5", "twitter": "None", "instagram": "None", "facebook": "None", "youtube": "None", "website": "None", "summary": "None", "logo": "None", "latitude": 43.79647517626506, "longitude": -79.32661950611684}, "891316143RR0001": {"name": "JEWS FOR JUDAISM", "designationCode": "C", "categoryCode": "49", "address": "PO BOX 54042                  RPO LAWRENCE PLAZA", "city": "TORONTO", "province": "ON", "country": "CA", "postalCode": "M6A3B7", "twitter": "None", "instagram": "None", "facebook": "None", "youtube": "None", "website": "None", "summary": "None", "logo": "None", "latitude": 43.71484673567959, "longitude": -79.45006503232214}, "807281936RR0001": {"name": "JFL Foundation", "designationCode": "B", "categoryCode": "23", "address": "700-1 RIDEAU STREET", "city": "OTTAWA", "province": "ON", "country": "CA", "postalCode": "K1N8S7", "twitter": "None", "instagram": "None", "facebook": "None", "youtube": "None", "website": "None", "summary": "None", "logo": "None", "latitude": 45.42496097841724, "longitude": -75.69456698646731}, "860089721RR0001": {"name": "JFSO TZEDAKAH FOUNDATION", "designationCode": "A", "categoryCode": "03", "address": "2255 CARLING AVENUE, SUITE 301", "city": "OTTAWA", "province": "ON", "country": "CA", "postalCode": "K2B7Z5", "twitter": "None", "instagram": "None", "facebook": "None", "youtube": "None", "website": "None", "summary": "None", "logo": "None", "latitude": 45.36898618875855, "longitude": -75.77361449780695}, "882852304RR0001": {"name": "JIAS (JEWISH IMMIGRANT AID SERVICES) TORONTO", "designationCode": "C", "categoryCode": "09", "address": "4600 BATHURST ST              SUITE 325", "city": "NORTH YORK", "province": "ON", "country": "CA", "postalCode": "M2R3V3", "twitter": "None", "instagram": "None", "facebook": "None", "youtube": "None", "website": "None", "summary": "None", "logo": "None", "latitude": 43.764549213428396, "longitude": -79.4407190577642}, "107536021RR0001": {"name": "JIM AND DONNA ANDERSON FOUNDATION CORP.", "designationCode": "B", "categoryCode": "03", "address": "1448 NORTH HILL DRIVE", "city": "SWIFT CURRENT", "province": "SK", "country": "CA", "postalCode": "S9H1Y1", "twitter": "None", "instagram": "None", "facebook": "None", "youtube": "None", "website": "None", "summary": "None", "logo": "None", "latitude": 50.298703131713616, "longitude": -107.78091435221076}, "881917983RR0001": {"name": "JIM DAVEY FELLOWSHIP TRUST", "designationCode": "C", "categoryCode": "21", "address": "P.O. BOX 23033", "city": "WOODSTOCK", "province": "ON", "country": "CA", "postalCode": "N4T1R9", "twitter": "None", "instagram": "None", "facebook": "None", "youtube": "None", "website": "None", "summary": "None", "logo": "None", "latitude": 43.13010300000006, "longitude": -80.75657149999994}, "898446711RR0001": {"name": "JIM HOFFMAN MEMORIAL ATHLETIC SCHOLARSHIP ORG'N", "designationCode": "C", "categoryCode": "21", "address": "2832 ROCKWELL BLVD", "city": "WINDSOR", "province": "ON", "country": "CA", "postalCode": "N9E2A3", "twitter": "None", "instagram": "None", "facebook": "None", "youtube": "None", "website": "None", "summary": "None", "logo": "None", "latitude": 42.27295004330884, "longitude": -83.02075498886283}, "107536146RR0001": {"name": "JIMMY SWAGGART MINISTRIES OF CANADA", "designationCode": "C", "categoryCode": "43", "address": "P.O. BOX 1020", "city": "NIAGARA FALLS", "province": "ON", "country": "CA", "postalCode": "L2G6X7", "twitter": "None", "instagram": "None", "facebook": "None", "youtube": "None", "website": "None", "summary": "None", "logo": "None", "latitude": 43.05282900000006, "longitude": -79.04622049999993}, "890939887RR0001": {"name": "JINDAL FOUNDATION", "designationCode": "B", "categoryCode": "03", "address": "5288 KNOTT CRES", "city": "MANOTICK", "province": "ON", "country": "CA", "postalCode": "K4M1C2", "twitter": "None", "instagram": "None", "facebook": "None", "youtube": "None", "website": "None", "summary": "None", "logo": "None", "latitude": 45.238949685815705, "longitude": -75.68829587650748}, "868869363RR0001": {"name": "JING YIN TEMPLE", "designationCode": "C", "categoryCode": "35", "address": "722 BRIMLEY ROAD", "city": "TORONTO", "province": "ON", "country": "CA", "postalCode": "M1J1C2", "twitter": "None", "instagram": "None", "facebook": "None", "youtube": "None", "website": "None", "summary": "None", "logo": "None", "latitude": 43.748131107680805, "longitude": -79.25317582157055}, "817277148RR0001": {"name": "JIPANGE CHURCH", "designationCode": "C", "categoryCode": "39", "address": "2570 BAYVIEW AVENUE", "city": "TORONTO", "province": "ON", "country": "CA", "postalCode": "M2L1B3", "twitter": "None", "instagram": "None", "facebook": "None", "youtube": "None", "website": "None", "summary": "None", "logo": "None", "latitude": 43.75092488980904, "longitude": -79.38476871778487}, "136272945RR0001": {"name": "JLD MINISTRIES", "designationCode": "C", "categoryCode": "47", "address": "321 - 340 WATSON ST W", "city": "WHITBY", "province": "ON", "country": "CA", "postalCode": "L1N9G1", "twitter": "None", "instagram": "None", "facebook": "None", "youtube": "None", "website": "None", "summary": "None", "logo": "None", "latitude": 43.85901945441997, "longitude": -78.93676971231943}, "897358511RR0001": {"name": "JM Ministries Canada", "designationCode": "C", "categoryCode": "49", "address": "201-33140 MILL LAKE RD", "city": "ABBOTSFORD", "province": "BC", "country": "CA", "postalCode": "V2S2A5", "twitter": "None", "instagram": "None", "facebook": "None", "youtube": "None", "website": "None", "summary": "None", "logo": "None", "latitude": 49.04963061336497, "longitude": -122.3059362712795}, "888621729RR0001": {"name": "JND FOUNDATION INC", "designationCode": "B", "categoryCode": "03", "address": "332 - 20 BURKEBROOK PL", "city": "EAST YORK", "province": "ON", "country": "CA", "postalCode": "M4G0A1", "twitter": "None", "instagram": "None", "facebook": "None", "youtube": "None", "website": "None", "summary": "None", "logo": "None", "latitude": 43.71811019871321, "longitude": -79.37609392097015}, "848975546RR0001": {"name": "JO ANN WHITE MEMORIAL FOUNDATION", "designationCode": "C", "categoryCode": "22", "address": "902 FAIRWAYS DR", "city": "QUALICUM BEACH", "province": "BC", "country": "CA", "postalCode": "V9K2J1", "twitter": "None", "instagram": "None", "facebook": "None", "youtube": "None", "website": "None", "summary": "None", "logo": "None", "latitude": 49.35070968884546, "longitude": -124.40064783265039}, "873571616RR0001": {"name": "JO DICKEY FOUNDATION", "designationCode": "C", "categoryCode": "09", "address": "310 - 800 WEST PENDER STREET", "city": "VANCOUVER", "province": "BC", "country": "CA", "postalCode": "V6C2V6", "twitter": "None", "instagram": "None", "facebook": "None", "youtube": "None", "website": "None", "summary": "None", "logo": "None", "latitude": 49.28551470439735, "longitude": -123.11622999849945}, "137230553RR0001": {"name": "JOAN OF ARC ACADEMIC SOCIETY OF OTTAWA/SOCIETE ACADEMIQUE JEANNE D'ARC D'OTTAWA", "designationCode": "C", "categoryCode": "20", "address": "2221 ELMIRA DRIVE", "city": "OTTAWA", "province": "ON", "country": "CA", "postalCode": "K2C1H3", "twitter": "None", "instagram": "None", "facebook": "None", "youtube": "None", "website": "None", "summary": "None", "logo": "None", "latitude": 45.35395449772006, "longitude": -75.77679612346293}, "870667151RR0001": {"name": "JOANNIE COWIE CANADA CARES FOUNDATION", "designationCode": "A", "categoryCode": "13", "address": "1300 RUSHWOOD CRESCENT", "city": "LASALLE", "province": "ON", "country": "CA", "postalCode": "N9H0B7", "twitter": "None", "instagram": "None", "facebook": "None", "youtube": "None", "website": "None", "summary": "None", "logo": "None", "latitude": 42.23563200000001, "longitude": -83.01705992703467}, "128327293RR0001": {"name": "JOB SKILLS - EMPLOYMENT AND BUSINESS PROGRAMS AND SUPPORTS", "designationCode": "C", "categoryCode": "09", "address": "14-130 DAVIS DRIVE            NEWMARKET PLAZA", "city": "NEWMARKET", "province": "ON", "country": "CA", "postalCode": "L3Y2N1", "twitter": "None", "instagram": "None", "facebook": "None", "youtube": "None", "website": "None", "summary": "None", "logo": "None", "latitude": 44.06148155349136, "longitude": -79.45070044212684}, "107405318RR0001": {"name": "JOBS UNLIMITED INC.", "designationCode": "C", "categoryCode": "59", "address": "1079 YORK STREET", "city": "FREDERICTON", "province": "NB", "country": "CA", "postalCode": "E3B3S4", "twitter": "None", "instagram": "None", "facebook": "None", "youtube": "None", "website": "None", "summary": "None", "logo": "None", "latitude": 45.94409887844073, "longitude": -66.66180633112118}, "106881139RR0001": {"name": "JOBSTART", "designationCode": "C", "categoryCode": "59", "address": "41 CHAUNCEY AVE", "city": "ETOBICOKE", "province": "ON", "country": "CA", "postalCode": "M8Z2Z2", "twitter": "None", "instagram": "None", "facebook": "None", "youtube": "None", "website": "None", "summary": "None", "logo": "None", "latitude": 43.637138823734944, "longitude": -79.52530543559935}, "107538589RR0001": {"name": "JOCELYN HOUSE INC.", "designationCode": "C", "categoryCode": "01", "address": "177 EGERTON RD", "city": "WINNIPEG", "province": "MB", "country": "CA", "postalCode": "R2M2W7", "twitter": "None", "instagram": "None", "facebook": "None", "youtube": "None", "website": "None", "summary": "None", "logo": "None", "latitude": 49.86635837803671, "longitude": -97.09948097824527}, "815805478RR0001": {"name": "JOCELYN NICOLE JURIANSZ MEMORIAL FOUNDATION", "designationCode": "B", "categoryCode": "23", "address": "5700 YONGE STREET             SUITE 1100", "city": "TORONTO", "province": "ON", "country": "CA", "postalCode": "M2M4K2", "twitter": "None", "instagram": "None", "facebook": "None", "youtube": "None", "website": "None", "summary": "None", "logo": "None", "latitude": 43.78071895475794, "longitude": -79.41582800279862}, "108132937RR0001": {"name": "JOCELYN TOWNSHIP FIRE FIGHTERS ASSOCIATION", "designationCode": "C", "categoryCode": "59", "address": "3670 5TH SIDE ROAD            RR 1", "city": "HILTON BEACH", "province": "ON", "country": "CA", "postalCode": "P0R1G0", "twitter": "None", "instagram": "None", "facebook": "None", "youtube": "None", "website": "None", "summary": "None", "logo": "None", "latitude": 46.25316600000005, "longitude": -83.90060449999993}, "868315664RR0001": {"name": "JOCKVALE ELEMENTARY SCHOOL COUNCIL", "designationCode": "C", "categoryCode": "21", "address": "101 MALVERN DRIVE", "city": "NEPEAN", "province": "ON", "country": "CA", "postalCode": "K2J2S8", "twitter": "None", "instagram": "None", "facebook": "None", "youtube": "None", "website": "None", "summary": "None", "logo": "None", "latitude": 45.28018446782928, "longitude": -75.75936305669634}, "118820760RR0001": {"name": "JODO SHINSHU BUDDHIST TEMPLES OF CANADA", "designationCode": "C", "categoryCode": "35", "address": "220 JACKSON AVE", "city": "VANCOUVER", "province": "BC", "country": "CA", "postalCode": "V6A3B3", "twitter": "None", "instagram": "None", "facebook": "None", "youtube": "None", "website": "None", "summary": "None", "logo": "None", "latitude": 49.282792994171615, "longitude": -123.093327940591}, "887711463RR0001": {"name": "JOE INK PERFORMANCE SOCIETY", "designationCode": "C", "categoryCode": "22", "address": "110-828 WEST 8TH AVENUE", "city": "VANCOUVER", "province": "BC", "country": "CA", "postalCode": "V5Z1E2", "twitter": "None", "instagram": "None", "facebook": "None", "youtube": "None", "website": "None", "summary": "None", "logo": "None", "latitude": 49.26421553952925, "longitude": -123.12287405398465}, "145266599RR0001": {"name": "JOE JACK & JOHN", "designationCode": "C", "categoryCode": "22", "address": "3-4571 AVE DU PARC", "city": "MONTREAL", "province": "QC", "country": "CA", "postalCode": "H2V4E4", "twitter": "None", "instagram": "None", "facebook": "None", "youtube": "None", "website": "None", "summary": "None", "logo": "None"}, "118974690RR0001": {"name": "JOE NOBLE TRUST FUND", "designationCode": "C", "categoryCode": "21", "address": "186 BEDFORD PARK AVE", "city": "TORONTO", "province": "ON", "country": "CA", "postalCode": "M5M1J3", "twitter": "None", "instagram": "None", "facebook": "None", "youtube": "None", "website": "None", "summary": "None", "logo": "None", "latitude": 43.72577613240797, "longitude": -79.41081637122736}, "856489166RR0001": {"name": "JOE-UN CHURCH", "designationCode": "C", "categoryCode": "49", "address": "20784 93 AVE", "city": "LANGLEY", "province": "BC", "country": "CA", "postalCode": "V1M2W5", "twitter": "None", "instagram": "None", "facebook": "None", "youtube": "None", "website": "None", "summary": "None", "logo": "None", "latitude": 49.17121047619646, "longitude": -122.64749202123605}, "826056368RR0001": {"name": "JOEL OSTEEN MINISTRIES, CANADA", "designationCode": "C", "categoryCode": "47", "address": "300 - 4673 ONTARIO AVE", "city": "NIAGARA FALLS", "province": "ON", "country": "CA", "postalCode": "L2E3R1", "twitter": "None", "instagram": "None", "facebook": "None", "youtube": "None", "website": "None", "summary": "None", "logo": "None", "latitude": 43.106558117983546, "longitude": -79.06519631012725}, "118974765RR0001": {"name": "JOHANN STRAUSS FOUNDATION", "designationCode": "C", "categoryCode": "22", "address": "15706 94A AVENUE NW", "city": "EDMONTON", "province": "AB", "country": "CA", "postalCode": "T5R5L8", "twitter": "None", "instagram": "None", "facebook": "None", "youtube": "None", "website": "None", "summary": "None", "logo": "None", "latitude": 53.53069049321932, "longitude": -113.5920735}, "889055265RR0001": {"name": "JOHANNEANS' EDUCATIONAL FOUNDATION", "designationCode": "C", "categoryCode": "21", "address": "1250-1500 WEST GEORGIA ST     BOX 62", "city": "VANCOUVER", "province": "BC", "country": "CA", "postalCode": "V6G2Z6", "twitter": "None", "instagram": "None", "facebook": "None", "youtube": "None", "website": "None", "summary": "None", "logo": "None", "latitude": 49.290187500000016, "longitude": -123.130035}, "858128754RR0001": {"name": "JOHN & LORENA REDEKOP FOUNDATION", "designationCode": "B", "categoryCode": "03", "address": "201-3550 MT. LEHMAN RD", "city": "ABBOTSFORD", "province": "BC", "country": "CA", "postalCode": "V4X2M9", "twitter": "None", "instagram": "None", "facebook": "None", "youtube": "None", "website": "None", "summary": "None", "logo": "None", "latitude": 49.06721409400878, "longitude": -122.38115793581528}, "888810736RR0001": {"name": "JOHN A LESLIE CHILDCARE - SCARBOROUGH", "designationCode": "C", "categoryCode": "01", "address": "459 MIDLAND AVE", "city": "SCARBOROUGH", "province": "ON", "country": "CA", "postalCode": "M1N4A7", "twitter": "None", "instagram": "None", "facebook": "None", "youtube": "None", "website": "None", "summary": "None", "logo": "None", "latitude": 43.714009801286785, "longitude": -79.2493286634258}, "844825968RR0001": {"name": "JOHN AND ELSIE COLLINS FOUNDATION", "designationCode": "B", "categoryCode": "03", "address": "1400 - 777 - 8TH AVENUE S.W.", "city": "CALGARY", "province": "AB", "country": "CA", "postalCode": "T2P3R5", "twitter": "None", "instagram": "None", "facebook": "None", "youtube": "None", "website": "None", "summary": "None", "logo": "None", "latitude": 51.04590663887669, "longitude": -114.07575818403993}, "863529954RR0001": {"name": "JOHN AND FREDA COLE MEMORIAL TRUST FUND", "designationCode": "B", "categoryCode": "05", "address": "P.O. BOX 10085                PACIFIC CENTRE", "city": "VANCOUVER", "province": "BC", "country": "CA", "postalCode": "V7Y1B6", "twitter": "None", "instagram": "None", "facebook": "None", "youtube": "None", "website": "None", "summary": "None", "logo": "None", "latitude": 49.28299000000004, "longitude": -123.11890999999997}, "725750921RR0001": {"name": "JOHN AND SHANNON SULLIVAN FOUNDATION", "designationCode": "B", "categoryCode": "03", "address": "155 WELLINGTON ST W", "city": "TORONTO", "province": "ON", "country": "CA", "postalCode": "M5V3J7", "twitter": "None", "instagram": "None", "facebook": "None", "youtube": "None", "website": "None", "summary": "None", "logo": "None", "latitude": 43.64596585316531, "longitude": -79.38574575644876}, "118974807RR0001": {"name": "JOHN ANDREWS FOUNDATION", "designationCode": "B", "categoryCode": "03", "address": "17A CUMBERLAND ST S", "city": "THUNDER BAY", "province": "ON", "country": "CA", "postalCode": "P7B2T3", "twitter": "None", "instagram": "None", "facebook": "None", "youtube": "None", "website": "None", "summary": "None", "logo": "None", "latitude": 48.43415996576612, "longitude": -89.21994468481113}, "118974823RR0001": {"name": "JOHN BAKER FELLOWES FAMILY FOUNDATION FONDATION DE LA FAMILLE JOHN BAKER FELLOWES", "designationCode": "A", "categoryCode": "03", "address": "1350 SHERBROOKE ST. WEST      SUITE 1201", "city": "MONTREAL", "province": "QC", "country": "CA", "postalCode": "H3G1J1", "twitter": "None", "instagram": "None", "facebook": "None", "youtube": "None", "website": "None", "summary": "None", "logo": "None", "latitude": 45.49907079848817, "longitude": -73.57924886147518}, "884335001RR0001": {"name": "JOHN BARRON COMMUNITY TRUST", "designationCode": "B", "categoryCode": "05", "address": "BOX 1360", "city": "TISDALE", "province": "SK", "country": "CA", "postalCode": "S0E1T0", "twitter": "None", "instagram": "None", "facebook": "None", "youtube": "None", "website": "None", "summary": "None", "logo": "None", "latitude": 52.84785000000005, "longitude": -104.04749999999996}, "118974831RR0001": {"name": "JOHN BLACK MEMORIAL UNITED CHURCH", "designationCode": "C", "categoryCode": "44", "address": "898 HENDERSON HWY", "city": "WINNIPEG", "province": "MB", "country": "CA", "postalCode": "R2K3T4", "twitter": "None", "instagram": "None", "facebook": "None", "youtube": "None", "website": "None", "summary": "None", "logo": "None", "latitude": 49.93253463503371, "longitude": -97.0995141915285}}