{"808221311RR0001": {"name": "The Josh Lequiere Society", "designationCode": "B", "categoryCode": "09", "address": "11203 95 STREET", "city": "FORT ST. JOHN", "province": "BC", "country": "CA", "postalCode": "V1J3N1", "twitter": "None", "instagram": "None", "facebook": "None", "youtube": "None", "website": "None", "summary": "None", "logo": "None", "latitude": 56.257803502914186, "longitude": -120.83719204229922}, "842238222RR0001": {"name": "The Joshua Mutafya Foundation Inc.", "designationCode": "B", "categoryCode": "09", "address": "18 MORTON BAY", "city": "REGINA", "province": "SK", "country": "CA", "postalCode": "S4T6X7", "twitter": "None", "instagram": "None", "facebook": "None", "youtube": "None", "website": "None", "summary": "None", "logo": "None", "latitude": 50.46780404608368, "longitude": -104.68406908076183}, "811311737RR0001": {"name": "The Joshua Project Foundation", "designationCode": "A", "categoryCode": "09", "address": "37 FIELDGATE DR", "city": "ORANGEVILLE", "province": "ON", "country": "CA", "postalCode": "L9W4R9", "twitter": "None", "instagram": "None", "facebook": "None", "youtube": "None", "website": "None", "summary": "None", "logo": "None", "latitude": 43.92037604079866, "longitude": -80.12037303661506}, "801803008RR0001": {"name": "The Josie Foundation Inc.", "designationCode": "C", "categoryCode": "09", "address": "PO BOX 373", "city": "RED BANK", "province": "NB", "country": "CA", "postalCode": "E9E2P2", "twitter": "None", "instagram": "None", "facebook": "None", "youtube": "None", "website": "None", "summary": "None", "logo": "None", "latitude": 46.93338000000006, "longitude": -65.80898999999994}, "827117383RR0001": {"name": "The Journey Neighbourhood Centre", "designationCode": "C", "categoryCode": "09", "address": "9 ARDGLEN DR", "city": "BRAMPTON", "province": "ON", "country": "CA", "postalCode": "L6W1V1", "twitter": "None", "instagram": "None", "facebook": "None", "youtube": "None", "website": "None", "summary": "None", "logo": "None", "latitude": 43.68929945741234, "longitude": -79.7430451816321}, "843947896RR0001": {"name": "The Journey Network Ministries", "designationCode": "C", "categoryCode": "39", "address": "PO BOX 4335 STN E", "city": "OTTAWA", "province": "ON", "country": "CA", "postalCode": "K1S5B3", "twitter": "None", "instagram": "None", "facebook": "None", "youtube": "None", "website": "None", "summary": "None", "logo": "None", "latitude": 45.42177300000006, "longitude": -75.69115999999994}, "828663294RR0001": {"name": "The Journey: A Fort St. John Church", "designationCode": "C", "categoryCode": "39", "address": "10404-114A AVENUE", "city": "FORT ST. JOHN", "province": "BC", "country": "CA", "postalCode": "V1J7J2", "twitter": "None", "instagram": "None", "facebook": "None", "youtube": "None", "website": "None", "summary": "None", "logo": "None", "latitude": 56.26021210687277, "longitude": -120.85432194076391}, "801652314RR0001": {"name": "The Joy Smith Foundation Inc.", "designationCode": "C", "categoryCode": "03", "address": "PO BOX 28023", "city": "NORTH KILDONEN", "province": "MB", "country": "CA", "postalCode": "R2G4E9", "twitter": "None", "instagram": "None", "facebook": "None", "youtube": "None", "website": "None", "summary": "None", "logo": "None", "latitude": 49.94719606344961, "longitude": -97.09581701586241}, "888159266RR0001": {"name": "The Joyce Family Foundation", "designationCode": "B", "categoryCode": "05", "address": "4050 APPLEBY LINE", "city": "BURLINGTON", "province": "ON", "country": "CA", "postalCode": "L7R3X4", "twitter": "None", "instagram": "None", "facebook": "None", "youtube": "None", "website": "None", "summary": "None", "logo": "None", "latitude": 43.421354163454474, "longitude": -79.82813677257757}, "835837683RR0001": {"name": "The Judeo-Christian Foundation", "designationCode": "B", "categoryCode": "47", "address": "1894 KENTUCKY PLACE", "city": "NANAIMO", "province": "BC", "country": "CA", "postalCode": "V9X1C6", "twitter": "None", "instagram": "None", "facebook": "None", "youtube": "None", "website": "None", "summary": "None", "logo": "None", "latitude": 49.108918800778135, "longitude": -123.9245692639307}, "838791713RR0001": {"name": "The Judith & Norman Alix Foundation", "designationCode": "B", "categoryCode": "03", "address": "2301 CLEARWATER COURT", "city": "SARNIA", "province": "ON", "country": "CA", "postalCode": "N7T7H4", "twitter": "None", "instagram": "None", "facebook": "None", "youtube": "None", "website": "None", "summary": "None", "logo": "None", "latitude": 43.02565051399404, "longitude": -82.28351357718259}, "825519630RR0001": {"name": "The Judith Robinson Baker Trust", "designationCode": "B", "categoryCode": "05", "address": "2008 - 44 CHARLES ST W", "city": "TORONTO", "province": "ON", "country": "CA", "postalCode": "M4Y1R7", "twitter": "None", "instagram": "None", "facebook": "None", "youtube": "None", "website": "None", "summary": "None", "logo": "None", "latitude": 43.668442303095745, "longitude": -79.38745341550676}, "800777724RR0001": {"name": "The Judy Nathan Bronfman Foundation", "designationCode": "B", "categoryCode": "03", "address": "40 BURTON RD", "city": "TORONTO", "province": "ON", "country": "CA", "postalCode": "M5P1V2", "twitter": "None", "instagram": "None", "facebook": "None", "youtube": "None", "website": "None", "summary": "None", "logo": "None", "latitude": 43.69251021155247, "longitude": -79.41948145550775}, "833853708RR0001": {"name": "The Jules Foundation", "designationCode": "B", "categoryCode": "03", "address": "900-630 3RD AVENUE SOUTHWEST", "city": "CALGARY", "province": "AB", "country": "CA", "postalCode": "T2P4L4", "twitter": "None", "instagram": "None", "facebook": "None", "youtube": "None", "website": "None", "summary": "None", "logo": "None", "latitude": 51.050585259196545, "longitude": -114.07240492388776}, "825929359RR0001": {"name": "The Julien Project-Using Gardening to Enrich Lives", "designationCode": "C", "categoryCode": "56", "address": "5420 HIGHWAY 6 NORTH", "city": "GUELPH", "province": "ON", "country": "CA", "postalCode": "N1H6J2", "twitter": "None", "instagram": "None", "facebook": "None", "youtube": "None", "website": "None", "summary": "None", "logo": "None", "latitude": 43.57296517735107, "longitude": -80.28245636726805}, "827708314RR0001": {"name": "The Juravinski Foundation", "designationCode": "B", "categoryCode": "03", "address": "626 HARVEST ROAD", "city": "DUNDAS", "province": "ON", "country": "CA", "postalCode": "L9H5K7", "twitter": "None", "instagram": "None", "facebook": "None", "youtube": "None", "website": "None", "summary": "None", "logo": "None", "latitude": 43.280965605026445, "longitude": -79.98431746849216}, "890869746RR0001": {"name": "The Justice Institute of B.C. Foundation", "designationCode": "A", "categoryCode": "23", "address": "715 MCBRIDE BLVD", "city": "NEW WESTMINSTER", "province": "BC", "country": "CA", "postalCode": "V3L5T4", "twitter": "None", "instagram": "None", "facebook": "None", "youtube": "None", "website": "None", "summary": "None", "logo": "None", "latitude": 49.22173153127669, "longitude": -122.91110410897981}, "751937897RR0001": {"name": "The JJJL Lee Foundation La Fondation JJJL Lee", "designationCode": "B", "categoryCode": "03", "address": "2903 - 350 RUE PRINCE-ARTHUR O", "city": "MONTREAL", "province": "QC", "country": "CA", "postalCode": "H2X3R4", "twitter": "None", "instagram": "None", "facebook": "None", "youtube": "None", "website": "None", "summary": "None", "logo": "None", "latitude": 45.51061777540453, "longitude": -73.57552675367313}, "714054095RR0001": {"name": "The K.M. Edwards Family Foundation", "designationCode": "B", "categoryCode": "03", "address": "PH 3 12 OLD MILL TRAIL", "city": "TORONTO", "province": "ON", "country": "CA", "postalCode": "M8X2Z4", "twitter": "None", "instagram": "None", "facebook": "None", "youtube": "None", "website": "None", "summary": "None", "logo": "None", "latitude": 43.65073619816494, "longitude": -79.49558111855818}, "839522083RR0001": {"name": "The Kaiser Charitable Foundation (2011)", "designationCode": "B", "categoryCode": "05", "address": "303 19 ST NW", "city": "CALGARY", "province": "AB", "country": "CA", "postalCode": "T2N2J2", "twitter": "None", "instagram": "None", "facebook": "None", "youtube": "None", "website": "None", "summary": "None", "logo": "None", "latitude": 51.054586994171615, "longitude": -114.10560515918395}, "811315464RR0001": {"name": "The Kalein Hospice Centre Society", "designationCode": "C", "categoryCode": "11", "address": "PO BOX 266", "city": "NELSON", "province": "BC", "country": "CA", "postalCode": "V1L5P9", "twitter": "None", "instagram": "None", "facebook": "None", "youtube": "None", "website": "None", "summary": "None", "logo": "None", "latitude": 49.49754900000005, "longitude": -117.28882249999992}, "827650946RR0001": {"name": "The Kamala Foundation for Women and Children", "designationCode": "C", "categoryCode": "01", "address": "62, SCENIC PARK CRESCENT NW", "city": "CALGARY", "province": "AB", "country": "CA", "postalCode": "T3L1R6", "twitter": "None", "instagram": "None", "facebook": "None", "youtube": "None", "website": "None", "summary": "None", "logo": "None", "latitude": 51.115030354434715, "longitude": -114.21937834609616}, "823046263RR0001": {"name": "The Kanata-Hazeldean Lions Club Charitable Foundation", "designationCode": "A", "categoryCode": "03", "address": "170 CASTLEFRANK ROAD,", "city": "KANATA", "province": "ON", "country": "CA", "postalCode": "K2L2K6", "twitter": "None", "instagram": "None", "facebook": "None", "youtube": "None", "website": "None", "summary": "None", "logo": "None", "latitude": 45.28993797461866, "longitude": -75.87996821203856}, "831138714RR0001": {"name": "The Karen Learning and Education Opportunities Support Group", "designationCode": "C", "categoryCode": "29", "address": "2009-465 RICHMOND ROAD,", "city": "OTTAWA", "province": "ON", "country": "CA", "postalCode": "K2A1Z1", "twitter": "None", "instagram": "None", "facebook": "None", "youtube": "None", "website": "None", "summary": "None", "logo": "None", "latitude": 45.389557352875904, "longitude": -75.75887528074229}, "835322611RR0001": {"name": "The Karen People Refugee Sponsorship Foundation", "designationCode": "C", "categoryCode": "09", "address": "214 MOODIE STREET", "city": "THUNDER BAY", "province": "ON", "country": "CA", "postalCode": "P7E5A4", "twitter": "None", "instagram": "None", "facebook": "None", "youtube": "None", "website": "None", "summary": "None", "logo": "None", "latitude": 48.37611150678068, "longitude": -89.28243055536961}, "801414939RR0001": {"name": "The Kawartha Komets Special Needs Hockey Program", "designationCode": "C", "categoryCode": "56", "address": "1153 NEPTUNE STREET,", "city": "PETERBOROUGH", "province": "ON", "country": "CA", "postalCode": "K9H7S8", "twitter": "None", "instagram": "None", "facebook": "None", "youtube": "None", "website": "None", "summary": "None", "logo": "None", "latitude": 44.33256976573958, "longitude": -78.33062265003736}, "835968041RR0001": {"name": "The Kayemet Foundation", "designationCode": "B", "categoryCode": "03", "address": "201 BRIDGELAND AVENUE,", "city": "TORONTO", "province": "ON", "country": "CA", "postalCode": "M6A1Y7", "twitter": "None", "instagram": "None", "facebook": "None", "youtube": "None", "website": "None", "summary": "None", "logo": "None", "latitude": 43.724679896445465, "longitude": -79.46720435899367}, "843775776RR0001": {"name": "The Kaylou Foundation", "designationCode": "B", "categoryCode": "03", "address": "1678 BRAMSEY DRIVE", "city": "MISSISSAUGA", "province": "ON", "country": "CA", "postalCode": "L5J2H6", "twitter": "None", "instagram": "None", "facebook": "None", "youtube": "None", "website": "None", "summary": "None", "logo": "None", "latitude": 43.52877087065045, "longitude": -79.63441071484202}, "820757235RR0001": {"name": "The Kazman Foundation For Charitable Giving", "designationCode": "B", "categoryCode": "03", "address": "41 CHRISTIE DRIVE", "city": "BRAMPTON", "province": "ON", "country": "CA", "postalCode": "L6Z3J6", "twitter": "None", "instagram": "None", "facebook": "None", "youtube": "None", "website": "None", "summary": "None", "logo": "None", "latitude": 43.74043404411688, "longitude": -79.80213955909186}, "809897168RR0001": {"name": "The Kellaway Foundation Inc.", "designationCode": "B", "categoryCode": "03", "address": "PO BOX 765 STN MAIN", "city": "WINNIPEG", "province": "MB", "country": "CA", "postalCode": "R3C2M8", "twitter": "None", "instagram": "None", "facebook": "None", "youtube": "None", "website": "None", "summary": "None", "logo": "None"}, "827653635RR0001": {"name": "The Kelson Family Foundation", "designationCode": "B", "categoryCode": "03", "address": "2 BALES DRIVE WEST", "city": "SHARON", "province": "ON", "country": "CA", "postalCode": "L0G1V0", "twitter": "None", "instagram": "None", "facebook": "None", "youtube": "None", "website": "None", "summary": "None", "logo": "None", "latitude": 44.07322305490828, "longitude": -79.40239523558714}, "839011772RR0001": {"name": "The Ken and Roma Lett Foundation", "designationCode": "B", "categoryCode": "53", "address": "200 - 680 PALMER RD NE", "city": "CALGARY", "province": "AB", "country": "CA", "postalCode": "T2E7R3", "twitter": "None", "instagram": "None", "facebook": "None", "youtube": "None", "website": "None", "summary": "None", "logo": "None", "latitude": 51.100840736047765, "longitude": -114.01350182156632}, "819128125RR0001": {"name": "The Kenauk Institute", "designationCode": "C", "categoryCode": "21", "address": "200 - 421 RUE SAINT-PAUL E", "city": "MONTREAL", "province": "QC", "country": "CA", "postalCode": "H2Y1H5", "twitter": "None", "instagram": "None", "facebook": "None", "youtube": "None", "website": "None", "summary": "None", "logo": "None", "latitude": 45.51048421006952, "longitude": -73.55126001765045}, "850425174RR0001": {"name": "The Kennedy Foundation for Cancer, Immunology and Degenerative Diseases", "designationCode": "A", "categoryCode": "13", "address": "P.O. BOX 75616", "city": "NORTH VANCOUVER", "province": "BC", "country": "CA", "postalCode": "V7R4X1", "twitter": "None", "instagram": "None", "facebook": "None", "youtube": "None", "website": "None", "summary": "None", "logo": "None", "latitude": 49.32107700000006, "longitude": -123.07521049999994}, "867703175RR0001": {"name": "The Kenneth Woods Portofolio Management Foundation - John Molson School of Business (Concordia University) / La Fondation de gestion de portefeuilles Kenneth Woods - L'\u00e9cole", "designationCode": "C", "categoryCode": "23", "address": "1455 DE MAISONNEUVE BLVD. WESTSUITE GM-700", "city": "MONTREAL", "province": "QC", "country": "CA", "postalCode": "H3G1M8", "twitter": "None", "instagram": "None", "facebook": "None", "youtube": "None", "website": "None", "summary": "None", "logo": "None", "latitude": 45.496936779098455, "longitude": -73.57860649056494}, "844289090RR0001": {"name": "The Kensington Cancer Screening Centre", "designationCode": "C", "categoryCode": "10", "address": "340 COLLEGE STREET            SUITE 602", "city": "TORONTO", "province": "ON", "country": "CA", "postalCode": "M5T3A9", "twitter": "None", "instagram": "None", "facebook": "None", "youtube": "None", "website": "None", "summary": "None", "logo": "None", "latitude": 43.65738619069178, "longitude": -79.40333842951117}, "825912215RR0001": {"name": "The Kensington Research Institute", "designationCode": "C", "categoryCode": "11", "address": "340 COLLEGE STREET            SUITE 602", "city": "TORONTO", "province": "ON", "country": "CA", "postalCode": "M5T3A9", "twitter": "None", "instagram": "None", "facebook": "None", "youtube": "None", "website": "None", "summary": "None", "logo": "None", "latitude": 43.65738619069178, "longitude": -79.40333842951117}, "847746609RR0001": {"name": "The Keren Charitable Foundation", "designationCode": "B", "categoryCode": "05", "address": "336 JOICEY BLVD", "city": "TORONTO", "province": "ON", "country": "CA", "postalCode": "M5N2W1", "twitter": "None", "instagram": "None", "facebook": "None", "youtube": "None", "website": "None", "summary": "None", "logo": "None", "latitude": 43.73479307412416, "longitude": -79.42927031585774}, "836135533RR0001": {"name": "The Khalsa Foundation", "designationCode": "B", "categoryCode": "03", "address": "11291 BLUNDELL ROAD", "city": "RICHMOND", "province": "BC", "country": "CA", "postalCode": "V6Y1L4", "twitter": "None", "instagram": "None", "facebook": "None", "youtube": "None", "website": "None", "summary": "None", "logo": "None"}, "725634893RR0001": {"name": "The Kindred Project Inc.", "designationCode": "B", "categoryCode": "09", "address": "448 LUCILLE BAY", "city": "ST ADOLPHE", "province": "MB", "country": "CA", "postalCode": "R5A0A4", "twitter": "None", "instagram": "None", "facebook": "None", "youtube": "None", "website": "None", "summary": "None", "logo": "None", "latitude": 49.68103672090355, "longitude": -97.10859339194396}, "108085911RR0001": {"name": "The King's University", "designationCode": "C", "categoryCode": "20", "address": "9125 50 ST NW", "city": "EDMONTON", "province": "AB", "country": "CA", "postalCode": "T6B2H3", "twitter": "None", "instagram": "None", "facebook": "None", "youtube": "None", "website": "None", "summary": "None", "logo": "None", "latitude": 53.52518032885313, "longitude": -113.41847513511998}, "851860155RR0001": {"name": "The King's Valley Christian Camp Society", "designationCode": "C", "categoryCode": "56", "address": "BOX 141", "city": "ROSE PRAIRIE", "province": "BC", "country": "CA", "postalCode": "V0C2H0", "twitter": "None", "instagram": "None", "facebook": "None", "youtube": "None", "website": "None", "summary": "None", "logo": "None", "latitude": 56.512375996504986, "longitude": -120.82045049999999}, "851763656RR0001": {"name": "The Kingdom of God Assembly", "designationCode": "C", "categoryCode": "39", "address": "111 ALDERSON DR", "city": "HAMILTON", "province": "ON", "country": "CA", "postalCode": "L9B1G4", "twitter": "None", "instagram": "None", "facebook": "None", "youtube": "None", "website": "None", "summary": "None", "logo": "None", "latitude": 43.200495965837774, "longitude": -79.90139070220431}, "119240612RR0001": {"name": "The Kingston Meistersingers Incorporated", "designationCode": "C", "categoryCode": "22", "address": "20 MCDONALD AVENUE", "city": "KINGSTON", "province": "ON", "country": "CA", "postalCode": "K7M1P8", "twitter": "None", "instagram": "None", "facebook": "None", "youtube": "None", "website": "None", "summary": "None", "logo": "None", "latitude": 44.22124059818632, "longitude": -76.52273109538473}, "802300731RR0001": {"name": "The Kingston Prize Association / L'Association Prix Kingston", "designationCode": "C", "categoryCode": "22", "address": "SUITE 114-427 PRINCESS STREET", "city": "KINGSTON", "province": "ON", "country": "CA", "postalCode": "K7L5S9", "twitter": "None", "instagram": "None", "facebook": "None", "youtube": "None", "website": "None", "summary": "None", "logo": "None", "latitude": 44.23348314821968, "longitude": -76.49301981972422}, "815922695RR0001": {"name": "The Kingston Scout Museum", "designationCode": "C", "categoryCode": "50", "address": "38 FAIRCREST BLVD", "city": "KINGSTON", "province": "ON", "country": "CA", "postalCode": "K7L4V1", "twitter": "None", "instagram": "None", "facebook": "None", "youtube": "None", "website": "None", "summary": "None", "logo": "None", "latitude": 44.245928692321385, "longitude": -76.41016534713827}, "123699183RR0002": {"name": "The Kinsmen Club of Edmonton Foundation", "designationCode": "A", "categoryCode": "03", "address": "9100 WALTERDALE HILL N.W.     P.O. BOX 103", "city": "EDMONTON", "province": "AB", "country": "CA", "postalCode": "T6E2V3", "twitter": "None", "instagram": "None", "facebook": "None", "youtube": "None", "website": "None", "summary": "None", "logo": "None", "latitude": 53.52623971505009, "longitude": -113.50307673708097}, "890029044RR0001": {"name": "The Kitchener/Waterloo Christadelphian Ecclesia", "designationCode": "C", "categoryCode": "39", "address": "639 CEDARGROVE PLACE", "city": "WATERLOO", "province": "ON", "country": "CA", "postalCode": "N2L4Y8", "twitter": "None", "instagram": "None", "facebook": "None", "youtube": "None", "website": "None", "summary": "None", "logo": "None", "latitude": 43.48941326447018, "longitude": -80.56449203274857}, "800219719RR0001": {"name": "The Kitimat General Hospital Foundation", "designationCode": "A", "categoryCode": "13", "address": "920 LAHAKAS BLVD SOUTH", "city": "KITIMAT", "province": "BC", "country": "CA", "postalCode": "V8C2S3", "twitter": "None", "instagram": "None", "facebook": "None", "youtube": "None", "website": "None", "summary": "None", "logo": "None", "latitude": 54.04886076908646, "longitude": -128.6501376330718}, "856875851RR0001": {"name": "The Klein-Panneton Foundation / Fondation Klein-Panneton", "designationCode": "B", "categoryCode": "03", "address": "5258 WINSTON CHURCHILL DR.", "city": "TERRA COTTA", "province": "ON", "country": "CA", "postalCode": "L0P1N0", "twitter": "None", "instagram": "None", "facebook": "None", "youtube": "None", "website": "None", "summary": "None", "logo": "None", "latitude": 43.7272816021567, "longitude": -79.95933744667433}, "823998406RR0001": {"name": "The Knightsgrange Foundation", "designationCode": "B", "categoryCode": "23", "address": "200 BAY STREET, SUITE 3800    ROYAL BANK PLAZA PO BOX 84", "city": "TORONTO", "province": "ON", "country": "CA", "postalCode": "M5J2Z4", "twitter": "None", "instagram": "None", "facebook": "None", "youtube": "None", "website": "None", "summary": "None", "logo": "None", "latitude": 43.64665675816111, "longitude": -79.37941611867521}, "806054409RR0001": {"name": "The Korean Church of Banff", "designationCode": "C", "categoryCode": "39", "address": "PO BOX 1167", "city": "BANFF", "province": "AB", "country": "CA", "postalCode": "T1L1B1", "twitter": "None", "instagram": "None", "facebook": "None", "youtube": "None", "website": "None", "summary": "None", "logo": "None", "latitude": 51.17577900000006, "longitude": -115.57274299999993}, "848264495RR0001": {"name": "The Korean Evergreen Church of Calgary", "designationCode": "C", "categoryCode": "39", "address": "116 HIDDEN PARK NW", "city": "CALGARY", "province": "AB", "country": "CA", "postalCode": "T3A5K5", "twitter": "None", "instagram": "None", "facebook": "None", "youtube": "None", "website": "None", "summary": "None", "logo": "None", "latitude": 51.14711758673323, "longitude": -114.11734626132484}, "777964693RR0001": {"name": "The Korean New Life Presbyterian Church of Calgary", "designationCode": "C", "categoryCode": "37", "address": "12 4 ST NE", "city": "CALGARY", "province": "AB", "country": "CA", "postalCode": "T2E3R5", "twitter": "None", "instagram": "None", "facebook": "None", "youtube": "None", "website": "None", "summary": "None", "logo": "None", "latitude": 51.051414867043775, "longitude": -114.05168979695897}, "824882286RR0001": {"name": "The Korean Presbyterian Church of Fredericton LTD.", "designationCode": "C", "categoryCode": "39", "address": "135 CANTERBURY DR", "city": "FREDERICTON", "province": "NB", "country": "CA", "postalCode": "E3B4L7", "twitter": "None", "instagram": "None", "facebook": "None", "youtube": "None", "website": "None", "summary": "None", "logo": "None", "latitude": 45.936049514859405, "longitude": -66.63760194754457}, "808827687RR0001": {"name": "The Kungwini Dream Fund", "designationCode": "C", "categoryCode": "11", "address": "18 VIOLETRIDGE COURT", "city": "BRAMPTON", "province": "ON", "country": "CA", "postalCode": "L6P2W4", "twitter": "None", "instagram": "None", "facebook": "None", "youtube": "None", "website": "None", "summary": "None", "logo": "None", "latitude": 43.77073484263371, "longitude": -79.6787574382824}, "812649499RR0001": {"name": "The Kuzek Foundation", "designationCode": "B", "categoryCode": "03", "address": "6224 - 17A STREET SE", "city": "CALGARY", "province": "AB", "country": "CA", "postalCode": "T2C0L8", "twitter": "None", "instagram": "None", "facebook": "None", "youtube": "None", "website": "None", "summary": "None", "logo": "None", "latitude": 50.99868108964742, "longitude": -114.01770791352658}, "840124051RR0001": {"name": "The KCMN Velan Foundation / La fondation KCMN Velan", "designationCode": "B", "categoryCode": "03", "address": "665 BELMONT AVENUE", "city": "WESTMOUNT", "province": "QC", "country": "CA", "postalCode": "H3Y2W3", "twitter": "None", "instagram": "None", "facebook": "None", "youtube": "None", "website": "None", "summary": "None", "logo": "None", "latitude": 45.485978268682445, "longitude": -73.61035028308049}, "814770152RR0001": {"name": "The KNOR Foundation: Local Food for Local Good", "designationCode": "C", "categoryCode": "21", "address": "513 LAKESHORE RD", "city": "COBOURG", "province": "ON", "country": "CA", "postalCode": "K9A1S4", "twitter": "None", "instagram": "None", "facebook": "None", "youtube": "None", "website": "None", "summary": "None", "logo": "None", "latitude": 43.958075986900944, "longitude": -78.14385027549176}, "828649269RR0001": {"name": "The KW Living Room Community of Faith", "designationCode": "C", "categoryCode": "39", "address": "285 PANDORA AVENUE NORTH", "city": "KITCHENER", "province": "ON", "country": "CA", "postalCode": "N2H3E4", "twitter": "None", "instagram": "None", "facebook": "None", "youtube": "None", "website": "None", "summary": "None", "logo": "None", "latitude": 43.45045369856897, "longitude": -80.46947974603275}, "119241594RR0001": {"name": "The L'Ardoise and District Volunteer Fire Dept. Association", "designationCode": "C", "categoryCode": "59", "address": "P.O. BOX 24, L'ARDOISE", "city": "RICHMOND CO", "province": "NS", "country": "CA", "postalCode": "B0E1S0", "twitter": "None", "instagram": "None", "facebook": "None", "youtube": "None", "website": "None", "summary": "None", "logo": "None", "latitude": 45.61290000000008, "longitude": -60.75831999999997}, "851238691RR0001": {"name": "The L'Chayim Foundation", "designationCode": "B", "categoryCode": "03", "address": "5000 YONGE STREET #1801", "city": "TORONTO", "province": "ON", "country": "CA", "postalCode": "M2N7E9", "twitter": "None", "instagram": "None", "facebook": "None", "youtube": "None", "website": "None", "summary": "None", "logo": "None", "latitude": 43.76605859394659, "longitude": -79.41210975523666}, "132282096RR0001": {"name": "The Lac La Biche County Library Board", "designationCode": "C", "categoryCode": "50", "address": "P.O. BOX 2039,", "city": "LAC LA BICHE", "province": "AB", "country": "CA", "postalCode": "T0A2C0", "twitter": "None", "instagram": "None", "facebook": "None", "youtube": "None", "website": "None", "summary": "None", "logo": "None", "latitude": 54.768200000000036, "longitude": -111.98244999999997}, "751116328RR0001": {"name": "The Ladies of Sacred Heart Batawa", "designationCode": "A", "categoryCode": "03", "address": "40 SIDNEY CRES,", "city": "BATAWA", "province": "ON", "country": "CA", "postalCode": "K0K1E0", "twitter": "None", "instagram": "None", "facebook": "None", "youtube": "None", "website": "None", "summary": "None", "logo": "None", "latitude": 44.1727587454845, "longitude": -77.5985565831552}, "811827856RR0001": {"name": "The Lafl\u00e8che Family Foundation / Fondation Famille Lafl\u00e8che", "designationCode": "B", "categoryCode": "03", "address": "15949 SUNSET DRIVE", "city": "LONG SAULT", "province": "ON", "country": "CA", "postalCode": "K0C1P0", "twitter": "None", "instagram": "None", "facebook": "None", "youtube": "None", "website": "None", "summary": "None", "logo": "None", "latitude": 45.02000979739165, "longitude": -74.87650461532687}, "819211764RR0001": {"name": "The Lamb Family Foundation Inc.", "designationCode": "B", "categoryCode": "03", "address": "BOX 10, SITE 11               RR7, LCD 1", "city": "CALGARY", "province": "AB", "country": "CA", "postalCode": "T2P2G7", "twitter": "None", "instagram": "None", "facebook": "None", "youtube": "None", "website": "None", "summary": "None", "logo": "None", "latitude": 51.050427000000056, "longitude": -114.07341499999993}, "821106861RR0001": {"name": "The Lampstand House of Prayer", "designationCode": "C", "categoryCode": "39", "address": "PO BOX 1229", "city": "BLENHEIM", "province": "ON", "country": "CA", "postalCode": "N0P1A0", "twitter": "None", "instagram": "None", "facebook": "None", "youtube": "None", "website": "None", "summary": "None", "logo": "None", "latitude": 42.335210000000075, "longitude": -81.99768999999998}, "805849916RR0001": {"name": "The Land Between", "designationCode": "C", "categoryCode": "52", "address": "POST OFFICE BOX 1368", "city": "HALIBURTON", "province": "ON", "country": "CA", "postalCode": "K0M1S0", "twitter": "None", "instagram": "None", "facebook": "None", "youtube": "None", "website": "None", "summary": "None", "logo": "None", "latitude": 45.14400331500008, "longitude": -78.51173417199999}, "849081534RR0001": {"name": "The Landmark Foundation", "designationCode": "B", "categoryCode": "03", "address": "PH B-2190 LAKESHORE ROAD", "city": "BURLINGTON", "province": "ON", "country": "CA", "postalCode": "L7R4K1", "twitter": "None", "instagram": "None", "facebook": "None", "youtube": "None", "website": "None", "summary": "None", "logo": "None", "latitude": 43.32819285062648, "longitude": -79.78868034410561}, "729282525RR0001": {"name": "The Lara And Bert Clark Family Foundation", "designationCode": "B", "categoryCode": "03", "address": "3150-100 WELLINGTON", "city": "TORONTO", "province": "ON", "country": "CA", "postalCode": "M5K1A1", "twitter": "None", "instagram": "None", "facebook": "None", "youtube": "None", "website": "None", "summary": "None", "logo": "None", "latitude": 43.6467761218764, "longitude": -79.38249996615488}, "823768155RR0001": {"name": "The Lara Anne Hudson Foundation", "designationCode": "A", "categoryCode": "13", "address": "150 ATHABASCA DRIVE", "city": "MAPLE", "province": "ON", "country": "CA", "postalCode": "L6A2W1", "twitter": "None", "instagram": "None", "facebook": "None", "youtube": "None", "website": "None", "summary": "None", "logo": "None", "latitude": 43.8895159303479, "longitude": -79.50049367144628}, "811243187RR0001": {"name": "The Larry and Donna Shumka Family Foundation Inc.", "designationCode": "B", "categoryCode": "03", "address": "1800 - 10180 101 ST NW", "city": "EDMONTON", "province": "AB", "country": "CA", "postalCode": "T5J3S4", "twitter": "None", "instagram": "None", "facebook": "None", "youtube": "None", "website": "None", "summary": "None", "logo": "None", "latitude": 53.54247641909515, "longitude": -113.49376771934274}, "805157146RR0001": {"name": "The Last Chance Cat Ranch Society", "designationCode": "C", "categoryCode": "54", "address": "POST OFFICE BOX 30025         PARK PLACE", "city": "LETHBRIDGE", "province": "AB", "country": "CA", "postalCode": "T1J4X3", "twitter": "None", "instagram": "None", "facebook": "None", "youtube": "None", "website": "None", "summary": "None", "logo": "None", "latitude": 49.69383000000006, "longitude": -112.83373249999994}, "814247862RR0001": {"name": "The Laurie and Richard Lederman Charitable Foundation", "designationCode": "B", "categoryCode": "03", "address": "300 - 446 SPADINA RD", "city": "TORONTO", "province": "ON", "country": "CA", "postalCode": "M5P3M2", "twitter": "None", "instagram": "None", "facebook": "None", "youtube": "None", "website": "None", "summary": "None", "logo": "None", "latitude": 43.68906051373424, "longitude": -79.4128743475098}, "738819325RR0001": {"name": "The Lawrencetown Cemetery Company", "designationCode": "C", "categoryCode": "59", "address": "42 JULIEN LANE", "city": "WEST PORTERS LAKE", "province": "NS", "country": "CA", "postalCode": "B3E1K9", "twitter": "None", "instagram": "None", "facebook": "None", "youtube": "None", "website": "None", "summary": "None", "logo": "None", "latitude": 44.6996898153964, "longitude": -63.30528552083295}, "829916097RR0001": {"name": "The Lazaridis Family Foundation", "designationCode": "B", "categoryCode": "03", "address": "400 APPLEWOOD CRES. SUITE 500", "city": "VAUGHAN", "province": "ON", "country": "CA", "postalCode": "L4K0C3", "twitter": "None", "instagram": "None", "facebook": "None", "youtube": "None", "website": "None", "summary": "None", "logo": "None", "latitude": 43.80423065416364, "longitude": -79.53880727488524}, "875383218RR0001": {"name": "The Leadership Centre Society of Central Alberta", "designationCode": "C", "categoryCode": "29", "address": "4811 - 48 ST, MAIN FLOOR", "city": "RED DEER", "province": "AB", "country": "CA", "postalCode": "T4N1S6", "twitter": "None", "instagram": "None", "facebook": "None", "youtube": "None", "website": "None", "summary": "None", "logo": "None", "latitude": 52.2670785212074, "longitude": -113.8097025}, "106908197RR0001": {"name": "The Leadership Centre Willow Creek Canada", "designationCode": "C", "categoryCode": "47", "address": "5321 DOWNEY RD", "city": "OTTAWA", "province": "ON", "country": "CA", "postalCode": "K1X1C6", "twitter": "None", "instagram": "None", "facebook": "None", "youtube": "None", "website": "None", "summary": "None", "logo": "None", "latitude": 45.2597045115412, "longitude": -75.64094139944656}, "854265113RR0001": {"name": "The Leadership Exchange", "designationCode": "C", "categoryCode": "21", "address": "20 BAMBURGH CIR", "city": "SCARBOROUGH", "province": "ON", "country": "CA", "postalCode": "M1W3Y5", "twitter": "None", "instagram": "None", "facebook": "None", "youtube": "None", "website": "None", "summary": "None", "logo": "None", "latitude": 43.816179351116496, "longitude": -79.32523670206008}, "806398699RR0001": {"name": "The League of Ordinary Gentlemen", "designationCode": "A", "categoryCode": "03", "address": "11 BENHUR CRESCENT", "city": "SCARBOROUGH", "province": "ON", "country": "CA", "postalCode": "M1H1P2", "twitter": "None", "instagram": "None", "facebook": "None", "youtube": "None", "website": "None", "summary": "None", "logo": "None", "latitude": 43.760387725489196, "longitude": -79.23825556910384}, "834187783RR0001": {"name": "The Leahurst Charitable Foundation", "designationCode": "C", "categoryCode": "21", "address": "153 WILLINGDON AVE", "city": "KINGSTON", "province": "ON", "country": "CA", "postalCode": "K7L4H9", "twitter": "None", "instagram": "None", "facebook": "None", "youtube": "None", "website": "None", "summary": "None", "logo": "None", "latitude": 44.225722822926876, "longitude": -76.50747454382842}, "805161593RR0001": {"name": "The Learn and Uplift Foundation", "designationCode": "C", "categoryCode": "20", "address": "97 - 455 APACHE CRT", "city": "MISSISSAUGA", "province": "ON", "country": "CA", "postalCode": "L4Z3W8", "twitter": "None", "instagram": "None", "facebook": "None", "youtube": "None", "website": "None", "summary": "None", "logo": "None", "latitude": 43.617980656182866, "longitude": -79.6480328888854}, "107830689RR0001": {"name": "The Learning Place", "designationCode": "C", "categoryCode": "21", "address": "7700 HURONTARIO ST            SUITE 413", "city": "BRAMPTON", "province": "ON", "country": "CA", "postalCode": "L6Y4M3", "twitter": "None", "instagram": "None", "facebook": "None", "youtube": "None", "website": "None", "summary": "None", "logo": "None", "latitude": 43.66015379664278, "longitude": -79.7255409433323}, "838560787RR0001": {"name": "The Lecluse Family Foundation", "designationCode": "B", "categoryCode": "05", "address": "201 LANGFORD CHURCH ROAD", "city": "BRANTFORD", "province": "ON", "country": "CA", "postalCode": "N3T5L4", "twitter": "None", "instagram": "None", "facebook": "None", "youtube": "None", "website": "None", "summary": "None", "logo": "None", "latitude": 43.149135895954984, "longitude": -80.11662674581444}, "851202481RR0001": {"name": "The Legacy Ridge Foundation Inc.", "designationCode": "B", "categoryCode": "09", "address": "302 WILKINS CRES", "city": "SASKATOON", "province": "SK", "country": "CA", "postalCode": "S7W0C5", "twitter": "None", "instagram": "None", "facebook": "None", "youtube": "None", "website": "None", "summary": "None", "logo": "None", "latitude": 52.15443377601138, "longitude": -106.56237100551127}, "802441444RR0001": {"name": "The Legal Leaders for Diversity Trust Fund", "designationCode": "C", "categoryCode": "21", "address": "800 BOUL RENE-LEVESQUE O", "city": "MONTREAL", "province": "QC", "country": "CA", "postalCode": "H3B1Y8", "twitter": "None", "instagram": "None", "facebook": "None", "youtube": "None", "website": "None", "summary": "None", "logo": "None", "latitude": 45.50118183845011, "longitude": -73.56792866440675}, "790273122RR0001": {"name": "The Legalswipe Foundation", "designationCode": "C", "categoryCode": "59", "address": "10 DUNDAS STREET EAST, SUITE 6", "city": "TORONTO", "province": "ON", "country": "CA", "postalCode": "M5B2G9", "twitter": "None", "instagram": "None", "facebook": "None", "youtube": "None", "website": "None", "summary": "None", "logo": "None", "latitude": 43.65643517626506, "longitude": -79.38053825465974}, "774374524RR0001": {"name": "The Legion National Foundation", "designationCode": "C", "categoryCode": "29", "address": "86 AIRD PL", "city": "KANATA", "province": "ON", "country": "CA", "postalCode": "K2L0A1", "twitter": "None", "instagram": "None", "facebook": "None", "youtube": "None", "website": "None", "summary": "None", "logo": "None", "latitude": 45.310559520139535, "longitude": -75.89971255066642}, "844076109RR0001": {"name": "The Lemessurier Foundation / La Fondation Lemessurier", "designationCode": "B", "categoryCode": "03", "address": "17E - 1650 RUE SHERBROOKE O", "city": "MONTREAL", "province": "QC", "country": "CA", "postalCode": "H3H1C9", "twitter": "None", "instagram": "None", "facebook": "None", "youtube": "None", "website": "None", "summary": "None", "logo": "None", "latitude": 45.49362439667184, "longitude": -73.58437916366098}, "821846995RR0001": {"name": "The Leonard Dokis Foundation", "designationCode": "C", "categoryCode": "21", "address": "302 CHARLIE'S BAY ROAD", "city": "DOKIS FIRST NATION", "province": "ON", "country": "CA", "postalCode": "P0M2N1", "twitter": "None", "instagram": "None", "facebook": "None", "youtube": "None", "website": "None", "summary": "None", "logo": "None", "latitude": 46.16567700000006, "longitude": -80.51431399999993}, "806958203RR0001": {"name": "The Lethbridge Jazz Society", "designationCode": "C", "categoryCode": "22", "address": "318 7 ST S", "city": "LETHBRIDGE", "province": "AB", "country": "CA", "postalCode": "T1J2G2", "twitter": "None", "instagram": "None", "facebook": "None", "youtube": "None", "website": "None", "summary": "None", "logo": "None", "latitude": 49.69560026447973, "longitude": -112.8371823329381}, "812831329RR0001": {"name": "The Levante Foundation", "designationCode": "B", "categoryCode": "03", "address": "PO BOX 27058                  RPO DUNDAS MCLAREN", "city": "CAMBRIDGE", "province": "ON", "country": "CA", "postalCode": "N1R8H1", "twitter": "None", "instagram": "None", "facebook": "None", "youtube": "None", "website": "None", "summary": "None", "logo": "None", "latitude": 43.36032747117104, "longitude": -80.29288131122428}, "891320178RR0001": {"name": "The Levy Family Foundation", "designationCode": "B", "categoryCode": "03", "address": "114 INGLEWOOD DRIVE", "city": "TORONTO", "province": "ON", "country": "CA", "postalCode": "M4T1H5", "twitter": "None", "instagram": "None", "facebook": "None", "youtube": "None", "website": "None", "summary": "None", "logo": "None", "latitude": 43.68870100692491, "longitude": -79.3859168751225}, "872691092RR0001": {"name": "The Lewitt Family Foundation", "designationCode": "B", "categoryCode": "13", "address": "4 LOWTHER AVE SUITE 701", "city": "TORONTO", "province": "ON", "country": "CA", "postalCode": "M5R1C6", "twitter": "None", "instagram": "None", "facebook": "None", "youtube": "None", "website": "None", "summary": "None", "logo": "None", "latitude": 43.670923165156566, "longitude": -79.39565773633788}, "830961082RR0001": {"name": "The LeBrun Family Foundation", "designationCode": "B", "categoryCode": "03", "address": "5 MELROSE AVE.", "city": "NEW MARYLAND", "province": "NB", "country": "CA", "postalCode": "E3C1C2", "twitter": "None", "instagram": "None", "facebook": "None", "youtube": "None", "website": "None", "summary": "None", "logo": "None", "latitude": 45.90536860087148, "longitude": -66.69016488340372}, "815145412RR0001": {"name": "The LeGresley Family Foundation", "designationCode": "B", "categoryCode": "03", "address": "11 THE KINGSWAY", "city": "TORONTO", "province": "ON", "country": "CA", "postalCode": "M8X2S9", "twitter": "None", "instagram": "None", "facebook": "None", "youtube": "None", "website": "None", "summary": "None", "logo": "None", "latitude": 43.65049024176222, "longitude": -79.50062509893824}, "106833080RR0001": {"name": "The Life Centre", "designationCode": "C", "categoryCode": "36", "address": "189 MARSH ST", "city": "NEW GLASGOW", "province": "NS", "country": "CA", "postalCode": "B2H4R8", "twitter": "None", "instagram": "None", "facebook": "None", "youtube": "None", "website": "None", "summary": "None", "logo": "None", "latitude": 45.584533279473824, "longitude": -62.64437913295623}, "838871119RR0001": {"name": "The Life Centre", "designationCode": "C", "categoryCode": "34", "address": "32027 PEARDONVILLE RD", "city": "ABBOTSFORD", "province": "BC", "country": "CA", "postalCode": "V2T1M2", "twitter": "None", "instagram": "None", "facebook": "None", "youtube": "None", "website": "None", "summary": "None", "logo": "None", "latitude": 49.04575649047804, "longitude": -122.33611214348782}, "790359525RR0001": {"name": "The Life-by-Life Child and Youth Development Foundation", "designationCode": "C", "categoryCode": "20", "address": "51 WOOD CRESCENT", "city": "REGINA", "province": "SK", "country": "CA", "postalCode": "S4S6J6", "twitter": "None", "instagram": "None", "facebook": "None", "youtube": "None", "website": "None", "summary": "None", "logo": "None", "latitude": 50.40755999999999, "longitude": -104.64214992697235}, "842959371RR0001": {"name": "The Light of Life Native Fellowship Society Chase", "designationCode": "C", "categoryCode": "39", "address": "295 SHUSWAP AVENUE            POST OFFICE BOX 498", "city": "CHASE", "province": "BC", "country": "CA", "postalCode": "V0E1M0", "twitter": "None", "instagram": "None", "facebook": "None", "youtube": "None", "website": "None", "summary": "None", "logo": "None", "latitude": 50.81367367057005, "longitude": -119.69500814143255}}