{"119109817RR0132": {"name": "SACRED HEART PARISH", "designationCode": "C", "categoryCode": "38", "address": "647 MURRAY STREET", "city": "WALLACEBURG", "province": "ON", "country": "CA", "postalCode": "N8A1W1", "twitter": "None", "instagram": "None", "facebook": "None", "youtube": "None", "website": "None", "summary": "None", "logo": "None", "latitude": 42.58532680099833, "longitude": -82.38016319937704}, "119110450RR0011": {"name": "SACRED HEART PARISH", "designationCode": "C", "categoryCode": "38", "address": "PO BOX 118", "city": "MILDMAY", "province": "ON", "country": "CA", "postalCode": "N0G2J0", "twitter": "None", "instagram": "None", "facebook": "None", "youtube": "None", "website": "None", "summary": "None", "logo": "None", "latitude": 44.04200000000003, "longitude": -81.11933999999997}, "119110450RR0025": {"name": "SACRED HEART PARISH", "designationCode": "C", "categoryCode": "38", "address": "BOX 273", "city": "TEESWATER", "province": "ON", "country": "CA", "postalCode": "N0G2S0", "twitter": "None", "instagram": "None", "facebook": "None", "youtube": "None", "website": "None", "summary": "None", "logo": "None", "latitude": 43.99993000000006, "longitude": -81.28715999999997}, "119110450RR0038": {"name": "SACRED HEART PARISH", "designationCode": "C", "categoryCode": "38", "address": "BOX 38", "city": "WALKERTON", "province": "ON", "country": "CA", "postalCode": "N0G2V0", "twitter": "None", "instagram": "None", "facebook": "None", "youtube": "None", "website": "None", "summary": "None", "logo": "None", "latitude": 44.12817000000007, "longitude": -81.15211999999997}, "119110450RR0045": {"name": "SACRED HEART PARISH", "designationCode": "C", "categoryCode": "38", "address": "19 VIEWPOINT AVE", "city": "HAMILTON", "province": "ON", "country": "CA", "postalCode": "L8V2S4", "twitter": "None", "instagram": "None", "facebook": "None", "youtube": "None", "website": "None", "summary": "None", "logo": "None", "latitude": 43.241273591724884, "longitude": -79.848622709389}, "119110450RR0070": {"name": "SACRED HEART PARISH", "designationCode": "C", "categoryCode": "38", "address": "GENERAL DELIVERY", "city": "KENILWORTH", "province": "ON", "country": "CA", "postalCode": "N0G2E0", "twitter": "None", "instagram": "None", "facebook": "None", "youtube": "None", "website": "None", "summary": "None", "logo": "None", "latitude": 43.90874700000006, "longitude": -80.65956499999993}, "119110450RR0097": {"name": "SACRED HEART PARISH", "designationCode": "C", "categoryCode": "38", "address": "17 WASHINGTON ST", "city": "PARIS", "province": "ON", "country": "CA", "postalCode": "N3L2A2", "twitter": "None", "instagram": "None", "facebook": "None", "youtube": "None", "website": "None", "summary": "None", "logo": "None", "latitude": 43.18770254287615, "longitude": -80.3779989382824}, "119110450RR0116": {"name": "SACRED HEART PARISH", "designationCode": "C", "categoryCode": "38", "address": "75 MANITOBA STREET", "city": "GUELPH", "province": "ON", "country": "CA", "postalCode": "N1E3C2", "twitter": "None", "instagram": "None", "facebook": "None", "youtube": "None", "website": "None", "summary": "None", "logo": "None", "latitude": 43.54655088897231, "longitude": -80.23520562862839}, "119122786RR0017": {"name": "SACRED HEART PARISH", "designationCode": "C", "categoryCode": "38", "address": "6500 SOUTHRIDGE AVE", "city": "PRINCE GEORGE", "province": "BC", "country": "CA", "postalCode": "V2N5P9", "twitter": "None", "instagram": "None", "facebook": "None", "youtube": "None", "website": "None", "summary": "None", "logo": "None", "latitude": 53.86420563941114, "longitude": -122.78374828519728}, "119264174RR0016": {"name": "SACRED HEART PARISH", "designationCode": "C", "categoryCode": "38", "address": "PO BOX 1038", "city": "SIOUX LOOKOUT", "province": "ON", "country": "CA", "postalCode": "P8T1B3", "twitter": "None", "instagram": "None", "facebook": "None", "youtube": "None", "website": "None", "summary": "None", "logo": "None", "latitude": 50.09808300000006, "longitude": -91.91503249999994}, "129950804RR0014": {"name": "SACRED HEART PARISH", "designationCode": "C", "categoryCode": "38", "address": "4044 NELTHORPE ST", "city": "VICTORIA", "province": "BC", "country": "CA", "postalCode": "V8X2A1", "twitter": "None", "instagram": "None", "facebook": "None", "youtube": "None", "website": "None", "summary": "None", "logo": "None", "latitude": 48.47131038328815, "longitude": -123.37383839205938}, "130599442RR0021": {"name": "SACRED HEART PARISH", "designationCode": "C", "categoryCode": "38", "address": "296 CEDAR STREET SOUTH", "city": "TIMMINS", "province": "ON", "country": "CA", "postalCode": "P4N2H3", "twitter": "None", "instagram": "None", "facebook": "None", "youtube": "None", "website": "None", "summary": "None", "logo": "None", "latitude": 48.47016811194547, "longitude": -81.32949556608948}, "107876468RR0012": {"name": "SACRED HEART PARISH BADGER", "designationCode": "C", "categoryCode": "38", "address": "BOX 250", "city": "BADGER", "province": "NL", "country": "CA", "postalCode": "A0H1A0", "twitter": "None", "instagram": "None", "facebook": "None", "youtube": "None", "website": "None", "summary": "None", "logo": "None", "latitude": 48.983250000000055, "longitude": -56.03153999999995}, "107307191RR0069": {"name": "SACRED HEART PARISH LIEBENTHAL", "designationCode": "C", "categoryCode": "38", "address": "BOX 60", "city": "LIEBENTHAL", "province": "SK", "country": "CA", "postalCode": "S0N1L0", "twitter": "None", "instagram": "None", "facebook": "None", "youtube": "None", "website": "None", "summary": "None", "logo": "None", "latitude": 50.66040000000004, "longitude": -109.53639999999996}, "119110450RR0081": {"name": "SACRED HEART PARISH ROCKWOOD", "designationCode": "C", "categoryCode": "38", "address": "P.O. BOX 610", "city": "ROCKWOOD", "province": "ON", "country": "CA", "postalCode": "N0B2K0", "twitter": "None", "instagram": "None", "facebook": "None", "youtube": "None", "website": "None", "summary": "None", "logo": "None", "latitude": 43.61851000000007, "longitude": -80.14375999999999}, "107585085RR0066": {"name": "SACRED HEART PARISH-LOON LAKE", "designationCode": "C", "categoryCode": "39", "address": "PO BOX 508", "city": "LOON LAKE", "province": "SK", "country": "CA", "postalCode": "S0M1L0", "twitter": "None", "instagram": "None", "facebook": "None", "youtube": "None", "website": "None", "summary": "None", "logo": "None", "latitude": 53.8842735, "longitude": -109.57983525}, "128177722RR0001": {"name": "SACRED HEART PARISH,", "designationCode": "C", "categoryCode": "38", "address": "BOX 1240", "city": "VIRDEN", "province": "MB", "country": "CA", "postalCode": "R0M2C0", "twitter": "None", "instagram": "None", "facebook": "None", "youtube": "None", "website": "None", "summary": "None", "logo": "None", "latitude": 49.85688000000005, "longitude": -100.92262999999997}, "133722629RR0001": {"name": "SACRED HEART PARISH,", "designationCode": "C", "categoryCode": "38", "address": "BOX 56", "city": "ERICKSON", "province": "MB", "country": "CA", "postalCode": "R0J0P0", "twitter": "None", "instagram": "None", "facebook": "None", "youtube": "None", "website": "None", "summary": "None", "logo": "None", "latitude": 50.49852000000004, "longitude": -99.90785999999997}, "106880107RR0027": {"name": "SACRED HEART PARISH, BIG POND", "designationCode": "C", "categoryCode": "38", "address": "21 WESLEY ST", "city": "SYDNEY", "province": "NS", "country": "CA", "postalCode": "B1N2M5", "twitter": "None", "instagram": "None", "facebook": "None", "youtube": "None", "website": "None", "summary": "None", "logo": "None", "latitude": 46.15793640550516, "longitude": -60.18402579017829}, "107585085RR0044": {"name": "SACRED HEART PARISH, SPIRITWOOD, SK", "designationCode": "C", "categoryCode": "38", "address": "BOX 901", "city": "SPIRITWOOD", "province": "SK", "country": "CA", "postalCode": "S0J2M0", "twitter": "None", "instagram": "None", "facebook": "None", "youtube": "None", "website": "None", "summary": "None", "logo": "None", "latitude": 53.366550000000075, "longitude": -107.51787999999999}, "819005919RR0001": {"name": "SACRED HEART ROMAN CATHOLIC PARISH INC.", "designationCode": "C", "categoryCode": "38", "address": "PO BOX 250", "city": "ALBERTON", "province": "PE", "country": "CA", "postalCode": "C0B1B0", "twitter": "None", "instagram": "None", "facebook": "None", "youtube": "None", "website": "None", "summary": "None", "logo": "None", "latitude": 46.813510000000065, "longitude": -64.06533999999994}, "108097825RR0001": {"name": "SACRED HEART SCHOOL OF HALIFAX", "designationCode": "C", "categoryCode": "20", "address": "5820 SPRING GARDEN RD", "city": "HALIFAX", "province": "NS", "country": "CA", "postalCode": "B3H1X8", "twitter": "None", "instagram": "None", "facebook": "None", "youtube": "None", "website": "None", "summary": "None", "logo": "None", "latitude": 44.6412554805241, "longitude": -63.583249859973556}, "107948127RR0001": {"name": "SACRED HEART UKRAINIAN CATHOLIC CHURCH", "designationCode": "C", "categoryCode": "38", "address": "BOX 1183", "city": "GIMLI", "province": "MB", "country": "CA", "postalCode": "R0C1B0", "twitter": "None", "instagram": "None", "facebook": "None", "youtube": "None", "website": "None", "summary": "None", "logo": "None", "latitude": 50.30677349294383, "longitude": -96.92898988377391}, "119131787RR0001": {"name": "SACRED HEART UKRAINIAN CATHOLIC CHURCH", "designationCode": "C", "categoryCode": "38", "address": "125 CONCESSION ROAD EAST      BOX 147, MAIN STN", "city": "WATERFORD", "province": "ON", "country": "CA", "postalCode": "N0E1Y0", "twitter": "None", "instagram": "None", "facebook": "None", "youtube": "None", "website": "None", "summary": "None", "logo": "None", "latitude": 42.58421335204119, "longitude": -80.54279721103016}, "889491171RR0001": {"name": "SACRED HEART UKRAINIAN CATHOLIC CHURCH", "designationCode": "C", "categoryCode": "38", "address": "PO BOX 728", "city": "WYNYARD", "province": "SK", "country": "CA", "postalCode": "S0A4T0", "twitter": "None", "instagram": "None", "facebook": "None", "youtube": "None", "website": "None", "summary": "None", "logo": "None", "latitude": 51.76523000000003, "longitude": -104.18008999999995}, "107948143RR0001": {"name": "SACRED HEART UKRAINIAN CATHOLIC PARISH", "designationCode": "C", "categoryCode": "38", "address": "BOX 657", "city": "ROSSBURN", "province": "MB", "country": "CA", "postalCode": "R0J1V0", "twitter": "None", "instagram": "None", "facebook": "None", "youtube": "None", "website": "None", "summary": "None", "logo": "None", "latitude": 50.66896200000005, "longitude": -100.81081249999994}, "894462621RR0001": {"name": "SACRED MUSIC SOCIETY (ONTARIO)", "designationCode": "C", "categoryCode": "22", "address": "521 VELMAR DR", "city": "WOODBRIDGE", "province": "ON", "country": "CA", "postalCode": "L4L8H8", "twitter": "None", "instagram": "None", "facebook": "None", "youtube": "None", "website": "None", "summary": "None", "logo": "None", "latitude": 43.81851257314322, "longitude": -79.556990775636}, "794192922RR0001": {"name": "SACRED PLACE TABERNACLE", "designationCode": "C", "categoryCode": "49", "address": "390 DIXON ROAD UNIT 1701", "city": "ETOBICOKE", "province": "ON", "country": "CA", "postalCode": "M9R1T2", "twitter": "None", "instagram": "None", "facebook": "None", "youtube": "None", "website": "None", "summary": "None", "logo": "None", "latitude": 43.694540055802314, "longitude": -79.55761930045007}, "888198199RR0001": {"name": "SADDLE LAKE BOYS AND GIRLS CLUB", "designationCode": "C", "categoryCode": "09", "address": "BOX 220", "city": "SADDLE LAKE", "province": "AB", "country": "CA", "postalCode": "T0A3T0", "twitter": "None", "instagram": "None", "facebook": "None", "youtube": "None", "website": "None", "summary": "None", "logo": "None", "latitude": 54.00291000000004, "longitude": -111.69998999999996}, "867927667RR0001": {"name": "SADDLE LAKE INDIAN FULL GOSPEL MISSION", "designationCode": "C", "categoryCode": "39", "address": "BOX 69", "city": "SADDLE LAKE", "province": "AB", "country": "CA", "postalCode": "T0A3T0", "twitter": "None", "instagram": "None", "facebook": "None", "youtube": "None", "website": "None", "summary": "None", "logo": "None", "latitude": 54.00291000000004, "longitude": -111.69998999999996}, "119050433RR0001": {"name": "SADDLEBACK COMMUNITY CHURCH", "designationCode": "C", "categoryCode": "36", "address": "BOX 399", "city": "NAKUSP", "province": "BC", "country": "CA", "postalCode": "V0G1R0", "twitter": "None", "instagram": "None", "facebook": "None", "youtube": "None", "website": "None", "summary": "None", "logo": "None", "latitude": 50.23888800000006, "longitude": -117.80203399999994}, "862071701RR0001": {"name": "SADH SANGAT BOARD (NANAKSAR SIAHAR) SOCIETY", "designationCode": "C", "categoryCode": "62", "address": "5936-124TH STREET", "city": "SURREY", "province": "BC", "country": "CA", "postalCode": "V3X1X5", "twitter": "None", "instagram": "None", "facebook": "None", "youtube": "None", "website": "None", "summary": "None", "logo": "None", "latitude": 49.11065907799065, "longitude": -122.879079064372}, "872574645RR0001": {"name": "SADHU VASWANI CENTRE, TORONTO", "designationCode": "C", "categoryCode": "48", "address": "2133 RODICK ROAD", "city": "MARKHAM", "province": "ON", "country": "CA", "postalCode": "L6C1S7", "twitter": "None", "instagram": "None", "facebook": "None", "youtube": "None", "website": "None", "summary": "None", "logo": "None", "latitude": 43.87103189927274, "longitude": -79.35352368261304}, "890638190RR0001": {"name": "SADIKALI FOUNDATION", "designationCode": "B", "categoryCode": "05", "address": "101 WESTGATE PARK DRIVE", "city": "ST CATHARINES", "province": "ON", "country": "CA", "postalCode": "L2N5X1", "twitter": "None", "instagram": "None", "facebook": "None", "youtube": "None", "website": "None", "summary": "None", "logo": "None", "latitude": 43.205943372756565, "longitude": -79.25722645781634}, "107948309RR0001": {"name": "SADOCHOK CENTRE INC.", "designationCode": "C", "categoryCode": "01", "address": "35 WEST DEANE PARK DRIVE", "city": "ETOBICOKE", "province": "ON", "country": "CA", "postalCode": "M9B2R5", "twitter": "None", "instagram": "None", "facebook": "None", "youtube": "None", "website": "None", "summary": "None", "logo": "None", "latitude": 43.65986985980175, "longitude": -79.56615778238802}, "131473225RR0001": {"name": "SADOK VESELKA DAYCARE INC", "designationCode": "C", "categoryCode": "01", "address": "520 AIRLIES ST", "city": "WINNIPEG", "province": "MB", "country": "CA", "postalCode": "R2X2B2", "twitter": "None", "instagram": "None", "facebook": "None", "youtube": "None", "website": "None", "summary": "None", "logo": "None", "latitude": 49.933197565093145, "longitude": -97.1552813025562}, "884747122RR0001": {"name": "SAE FOUNDATION CANADA/LA FONDATION CANADIENNE DE SAE", "designationCode": "C", "categoryCode": "20", "address": "400 - 170 ATTWELL DR", "city": "ETOBICOKE", "province": "ON", "country": "CA", "postalCode": "M9W5Z5", "twitter": "None", "instagram": "None", "facebook": "None", "youtube": "None", "website": "None", "summary": "None", "logo": "None", "latitude": 43.68869163110991, "longitude": -79.5871935266308}, "889525598RR0001": {"name": "SAE SOON EVANGELICAL CHURCH", "designationCode": "C", "categoryCode": "39", "address": "35 HEDGES BLVD", "city": "TORONTO", "province": "ON", "country": "CA", "postalCode": "M9B3C3", "twitter": "None", "instagram": "None", "facebook": "None", "youtube": "None", "website": "None", "summary": "None", "logo": "None", "latitude": 43.6687068636969, "longitude": -79.55938491006413}, "892815366RR0001": {"name": "SAE-KWANG KOREAN CHURCH", "designationCode": "C", "categoryCode": "39", "address": "25 EDENBRIDGE DR", "city": "TORONTO", "province": "ON", "country": "CA", "postalCode": "M9A3E8", "twitter": "None", "instagram": "None", "facebook": "None", "youtube": "None", "website": "None", "summary": "None", "logo": "None", "latitude": 43.66832009351389, "longitude": -79.52430361711588}, "890335177RR0001": {"name": "SAEHANUL CHURCH", "designationCode": "C", "categoryCode": "37", "address": "1393 AUSTIN AVE", "city": "COQUITLAM", "province": "BC", "country": "CA", "postalCode": "V3K3P6", "twitter": "None", "instagram": "None", "facebook": "None", "youtube": "None", "website": "None", "summary": "None", "logo": "None", "latitude": 49.248990511541194, "longitude": -122.85515177699233}, "804445286RR0001": {"name": "SAFAR: The Sikh Feminist Research Institute", "designationCode": "C", "categoryCode": "29", "address": "71 SUNFOREST DR", "city": "BRAMPTON", "province": "ON", "country": "CA", "postalCode": "L6Z2W2", "twitter": "None", "instagram": "None", "facebook": "None", "youtube": "None", "website": "None", "summary": "None", "logo": "None", "latitude": 43.71184871163939, "longitude": -79.78802112556998}, "135050227RR0001": {"name": "SAFE CITY MISSISSAUGA", "designationCode": "C", "categoryCode": "59", "address": "1055A-300 CITY CENTRE DRIVE", "city": "MISSISSAUGA", "province": "ON", "country": "CA", "postalCode": "L5B3C9", "twitter": "None", "instagram": "None", "facebook": "None", "youtube": "None", "website": "None", "summary": "None", "logo": "None", "latitude": 43.58835885879121, "longitude": -79.64361319799113}, "863525176RR0001": {"name": "SAFE COMMUNITIES COALITION OF CENTRAL ALBERTA ASSOCIATION", "designationCode": "C", "categoryCode": "59", "address": "3030 55 ST", "city": "RED DEER", "province": "AB", "country": "CA", "postalCode": "T4P3S6", "twitter": "None", "instagram": "None", "facebook": "None", "youtube": "None", "website": "None", "summary": "None", "logo": "None", "latitude": 52.274006453257385, "longitude": -113.76772357660568}, "868384892RR0001": {"name": "SAFE DRINKING WATER FOUNDATION", "designationCode": "C", "categoryCode": "21", "address": "#1- 912 IDYLWYLD DRIVE NORTH", "city": "SASKATOON", "province": "SK", "country": "CA", "postalCode": "S7L0Z6", "twitter": "None", "instagram": "None", "facebook": "None", "youtube": "None", "website": "None", "summary": "None", "logo": "None", "latitude": 52.13910586372555, "longitude": -106.67008522274881}, "882783400RR0001": {"name": "SAFE HAVEN WORSHIP CENTRE", "designationCode": "C", "categoryCode": "39", "address": "10-1084 SALK RD", "city": "PICKERING", "province": "ON", "country": "CA", "postalCode": "L1W4B6", "twitter": "None", "instagram": "None", "facebook": "None", "youtube": "None", "website": "None", "summary": "None", "logo": "None", "latitude": 43.836223997889476, "longitude": -79.07137921671708}, "853458966RR0001": {"name": "SAFETYNET CHILDREN & YOUTH CHARITIES", "designationCode": "C", "categoryCode": "09", "address": "203 - 482 SOUTH SERVICE RD E", "city": "OAKVILLE", "province": "ON", "country": "CA", "postalCode": "L6J2X6", "twitter": "None", "instagram": "None", "facebook": "None", "youtube": "None", "website": "None", "summary": "None", "logo": "None", "latitude": 43.49259719187604, "longitude": -79.66884520009401}, "892438219RR0001": {"name": "SAFFRON CENTRE LTD.", "designationCode": "C", "categoryCode": "09", "address": "105-48 BRENTWOOD BLVD", "city": "SHERWOOD PARK", "province": "AB", "country": "CA", "postalCode": "T8A2H5", "twitter": "None", "instagram": "None", "facebook": "None", "youtube": "None", "website": "None", "summary": "None", "logo": "None", "latitude": 53.51418000000001, "longitude": -113.29544580229732}, "831878558RR0001": {"name": "SAG Conference Award Foundation", "designationCode": "C", "categoryCode": "21", "address": "1010 - 789 PENDER ST W", "city": "VANCOUVER", "province": "BC", "country": "CA", "postalCode": "V6C1H2", "twitter": "None", "instagram": "None", "facebook": "None", "youtube": "None", "website": "None", "summary": "None", "logo": "None", "latitude": 49.285177521524524, "longitude": -123.11559838354796}, "106971427RR0001": {"name": "SAGA JEUNESSE", "designationCode": "C", "categoryCode": "59", "address": "23-A, ST-ALEXANDRE", "city": "GATINEAU", "province": "QC", "country": "CA", "postalCode": "J8V1A8", "twitter": "None", "instagram": "None", "facebook": "None", "youtube": "None", "website": "None", "summary": "None", "logo": "None", "latitude": 45.49536245842288, "longitude": -75.75605614178478}, "897430195RR0001": {"name": "SAGASHTOWAO HEALING LODGE INC.", "designationCode": "C", "categoryCode": "57", "address": "P O BOX 359", "city": "MOOSE FACTORY", "province": "ON", "country": "CA", "postalCode": "P0L1W0", "twitter": "None", "instagram": "None", "facebook": "None", "youtube": "None", "website": "None", "summary": "None", "logo": "None", "latitude": 51.26000000000005, "longitude": -80.59705999999994}, "130354327RR0001": {"name": "SAGE HILL WRITING EXPERIENCE INC", "designationCode": "C", "categoryCode": "20", "address": "324 - 1831 COLLEGE AVE", "city": "REGINA", "province": "SK", "country": "CA", "postalCode": "S4P4V5", "twitter": "None", "instagram": "None", "facebook": "None", "youtube": "None", "website": "None", "summary": "None", "logo": "None", "latitude": 50.44071250562685, "longitude": -104.6078911305903}, "107948531RR0001": {"name": "SAGE HILLS EVANGELICAL FREE CHURCH", "designationCode": "C", "categoryCode": "39", "address": "PO BOX 228", "city": "ASHCROFT", "province": "BC", "country": "CA", "postalCode": "V0K1A0", "twitter": "None", "instagram": "None", "facebook": "None", "youtube": "None", "website": "None", "summary": "None", "logo": "None", "latitude": 50.7271758075652, "longitude": -121.28212858201184}, "119131894RR0001": {"name": "SAGE KIWANIS CLUB OF OTTAWA FOUNDATION", "designationCode": "A", "categoryCode": "63", "address": "1512-265 POULIN AVE", "city": "OTTAWA", "province": "ON", "country": "CA", "postalCode": "K2B7Y8", "twitter": "None", "instagram": "None", "facebook": "None", "youtube": "None", "website": "None", "summary": "None", "logo": "None", "latitude": 45.366282480177574, "longitude": -75.79396220765827}, "871540985RR0001": {"name": "SAGE THEATRE SOCIETY", "designationCode": "C", "categoryCode": "22", "address": "P. O. BOX 61149               KENSINGTON PO", "city": "CALGARY", "province": "AB", "country": "CA", "postalCode": "T2N4S6", "twitter": "None", "instagram": "None", "facebook": "None", "youtube": "None", "website": "None", "summary": "None", "logo": "None", "latitude": 51.0524867557722, "longitude": -114.10475500718039}, "892229840RR0001": {"name": "SAGE YOUTH - JEUNESSE SAGE", "designationCode": "C", "categoryCode": "21", "address": "PO BOX 639", "city": "RICHMOND", "province": "ON", "country": "CA", "postalCode": "K0A2Z0", "twitter": "None", "instagram": "None", "facebook": "None", "youtube": "None", "website": "None", "summary": "None", "logo": "None", "latitude": 45.07289024235629, "longitude": -76.0222203768388}, "131582603RR0001": {"name": "SAGITAWA CHRISTIAN CAMPING SOCIETY", "designationCode": "C", "categoryCode": "56", "address": "PO BOX 61", "city": "MOBERLY LAKE", "province": "BC", "country": "CA", "postalCode": "V0C1X0", "twitter": "None", "instagram": "None", "facebook": "None", "youtube": "None", "website": "None", "summary": "None", "logo": "None", "latitude": 55.8265086026446, "longitude": -121.65218509331326}, "119131928RR0001": {"name": "SAHAJ YOGA CENTRE", "designationCode": "C", "categoryCode": "49", "address": "990 DOVERCOURT RD.", "city": "TORONTO", "province": "ON", "country": "CA", "postalCode": "M6H2X5", "twitter": "None", "instagram": "None", "facebook": "None", "youtube": "None", "website": "None", "summary": "None", "logo": "None", "latitude": 43.66692831917596, "longitude": -79.43164594866974}, "119131936RR0001": {"name": "SAHAKARINI INTER-WORLD EDUCATION AND DEVELOPMENT ASSOCIATION", "designationCode": "C", "categoryCode": "09", "address": "PO BOX 1685                   STATION MAIN", "city": "CAMROSE", "province": "AB", "country": "CA", "postalCode": "T4V1X6", "twitter": "None", "instagram": "None", "facebook": "None", "youtube": "None", "website": "None", "summary": "None", "logo": "None", "latitude": 53.019161503313846, "longitude": -112.82562875165692}, "119205516RR0001": {"name": "SAHALI FELLOWSHIP", "designationCode": "C", "categoryCode": "39", "address": "1565 SUMMIT DRIVE", "city": "KAMLOOPS", "province": "BC", "country": "CA", "postalCode": "V2E1E9", "twitter": "None", "instagram": "None", "facebook": "None", "youtube": "None", "website": "None", "summary": "None", "logo": "None", "latitude": 50.65793026672055, "longitude": -120.33891086147518}, "886400597RR0001": {"name": "SAHIB JORAWAR SINGH - SAHIB FATEH SINGH GUR SIKH TEMPLE", "designationCode": "C", "categoryCode": "62", "address": "PO BOX 1719", "city": "FORT ST-JAMES", "province": "BC", "country": "CA", "postalCode": "V0J1P0", "twitter": "None", "instagram": "None", "facebook": "None", "youtube": "None", "website": "None", "summary": "None", "logo": "None", "latitude": 54.44540000000006, "longitude": -124.25099999999998}, "107442691RR0001": {"name": "SAHTU DIVISIONAL EDUCATION COUNCIL", "designationCode": "C", "categoryCode": "20", "address": "P.O. BOX 64", "city": "NORMAN WELLS", "province": "NT", "country": "CA", "postalCode": "X0E0V0", "twitter": "None", "instagram": "None", "facebook": "None", "youtube": "None", "website": "None", "summary": "None", "logo": "None", "latitude": 65.28363000000007, "longitude": -126.85679999999996}, "119889707RR0001": {"name": "SAI BABA CENTRE OF MANITOBA INC", "designationCode": "C", "categoryCode": "39", "address": "790 BANNING ST", "city": "WINNIPEG", "province": "MB", "country": "CA", "postalCode": "R3E2H9", "twitter": "None", "instagram": "None", "facebook": "None", "youtube": "None", "website": "None", "summary": "None", "logo": "None", "latitude": 49.89717254593455, "longitude": -97.17172534029645}, "846253045RR0001": {"name": "SAI ILLAM SPIRITUAL CENTRE", "designationCode": "C", "categoryCode": "48", "address": "42 FORBES CRESCENT", "city": "MARKHAM", "province": "ON", "country": "CA", "postalCode": "L3R6S5", "twitter": "None", "instagram": "None", "facebook": "None", "youtube": "None", "website": "None", "summary": "None", "logo": "None", "latitude": 43.83699108133753, "longitude": -79.29101740259095}, "106713753RR0003": {"name": "SAINT ALBAN'S ANGLICAN CHURCH", "designationCode": "C", "categoryCode": "30", "address": "PO BOX 246", "city": "ASHCROFT", "province": "BC", "country": "CA", "postalCode": "V0K1A0", "twitter": "None", "instagram": "None", "facebook": "None", "youtube": "None", "website": "None", "summary": "None", "logo": "None", "latitude": 50.7271758075652, "longitude": -121.28212858201184}, "812244200RR0001": {"name": "SAINT ALEXIS ROMAN CATHOLIC PARISH INC.", "designationCode": "C", "categoryCode": "38", "address": "PO BOX 399", "city": "SOURIS", "province": "PE", "country": "CA", "postalCode": "C0A2B0", "twitter": "None", "instagram": "None", "facebook": "None", "youtube": "None", "website": "None", "summary": "None", "logo": "None", "latitude": 46.35451000000006, "longitude": -62.25295999999997}, "122418601RR0002": {"name": "SAINT AMBROSE CATHEDRAL PARISH", "designationCode": "C", "categoryCode": "38", "address": "65 GREEN STREET", "city": "YARMOUTH", "province": "NS", "country": "CA", "postalCode": "B5A1Z6", "twitter": "None", "instagram": "None", "facebook": "None", "youtube": "None", "website": "None", "summary": "None", "logo": "None", "latitude": 43.83047638190317, "longitude": -66.11441193000212}, "107948804RR0001": {"name": "SAINT ANDREW'S PRESBYTERIAN CHURCH", "designationCode": "C", "categoryCode": "37", "address": "703 HERITAGE DR SW", "city": "CALGARY", "province": "AB", "country": "CA", "postalCode": "T2V2W4", "twitter": "None", "instagram": "None", "facebook": "None", "youtube": "None", "website": "None", "summary": "None", "logo": "None", "latitude": 50.97955853231589, "longitude": -114.07911316763806}, "130599442RR0032": {"name": "SAINT ANTHONY OF PADUA CATHEDRAL PARISH", "designationCode": "C", "categoryCode": "38", "address": "73 SPRUCE ST.N", "city": "TIMMINS", "province": "ON", "country": "CA", "postalCode": "P4N6M9", "twitter": "None", "instagram": "None", "facebook": "None", "youtube": "None", "website": "None", "summary": "None", "logo": "None", "latitude": 48.47731486187871, "longitude": -81.32709072342232}, "108008616RR0001": {"name": "SAINT ANTONIOS ANTIOCHIAN CHRISTIAN ORTHODOX CHURCH", "designationCode": "C", "categoryCode": "39", "address": "2480 WINDSOR ST", "city": "HALIFAX", "province": "NS", "country": "CA", "postalCode": "B3K5C1", "twitter": "None", "instagram": "None", "facebook": "None", "youtube": "None", "website": "None", "summary": "None", "logo": "None", "latitude": 44.65070967609219, "longitude": -63.59611147795588}, "893330365RR0001": {"name": "SAINT ATHANASE ROMAN CATHOLIC PARISH", "designationCode": "C", "categoryCode": "38", "address": "BOX 939", "city": "KELVINGTON", "province": "SK", "country": "CA", "postalCode": "S0A1W0", "twitter": "None", "instagram": "None", "facebook": "None", "youtube": "None", "website": "None", "summary": "None", "logo": "None", "latitude": 50.942659313471935, "longitude": -102.0486202158667}, "130091135RR0020": {"name": "SAINT AUGUSTINE'S PARISH", "designationCode": "C", "categoryCode": "38", "address": "340 DOMINION ST", "city": "MONCTON", "province": "NB", "country": "CA", "postalCode": "E1C6H8", "twitter": "None", "instagram": "None", "facebook": "None", "youtube": "None", "website": "None", "summary": "None", "logo": "None", "latitude": 46.096802402995, "longitude": -64.79512648294754}, "891338980RR0001": {"name": "SAINT BARBARA'S CHAPEL", "designationCode": "C", "categoryCode": "39", "address": "CFB SHILO                     P.O. BOX 5000 STATION MAIN", "city": "SHILO", "province": "MB", "country": "CA", "postalCode": "R0K2A0", "twitter": "None", "instagram": "None", "facebook": "None", "youtube": "None", "website": "None", "summary": "None", "logo": "None", "latitude": 49.805988000000056, "longitude": -99.64004299999993}, "862807724RR0001": {"name": "SAINT BARNABAS ORTHODOX CHURCH, ARCHDIOCESE OF CANADA, ORTHODOX CHURCH IN AMERICA", "designationCode": "C", "categoryCode": "39", "address": "3105 AYRTON ROAD", "city": "COURTNEY", "province": "BC", "country": "CA", "postalCode": "V9N9N8", "twitter": "None", "instagram": "None", "facebook": "None", "youtube": "None", "website": "None", "summary": "None", "logo": "None", "latitude": 49.658168283222594, "longitude": -125.00814039973012}, "138793567RR0001": {"name": "SAINT BASIL (BRANTFORD) COMMUNITY HOMES INC", "designationCode": "C", "categoryCode": "01", "address": "73 PEARL ST                   MAIN OFFICE", "city": "BRANTFORD", "province": "ON", "country": "CA", "postalCode": "N3T3N8", "twitter": "None", "instagram": "None", "facebook": "None", "youtube": "None", "website": "None", "summary": "None", "logo": "None", "latitude": 43.144435285273936, "longitude": -80.26986659891992}, "888151107RR0001": {"name": "SAINT BASIL OF OSTROG SERBIAN ORTHODOX PARISH", "designationCode": "C", "categoryCode": "39", "address": "7071 BAYERS ROAD              PO BOX 22005", "city": "HALIFAX", "province": "NS", "country": "CA", "postalCode": "B3L4T7", "twitter": "None", "instagram": "None", "facebook": "None", "youtube": "None", "website": "None", "summary": "None", "logo": "None", "latitude": 44.65370574279748, "longitude": -63.627277609595474}, "866253727RR0001": {"name": "SAINT BASIL THE GREAT GRECO-CATHOLIC (BYZANTIN) PARISH", "designationCode": "C", "categoryCode": "39", "address": "14 AV DU CROCHET", "city": "LAVAL", "province": "QC", "country": "CA", "postalCode": "H7N3Z2", "twitter": "None", "instagram": "None", "facebook": "None", "youtube": "None", "website": "None", "summary": "None", "logo": "None", "latitude": 45.55116553260435, "longitude": -73.70001263892884}, "705335123RR0001": {"name": "SAINT BEDE THE VENERABLE CATHOLIC COMMUNITY", "designationCode": "C", "categoryCode": "38", "address": "118 BELLE VISTA DRIVE", "city": "DARTMOUTH", "province": "NS", "country": "CA", "postalCode": "B2W2X8", "twitter": "None", "instagram": "None", "facebook": "None", "youtube": "None", "website": "None", "summary": "None", "logo": "None", "latitude": 44.67753724897558, "longitude": -63.52388634277795}, "859709131RR0001": {"name": "SAINT BEDE'S ANGLICAN CATHOLIC THEOLOGICAL COLLEGE SOCIETY", "designationCode": "C", "categoryCode": "20", "address": "990 FALMOUTH RD               (ST.JOHN THE EVANGELIST CHURCH", "city": "VICTORIA", "province": "BC", "country": "CA", "postalCode": "V8X3A3", "twitter": "None", "instagram": "None", "facebook": "None", "youtube": "None", "website": "None", "summary": "None", "logo": "None", "latitude": 48.46129292091282, "longitude": -123.36478522785512}, "890145642RR0001": {"name": "SAINT BEHNAM SYRIAN ORTHODOX CHURCH", "designationCode": "C", "categoryCode": "39", "address": "50 ERIE STREET", "city": "TORONTO", "province": "ON", "country": "CA", "postalCode": "M6L2P9", "twitter": "None", "instagram": "None", "facebook": "None", "youtube": "None", "website": "None", "summary": "None", "logo": "None", "latitude": 43.717892102689156, "longitude": -79.48133994021563}, "131951170RR0001": {"name": "SAINT COLUMBA PRESBYTERIAN CHURCH", "designationCode": "C", "categoryCode": "37", "address": "1454 MANAWAGONISH ROAD", "city": "SAINT JOHN", "province": "NB", "country": "CA", "postalCode": "E2M3Y3", "twitter": "None", "instagram": "None", "facebook": "None", "youtube": "None", "website": "None", "summary": "None", "logo": "None", "latitude": 45.23921381629042, "longitude": -66.11885204931009}, "128967353RR0090": {"name": "SAINT DECLAN'S MISSION", "designationCode": "C", "categoryCode": "38", "address": "BOX 1029", "city": "ALMONTE", "province": "ON", "country": "CA", "postalCode": "K0A1A0", "twitter": "None", "instagram": "None", "facebook": "None", "youtube": "None", "website": "None", "summary": "None", "logo": "None", "latitude": 45.223665000000054, "longitude": -76.20363799999993}, "119132090RR0001": {"name": "SAINT ELIZABETH HEALTH CARE", "designationCode": "C", "categoryCode": "11", "address": "90 ALLSTATE PARKWAY           SUITE 300", "city": "MARKHAM", "province": "ON", "country": "CA", "postalCode": "L3R6H3", "twitter": "None", "instagram": "None", "facebook": "None", "youtube": "None", "website": "None", "summary": "None", "logo": "None", "latitude": 43.85413063693829, "longitude": -79.3679925219276}, "119109833RR0053": {"name": "SAINT ELIZABETH SETON PARISH", "designationCode": "C", "categoryCode": "38", "address": "4 BEAVER BANK  ROAD", "city": "LOWER SACKVILLE", "province": "NS", "country": "CA", "postalCode": "B4E1G3", "twitter": "None", "instagram": "None", "facebook": "None", "youtube": "None", "website": "None", "summary": "None", "logo": "None", "latitude": 44.77728434306642, "longitude": -63.695396547232626}, "128967353RR0103": {"name": "SAINT ELIZABETH'S PARISH", "designationCode": "C", "categoryCode": "38", "address": "1303 LEASIDE AVENUE", "city": "OTTAWA", "province": "ON", "country": "CA", "postalCode": "K1Z7R2", "twitter": "None", "instagram": "None", "facebook": "None", "youtube": "None", "website": "None", "summary": "None", "logo": "None", "latitude": 45.382608480177595, "longitude": -75.73341098516924}, "107307191RR0028": {"name": "SAINT EUGENE DE MAZENOD CHURCH", "designationCode": "C", "categoryCode": "38", "address": "BOX 160", "city": "LUSELAND", "province": "SK", "country": "CA", "postalCode": "S0L2A0", "twitter": "None", "instagram": "None", "facebook": "None", "youtube": "None", "website": "None", "summary": "None", "logo": "None", "latitude": 52.08343000000008, "longitude": -109.40149999999994}, "122418601RR0025": {"name": "SAINT FRANCIS OF ASSISI", "designationCode": "C", "categoryCode": "38", "address": "118 MAIN STREET", "city": "WOLFVILLE", "province": "NS", "country": "CA", "postalCode": "B4P1B7", "twitter": "None", "instagram": "None", "facebook": "None", "youtube": "None", "website": "None", "summary": "None", "logo": "None", "latitude": 45.09327416515656, "longitude": -64.34529787122736}, "135625788RR0001": {"name": "SAINT FRANCIS OF ASSISI RC PARISH", "designationCode": "C", "categoryCode": "38", "address": "BOX 119", "city": "PINAWA", "province": "MB", "country": "CA", "postalCode": "R0E1L0", "twitter": "None", "instagram": "None", "facebook": "None", "youtube": "None", "website": "None", "summary": "None", "logo": "None", "latitude": 50.310997570508235, "longitude": -95.8027417506436}, "136896024RR0001": {"name": "SAINT GEORGE RURAL CEMETERY COMPANY", "designationCode": "C", "categoryCode": "59", "address": "28 FUNDY BAY DRIVE", "city": "ST GEORGE", "province": "NB", "country": "CA", "postalCode": "E5C3E3", "twitter": "None", "instagram": "None", "facebook": "None", "youtube": "None", "website": "None", "summary": "None", "logo": "None", "latitude": 45.10869924040593, "longitude": -66.82538790625496}, "119132132RR0001": {"name": "SAINT GERMAIN FOUNDATION OF CANADA (VANCOUVER BRANCH)", "designationCode": "C", "categoryCode": "49", "address": "1949 10TH AVE WEST", "city": "VANCOUVER", "province": "BC", "country": "CA", "postalCode": "V6J2B1", "twitter": "None", "instagram": "None", "facebook": "None", "youtube": "None", "website": "None", "summary": "None", "logo": "None", "latitude": 49.26283551875455, "longitude": -123.14924958090484}, "891052045RR0001": {"name": "SAINT GERMAIN FOUNDATION OF CANADA (VICTORIA BRANCH)", "designationCode": "C", "categoryCode": "49", "address": "1017 MCCLURE ST", "city": "VICTORIA", "province": "BC", "country": "CA", "postalCode": "V8V3G1", "twitter": "None", "instagram": "None", "facebook": "None", "youtube": "None", "website": "None", "summary": "None", "logo": "None", "latitude": 48.420682597813084, "longitude": -123.3567774476888}, "119175750RR0001": {"name": "SAINT GERMAIN FOUNDATION OF TORONTO", "designationCode": "C", "categoryCode": "49", "address": "884 AVENUE RD.", "city": "TORONTO", "province": "ON", "country": "CA", "postalCode": "M5P2K6", "twitter": "None", "instagram": "None", "facebook": "None", "youtube": "None", "website": "None", "summary": "None", "logo": "None", "latitude": 43.6997717396561, "longitude": -79.40656400072115}, "846797868RR0001": {"name": "SAINT GERMAIN FOUNDATION OF WINDSOR", "designationCode": "C", "categoryCode": "39", "address": "3421 WYANDOTTE ST. E", "city": "WINDSOR", "province": "ON", "country": "CA", "postalCode": "N8Y1E9", "twitter": "None", "instagram": "None", "facebook": "None", "youtube": "None", "website": "None", "summary": "None", "logo": "None", "latitude": 42.32450949567218, "longitude": -82.99534955245542}, "890483662RR0001": {"name": "SAINT HERMAN OF ALASKA ORTHODOX CHURCH, ARCHDIOCESE OF CANADA, ORTHODOX CHURCH IN AMERICA", "designationCode": "C", "categoryCode": "39", "address": "505-8840 210TH ST             BOX 324", "city": "LANGLEY", "province": "BC", "country": "CA", "postalCode": "V1M2Y2", "twitter": "None", "instagram": "None", "facebook": "None", "youtube": "None", "website": "None", "summary": "None", "logo": "None", "latitude": 49.179595500000005, "longitude": -122.640813}, "119132165RR0001": {"name": "SAINT IGNATIUS OF ANTIOCH ORTHODOX MISSION", "designationCode": "C", "categoryCode": "39", "address": "1808 LABELLE STREET", "city": "WINDSOR", "province": "ON", "country": "CA", "postalCode": "N9E1B4", "twitter": "None", "instagram": "None", "facebook": "None", "youtube": "None", "website": "None", "summary": "None", "logo": "None", "latitude": 42.26897559342698, "longitude": -83.03365143937891}, "119132173RR0001": {"name": "SAINT ILIJA MACEDONIAN ORTHODOX CHURCH", "designationCode": "C", "categoryCode": "39", "address": "35 - 5160 EXPLORER DR", "city": "MISSISSAUGA", "province": "ON", "country": "CA", "postalCode": "L4W4T7", "twitter": "None", "instagram": "None", "facebook": "None", "youtube": "None", "website": "None", "summary": "None", "logo": "None", "latitude": 43.66230239601279, "longitude": -79.59771749145897}, "107949125RR0001": {"name": "SAINT JAMES ANGLICAN CHURCH", "designationCode": "C", "categoryCode": "30", "address": "2668 JOSEPH HOWE DRIVE", "city": "HALIFAX", "province": "NS", "country": "CA", "postalCode": "B3L4E4", "twitter": "None", "instagram": "None", "facebook": "None", "youtube": "None", "website": "None", "summary": "None", "logo": "None", "latitude": 44.64269233247751, "longitude": -63.62167603499894}, "107949190RR0001": {"name": "SAINT JAMES UNITED CHURCH", "designationCode": "C", "categoryCode": "44", "address": "120 CHAPEL STREET", "city": "WOODSTOCK", "province": "NB", "country": "CA", "postalCode": "E7M1H1", "twitter": "None", "instagram": "None", "facebook": "None", "youtube": "None", "website": "None", "summary": "None", "logo": "None", "latitude": 46.151978939234695, "longitude": -67.5755229822264}, "812266807RR0001": {"name": "SAINT JOACHIM'S ROMAN CATHOLIC PARISH INC.", "designationCode": "C", "categoryCode": "38", "address": "151 STRATFORD ROAD", "city": "STRATFORD", "province": "PE", "country": "CA", "postalCode": "C1B1H1", "twitter": "None", "instagram": "None", "facebook": "None", "youtube": "None", "website": "None", "summary": "None", "logo": "None", "latitude": 46.21769939107843, "longitude": -63.098118408823375}, "127275782RR0001": {"name": "SAINT JOB OF POCHAEV BROTHERHOOD OF THE RUSSIAN ORTHODOX CHURCH OUTSIDE OF RUSSIA, MONTREAL AND CANADIAN DIOCESE", "designationCode": "C", "categoryCode": "39", "address": "425 EDOUARD CHARLES", "city": "OUTREMONT", "province": "QC", "country": "CA", "postalCode": "H2V2N3", "twitter": "None", "instagram": "None", "facebook": "None", "youtube": "None", "website": "None", "summary": "None", "logo": "None", "latitude": 45.518087210110174, "longitude": -73.59615647864838}, "119132231RR0001": {"name": "SAINT JOHN AQUATIC CENTRE COMMISSION", "designationCode": "C", "categoryCode": "56", "address": "50 UNION ST", "city": "SAINT JOHN", "province": "NB", "country": "CA", "postalCode": "E2L1A1", "twitter": "None", "instagram": "None", "facebook": "None", "youtube": "None", "website": "None", "summary": "None", "logo": "None", "latitude": 45.2741796594151, "longitude": -66.06403589327147}}