{"849011937RR0001": {"name": "David and Diane Johnston Family Foundation Inc.", "designationCode": "B", "categoryCode": "03", "address": "100 LAMONT BLVD", "city": "WINNIPEG", "province": "MB", "country": "CA", "postalCode": "R3P0E6", "twitter": "None", "instagram": "None", "facebook": "None", "youtube": "None", "website": "None", "summary": "None", "logo": "None", "latitude": 49.87236849347914, "longitude": -97.21823459994786}, "816248785RR0001": {"name": "David and Elizabeth Wilson Family Foundation Inc.", "designationCode": "B", "categoryCode": "03", "address": "PO BOX 367 STN A", "city": "FREDERICTON", "province": "NB", "country": "CA", "postalCode": "E3B4Z9", "twitter": "None", "instagram": "None", "facebook": "None", "youtube": "None", "website": "None", "summary": "None", "logo": "None", "latitude": 45.96062100000006, "longitude": -66.63911299999994}, "842905382RR0001": {"name": "David and Karen Holst Family Foundation Inc.", "designationCode": "B", "categoryCode": "03", "address": "531 LANGLEY AVE               POST OFFICE BOX 2018", "city": "WARMAN", "province": "SK", "country": "CA", "postalCode": "S0K4S0", "twitter": "None", "instagram": "None", "facebook": "None", "youtube": "None", "website": "None", "summary": "None", "logo": "None", "latitude": 52.31546910504562, "longitude": -106.59467125540867}, "801021353RR0001": {"name": "David and Penny Wilson Family Foundation", "designationCode": "B", "categoryCode": "05", "address": "PO BOX 2129", "city": "STRATHMORE", "province": "AB", "country": "CA", "postalCode": "T1P1K1", "twitter": "None", "instagram": "None", "facebook": "None", "youtube": "None", "website": "None", "summary": "None", "logo": "None", "latitude": 51.041247000000055, "longitude": -113.40029149999994}, "822701843RR0001": {"name": "David Ash Family Foundation", "designationCode": "B", "categoryCode": "03", "address": "415-15225 104 AVE", "city": "SURREY", "province": "BC", "country": "CA", "postalCode": "V3R6Y8", "twitter": "None", "instagram": "None", "facebook": "None", "youtube": "None", "website": "None", "summary": "None", "logo": "None", "latitude": 49.19156348211084, "longitude": -122.80004061226845}, "850298662RR0001": {"name": "David Charitable Trust", "designationCode": "B", "categoryCode": "05", "address": "SUITE 403 322-11TH AVE SW", "city": "CALGARY", "province": "AB", "country": "CA", "postalCode": "T2R0C5", "twitter": "None", "instagram": "None", "facebook": "None", "youtube": "None", "website": "None", "summary": "None", "logo": "None", "latitude": 51.042551467684106, "longitude": -114.0685795269202}, "852525864RR0001": {"name": "David Goodman Youth Community Trust", "designationCode": "A", "categoryCode": "05", "address": "1000 - 45 ST CLAIR AVE W", "city": "TORONTO", "province": "ON", "country": "CA", "postalCode": "M4V1K9", "twitter": "None", "instagram": "None", "facebook": "None", "youtube": "None", "website": "None", "summary": "None", "logo": "None", "latitude": 43.68788710460182, "longitude": -79.39487415272116}, "839138500RR0001": {"name": "David Lynch Foundation for Consciousness-Based Education andWorld Peace of Canada", "designationCode": "A", "categoryCode": "23", "address": "114 DEWHURST BLVD", "city": "TORONTO", "province": "ON", "country": "CA", "postalCode": "M4J3J6", "twitter": "None", "instagram": "None", "facebook": "None", "youtube": "None", "website": "None", "summary": "None", "logo": "None", "latitude": 43.68342766610886, "longitude": -79.34072713615889}, "834268773RR0001": {"name": "David Mansell and Naomi Rifkind Mansell Foundation", "designationCode": "B", "categoryCode": "03", "address": "397 GLENGROVE AVE", "city": "NORTH YORK", "province": "ON", "country": "CA", "postalCode": "M5N1W8", "twitter": "None", "instagram": "None", "facebook": "None", "youtube": "None", "website": "None", "summary": "None", "logo": "None", "latitude": 43.71493683484344, "longitude": -79.42307537301637}, "807873047RR0001": {"name": "David Spencer Endowment Encouragement Fund (2013)", "designationCode": "A", "categoryCode": "25", "address": "650 WEST GEORGIA ST           SUITE 510", "city": "VANCOUVER", "province": "BC", "country": "CA", "postalCode": "V6B4N7", "twitter": "None", "instagram": "None", "facebook": "None", "youtube": "None", "website": "None", "summary": "None", "logo": "None", "latitude": 49.282095217179936, "longitude": -123.11767129779695}, "810631150RR0001": {"name": "David Thompson Health Region Trust", "designationCode": "A", "categoryCode": "15", "address": "4TH FLOOR CENTRAL BLOCK       3942 50A AVE", "city": "RED DEER", "province": "AB", "country": "CA", "postalCode": "T4N4E7", "twitter": "None", "instagram": "None", "facebook": "None", "youtube": "None", "website": "None", "summary": "None", "logo": "None", "latitude": 52.260079697994506, "longitude": -113.81599581749467}, "899004063RR0001": {"name": "Davis Joachim Productions Inc. / Les Productions Davis Joachim Inc.", "designationCode": "C", "categoryCode": "22", "address": "153 CH DES SOURCES", "city": "ABERCORN", "province": "QC", "country": "CA", "postalCode": "J0E1B0", "twitter": "None", "instagram": "None", "facebook": "None", "youtube": "None", "website": "None", "summary": "None", "logo": "None", "latitude": 45.02153841825209, "longitude": -72.66112921638671}, "814157608RR0001": {"name": "Davrick Family Foundation", "designationCode": "B", "categoryCode": "03", "address": "77 EDGEVIEW RD NW", "city": "CALGARY", "province": "AB", "country": "CA", "postalCode": "T3A4T7", "twitter": "None", "instagram": "None", "facebook": "None", "youtube": "None", "website": "None", "summary": "None", "logo": "None", "latitude": 51.127508682209026, "longitude": -114.14851744823706}, "823140611RR0001": {"name": "Davtee Society: Caring for People Around the World", "designationCode": "C", "categoryCode": "09", "address": "3 - 52204 HWY 770", "city": "PARKLAND COUNTY", "province": "AB", "country": "CA", "postalCode": "T7Y2J7", "twitter": "None", "instagram": "None", "facebook": "None", "youtube": "None", "website": "None", "summary": "None", "logo": "None", "latitude": 53.485367498204795, "longitude": -114.22288343617043}, "819335662RR0001": {"name": "Dawat-e-Islami Canada", "designationCode": "C", "categoryCode": "60", "address": "120 - 32 WESTWINDS CRES NE", "city": "CALGARY", "province": "AB", "country": "CA", "postalCode": "T3J5L3", "twitter": "None", "instagram": "None", "facebook": "None", "youtube": "None", "website": "None", "summary": "None", "logo": "None", "latitude": 51.106885333891164, "longitude": -113.97106164974889}, "846109213RR0001": {"name": "Dawn to Dawn - Action on Homelessness Society", "designationCode": "C", "categoryCode": "09", "address": "821 SHAMROCK PLACE            UNIT 6C", "city": "COMOX", "province": "BC", "country": "CA", "postalCode": "V9M4G4", "twitter": "None", "instagram": "None", "facebook": "None", "youtube": "None", "website": "None", "summary": "None", "logo": "None", "latitude": 49.68858745628714, "longitude": -124.93676283308308}, "819348020RR0001": {"name": "Dawn Community Foundation", "designationCode": "C", "categoryCode": "21", "address": "209 - 1110 KING ALBERT AVE", "city": "COQUITLAM", "province": "BC", "country": "CA", "postalCode": "V3J1X7", "twitter": "None", "instagram": "None", "facebook": "None", "youtube": "None", "website": "None", "summary": "None", "logo": "None", "latitude": 49.25139151399404, "longitude": -122.86164077699232}, "107008054RR0001": {"name": "Dawson Society for Children and Families (DSCF)", "designationCode": "C", "categoryCode": "01", "address": "BOX 34", "city": "DAWSON CITY", "province": "YT", "country": "CA", "postalCode": "Y0B1G0", "twitter": "None", "instagram": "None", "facebook": "None", "youtube": "None", "website": "None", "summary": "None", "logo": "None", "latitude": 64.05386000000004, "longitude": -139.43884999999995}, "737032698RR0001": {"name": "Day of Pentecost Apostolic Church (Calgary)", "designationCode": "C", "categoryCode": "39", "address": "218 CHAPALINA PL SE", "city": "CALGARY", "province": "AB", "country": "CA", "postalCode": "T2X3P4", "twitter": "None", "instagram": "None", "facebook": "None", "youtube": "None", "website": "None", "summary": "None", "logo": "None", "latitude": 50.8895453288995, "longitude": -114.04820707299899}, "732864129RR0001": {"name": "Day Star Ministries", "designationCode": "B", "categoryCode": "39", "address": "749 TERENCE BAY ROAD", "city": "TERENCE BAY", "province": "NS", "country": "CA", "postalCode": "B3T1X2", "twitter": "None", "instagram": "None", "facebook": "None", "youtube": "None", "website": "None", "summary": "None", "logo": "None", "latitude": 44.50445460476662, "longitude": -63.73718330714383}, "118911635RR0001": {"name": "Daybreak Community Church of Airdrie", "designationCode": "C", "categoryCode": "31", "address": "2104 YANKEE VALLEY BLVD. SW", "city": "AIRDRIE", "province": "AB", "country": "CA", "postalCode": "T4B0R7", "twitter": "None", "instagram": "None", "facebook": "None", "youtube": "None", "website": "None", "summary": "None", "logo": "None", "latitude": 51.27086346494282, "longitude": -114.04413}, "827847039RR0001": {"name": "Days for Girls Canada Society", "designationCode": "C", "categoryCode": "09", "address": "632 GLEN FORREST BLVD", "city": "WATERLOO", "province": "ON", "country": "CA", "postalCode": "N2L4K2", "twitter": "None", "instagram": "None", "facebook": "None", "youtube": "None", "website": "None", "summary": "None", "logo": "None", "latitude": 43.49111526865377, "longitude": -80.556980795978}, "775648496RR0001": {"name": "Days of His Power Ministries", "designationCode": "C", "categoryCode": "39", "address": "59 CHARLESTON ST", "city": "NEPEAN", "province": "ON", "country": "CA", "postalCode": "K2G7G1", "twitter": "None", "instagram": "None", "facebook": "None", "youtube": "None", "website": "None", "summary": "None", "logo": "None", "latitude": 45.27037875327476, "longitude": -75.70877158575227}, "849940028RR0001": {"name": "Dayspring Christian Church", "designationCode": "C", "categoryCode": "39", "address": "6 PETERSON COURT", "city": "BRAMPTON", "province": "ON", "country": "CA", "postalCode": "L6Z1K6", "twitter": "None", "instagram": "None", "facebook": "None", "youtube": "None", "website": "None", "summary": "None", "logo": "None", "latitude": 43.73055339604143, "longitude": -79.78676229629514}, "820415602RR0001": {"name": "Dayspring Conservative Mennonite Church", "designationCode": "C", "categoryCode": "34", "address": "868 GRILLS ROAD, RR #5", "city": "BELLEVILLE", "province": "ON", "country": "CA", "postalCode": "K8N4Z5", "twitter": "None", "instagram": "None", "facebook": "None", "youtube": "None", "website": "None", "summary": "None", "logo": "None", "latitude": 44.17070576827841, "longitude": -77.49813063393718}, "822747895RR0001": {"name": "Daystar Native Christian Outreach", "designationCode": "C", "categoryCode": "09", "address": "PO BOX 40                     6 NELSON STREET", "city": "MANITOWANING", "province": "ON", "country": "CA", "postalCode": "P0P1N0", "twitter": "None", "instagram": "None", "facebook": "None", "youtube": "None", "website": "None", "summary": "None", "logo": "None", "latitude": 46.27032171135093, "longitude": -81.88723706148645}, "855136966RR0001": {"name": "Daystar Television Network - Canada", "designationCode": "C", "categoryCode": "49", "address": "PO BOX 9550", "city": "VANCOUVER", "province": "BC", "country": "CA", "postalCode": "V6B4G3", "twitter": "None", "instagram": "None", "facebook": "None", "youtube": "None", "website": "None", "summary": "None", "logo": "None", "latitude": 49.28024400000005, "longitude": -123.11294749999993}, "805256583RR0001": {"name": "De la Parole aux Actes", "designationCode": "C", "categoryCode": "21", "address": "192 RUE REMI-DANSEREAU", "city": "BELOEIL", "province": "QC", "country": "CA", "postalCode": "J3G0J6", "twitter": "None", "instagram": "None", "facebook": "None", "youtube": "None", "website": "None", "summary": "None", "logo": "None", "latitude": 45.590030550637756, "longitude": -73.20714296863639}, "119288918RR1545": {"name": "De Winton Congregation of Jehovah's Witnesses, Alberta", "designationCode": "C", "categoryCode": "61", "address": "PO BOX 209", "city": "OKOTOKS", "province": "AB", "country": "CA", "postalCode": "T1S1A5", "twitter": "None", "instagram": "None", "facebook": "None", "youtube": "None", "website": "None", "summary": "None", "logo": "None", "latitude": 50.72589600000006, "longitude": -113.97494149999994}, "867901910RR0001": {"name": "Deaf Alive Revival Evangelism (D.A.R.E)", "designationCode": "C", "categoryCode": "36", "address": "536 DUNCAN LANE", "city": "MILTON", "province": "ON", "country": "CA", "postalCode": "L9T0V8", "twitter": "None", "instagram": "None", "facebook": "None", "youtube": "None", "website": "None", "summary": "None", "logo": "None", "latitude": 43.49465369248079, "longitude": -79.87545855248408}, "871942579RR0001": {"name": "Deaf Literacy Initiative", "designationCode": "C", "categoryCode": "21", "address": "109-420 BRITANNIA RD E", "city": "MISSISSAUGA", "province": "ON", "country": "CA", "postalCode": "L4Z3L5", "twitter": "None", "instagram": "None", "facebook": "None", "youtube": "None", "website": "None", "summary": "None", "logo": "None", "latitude": 43.63368716287754, "longitude": -79.66696609916939}, "840179444RR0001": {"name": "Dear Father Brave Guru God's Slave Society", "designationCode": "C", "categoryCode": "62", "address": "7 PARLIAMENT HILL PL", "city": "BRAMPTON", "province": "ON", "country": "CA", "postalCode": "L6P1S8", "twitter": "None", "instagram": "None", "facebook": "None", "youtube": "None", "website": "None", "summary": "None", "logo": "None", "latitude": 43.78105442769349, "longitude": -79.72800667886213}, "835165424RR0001": {"name": "Dear Heart Foundation", "designationCode": "A", "categoryCode": "13", "address": "5839 DALKEITH HILL NW", "city": "CALGARY", "province": "AB", "country": "CA", "postalCode": "T3A1G5", "twitter": "None", "instagram": "None", "facebook": "None", "youtube": "None", "website": "None", "summary": "None", "logo": "None", "latitude": 51.10567630558595, "longitude": -114.14545476951915}, "817684269RR0001": {"name": "Dease Lake Animal Protection Society", "designationCode": "C", "categoryCode": "54", "address": "PO BOX 314", "city": "DEASE LAKE", "province": "BC", "country": "CA", "postalCode": "V0C1L0", "twitter": "None", "instagram": "None", "facebook": "None", "youtube": "None", "website": "None", "summary": "None", "logo": "None", "latitude": 58.4363202097706, "longitude": -129.98762594213716}, "857654909RR0001": {"name": "Debden Heritage Manor Inc.", "designationCode": "C", "categoryCode": "09", "address": "P. O. BOX 608", "city": "DEBDEN", "province": "SK", "country": "CA", "postalCode": "S0J0S0", "twitter": "None", "instagram": "None", "facebook": "None", "youtube": "None", "website": "None", "summary": "None", "logo": "None", "latitude": 53.516800000000046, "longitude": -106.88443999999998}, "816366017RR0001": {"name": "Debert Christian Fellowship Centre", "designationCode": "C", "categoryCode": "39", "address": "1533 PLAINS RD. RR#2", "city": "DEBERT", "province": "NS", "country": "CA", "postalCode": "B0M1G0", "twitter": "None", "instagram": "None", "facebook": "None", "youtube": "None", "website": "None", "summary": "None", "logo": "None", "latitude": 45.4273927527265, "longitude": -63.44310653133495}, "811308915RR0001": {"name": "Deborah Ministries Love and Compassion", "designationCode": "C", "categoryCode": "47", "address": "POST OFFICE BOX 29042", "city": "LONDON", "province": "ON", "country": "CA", "postalCode": "N6K4L9", "twitter": "None", "instagram": "None", "facebook": "None", "youtube": "None", "website": "None", "summary": "None", "logo": "None", "latitude": 42.98689500000006, "longitude": -81.24624349999993}, "859184756RR0001": {"name": "Debre Zihon St. Mary Ethiopian Orthodox Church Inc.", "designationCode": "C", "categoryCode": "39", "address": "354 STONEWAY DRIVE", "city": "OTTAWA", "province": "ON", "country": "CA", "postalCode": "K2G6G7", "twitter": "None", "instagram": "None", "facebook": "None", "youtube": "None", "website": "None", "summary": "None", "logo": "None", "latitude": 45.28165257842333, "longitude": -75.7190639639332}, "856967856RR0001": {"name": "Debre-Genet St. Tekle-Haymanot Ethiopian Orthodox Tewahedo Church", "designationCode": "C", "categoryCode": "39", "address": "72 BIRCHMOUNT RD", "city": "SCARBOROUGH", "province": "ON", "country": "CA", "postalCode": "M1N3J6", "twitter": "None", "instagram": "None", "facebook": "None", "youtube": "None", "website": "None", "summary": "None", "logo": "None", "latitude": 43.69430826810553, "longitude": -79.26289345977825}, "809469711RR0001": {"name": "Debre-Sina Kidane Mihret Ethiopian Orthodox Tewahdo Church of South West Ontario", "designationCode": "C", "categoryCode": "39", "address": "139 ROLLING MEADOWS DRIVE", "city": "KITCHENER", "province": "ON", "country": "CA", "postalCode": "N2N1X8", "twitter": "None", "instagram": "None", "facebook": "None", "youtube": "None", "website": "None", "summary": "None", "logo": "None", "latitude": 43.418775532315905, "longitude": -80.54667352553523}, "859409997RR0001": {"name": "Debwendon Inc.", "designationCode": "C", "categoryCode": "56", "address": "PO BOX 194", "city": "SCANTERBURY", "province": "MB", "country": "CA", "postalCode": "R0E1W0", "twitter": "None", "instagram": "None", "facebook": "None", "youtube": "None", "website": "None", "summary": "None", "logo": "None", "latitude": 50.376040000000046, "longitude": -96.62983999999994}, "841053333RR0001": {"name": "Decoda Literacy Foundation", "designationCode": "C", "categoryCode": "21", "address": "980 - 1125 HOWE ST", "city": "VANCOUVER", "province": "BC", "country": "CA", "postalCode": "V6Z2K8", "twitter": "None", "instagram": "None", "facebook": "None", "youtube": "None", "website": "None", "summary": "None", "logo": "None", "latitude": 49.27856023731884, "longitude": -123.12610677549176}, "743278095RR0001": {"name": "Dee Foundation", "designationCode": "B", "categoryCode": "03", "address": "201-388 WEST 8TH AVENUE", "city": "VANCOUVER", "province": "BC", "country": "CA", "postalCode": "V5Y3X2", "twitter": "None", "instagram": "None", "facebook": "None", "youtube": "None", "website": "None", "summary": "None", "logo": "None", "latitude": 49.26386453952926, "longitude": -123.11240263780367}, "850137241RR0001": {"name": "Deen Support Services", "designationCode": "C", "categoryCode": "09", "address": "1486 SOUTHDOWN RD", "city": "MISSISSAUGA", "province": "ON", "country": "CA", "postalCode": "L5J2Z4", "twitter": "None", "instagram": "None", "facebook": "None", "youtube": "None", "website": "None", "summary": "None", "logo": "None", "latitude": 43.52046768469053, "longitude": -79.64276880685537}, "810916643RR0001": {"name": "Deep Bay Fire/Rescue Society", "designationCode": "A", "categoryCode": "03", "address": "5031 MOUNTAINVIEW RD", "city": "BOWSER", "province": "BC", "country": "CA", "postalCode": "V0R1G0", "twitter": "None", "instagram": "None", "facebook": "None", "youtube": "None", "website": "None", "summary": "None", "logo": "None", "latitude": 53.35668514811221, "longitude": -120.2151112368826}, "830975355RR0001": {"name": "Deep Water Church", "designationCode": "C", "categoryCode": "39", "address": "5657 NORTH STREET", "city": "HALIFAX", "province": "NS", "country": "CA", "postalCode": "B3K1N3", "twitter": "None", "instagram": "None", "facebook": "None", "youtube": "None", "website": "None", "summary": "None", "logo": "None", "latitude": 44.6561496139419, "longitude": -63.59281113962134}, "850172586RR0001": {"name": "Deeper Christian Life Ministry Canada", "designationCode": "C", "categoryCode": "39", "address": "13430 33 STREET", "city": "EDMONTON", "province": "AB", "country": "CA", "postalCode": "T5A5C1", "twitter": "None", "instagram": "None", "facebook": "None", "youtube": "None", "website": "None", "summary": "None", "logo": "None", "latitude": 53.595648303912526, "longitude": -113.39260631311643}, "798564894RR0001": {"name": "Deer Creek Cares Charitable Foundation", "designationCode": "B", "categoryCode": "03", "address": "2700 AUDLEY ROAD NORTH,", "city": "AJAX", "province": "ON", "country": "CA", "postalCode": "L1Z1T7", "twitter": "None", "instagram": "None", "facebook": "None", "youtube": "None", "website": "None", "summary": "None", "logo": "None", "latitude": 43.913532552311196, "longitude": -79.01566729894951}, "119288918RR0641": {"name": "Deer Lake Congregation of Jehovah's Witnesses, Deer Lake, Newfoundland", "designationCode": "C", "categoryCode": "61", "address": "57 SQUIRES ROAD", "city": "DEER LAKE", "province": "NL", "country": "CA", "postalCode": "A8A3E9", "twitter": "None", "instagram": "None", "facebook": "None", "youtube": "None", "website": "None", "summary": "None", "logo": "None", "latitude": 49.1640561826398, "longitude": -57.43469170379586}, "801076993RR0001": {"name": "Deer Run Church", "designationCode": "C", "categoryCode": "34", "address": "PO BOX 84                     1408 DEER RUN ROAD", "city": "LEAMINGTON", "province": "ON", "country": "CA", "postalCode": "N8H3W1", "twitter": "None", "instagram": "None", "facebook": "None", "youtube": "None", "website": "None", "summary": "None", "logo": "None", "latitude": 42.04835373214477, "longitude": -82.54433709019327}, "823054416RR0001": {"name": "Dehart Education and Poverty Relief Foundation", "designationCode": "B", "categoryCode": "03", "address": "1888 3RD AVE W", "city": "VANCOUVER", "province": "BC", "country": "CA", "postalCode": "V6J1K8", "twitter": "None", "instagram": "None", "facebook": "None", "youtube": "None", "website": "None", "summary": "None", "logo": "None", "latitude": 49.26881707546506, "longitude": -123.14759059554764}, "806480885RR0001": {"name": "Dekker Centre For The Performing Arts Inc.", "designationCode": "C", "categoryCode": "22", "address": "PO BOX 656", "city": "NORTH BATTLEFORD", "province": "SK", "country": "CA", "postalCode": "S9A2Y7", "twitter": "None", "instagram": "None", "facebook": "None", "youtube": "None", "website": "None", "summary": "None", "logo": "None", "latitude": 52.77640200000006, "longitude": -108.29903299999994}, "818673006RR0001": {"name": "Dekpor School Development Organisation", "designationCode": "C", "categoryCode": "09", "address": "149 MCCLELLAN WAY", "city": "AURORA", "province": "ON", "country": "CA", "postalCode": "L4G6M5", "twitter": "None", "instagram": "None", "facebook": "None", "youtube": "None", "website": "None", "summary": "None", "logo": "None", "latitude": 43.972981849270155, "longitude": -79.47686777087549}, "891631442RR0001": {"name": "Del's Open Hand Inc.", "designationCode": "C", "categoryCode": "47", "address": "6 CAPE GEORGE TRAIL", "city": "NOBLETON", "province": "ON", "country": "CA", "postalCode": "L7B0A1", "twitter": "None", "instagram": "None", "facebook": "None", "youtube": "None", "website": "None", "summary": "None", "logo": "None", "latitude": 43.915211016908216, "longitude": -79.64029747489747}, "823786199RR0001": {"name": "Delicate Balance Foundation", "designationCode": "B", "categoryCode": "03", "address": "1250-1500 GEORGIA W ST        BOX 62", "city": "VANCOUVER", "province": "BC", "country": "CA", "postalCode": "V6G2Z6", "twitter": "None", "instagram": "None", "facebook": "None", "youtube": "None", "website": "None", "summary": "None", "logo": "None", "latitude": 49.290187500000016, "longitude": -123.130035}, "869263129RR0001": {"name": "Deliverance Gospel Centre Gladtidings Church of the First Born in Canada inc", "designationCode": "C", "categoryCode": "39", "address": "215 WEXFORD RD", "city": "BRAMPTON", "province": "ON", "country": "CA", "postalCode": "L6Z2R2", "twitter": "None", "instagram": "None", "facebook": "None", "youtube": "None", "website": "None", "summary": "None", "logo": "None", "latitude": 43.71870010240071, "longitude": -79.78201292420239}, "843494774RR0001": {"name": "Deliverance Tabernacle Church of God", "designationCode": "C", "categoryCode": "39", "address": "355 PLAINS ROAD EAST          UNIT 7 - DOWNSVIEW PLAZA", "city": "BURLINGTON", "province": "ON", "country": "CA", "postalCode": "L7T4H7", "twitter": "None", "instagram": "None", "facebook": "None", "youtube": "None", "website": "None", "summary": "None", "logo": "None"}, "887996296RR0001": {"name": "Deloitte Foundation Canada / La Fondation Deloitte Canada", "designationCode": "B", "categoryCode": "03", "address": "200 - 22 ADELAIDE ST W", "city": "TORONTO", "province": "ON", "country": "CA", "postalCode": "M5H0A9", "twitter": "None", "instagram": "None", "facebook": "None", "youtube": "None", "website": "None", "summary": "None", "logo": "None", "latitude": 43.6500561684748, "longitude": -79.38026958604074}, "118884071RR0001": {"name": "Deloraine Area United Church", "designationCode": "C", "categoryCode": "44", "address": "BOX 370", "city": "DELORAINE", "province": "MB", "country": "CA", "postalCode": "R0M0M0", "twitter": "None", "instagram": "None", "facebook": "None", "youtube": "None", "website": "None", "summary": "None", "logo": "None", "latitude": 49.19157000000007, "longitude": -100.49399999999997}, "822285631RR0001": {"name": "Delta Fishing Heritage Society", "designationCode": "C", "categoryCode": "50", "address": "4515 RIVER ROAD WEST", "city": "DELTA", "province": "BC", "country": "CA", "postalCode": "V4K1R9", "twitter": "None", "instagram": "None", "facebook": "None", "youtube": "None", "website": "None", "summary": "None", "logo": "None", "latitude": 49.087928157948184, "longitude": -123.09828042592363}, "864893359RR0001": {"name": "Delta Meals on Wheels Society", "designationCode": "C", "categoryCode": "09", "address": "200 - 500 BRIDGE ST", "city": "DELTA", "province": "BC", "country": "CA", "postalCode": "V4K2K4", "twitter": "None", "instagram": "None", "facebook": "None", "youtube": "None", "website": "None", "summary": "None", "logo": "None", "latitude": 49.091057642137926, "longitude": -123.08558195978223}, "804797660RR0001": {"name": "Delta Seaman Mission", "designationCode": "C", "categoryCode": "47", "address": "1-11965 84A AVE", "city": "DELTA", "province": "BC", "country": "CA", "postalCode": "V4C2T3", "twitter": "None", "instagram": "None", "facebook": "None", "youtube": "None", "website": "None", "summary": "None", "logo": "None", "latitude": 49.157028961451694, "longitude": -122.89173242518333}, "812919769RR0001": {"name": "Delta Stroke Recovery Society", "designationCode": "C", "categoryCode": "11", "address": "693 53 ST", "city": "DELTA", "province": "BC", "country": "CA", "postalCode": "V4M3B6", "twitter": "None", "instagram": "None", "facebook": "None", "youtube": "None", "website": "None", "summary": "None", "logo": "None", "latitude": 49.01526445511098, "longitude": -123.076969787996}, "848906343RR0001": {"name": "Delta West Academy Foundation", "designationCode": "A", "categoryCode": "03", "address": "2400, 525-8 AVENUE S.W.", "city": "CALGARY", "province": "AB", "country": "CA", "postalCode": "T2P1G1", "twitter": "None", "instagram": "None", "facebook": "None", "youtube": "None", "website": "None", "summary": "None", "logo": "None", "latitude": 51.04579148124545, "longitude": -114.07258130659557}, "849863113RR0001": {"name": "Demezey Memorial Abbeyfield Legacy Society", "designationCode": "C", "categoryCode": "09", "address": "2980 SEAVIEW RD", "city": "VICTORIA", "province": "BC", "country": "CA", "postalCode": "V8N1L1", "twitter": "None", "instagram": "None", "facebook": "None", "youtube": "None", "website": "None", "summary": "None", "logo": "None", "latitude": 48.45151242466373, "longitude": -123.27604213353315}, "810475913RR0001": {"name": "Dempster Foundation Canada", "designationCode": "B", "categoryCode": "13", "address": "938 GIBSONS WAY, UNIT 100", "city": "GIBSONS", "province": "BC", "country": "CA", "postalCode": "V0N1V7", "twitter": "None", "instagram": "None", "facebook": "None", "youtube": "None", "website": "None", "summary": "None", "logo": "None", "latitude": 49.40672351543635, "longitude": -123.52160097016561}, "831663257RR0001": {"name": "Dena Dadengak Koa", "designationCode": "C", "categoryCode": "39", "address": "9 ROSS RIVER AVENUE", "city": "ROSS RIVER", "province": "YT", "country": "CA", "postalCode": "Y0B1S0", "twitter": "None", "instagram": "None", "facebook": "None", "youtube": "None", "website": "None", "summary": "None", "logo": "None", "latitude": 61.97977014576872, "longitude": -132.45208914352878}, "119090488RR0001": {"name": "Dene Pentecostal Church", "designationCode": "C", "categoryCode": "36", "address": "PO BOX 3065", "city": "HAY RIVER", "province": "NT", "country": "CA", "postalCode": "X0E1G4", "twitter": "None", "instagram": "None", "facebook": "None", "youtube": "None", "website": "None", "summary": "None", "logo": "None", "latitude": 60.82057500000006, "longitude": -115.78217299999994}, "842230898RR0001": {"name": "Denman Community Land Trust Association", "designationCode": "C", "categoryCode": "09", "address": "3900 LACON ROAD", "city": "DENMAN ISLAND", "province": "BC", "country": "CA", "postalCode": "V0R1T0", "twitter": "None", "instagram": "None", "facebook": "None", "youtube": "None", "website": "None", "summary": "None", "logo": "None", "latitude": 49.510817232085905, "longitude": -124.7787905633657}, "825298540RR0001": {"name": "Denman Health Centre Society", "designationCode": "C", "categoryCode": "11", "address": "4265 EAST ROAD", "city": "DENMAN ISLAND", "province": "BC", "country": "CA", "postalCode": "V0R1T0", "twitter": "None", "instagram": "None", "facebook": "None", "youtube": "None", "website": "None", "summary": "None", "logo": "None", "latitude": 49.503407396236426, "longitude": -124.7318963352328}, "846800936RR0001": {"name": "Denman Housing Association", "designationCode": "C", "categoryCode": "09", "address": "3720 EAST RD", "city": "DENMAN ISLAND", "province": "BC", "country": "CA", "postalCode": "V0R1T0", "twitter": "None", "instagram": "None", "facebook": "None", "youtube": "None", "website": "None", "summary": "None", "logo": "None", "latitude": 49.5104155351301, "longitude": -124.7377196126226}, "848171260RR0001": {"name": "Denman Island Memorial Society", "designationCode": "C", "categoryCode": "59", "address": "6400 DENMAN ROAD", "city": "DENMAN ISLAND", "province": "BC", "country": "CA", "postalCode": "V0R1T0", "twitter": "None", "instagram": "None", "facebook": "None", "youtube": "None", "website": "None", "summary": "None", "logo": "None", "latitude": 49.53459392130733, "longitude": -124.77918010427382}, "801316761RR0001": {"name": "Deo Gratias Foundation", "designationCode": "B", "categoryCode": "03", "address": "269 WILSON LANE NW", "city": "EDMONTON", "province": "AB", "country": "CA", "postalCode": "T6M2K8", "twitter": "None", "instagram": "None", "facebook": "None", "youtube": "None", "website": "None", "summary": "None", "logo": "None", "latitude": 53.49130251154119, "longitude": -113.604651}, "118884394RR0001": {"name": "Deo Lutheran Church of Salmon Arm", "designationCode": "C", "categoryCode": "32", "address": "1801 30 ST NE", "city": "SALMON ARM", "province": "BC", "country": "CA", "postalCode": "V1E2Z5", "twitter": "None", "instagram": "None", "facebook": "None", "youtube": "None", "website": "None", "summary": "None", "logo": "None", "latitude": 50.71306449708581, "longitude": -119.25061337945033}, "830277554RR0001": {"name": "Deo-International", "designationCode": "C", "categoryCode": "09", "address": "670 9E AV", "city": "BEAUCEVILLE", "province": "QC", "country": "CA", "postalCode": "G5X3P6", "twitter": "None", "instagram": "None", "facebook": "None", "youtube": "None", "website": "None", "summary": "None", "logo": "None", "latitude": 46.2027835885826, "longitude": -70.76685897221346}, "812330462RR0001": {"name": "Deplaedt Charitable Foundation", "designationCode": "B", "categoryCode": "03", "address": "1731 PRESTON AVENUE NORTH", "city": "SASKATOON", "province": "SK", "country": "CA", "postalCode": "S7N4V2", "twitter": "None", "instagram": "None", "facebook": "None", "youtube": "None", "website": "None", "summary": "None", "logo": "None", "latitude": 52.14808468176064, "longitude": -106.62059150426222}, "828822395RR0001": {"name": "Dera Sacha Sauda", "designationCode": "C", "categoryCode": "09", "address": "29 PICASSO DR", "city": "BRAMPTON", "province": "ON", "country": "CA", "postalCode": "L6P3J7", "twitter": "None", "instagram": "None", "facebook": "None", "youtube": "None", "website": "None", "summary": "None", "logo": "None", "latitude": 43.78802275353457, "longitude": -79.66576227058702}, "829142157RR0001": {"name": "Derik Whiting Foundation", "designationCode": "C", "categoryCode": "21", "address": "70622 BLUEWATER HIGHWAY       BOX 789", "city": "GRAND BEND", "province": "ON", "country": "CA", "postalCode": "N0M1T0", "twitter": "None", "instagram": "None", "facebook": "None", "youtube": "None", "website": "None", "summary": "None", "logo": "None", "latitude": 43.3165928861737, "longitude": -81.75311725082285}, "125351460RR0001": {"name": "Derryadd Cemetery Board", "designationCode": "C", "categoryCode": "59", "address": "8157 WELLINGTON ROAD 7        RR#1", "city": "MOOREFIELD", "province": "ON", "country": "CA", "postalCode": "N0G2K0", "twitter": "None", "instagram": "None", "facebook": "None", "youtube": "None", "website": "None", "summary": "None", "logo": "None", "latitude": 43.79807055953703, "longitude": -80.67286629665797}, "720540293RR0001": {"name": "Dervishian Foundation / Fondation Dervishian", "designationCode": "B", "categoryCode": "03", "address": "2575 BOULEVARD PITFIELD", "city": "MONTREAL", "province": "QC", "country": "CA", "postalCode": "H4S1W8", "twitter": "None", "instagram": "None", "facebook": "None", "youtube": "None", "website": "None", "summary": "None", "logo": "None", "latitude": 45.494804270644345, "longitude": -73.74294755782246}, "121141782RR0001": {"name": "Des mots d'la dynamite", "designationCode": "C", "categoryCode": "22", "address": "LA CENNE, SUITE 300           7755 BOUL. ST-LAURENT", "city": "MONTR\u00c9AL", "province": "QC", "country": "CA", "postalCode": "H2R1X1", "twitter": "None", "instagram": "None", "facebook": "None", "youtube": "None", "website": "None", "summary": "None", "logo": "None", "latitude": 45.53755097198327, "longitude": -73.62639406604544}, "804885663RR0001": {"name": "Des racines et des fruits", "designationCode": "C", "categoryCode": "09", "address": "46, RANG ST-FRAN\u00c7OIS", "city": "LANORAIE", "province": "QC", "country": "CA", "postalCode": "J0K1E0", "twitter": "None", "instagram": "None", "facebook": "None", "youtube": "None", "website": "None", "summary": "None", "logo": "None", "latitude": 45.96949502245372, "longitude": -73.26935950645125}, "817720709RR0001": {"name": "Des Pas dans le sable", "designationCode": "C", "categoryCode": "49", "address": "3455 RUE NOTRE-DAME OUEST", "city": "MONTREAL", "province": "QC", "country": "CA", "postalCode": "H4C1P3", "twitter": "None", "instagram": "None", "facebook": "None", "youtube": "None", "website": "None", "summary": "None", "logo": "None", "latitude": 45.480311747446386, "longitude": -73.57970639621432}, "107016552RR0001": {"name": "Deseronto Public Library", "designationCode": "C", "categoryCode": "50", "address": "358 MAIN STREET               PO BOX 302", "city": "DESERONTO", "province": "ON", "country": "CA", "postalCode": "K0K2N0", "twitter": "None", "instagram": "None", "facebook": "None", "youtube": "None", "website": "None", "summary": "None", "logo": "None", "latitude": 44.19540186620706, "longitude": -77.04742821758333}, "107445348RR0001": {"name": "Deseronto-Napanee Pastoral Charge", "designationCode": "C", "categoryCode": "44", "address": "150 ROBERT ST.", "city": "NAPANEE", "province": "ON", "country": "CA", "postalCode": "K7R2M7", "twitter": "None", "instagram": "None", "facebook": "None", "youtube": "None", "website": "None", "summary": "None", "logo": "None", "latitude": 44.24790500963863, "longitude": -76.95309492408963}, "860858075RR0001": {"name": "Desert Stream Christian Fellowship", "designationCode": "C", "categoryCode": "36", "address": "535 DUNDAS ST E", "city": "BELLEVILLE", "province": "ON", "country": "CA", "postalCode": "K8N5P6", "twitter": "None", "instagram": "None", "facebook": "None", "youtube": "None", "website": "None", "summary": "None", "logo": "None", "latitude": 44.16808959059971, "longitude": -77.34781029946913}, "822553608RR0001": {"name": "Desert Streams Life Church", "designationCode": "C", "categoryCode": "36", "address": "4354 CHARLES ST", "city": "BURNABY", "province": "BC", "country": "CA", "postalCode": "V5C3L2", "twitter": "None", "instagram": "None", "facebook": "None", "youtube": "None", "website": "None", "summary": "None", "logo": "None", "latitude": 49.272871022004864, "longitude": -123.007256621281}, "810286732RR0001": {"name": "Deshaun Properties Corporation", "designationCode": "C", "categoryCode": "09", "address": "9 DUKE ST", "city": "BOWMANVILLE", "province": "ON", "country": "CA", "postalCode": "L1C2T9", "twitter": "None", "instagram": "None", "facebook": "None", "youtube": "None", "website": "None", "summary": "None", "logo": "None", "latitude": 43.90789250597261, "longitude": -78.68400424756196}, "814569729RR0001": {"name": "Design Talks Institute", "designationCode": "C", "categoryCode": "21", "address": "1210 - 135 13 AVE SW", "city": "CALGARY", "province": "AB", "country": "CA", "postalCode": "T2R0W8", "twitter": "None", "instagram": "None", "facebook": "None", "youtube": "None", "website": "None", "summary": "None", "logo": "None", "latitude": 51.04082905452423, "longitude": -114.07609767110335}, "799671698RR0001": {"name": "Desmoid Tumour Foundation of Canada", "designationCode": "A", "categoryCode": "03", "address": "145 COLDSTREAM AVENUE", "city": "TORONTO", "province": "ON", "country": "CA", "postalCode": "M5N1X7", "twitter": "None", "instagram": "None", "facebook": "None", "youtube": "None", "website": "None", "summary": "None", "logo": "None", "latitude": 43.716882183478425, "longitude": -79.41948664530548}, "822780862RR0001": {"name": "Desta black youth network / Desta r\u00e9seau de la jeuness noire", "designationCode": "C", "categoryCode": "21", "address": "1950 ST. ANTOINE WEST", "city": "MONTREAL", "province": "QC", "country": "CA", "postalCode": "H3J1A5", "twitter": "None", "instagram": "None", "facebook": "None", "youtube": "None", "website": "None", "summary": "None", "logo": "None", "latitude": 45.48973199443141, "longitude": -73.57575391753728}, "829946375RR0001": {"name": "Destination Christian Reformed Church Inc.", "designationCode": "C", "categoryCode": "39", "address": "668 TALBOT STREET", "city": "ST THOMAS", "province": "ON", "country": "CA", "postalCode": "N5P1C8", "twitter": "None", "instagram": "None", "facebook": "None", "youtube": "None", "website": "None", "summary": "None", "logo": "None", "latitude": 42.77888154674261, "longitude": -81.18913033236194}, "862877735RR0001": {"name": "Destination Church", "designationCode": "C", "categoryCode": "37", "address": "PO BOX 41", "city": "PORT ROBINSON", "province": "ON", "country": "CA", "postalCode": "L0S1K0", "twitter": "None", "instagram": "None", "facebook": "None", "youtube": "None", "website": "None", "summary": "None", "logo": "None", "latitude": 43.040274122341486, "longitude": -79.22348167604966}, "820086700RR0001": {"name": "Destination Imagination Educational Programs Canada", "designationCode": "C", "categoryCode": "21", "address": "2700 - 700 GEORGIA ST W", "city": "VANCOUVER", "province": "BC", "country": "CA", "postalCode": "V7Y1K8", "twitter": "None", "instagram": "None", "facebook": "None", "youtube": "None", "website": "None", "summary": "None", "logo": "None", "latitude": 49.28277258451152, "longitude": -123.11866899500833}, "738310523RR0001": {"name": "Destination Imagination Ontario", "designationCode": "C", "categoryCode": "21", "address": "500 - 9050 YONGE STREET", "city": "RICHMOND HILL", "province": "ON", "country": "CA", "postalCode": "L4C9S6", "twitter": "None", "instagram": "None", "facebook": "None", "youtube": "None", "website": "None", "summary": "None", "logo": "None", "latitude": 43.847406136822734, "longitude": -79.43167660609335}, "800999401RR0001": {"name": "Destiny Center Global Kingdom Community", "designationCode": "C", "categoryCode": "39", "address": "1219 DUFFERIN ST", "city": "TORONTO", "province": "ON", "country": "CA", "postalCode": "M6H4C2", "twitter": "None", "instagram": "None", "facebook": "None", "youtube": "None", "website": "None", "summary": "None", "logo": "None", "latitude": 43.66602789953255, "longitude": -79.43794116400272}, "765158522RR0001": {"name": "Destiny Christian Academy", "designationCode": "C", "categoryCode": "20", "address": "999 SYDENHAM RD", "city": "KINGSTON", "province": "ON", "country": "CA", "postalCode": "K7M3L8", "twitter": "None", "instagram": "None", "facebook": "None", "youtube": "None", "website": "None", "summary": "None", "logo": "None", "latitude": 44.264138403312124, "longitude": -76.54414839863757}, "828548461RR0001": {"name": "Destiny Christian Centre (Algoma)", "designationCode": "C", "categoryCode": "39", "address": "633 WALLACE TERR", "city": "SAULT STE. MARIE", "province": "ON", "country": "CA", "postalCode": "P6C6A2", "twitter": "None", "instagram": "None", "facebook": "None", "youtube": "None", "website": "None", "summary": "None", "logo": "None", "latitude": 46.52972048845882, "longitude": -84.37863244310117}, "843822263RR0001": {"name": "Destiny Church Ministries", "designationCode": "C", "categoryCode": "39", "address": "144 MAITLAND STREET           RR6", "city": "SMITHS FALLS", "province": "ON", "country": "CA", "postalCode": "K7A4S7", "twitter": "None", "instagram": "None", "facebook": "None", "youtube": "None", "website": "None", "summary": "None", "logo": "None", "latitude": 45.04347063754387, "longitude": -76.05924308656033}, "844666917RR0001": {"name": "Destiny Gospel Centre Inc", "designationCode": "C", "categoryCode": "39", "address": "32 MAIN STREET NORTH", "city": "MARKHAM", "province": "ON", "country": "CA", "postalCode": "L3P1X5", "twitter": "None", "instagram": "None", "facebook": "None", "youtube": "None", "website": "None", "summary": "None", "logo": "None", "latitude": 43.87513847931223, "longitude": -79.26019672323788}}