{"837932409RR0001": {"name": "The Hope Network, THN", "designationCode": "C", "categoryCode": "09", "address": "113 BURROWS HALL BOULEVARD", "city": "TORONTO", "province": "ON", "country": "CA", "postalCode": "M1B1Z7", "twitter": "None", "instagram": "None", "facebook": "None", "youtube": "None", "website": "None", "summary": "None", "logo": "None", "latitude": 43.791784554532896, "longitude": -79.23112114071786}, "796804920RR0001": {"name": "The Hopscotch Foundation", "designationCode": "B", "categoryCode": "03", "address": "800-90 ADELAIDE STREET WEST", "city": "TORONTO", "province": "ON", "country": "CA", "postalCode": "M5H3V9", "twitter": "None", "instagram": "None", "facebook": "None", "youtube": "None", "website": "None", "summary": "None", "logo": "None", "latitude": 43.64911539870523, "longitude": -79.38439020582648}, "816991442RR0001": {"name": "The Horse Sanctuary", "designationCode": "C", "categoryCode": "56", "address": "1090 WARMINSTER SIDE ROAD     RURAL ROAD 3", "city": "COLDWATER", "province": "ON", "country": "CA", "postalCode": "L0K1E0", "twitter": "None", "instagram": "None", "facebook": "None", "youtube": "None", "website": "None", "summary": "None", "logo": "None", "latitude": 44.63363650964607, "longitude": -79.5574823107844}, "831085089RR0001": {"name": "The Hospice Georgian Triangle Foundation", "designationCode": "A", "categoryCode": "03", "address": "240 ERIE ST", "city": "COLLINGWOOD", "province": "ON", "country": "CA", "postalCode": "L9Y0X8", "twitter": "None", "instagram": "None", "facebook": "None", "youtube": "None", "website": "None", "summary": "None", "logo": "None", "latitude": 44.50254227192884, "longitude": -80.20208927519805}, "783933898RR0001": {"name": "The House", "designationCode": "C", "categoryCode": "36", "address": "1 - 240 LOUGHEED RD", "city": "KELOWNA", "province": "BC", "country": "CA", "postalCode": "V1V2M1", "twitter": "None", "instagram": "None", "facebook": "None", "youtube": "None", "website": "None", "summary": "None", "logo": "None", "latitude": 49.92396980383328, "longitude": -119.39347741709986}, "836212332RR0001": {"name": "The House of Forward Foundation", "designationCode": "A", "categoryCode": "03", "address": "1099 SPRINGHILL DR", "city": "MISSISSAUGA", "province": "ON", "country": "CA", "postalCode": "L5H1N2", "twitter": "None", "instagram": "None", "facebook": "None", "youtube": "None", "website": "None", "summary": "None", "logo": "None", "latitude": 43.53679852290949, "longitude": -79.61482863240798}, "890861313RR0001": {"name": "The Housing Help Centre", "designationCode": "C", "categoryCode": "09", "address": "205-2500 LAWRENCE AVE E", "city": "SCARBOROUGH", "province": "ON", "country": "CA", "postalCode": "M1P2R7", "twitter": "None", "instagram": "None", "facebook": "None", "youtube": "None", "website": "None", "summary": "None", "logo": "None", "latitude": 43.751456999999995, "longitude": -79.26545250000001}, "865513618RR0001": {"name": "The Houssian Foundation", "designationCode": "B", "categoryCode": "53", "address": "2150-745 THURLOW STREET", "city": "VANCOUVER", "province": "BC", "country": "CA", "postalCode": "V6E0C5", "twitter": "None", "instagram": "None", "facebook": "None", "youtube": "None", "website": "None", "summary": "None", "logo": "None", "latitude": 49.285181832553974, "longitude": -123.1240751383693}, "831611983RR0001": {"name": "The Howard Maki Transportation Society of Alberta", "designationCode": "A", "categoryCode": "03", "address": "202-4805 48 ST", "city": "RED DEER", "province": "AB", "country": "CA", "postalCode": "T4N1S6", "twitter": "None", "instagram": "None", "facebook": "None", "youtube": "None", "website": "None", "summary": "None", "logo": "None", "latitude": 52.26708047013694, "longitude": -113.80941}, "839158300RR0001": {"name": "The Hub for Beyond 21 Foundation", "designationCode": "C", "categoryCode": "20", "address": "1500 CUMBERLAND STREET,", "city": "CORNWALL", "province": "ON", "country": "CA", "postalCode": "K6J4K9", "twitter": "None", "instagram": "None", "facebook": "None", "youtube": "None", "website": "None", "summary": "None", "logo": "None", "latitude": 45.034394038713295, "longitude": -74.74988763138569}, "851418731RR0001": {"name": "The Huculak Foundation", "designationCode": "B", "categoryCode": "03", "address": "21 ASHLEY PARK ROAD", "city": "TORONTO", "province": "ON", "country": "CA", "postalCode": "M9A4C9", "twitter": "None", "instagram": "None", "facebook": "None", "youtube": "None", "website": "None", "summary": "None", "logo": "None", "latitude": 43.66374105969745, "longitude": -79.51706731155858}, "842123085RR0001": {"name": "The Hud Group / Le groupe Hud", "designationCode": "C", "categoryCode": "49", "address": "2097, UNION AVENUE", "city": "MONTREAL", "province": "QC", "country": "CA", "postalCode": "H3A2C3", "twitter": "None", "instagram": "None", "facebook": "None", "youtube": "None", "website": "None", "summary": "None", "logo": "None", "latitude": 45.50534012989782, "longitude": -73.57243178406145}, "841802267RR0001": {"name": "The Humanist Association of London and Area", "designationCode": "C", "categoryCode": "29", "address": "23, VIRGINIA ROAD", "city": "LONDON", "province": "ON", "country": "CA", "postalCode": "N5X3E6", "twitter": "None", "instagram": "None", "facebook": "None", "youtube": "None", "website": "None", "summary": "None", "logo": "None", "latitude": 43.03525736912122, "longitude": -81.26766904841605}, "842144883RR0001": {"name": "The Hummingbird Centre for Hope", "designationCode": "C", "categoryCode": "09", "address": "65 HANSON AVE", "city": "KITCHENER", "province": "ON", "country": "CA", "postalCode": "N2C2H6", "twitter": "None", "instagram": "None", "facebook": "None", "youtube": "None", "website": "None", "summary": "None", "logo": "None", "latitude": 43.42534500885816, "longitude": -80.4717904158056}, "118965235RR0001": {"name": "The Hungarian Catholic Community of Ottawa", "designationCode": "C", "categoryCode": "38", "address": "1303 LEASIDE AVE.", "city": "OTTAWA", "province": "ON", "country": "CA", "postalCode": "K1Z7R2", "twitter": "None", "instagram": "None", "facebook": "None", "youtube": "None", "website": "None", "summary": "None", "logo": "None", "latitude": 45.382608480177595, "longitude": -75.73341098516924}, "855931663RR0001": {"name": "The Hunt Family Charitable Foundation", "designationCode": "B", "categoryCode": "03", "address": "1 TORONTO STREET              SUITE 808-BOX 19", "city": "TORONTO", "province": "ON", "country": "CA", "postalCode": "M5C2V6", "twitter": "None", "instagram": "None", "facebook": "None", "youtube": "None", "website": "None", "summary": "None", "logo": "None", "latitude": 43.64988730558597, "longitude": -79.37604079929623}, "759794522RR0001": {"name": "The Huntsville Alliance Church of the Christian and Missionary", "designationCode": "C", "categoryCode": "39", "address": "32 FLORENCE STREET WEST", "city": "HUNTSVILLE", "province": "ON", "country": "CA", "postalCode": "P1H1V4", "twitter": "None", "instagram": "None", "facebook": "None", "youtube": "None", "website": "None", "summary": "None", "logo": "None"}, "832960082RR0001": {"name": "The Hurt Association", "designationCode": "C", "categoryCode": "09", "address": "1509 BONNEVILLE CRESCENT", "city": "ORL\u00c9ANS", "province": "ON", "country": "CA", "postalCode": "K1C7N1", "twitter": "None", "instagram": "None", "facebook": "None", "youtube": "None", "website": "None", "summary": "None", "logo": "None", "latitude": 45.471364051070445, "longitude": -75.51424479707454}, "859733438RR0001": {"name": "The Huskies Den Preschool Inc.", "designationCode": "C", "categoryCode": "01", "address": "427 MCCORMACK RD", "city": "SASKATOON", "province": "SK", "country": "CA", "postalCode": "S7M5L8", "twitter": "None", "instagram": "None", "facebook": "None", "youtube": "None", "website": "None", "summary": "None", "logo": "None", "latitude": 52.124230545588766, "longitude": -106.74823071440933}, "852165414RR0001": {"name": "The HIROC Foundation", "designationCode": "B", "categoryCode": "13", "address": "4711 YONGE STREET             SUITE 1600", "city": "TORONTO", "province": "ON", "country": "CA", "postalCode": "M2N6K8", "twitter": "None", "instagram": "None", "facebook": "None", "youtube": "None", "website": "None", "summary": "None", "logo": "None", "latitude": 43.75957723120199, "longitude": -79.41040509487021}, "812644813RR0001": {"name": "The HM 40th Regiment of Foot Society", "designationCode": "C", "categoryCode": "50", "address": "P.O. BOX 122", "city": "TUSKET", "province": "NS", "country": "CA", "postalCode": "B0W3M0", "twitter": "None", "instagram": "None", "facebook": "None", "youtube": "None", "website": "None", "summary": "None", "logo": "None", "latitude": 43.92724200000005, "longitude": -65.89714399999993}, "822328332RR0001": {"name": "The HOP Foundation", "designationCode": "B", "categoryCode": "03", "address": "630-3RD AVENUE SOUTHWEST      SUITE 900", "city": "CALGARY", "province": "AB", "country": "CA", "postalCode": "T2P4L4", "twitter": "None", "instagram": "None", "facebook": "None", "youtube": "None", "website": "None", "summary": "None", "logo": "None", "latitude": 51.0510843702464, "longitude": -114.07586967162011}, "865255939RR0001": {"name": "The Ian and Rochelle Laing Family Foundation Inc.", "designationCode": "B", "categoryCode": "03", "address": "1205-255 WELLINGTON CRES", "city": "WINNIPEG", "province": "MB", "country": "CA", "postalCode": "R3N0Y7", "twitter": "None", "instagram": "None", "facebook": "None", "youtube": "None", "website": "None", "summary": "None", "logo": "None", "latitude": 49.87740650879988, "longitude": -97.18629546156727}, "819117128RR0001": {"name": "The Ignite Fund Foundation", "designationCode": "B", "categoryCode": "03", "address": "395 BALLIOL ST", "city": "TORONTO", "province": "ON", "country": "CA", "postalCode": "M4S1E1", "twitter": "None", "instagram": "None", "facebook": "None", "youtube": "None", "website": "None", "summary": "None", "logo": "None", "latitude": 43.69986482041671, "longitude": -79.38381525644876}, "830431136RR0001": {"name": "The Impact 6/21 Foundation", "designationCode": "C", "categoryCode": "57", "address": "4514 FROST STREET             APARTMENT 1", "city": "HANMER", "province": "ON", "country": "CA", "postalCode": "P3P1C6", "twitter": "None", "instagram": "None", "facebook": "None", "youtube": "None", "website": "None", "summary": "None", "logo": "None", "latitude": 46.651598528449426, "longitude": -80.97994995167085}, "804876423RR0001": {"name": "The Incorporated Ministry in Flemingdon Park", "designationCode": "C", "categoryCode": "49", "address": "F.P.P.O 45604", "city": "NORTH YORK", "province": "ON", "country": "CA", "postalCode": "M3C3S4", "twitter": "None", "instagram": "None", "facebook": "None", "youtube": "None", "website": "None", "summary": "None", "logo": "None", "latitude": 43.72586700000005, "longitude": -79.34462449999994}, "881240865RR0001": {"name": "The Independent Filmmakers Co-operative of Ottawa Inc.", "designationCode": "C", "categoryCode": "22", "address": "140-2 DALY AVENUE", "city": "OTTAWA", "province": "ON", "country": "CA", "postalCode": "K1N6E2", "twitter": "None", "instagram": "None", "facebook": "None", "youtube": "None", "website": "None", "summary": "None", "logo": "None", "latitude": 45.42564301552326, "longitude": -75.68902925893026}, "849849161RR0001": {"name": "The Institute of Cultural Affairs International - Institut des Affaires Culturelles International", "designationCode": "C", "categoryCode": "09", "address": "401 RICHMOND STREET WEST      SUITE 405", "city": "TORONTO", "province": "ON", "country": "CA", "postalCode": "M5V3A8", "twitter": "None", "instagram": "None", "facebook": "None", "youtube": "None", "website": "None", "summary": "None", "logo": "None", "latitude": 43.64803297305114, "longitude": -79.39483379779568}, "829965524RR0001": {"name": "The Institute of Torah Education", "designationCode": "C", "categoryCode": "49", "address": "613 CLARK AVE W.", "city": "THORNHILL", "province": "ON", "country": "CA", "postalCode": "L4J5V3", "twitter": "None", "instagram": "None", "facebook": "None", "youtube": "None", "website": "None", "summary": "None", "logo": "None", "latitude": 43.80414659997745, "longitude": -79.44404892073995}, "803346790RR0001": {"name": "The Interactive Jewish Education Centre", "designationCode": "C", "categoryCode": "49", "address": "6-20 MAGNETIC DRIVE", "city": "TORONTO", "province": "ON", "country": "CA", "postalCode": "M3J2C4", "twitter": "None", "instagram": "None", "facebook": "None", "youtube": "None", "website": "None", "summary": "None", "logo": "None", "latitude": 43.78177527670385, "longitude": -79.47219612216485}, "855926036RR0001": {"name": "The International Association for Research in Income and Wealth", "designationCode": "C", "categoryCode": "29", "address": "151 SLATER ST                 SUITE 710", "city": "OTTAWA", "province": "ON", "country": "CA", "postalCode": "K1P5H3", "twitter": "None", "instagram": "None", "facebook": "None", "youtube": "None", "website": "None", "summary": "None", "logo": "None", "latitude": 45.420406385250054, "longitude": -75.69735141147775}, "832250716RR0001": {"name": "The International Centre for Dignity and Palliative Care, Inc.", "designationCode": "A", "categoryCode": "11", "address": "1 MORLEY AVE", "city": "WINNIPEG", "province": "MB", "country": "CA", "postalCode": "R3L2P4", "twitter": "None", "instagram": "None", "facebook": "None", "youtube": "None", "website": "None", "summary": "None", "logo": "None", "latitude": 49.869076526870906, "longitude": -97.12236631521597}, "870190956RR0001": {"name": "The International High School at Vancouver Island University Association", "designationCode": "C", "categoryCode": "20", "address": "900 FIFTH STREET              BUILDING 350", "city": "NANAIMO", "province": "BC", "country": "CA", "postalCode": "V9R5S5", "twitter": "None", "instagram": "None", "facebook": "None", "youtube": "None", "website": "None", "summary": "None", "logo": "None", "latitude": 49.154814551531814, "longitude": -123.97002666146297}, "881468268RR0001": {"name": "The International Hockey Hall of Fame & Museum Inc.", "designationCode": "C", "categoryCode": "50", "address": "POST OFFICE BOX 82", "city": "KINGSTON", "province": "ON", "country": "CA", "postalCode": "K7L4V6", "twitter": "None", "instagram": "None", "facebook": "None", "youtube": "None", "website": "None", "summary": "None", "logo": "None", "latitude": 44.23153200000006, "longitude": -76.47933049999993}, "833512049RR0001": {"name": "The International Knightly Order of St. George Foundation", "designationCode": "A", "categoryCode": "03", "address": "520-65 QUEEN ST W", "city": "TORONTO", "province": "ON", "country": "CA", "postalCode": "M5H2M5", "twitter": "None", "instagram": "None", "facebook": "None", "youtube": "None", "website": "None", "summary": "None", "logo": "None", "latitude": 43.65151703655775, "longitude": -79.38341919746475}, "868222654RR0001": {"name": "The International Society for Augmentative and Alternative Communication", "designationCode": "C", "categoryCode": "23", "address": "312 DOLOMITE DRIVE            SUITE 216", "city": "TORONTO", "province": "ON", "country": "CA", "postalCode": "M3J2N2", "twitter": "None", "instagram": "None", "facebook": "None", "youtube": "None", "website": "None", "summary": "None", "logo": "None", "latitude": 43.77971912245332, "longitude": -79.47498755386907}, "885255646RR0001": {"name": "The Iqaluit Music Society-Iqalunninihhausijarnimut Katujjijit", "designationCode": "C", "categoryCode": "21", "address": "PO BOX 6108", "city": "IQALUIT", "province": "NU", "country": "CA", "postalCode": "X0A0H0", "twitter": "None", "instagram": "None", "facebook": "None", "youtube": "None", "website": "None", "summary": "None", "logo": "None", "latitude": 62.81090700000006, "longitude": -92.08155949999994}, "119238681RR0001": {"name": "The Islamic Association of Saskatchewan (Saskatoon)", "designationCode": "C", "categoryCode": "60", "address": "222 COPLAND CRES", "city": "SASKATOON", "province": "SK", "country": "CA", "postalCode": "S7H2Z5", "twitter": "None", "instagram": "None", "facebook": "None", "youtube": "None", "website": "None", "summary": "None", "logo": "None", "latitude": 52.118784549483934, "longitude": -106.63064261365342}, "758128490RR0001": {"name": "The Island Academy Foundation", "designationCode": "C", "categoryCode": "21", "address": "63 SUMMERHILL AVE", "city": "TORONTO", "province": "ON", "country": "CA", "postalCode": "M4T1A9", "twitter": "None", "instagram": "None", "facebook": "None", "youtube": "None", "website": "None", "summary": "None", "logo": "None", "latitude": 43.68359777655963, "longitude": -79.38943698237063}, "807547799RR0001": {"name": "The Israel Goldgrub Charitable Foundation", "designationCode": "B", "categoryCode": "03", "address": "50 DUFFLAW ROAD", "city": "TORONTO", "province": "ON", "country": "CA", "postalCode": "M6A2W1", "twitter": "None", "instagram": "None", "facebook": "None", "youtube": "None", "website": "None", "summary": "None", "logo": "None", "latitude": 43.71725276850957, "longitude": -79.46281254573208}, "801633066RR0001": {"name": "The Iveron Icon of the Mother of God Georgian Catholic-Apostolic Authocephalous Orthodox Church", "designationCode": "C", "categoryCode": "39", "address": "3 BIRGITTA CRES", "city": "ETOBICOKE", "province": "ON", "country": "CA", "postalCode": "M9C3W1", "twitter": "None", "instagram": "None", "facebook": "None", "youtube": "None", "website": "None", "summary": "None", "logo": "None", "latitude": 43.65721481652158, "longitude": -79.57310698666979}, "748296126RR0001": {"name": "The IBD Centre of British Columbia Society", "designationCode": "C", "categoryCode": "10", "address": "1800-510 GEORGIA W ST", "city": "VANCOUVER", "province": "BC", "country": "CA", "postalCode": "V6B0M3", "twitter": "None", "instagram": "None", "facebook": "None", "youtube": "None", "website": "None", "summary": "None", "logo": "None", "latitude": 49.28012307167682, "longitude": -123.11442679241839}, "809911068RR0001": {"name": "The ILC Charitable Foundation", "designationCode": "C", "categoryCode": "11", "address": "A14 - 481 NORTH SERVICE RD W", "city": "OAKVILLE", "province": "ON", "country": "CA", "postalCode": "L6M2V6", "twitter": "None", "instagram": "None", "facebook": "None", "youtube": "None", "website": "None", "summary": "None", "logo": "None", "latitude": 43.4287818207343, "longitude": -79.72054200421685}, "828765354RR0001": {"name": "The J.A./Bayview Trust", "designationCode": "C", "categoryCode": "25", "address": "2454 BAYVIEW AVENUE", "city": "TORONTO", "province": "ON", "country": "CA", "postalCode": "M2L1A6", "twitter": "None", "instagram": "None", "facebook": "None", "youtube": "None", "website": "None", "summary": "None", "logo": "None", "latitude": 43.74155516680134, "longitude": -79.3829268926363}, "841233901RR0001": {"name": "The J.B. \"Bernie\" Quinn Family Foundation", "designationCode": "B", "categoryCode": "03", "address": "716 MADISON AVE SW", "city": "CALGARY", "province": "AB", "country": "CA", "postalCode": "T2S1K3", "twitter": "None", "instagram": "None", "facebook": "None", "youtube": "None", "website": "None", "summary": "None", "logo": "None", "latitude": 51.01415932889948, "longitude": -114.08058853926946}, "838836336RR0001": {"name": "The Jack Davis Hope Foundation", "designationCode": "B", "categoryCode": "11", "address": "1131 117A STREET", "city": "EDMONTON", "province": "AB", "country": "CA", "postalCode": "T6W0B9", "twitter": "None", "instagram": "None", "facebook": "None", "youtube": "None", "website": "None", "summary": "None", "logo": "None", "latitude": 53.42267792200934, "longitude": -113.52640444223579}, "102934148RR0001": {"name": "The Jack Victor Foundation / La Fondation Jack Victor", "designationCode": "B", "categoryCode": "53", "address": "1250 RUE SAINT-ALEXANDRE", "city": "MONTREAL", "province": "QC", "country": "CA", "postalCode": "H3B3H6", "twitter": "None", "instagram": "None", "facebook": "None", "youtube": "None", "website": "None", "summary": "None", "logo": "None", "latitude": 45.505001924490855, "longitude": -73.56702397129078}, "817550924RR0001": {"name": "The Jaclyn Fisher Foundation La Fondation Jaclyn Fisher", "designationCode": "B", "categoryCode": "03", "address": "103 RUE MONTEVISTA", "city": "DOLLARD-DES-ORMEAUX", "province": "QC", "country": "CA", "postalCode": "H9B2Z7", "twitter": "None", "instagram": "None", "facebook": "None", "youtube": "None", "website": "None", "summary": "None", "logo": "None"}, "706720695RR0001": {"name": "The Jacob Puddister Memorial Foundation Inc.", "designationCode": "B", "categoryCode": "03", "address": "PO BOX 8274                   STATION A", "city": "ST. JOHN'S", "province": "NL", "country": "CA", "postalCode": "A1B3N4", "twitter": "None", "instagram": "None", "facebook": "None", "youtube": "None", "website": "None", "summary": "None", "logo": "None", "latitude": 47.56938900000006, "longitude": -52.78609699999993}, "835322215RR0001": {"name": "The Jacob Speelziek Foundation", "designationCode": "B", "categoryCode": "03", "address": "317 - 335 DUNSDON ST", "city": "BRANTFORD", "province": "ON", "country": "CA", "postalCode": "N3R0B5", "twitter": "None", "instagram": "None", "facebook": "None", "youtube": "None", "website": "None", "summary": "None", "logo": "None", "latitude": 43.183280622617595, "longitude": -80.24951243497686}, "821104817RR0001": {"name": "The Jacobson Family Foundation", "designationCode": "B", "categoryCode": "03", "address": "SUITE 4600                    400-3RD AVENUE SW", "city": "CALGARY", "province": "AB", "country": "CA", "postalCode": "T2P4H2", "twitter": "None", "instagram": "None", "facebook": "None", "youtube": "None", "website": "None", "summary": "None", "logo": "None", "latitude": 51.05059562234043, "longitude": -114.07012886096565}, "832875645RR0001": {"name": "The Jaffer Foundation", "designationCode": "B", "categoryCode": "03", "address": "2522 TRINITY ST", "city": "VANCOUVER", "province": "BC", "country": "CA", "postalCode": "V5K1E2", "twitter": "None", "instagram": "None", "facebook": "None", "youtube": "None", "website": "None", "summary": "None", "logo": "None", "latitude": 49.28966747735031, "longitude": -123.05389427699231}, "841110828RR0001": {"name": "The James A. and Donna-Mae Moore Foundation", "designationCode": "B", "categoryCode": "05", "address": "510-650 WEST GEORGIA STREET   SCOTIATRUST", "city": "VANCOUVER", "province": "BC", "country": "CA", "postalCode": "V6B4N7", "twitter": "None", "instagram": "None", "facebook": "None", "youtube": "None", "website": "None", "summary": "None", "logo": "None", "latitude": 49.282095217179936, "longitude": -123.11767129779695}, "846885036RR0001": {"name": "The James McKinney Parent Advisory Council", "designationCode": "C", "categoryCode": "21", "address": "10451 LASSAM DRIVE", "city": "RICHMOND", "province": "BC", "country": "CA", "postalCode": "V7E2C2", "twitter": "None", "instagram": "None", "facebook": "None", "youtube": "None", "website": "None", "summary": "None", "logo": "None", "latitude": 49.136893968990556, "longitude": -123.16369828678272}, "821622487RR0001": {"name": "The James Michael Dimenna Foundation", "designationCode": "B", "categoryCode": "03", "address": "2400 GRAHAM                   RR 2", "city": "KINGSVILLE", "province": "ON", "country": "CA", "postalCode": "N9Y2E5", "twitter": "None", "instagram": "None", "facebook": "None", "youtube": "None", "website": "None", "summary": "None", "logo": "None", "latitude": 42.07117041214159, "longitude": -82.6927341480496}, "806933909RR0001": {"name": "The James Richard and Annie Clothier LeRiche Trust", "designationCode": "B", "categoryCode": "05", "address": "PO BOX 457", "city": "HALIFAX", "province": "NS", "country": "CA", "postalCode": "B3J2P8", "twitter": "None", "instagram": "None", "facebook": "None", "youtube": "None", "website": "None", "summary": "None", "logo": "None"}, "844978049RR0001": {"name": "The Jason Noel Pearson Memorial Foundation Inc.", "designationCode": "B", "categoryCode": "21", "address": "415 HEROLD COURT              POST OFFICE BOX 39004", "city": "SASKATOON", "province": "SK", "country": "CA", "postalCode": "S7V0A9", "twitter": "None", "instagram": "None", "facebook": "None", "youtube": "None", "website": "None", "summary": "None", "logo": "None", "latitude": 52.0976560438571, "longitude": -106.56676465257617}, "810316091RR0001": {"name": "The Jawl Foundation", "designationCode": "B", "categoryCode": "03", "address": "#100 - 3350 DOUGLAS STREET", "city": "VICTORIA", "province": "BC", "country": "CA", "postalCode": "V8Z3L1", "twitter": "None", "instagram": "None", "facebook": "None", "youtube": "None", "website": "None", "summary": "None", "logo": "None", "latitude": 48.450955952091256, "longitude": -123.37444665766796}, "840790950RR0001": {"name": "The Jay and Barbara Hennick Family Foundation", "designationCode": "B", "categoryCode": "03", "address": "164 WARREN ROAD", "city": "TORONTO", "province": "ON", "country": "CA", "postalCode": "M4V2S5", "twitter": "None", "instagram": "None", "facebook": "None", "youtube": "None", "website": "None", "summary": "None", "logo": "None", "latitude": 43.68850304801203, "longitude": -79.40748452097624}, "827307638RR0001": {"name": "The Jeff Rice Family Foundation", "designationCode": "B", "categoryCode": "03", "address": "200 BAY STREET 10TH FLOOR     SOUTH TOWER ROYAL BANK PLAZA", "city": "TORONTO", "province": "ON", "country": "CA", "postalCode": "M5J2J2", "twitter": "None", "instagram": "None", "facebook": "None", "youtube": "None", "website": "None", "summary": "None", "logo": "None", "latitude": 43.64665675816111, "longitude": -79.37941611867521}, "805851714RR0001": {"name": "The Jeffery and Diane Ross Foundation", "designationCode": "B", "categoryCode": "03", "address": "1 - 3520 PHARMACY AVE", "city": "SCARBOROUGH", "province": "ON", "country": "CA", "postalCode": "M1W2T8", "twitter": "None", "instagram": "None", "facebook": "None", "youtube": "None", "website": "None", "summary": "None", "logo": "None", "latitude": 43.810902293640744, "longitude": -79.33384504359728}, "819408824RR0001": {"name": "The Jeffrey and Marilyn McCaig Family Foundation", "designationCode": "B", "categoryCode": "03", "address": "3215 12 ST NE", "city": "CALGARY", "province": "AB", "country": "CA", "postalCode": "T2E7S9", "twitter": "None", "instagram": "None", "facebook": "None", "youtube": "None", "website": "None", "summary": "None", "logo": "None", "latitude": 51.08059018894387, "longitude": -114.02740766647133}, "823557913RR0001": {"name": "The Jenkins Family Foundation", "designationCode": "B", "categoryCode": "03", "address": "1034 SUMMIT RIDGE DRIVE", "city": "OAKVILLE", "province": "ON", "country": "CA", "postalCode": "L6M3K9", "twitter": "None", "instagram": "None", "facebook": "None", "youtube": "None", "website": "None", "summary": "None", "logo": "None", "latitude": 43.452662962519554, "longitude": -79.7288176357262}, "832508337RR0001": {"name": "The Jeremiah33 Trust", "designationCode": "B", "categoryCode": "05", "address": "510 DECARIE BOULEVARD", "city": "SAINT-LAURENT", "province": "QC", "country": "CA", "postalCode": "H4L3K9", "twitter": "None", "instagram": "None", "facebook": "None", "youtube": "None", "website": "None", "summary": "None", "logo": "None", "latitude": 45.50872154397267, "longitude": -73.67394832933218}, "814989505RR0001": {"name": "The Jessica Martel Memorial Foundation", "designationCode": "C", "categoryCode": "09", "address": "PO BOX 3167", "city": "MORINVILLE", "province": "AB", "country": "CA", "postalCode": "T8R1S1", "twitter": "None", "instagram": "None", "facebook": "None", "youtube": "None", "website": "None", "summary": "None", "logo": "None", "latitude": 53.800017000000054, "longitude": -113.64821449999994}, "725815922RR0001": {"name": "The Jethva Family Foundation", "designationCode": "B", "categoryCode": "03", "address": "3 JEFFREY DR", "city": "ANCASTER", "province": "ON", "country": "CA", "postalCode": "L9K1R8", "twitter": "None", "instagram": "None", "facebook": "None", "youtube": "None", "website": "None", "summary": "None", "logo": "None", "latitude": 43.22362184788519, "longitude": -79.94088197625379}, "850916511RR0001": {"name": "The Jewett Family Foundation", "designationCode": "B", "categoryCode": "05", "address": "ELEMENTS LLP                  20 QUEEN ST. W., SUITE 2750", "city": "TORONTO", "province": "ON", "country": "CA", "postalCode": "M5H3R3", "twitter": "None", "instagram": "None", "facebook": "None", "youtube": "None", "website": "None", "summary": "None", "logo": "None"}, "851300301RR0001": {"name": "The Jewish Family and Child Foundation", "designationCode": "A", "categoryCode": "03", "address": "4600 BATHURST ST              1ST FLOOR", "city": "TORONTO", "province": "ON", "country": "CA", "postalCode": "M2R3V3", "twitter": "None", "instagram": "None", "facebook": "None", "youtube": "None", "website": "None", "summary": "None", "logo": "None", "latitude": 43.764549213428396, "longitude": -79.4407190577642}, "851312082RR0001": {"name": "The Jewish Legacy Charitable Foundation", "designationCode": "A", "categoryCode": "03", "address": "201 BRIDGELAND AVE", "city": "TORONTO", "province": "ON", "country": "CA", "postalCode": "M6A1Y7", "twitter": "None", "instagram": "None", "facebook": "None", "youtube": "None", "website": "None", "summary": "None", "logo": "None", "latitude": 43.724679896445465, "longitude": -79.46720435899367}, "842834210RR0001": {"name": "The Jewish Museum of Canada", "designationCode": "C", "categoryCode": "29", "address": "4600 BATHURST STREET          SUITE 500", "city": "TORONTO", "province": "ON", "country": "CA", "postalCode": "M2R3V2", "twitter": "None", "instagram": "None", "facebook": "None", "youtube": "None", "website": "None", "summary": "None", "logo": "None", "latitude": 43.764549213428396, "longitude": -79.4407190577642}, "871317368RR0001": {"name": "The Jim and Lorna Blair Charitable Foundation", "designationCode": "B", "categoryCode": "03", "address": "107 BLAIR ROAD", "city": "CAMBRIDGE", "province": "ON", "country": "CA", "postalCode": "N1S2J2", "twitter": "None", "instagram": "None", "facebook": "None", "youtube": "None", "website": "None", "summary": "None", "logo": "None", "latitude": 43.36387692423105, "longitude": -80.32483892714524}, "829741248RR0001": {"name": "The Jim Green Foundation", "designationCode": "A", "categoryCode": "23", "address": "2402 - 1010 RICHARDS ST", "city": "VANCOUVER", "province": "BC", "country": "CA", "postalCode": "V6B1G2", "twitter": "None", "instagram": "None", "facebook": "None", "youtube": "None", "website": "None", "summary": "None", "logo": "None", "latitude": 49.27773764611354, "longitude": -123.12135516192525}, "851633180RR0001": {"name": "The Jim Prentice Charitable Foundation", "designationCode": "A", "categoryCode": "03", "address": "15TH FLOOR,850-2ND STREET S.W.BANKERS COURT", "city": "CALGARY", "province": "AB", "country": "CA", "postalCode": "T2P0R8", "twitter": "None", "instagram": "None", "facebook": "None", "youtube": "None", "website": "None", "summary": "None", "logo": "None", "latitude": 51.04500900000005, "longitude": -114.06795199999993}, "816245419RR0001": {"name": "The Jo-Ann Cooke Family Foundation", "designationCode": "B", "categoryCode": "13", "address": "169 KING STREET", "city": "WESTON", "province": "ON", "country": "CA", "postalCode": "M9N1L6", "twitter": "None", "instagram": "None", "facebook": "None", "youtube": "None", "website": "None", "summary": "None", "logo": "None", "latitude": 43.707060860378654, "longitude": -79.51094620246411}, "119310167RR0001": {"name": "The Joan and Bruce Philip Foundation", "designationCode": "B", "categoryCode": "03", "address": "1001 - 278 BLOOR ST E", "city": "TORONTO", "province": "ON", "country": "CA", "postalCode": "M4W3M4", "twitter": "None", "instagram": "None", "facebook": "None", "youtube": "None", "website": "None", "summary": "None", "logo": "None", "latitude": 43.67165849999999, "longitude": -79.38027675}, "761437128RR0001": {"name": "The Joan and Jim Patterson Foundation", "designationCode": "B", "categoryCode": "03", "address": "342 GERRIE RD", "city": "ELORA", "province": "ON", "country": "CA", "postalCode": "N0B1S0", "twitter": "None", "instagram": "None", "facebook": "None", "youtube": "None", "website": "None", "summary": "None", "logo": "None", "latitude": 43.705955652369475, "longitude": -80.43295195343576}, "850797994RR0001": {"name": "The Joe Di Palma Brain Tumor & Pediatrics Foundation", "designationCode": "B", "categoryCode": "13", "address": "6441 WARBLER LANE", "city": "MISSISSAUGA", "province": "ON", "country": "CA", "postalCode": "L5N6E2", "twitter": "None", "instagram": "None", "facebook": "None", "youtube": "None", "website": "None", "summary": "None", "logo": "None", "latitude": 43.57165747183905, "longitude": -79.76159432763006}, "840387815RR0001": {"name": "The John & Ellie Voortman Charitable Foundation", "designationCode": "B", "categoryCode": "03", "address": "218 CARLUKE ROAD WEST", "city": "ANCASTER", "province": "ON", "country": "CA", "postalCode": "L9G3L1", "twitter": "None", "instagram": "None", "facebook": "None", "youtube": "None", "website": "None", "summary": "None", "logo": "None", "latitude": 43.14696869216369, "longitude": -79.97416597709051}, "820867836RR0001": {"name": "The John and Dianne Storey Family Foundation", "designationCode": "B", "categoryCode": "03", "address": "11703 160 STREET", "city": "EDMONTON", "province": "AB", "country": "CA", "postalCode": "T5M3Z3", "twitter": "None", "instagram": "None", "facebook": "None", "youtube": "None", "website": "None", "summary": "None", "logo": "None", "latitude": 53.56891819900167, "longitude": -113.59715724011839}, "832745335RR0001": {"name": "The John and Jeanne Eyking Family Foundation", "designationCode": "B", "categoryCode": "05", "address": "408 - 69 KINGS RD", "city": "SYDNEY", "province": "NS", "country": "CA", "postalCode": "B1S3X4", "twitter": "None", "instagram": "None", "facebook": "None", "youtube": "None", "website": "None", "summary": "None", "logo": "None", "latitude": 46.13181215153791, "longitude": -60.19504373157736}, "830852935RR0001": {"name": "The John and Joan Welton Foundation", "designationCode": "B", "categoryCode": "03", "address": "2904 SOUTH SHERIDAN WAY,      SUITE 103", "city": "OAKVILLE", "province": "ON", "country": "CA", "postalCode": "L6J7L7", "twitter": "None", "instagram": "None", "facebook": "None", "youtube": "None", "website": "None", "summary": "None", "logo": "None", "latitude": 43.50711970324352, "longitude": -79.66575856015973}, "833631377RR0001": {"name": "The John and Kim Morrison Family Foundation", "designationCode": "B", "categoryCode": "03", "address": "1153 FAIR BIRCH DRIVE", "city": "MISSISSAUGA", "province": "ON", "country": "CA", "postalCode": "L5H1M4", "twitter": "None", "instagram": "None", "facebook": "None", "youtube": "None", "website": "None", "summary": "None", "logo": "None", "latitude": 43.533421238703816, "longitude": -79.61415040510111}, "898828314RR0001": {"name": "The John and Rosemary Reilly Foundation / La Fondation John et Rosemary Reilly", "designationCode": "B", "categoryCode": "03", "address": "451 CLAREMONT AVENUE", "city": "WESTMOUNT", "province": "QC", "country": "CA", "postalCode": "H3Y2N4", "twitter": "None", "instagram": "None", "facebook": "None", "youtube": "None", "website": "None", "summary": "None", "logo": "None", "latitude": 45.4780093086444, "longitude": -73.60697868774893}, "805615374RR0001": {"name": "The John Di Battista Foundation", "designationCode": "B", "categoryCode": "03", "address": "95 STAVE CRES", "city": "RICHMOND HILL", "province": "ON", "country": "CA", "postalCode": "L4C9J7", "twitter": "None", "instagram": "None", "facebook": "None", "youtube": "None", "website": "None", "summary": "None", "logo": "None", "latitude": 43.8877373052975, "longitude": -79.45739855233985}, "850806852RR0001": {"name": "The John Hart Hunter Educational (Canada) Foundation", "designationCode": "A", "categoryCode": "23", "address": "4300 BANKERS HALL WEST        888 3 ST SW", "city": "CALGARY", "province": "AB", "country": "CA", "postalCode": "T2P5C5", "twitter": "None", "instagram": "None", "facebook": "None", "youtube": "None", "website": "None", "summary": "None", "logo": "None", "latitude": 51.04493521524542, "longitude": -114.07037880984262}, "139363105RR0001": {"name": "The John Howard Society of the Northwest Territories", "designationCode": "C", "categoryCode": "59", "address": "PO BOX 1508", "city": "YELLOWKNIFE", "province": "NT", "country": "CA", "postalCode": "X1A2P2", "twitter": "None", "instagram": "None", "facebook": "None", "youtube": "None", "website": "None", "summary": "None", "logo": "None", "latitude": 62.45446200000005, "longitude": -114.37092349999993}, "852701382RR0001": {"name": "The John Howard Society of Belleville & District", "designationCode": "C", "categoryCode": "59", "address": "19-21 WALLBRIDGE CRES", "city": "BELLEVILLE", "province": "ON", "country": "CA", "postalCode": "K8P1Z3", "twitter": "None", "instagram": "None", "facebook": "None", "youtube": "None", "website": "None", "summary": "None", "logo": "None", "latitude": 44.168305493767605, "longitude": -77.39301541087218}, "892942442RR0001": {"name": "The John Howard Society of New Brunswick, Fundy Region Inc.", "designationCode": "C", "categoryCode": "59", "address": "68 CARLTON STREET", "city": "SAINT-JOHN", "province": "NB", "country": "CA", "postalCode": "E2L2Z4", "twitter": "None", "instagram": "None", "facebook": "None", "youtube": "None", "website": "None", "summary": "None", "logo": "None", "latitude": 45.27576666388715, "longitude": -66.06204869969416}, "118975093RR0001": {"name": "The John Howard Society of Nova Scotia", "designationCode": "C", "categoryCode": "59", "address": "1-541 SACKVILLE DR", "city": "SACKVILLE", "province": "NS", "country": "CA", "postalCode": "B4C2S1", "twitter": "None", "instagram": "None", "facebook": "None", "youtube": "None", "website": "None", "summary": "None", "logo": "None", "latitude": 44.76240403152199, "longitude": -63.673983103155045}, "828699389RR0001": {"name": "The John Hunter Foundation", "designationCode": "B", "categoryCode": "03", "address": "761 O'CONNOR DRIVE,", "city": "TORONTO", "province": "ON", "country": "CA", "postalCode": "M4B2S3", "twitter": "None", "instagram": "None", "facebook": "None", "youtube": "None", "website": "None", "summary": "None", "logo": "None", "latitude": 43.702470954469476, "longitude": -79.31593461751991}, "824445068RR0001": {"name": "The John Wallace Pugh Memorial Trust", "designationCode": "B", "categoryCode": "15", "address": "155 WELLINGTON ST W 20TH FLOOR", "city": "TORONTO", "province": "ON", "country": "CA", "postalCode": "M5V3K7", "twitter": "None", "instagram": "None", "facebook": "None", "youtube": "None", "website": "None", "summary": "None", "logo": "None", "latitude": 43.64596585316531, "longitude": -79.38574575644876}, "802826487RR0001": {"name": "The John Wood Foundation Inc.", "designationCode": "C", "categoryCode": "11", "address": "103 LANARK ST", "city": "OROMOCTO", "province": "NB", "country": "CA", "postalCode": "E2V1C5", "twitter": "None", "instagram": "None", "facebook": "None", "youtube": "None", "website": "None", "summary": "None", "logo": "None"}, "766366892RR0001": {"name": "The John Zanini Foundation", "designationCode": "B", "categoryCode": "03", "address": "105 SIX POINT RD", "city": "ETOBICOKE", "province": "ON", "country": "CA", "postalCode": "M8Z2X3", "twitter": "None", "instagram": "None", "facebook": "None", "youtube": "None", "website": "None", "summary": "None", "logo": "None", "latitude": 43.636618834843446, "longitude": -79.52117554065443}, "859058224RR0001": {"name": "The Johnny Lombardi Multicultural Foundation", "designationCode": "B", "categoryCode": "22", "address": "622 COLLEGE STREET", "city": "TORONTO", "province": "ON", "country": "CA", "postalCode": "M6G1B6", "twitter": "None", "instagram": "None", "facebook": "None", "youtube": "None", "website": "None", "summary": "None", "logo": "None", "latitude": 43.655046169051694, "longitude": -79.41484968096827}, "892464207RR0001": {"name": "The Jolly Club Inc.", "designationCode": "C", "categoryCode": "09", "address": "PO BOX 376", "city": "STE ROSE DU LAC", "province": "MB", "country": "CA", "postalCode": "R0L1S0", "twitter": "None", "instagram": "None", "facebook": "None", "youtube": "None", "website": "None", "summary": "None", "logo": "None", "latitude": 51.05911000000003, "longitude": -99.52392999999995}, "815398771RR0001": {"name": "The Jon and Laura Hantho Family Foundation", "designationCode": "B", "categoryCode": "03", "address": "4 GLENDARLING ROAD", "city": "ETOBICOKE", "province": "ON", "country": "CA", "postalCode": "M9A4G2", "twitter": "None", "instagram": "None", "facebook": "None", "youtube": "None", "website": "None", "summary": "None", "logo": "None", "latitude": 43.67159220428179, "longitude": -79.52014984237391}, "805311974RR0001": {"name": "The Jordan Family Foundation", "designationCode": "B", "categoryCode": "03", "address": "7 - 7 GALE CRES", "city": "ST CATHARINES", "province": "ON", "country": "CA", "postalCode": "L2R7M8", "twitter": "None", "instagram": "None", "facebook": "None", "youtube": "None", "website": "None", "summary": "None", "logo": "None", "latitude": 43.16006617537102, "longitude": -79.2387909669343}, "847100500RR0001": {"name": "The Joseph A. Hackney Charity Foundation", "designationCode": "B", "categoryCode": "05", "address": "192 ST CLAIR ST", "city": "CHATHAM", "province": "ON", "country": "CA", "postalCode": "N7L3J6", "twitter": "None", "instagram": "None", "facebook": "None", "youtube": "None", "website": "None", "summary": "None", "logo": "None", "latitude": 42.410454308067465, "longitude": -82.19431095810482}, "820316388RR0001": {"name": "The Joseph Burnett Family Foundation", "designationCode": "B", "categoryCode": "03", "address": "1ST - 44 ST CLAIR AVE W", "city": "TORONTO", "province": "ON", "country": "CA", "postalCode": "M4V3C9", "twitter": "None", "instagram": "None", "facebook": "None", "youtube": "None", "website": "None", "summary": "None", "logo": "None", "latitude": 43.68788710460182, "longitude": -79.39487415272116}, "119239887RR0001": {"name": "The Joseph Kerzner Charitable Foundation", "designationCode": "B", "categoryCode": "03", "address": "2969 KINGSTON RD", "city": "SCARBOROUGH", "province": "ON", "country": "CA", "postalCode": "M1M1P1", "twitter": "None", "instagram": "None", "facebook": "None", "youtube": "None", "website": "None", "summary": "None", "logo": "None", "latitude": 43.725126582396776, "longitude": -79.23220571342488}}