{"132024332RR0001": {"name": "KNOX PRESBYTERIAN CHURCH", "designationCode": "C", "categoryCode": "37", "address": "2110 CHURCH RD", "city": "SOOKE", "province": "BC", "country": "CA", "postalCode": "V9Z0W7", "twitter": "None", "instagram": "None", "facebook": "None", "youtube": "None", "website": "None", "summary": "None", "logo": "None", "latitude": 48.38147394173158, "longitude": -123.71985339322947}, "132726472RR0001": {"name": "KNOX PRESBYTERIAN CHURCH", "designationCode": "C", "categoryCode": "37", "address": "PO BOX 269", "city": "VANKLEEK HILL", "province": "ON", "country": "CA", "postalCode": "K0B1R0", "twitter": "None", "instagram": "None", "facebook": "None", "youtube": "None", "website": "None", "summary": "None", "logo": "None", "latitude": 45.526948915276186, "longitude": -74.68129408071073}, "133682278RR0001": {"name": "KNOX PRESBYTERIAN CHURCH", "designationCode": "C", "categoryCode": "37", "address": "2 WATER ST.", "city": "GRAND VALLEY", "province": "ON", "country": "CA", "postalCode": "L9W5X5", "twitter": "None", "instagram": "None", "facebook": "None", "youtube": "None", "website": "None", "summary": "None", "logo": "None", "latitude": 43.89643878303123, "longitude": -80.31495658484391}, "742003924RR0001": {"name": "KNOX PRESBYTERIAN CHURCH", "designationCode": "C", "categoryCode": "37", "address": "BOX 393", "city": "WESTPORT", "province": "ON", "country": "CA", "postalCode": "K0G1X0", "twitter": "None", "instagram": "None", "facebook": "None", "youtube": "None", "website": "None", "summary": "None", "logo": "None", "latitude": 39.63902000000007, "longitude": -123.78490999999997}, "888244795RR0001": {"name": "KNOX PRESBYTERIAN CHURCH", "designationCode": "C", "categoryCode": "37", "address": "3311 ELMTREE ROAD RR#3", "city": "WOODVILLE", "province": "ON", "country": "CA", "postalCode": "K0M2T0", "twitter": "None", "instagram": "None", "facebook": "None", "youtube": "None", "website": "None", "summary": "None", "logo": "None", "latitude": 44.496263417884016, "longitude": -78.87223479280122}, "890808173RR0001": {"name": "KNOX PRESBYTERIAN CHURCH", "designationCode": "C", "categoryCode": "37", "address": "PO BOX 1005", "city": "SUNDRIDGE", "province": "ON", "country": "CA", "postalCode": "P0A1Z0", "twitter": "None", "instagram": "None", "facebook": "None", "youtube": "None", "website": "None", "summary": "None", "logo": "None", "latitude": 45.75507926133678, "longitude": -79.41022764524283}, "892463977RR0001": {"name": "KNOX PRESBYTERIAN CHURCH", "designationCode": "C", "categoryCode": "37", "address": "RR 1", "city": "LAHAVE", "province": "NS", "country": "CA", "postalCode": "B0R1C0", "twitter": "None", "instagram": "None", "facebook": "None", "youtube": "None", "website": "None", "summary": "None", "logo": "None", "latitude": 44.2955633567451, "longitude": -64.36452308474158}, "894512268RR0001": {"name": "KNOX PRESBYTERIAN CHURCH", "designationCode": "C", "categoryCode": "37", "address": "P O BOX 565", "city": "BAYFIELD", "province": "ON", "country": "CA", "postalCode": "N0M1G0", "twitter": "None", "instagram": "None", "facebook": "None", "youtube": "None", "website": "None", "summary": "None", "logo": "None", "latitude": 43.567108618343774, "longitude": -81.70172238864089}, "118986132RR0001": {"name": "KNOX PRESBYTERIAN CHURCH (NORMANBY)", "designationCode": "C", "categoryCode": "37", "address": "264019 RD 26 SOUTHGATE        RR 4", "city": "DURHAM", "province": "ON", "country": "CA", "postalCode": "N0G1R0", "twitter": "None", "instagram": "None", "facebook": "None", "youtube": "None", "website": "None", "summary": "None", "logo": "None", "latitude": 44.14818136465245, "longitude": -80.73865131373965}, "869997791RR0001": {"name": "KNOX PRESBYTERIAN CHURCH - GAMEBRIDGE", "designationCode": "C", "categoryCode": "37", "address": "3733 CONCESSION RD 8", "city": "RAMARA", "province": "ON", "country": "CA", "postalCode": "L3V0M4", "twitter": "None", "instagram": "None", "facebook": "None", "youtube": "None", "website": "None", "summary": "None", "logo": "None"}, "107575243RR0001": {"name": "KNOX PRESBYTERIAN CHURCH SIXTEEN", "designationCode": "C", "categoryCode": "37", "address": "1150 DUNDAS ST W", "city": "OAKVILLE", "province": "ON", "country": "CA", "postalCode": "L6H7C9", "twitter": "None", "instagram": "None", "facebook": "None", "youtube": "None", "website": "None", "summary": "None", "logo": "None", "latitude": 43.46099497414765, "longitude": -79.74936181833924}, "126502392RR0001": {"name": "KNOX PRESBYTERIAN CHURCH,", "designationCode": "C", "categoryCode": "37", "address": "BOX 283", "city": "PORT CARLING", "province": "ON", "country": "CA", "postalCode": "P0B1J0", "twitter": "None", "instagram": "None", "facebook": "None", "youtube": "None", "website": "None", "summary": "None", "logo": "None", "latitude": 45.12709000000007, "longitude": -79.58558999999997}, "129092854RR0001": {"name": "KNOX PRESBYTERIAN CHURCH,", "designationCode": "C", "categoryCode": "37", "address": "69 WATSON'S LANE", "city": "DUNDAS", "province": "ON", "country": "CA", "postalCode": "L9H1T4", "twitter": "None", "instagram": "None", "facebook": "None", "youtube": "None", "website": "None", "summary": "None", "logo": "None", "latitude": 43.2793428973395, "longitude": -79.93815507732683}, "129885992RR0001": {"name": "KNOX PRESBYTERIAN CHURCH,", "designationCode": "C", "categoryCode": "37", "address": "58 ERIE ST S", "city": "LEAMINGTON", "province": "ON", "country": "CA", "postalCode": "N8H3B1", "twitter": "None", "instagram": "None", "facebook": "None", "youtube": "None", "website": "None", "summary": "None", "logo": "None", "latitude": 42.05134776963474, "longitude": -82.59988609293697}, "130147952RR0001": {"name": "KNOX PRESBYTERIAN CHURCH,", "designationCode": "C", "categoryCode": "37", "address": "P. O. BOX 221                 80 MILL ST N", "city": "WATERDOWN", "province": "ON", "country": "CA", "postalCode": "L0R2H0", "twitter": "None", "instagram": "None", "facebook": "None", "youtube": "None", "website": "None", "summary": "None", "logo": "None", "latitude": 43.33607353401801, "longitude": -79.89406402412158}, "132003914RR0001": {"name": "KNOX PRESBYTERIAN CHURCH,", "designationCode": "C", "categoryCode": "37", "address": "PO BOX 56", "city": "THEDFORD", "province": "ON", "country": "CA", "postalCode": "N0M2N0", "twitter": "None", "instagram": "None", "facebook": "None", "youtube": "None", "website": "None", "summary": "None", "logo": "None", "latitude": 43.164100000000076, "longitude": -81.85481999999996}, "132551599RR0001": {"name": "KNOX PRESBYTERIAN CHURCH,", "designationCode": "C", "categoryCode": "37", "address": "5547 LINE 53                  RR 2", "city": "MONKTON", "province": "ON", "country": "CA", "postalCode": "N0K1P0", "twitter": "None", "instagram": "None", "facebook": "None", "youtube": "None", "website": "None", "summary": "None", "logo": "None", "latitude": 43.557171079487155, "longitude": -81.05493603518774}, "887341089RR0001": {"name": "KNOX PRESBYTERIAN CHURCH,", "designationCode": "C", "categoryCode": "37", "address": "BOX 1042", "city": "MORRISBURG", "province": "ON", "country": "CA", "postalCode": "K0C1X0", "twitter": "None", "instagram": "None", "facebook": "None", "youtube": "None", "website": "None", "summary": "None", "logo": "None", "latitude": 44.89832000000007, "longitude": -75.19097999999997}, "888105194RR0001": {"name": "KNOX PRESBYTERIAN CHURCH,", "designationCode": "C", "categoryCode": "37", "address": "6571 FORESTELL ROAD", "city": "GUELPH", "province": "ON", "country": "CA", "postalCode": "N1H6J3", "twitter": "None", "instagram": "None", "facebook": "None", "youtube": "None", "website": "None", "summary": "None", "logo": "None", "latitude": 43.4697649300818, "longitude": -80.27660301246718}, "889700845RR0001": {"name": "KNOX PRESBYTERIAN CHURCH,", "designationCode": "C", "categoryCode": "37", "address": "963727 RD 96                  RR 3", "city": "EMBRO", "province": "ON", "country": "CA", "postalCode": "N0J1J0", "twitter": "None", "instagram": "None", "facebook": "None", "youtube": "None", "website": "None", "summary": "None", "logo": "None", "latitude": 43.244113520121864, "longitude": -80.98457395366626}, "890144645RR0001": {"name": "KNOX PRESBYTERIAN CHURCH,", "designationCode": "C", "categoryCode": "37", "address": "388 GLENDON RD", "city": "STRATFORD", "province": "ON", "country": "CA", "postalCode": "N5A6Y7", "twitter": "None", "instagram": "None", "facebook": "None", "youtube": "None", "website": "None", "summary": "None", "logo": "None", "latitude": 43.38272937448853, "longitude": -80.96656109362213}, "118986140RR0001": {"name": "KNOX PRESBYTERIAN CHURCH, ORO", "designationCode": "C", "categoryCode": "52", "address": "46 EILEEN DRIVE", "city": "BARRIE", "province": "ON", "country": "CA", "postalCode": "L4N4L6", "twitter": "None", "instagram": "None", "facebook": "None", "youtube": "None", "website": "None", "summary": "None", "logo": "None", "latitude": 44.35889598084142, "longitude": -79.68811372217095}, "119099117RR0001": {"name": "KNOX PRESBYTERIAN WOMEN'S MISSIONARY SOCIETY", "designationCode": "C", "categoryCode": "47", "address": "BOX 1224", "city": "MORRISBURG", "province": "ON", "country": "CA", "postalCode": "K0C1X0", "twitter": "None", "instagram": "None", "facebook": "None", "youtube": "None", "website": "None", "summary": "None", "logo": "None", "latitude": 44.89832000000007, "longitude": -75.19097999999997}, "888107794RR0001": {"name": "KNOX PRESTON PRESBYTERIAN CHURCH", "designationCode": "C", "categoryCode": "37", "address": "132 ARGYLE ST N", "city": "CAMBRIDGE", "province": "ON", "country": "CA", "postalCode": "N3H1P6", "twitter": "None", "instagram": "None", "facebook": "None", "youtube": "None", "website": "None", "summary": "None", "logo": "None", "latitude": 43.39707922315192, "longitude": -80.35925323426041}, "118986181RR0001": {"name": "KNOX SERVICE CLUB", "designationCode": "C", "categoryCode": "09", "address": "208 CAYLEY ST.                BOX 1632", "city": "WALKERTON", "province": "ON", "country": "CA", "postalCode": "N0G2V0", "twitter": "None", "instagram": "None", "facebook": "None", "youtube": "None", "website": "None", "summary": "None", "logo": "None", "latitude": 44.13110231115456, "longitude": -81.14963930223908}, "107019317RR0001": {"name": "KNOX UNITED CHURCH", "designationCode": "C", "categoryCode": "44", "address": "BOX 57", "city": "DIDSBURY", "province": "AB", "country": "CA", "postalCode": "T0M0W0", "twitter": "None", "instagram": "None", "facebook": "None", "youtube": "None", "website": "None", "summary": "None", "logo": "None", "latitude": 51.666270000000054, "longitude": -114.13792999999998}, "107576134RR0001": {"name": "KNOX UNITED CHURCH", "designationCode": "C", "categoryCode": "44", "address": "400 EDMONTON STREET", "city": "WINNIPEG", "province": "MB", "country": "CA", "postalCode": "R3B2M2", "twitter": "None", "instagram": "None", "facebook": "None", "youtube": "None", "website": "None", "summary": "None", "logo": "None", "latitude": 49.89569430446078, "longitude": -97.14901183836321}, "107576282RR0001": {"name": "KNOX UNITED CHURCH", "designationCode": "C", "categoryCode": "44", "address": "4907 LAZELLE AVE", "city": "TERRACE", "province": "BC", "country": "CA", "postalCode": "V8G1T6", "twitter": "None", "instagram": "None", "facebook": "None", "youtube": "None", "website": "None", "summary": "None", "logo": "None", "latitude": 54.517848498990396, "longitude": -128.60629127699232}, "107576308RR0001": {"name": "KNOX UNITED CHURCH", "designationCode": "C", "categoryCode": "44", "address": "838 SPADINA CRES E", "city": "SASKATOON", "province": "SK", "country": "CA", "postalCode": "S7K3H4", "twitter": "None", "instagram": "None", "facebook": "None", "youtube": "None", "website": "None", "summary": "None", "logo": "None", "latitude": 52.12995113379298, "longitude": -106.65419434903902}, "118986249RR0001": {"name": "KNOX UNITED CHURCH", "designationCode": "C", "categoryCode": "44", "address": "PO BOX 400", "city": "GLACE BAY", "province": "NS", "country": "CA", "postalCode": "B1A6B4", "twitter": "None", "instagram": "None", "facebook": "None", "youtube": "None", "website": "None", "summary": "None", "logo": "None", "latitude": 46.19686200000005, "longitude": -59.95771099999993}, "118986256RR0001": {"name": "KNOX UNITED CHURCH", "designationCode": "C", "categoryCode": "44", "address": "567 SACKVILLE DRIVE", "city": "LOWER SACKVILLE", "province": "NS", "country": "CA", "postalCode": "B4C2S9", "twitter": "None", "instagram": "None", "facebook": "None", "youtube": "None", "website": "None", "summary": "None", "logo": "None", "latitude": 44.767525514311146, "longitude": -63.68412910808484}, "118986264RR0001": {"name": "KNOX UNITED CHURCH", "designationCode": "C", "categoryCode": "44", "address": "9 DUKE ST", "city": "ST STEPHEN", "province": "NB", "country": "CA", "postalCode": "E3L2G7", "twitter": "None", "instagram": "None", "facebook": "None", "youtube": "None", "website": "None", "summary": "None", "logo": "None", "latitude": 45.19313998972823, "longitude": -67.27154613362006}, "118986298RR0001": {"name": "KNOX UNITED CHURCH", "designationCode": "C", "categoryCode": "44", "address": "25 GIBBARD AVE", "city": "NEPEAN", "province": "ON", "country": "CA", "postalCode": "K2G3T9", "twitter": "None", "instagram": "None", "facebook": "None", "youtube": "None", "website": "None", "summary": "None", "logo": "None", "latitude": 45.32545053572009, "longitude": -75.77370294578421}, "118986314RR0001": {"name": "KNOX UNITED CHURCH", "designationCode": "C", "categoryCode": "44", "address": "2569 MIDLAND AVE", "city": "AGINCOURT", "province": "ON", "country": "CA", "postalCode": "M1S1R3", "twitter": "None", "instagram": "None", "facebook": "None", "youtube": "None", "website": "None", "summary": "None", "logo": "None", "latitude": 43.78598628005075, "longitude": -79.27877064276666}, "118986322RR0001": {"name": "KNOX UNITED CHURCH", "designationCode": "C", "categoryCode": "44", "address": "P.O. BOX 194", "city": "CLIFFORD", "province": "ON", "country": "CA", "postalCode": "N0G1M0", "twitter": "None", "instagram": "None", "facebook": "None", "youtube": "None", "website": "None", "summary": "None", "logo": "None", "latitude": 43.96962000000008, "longitude": -80.97934999999995}, "118986371RR0001": {"name": "KNOX UNITED CHURCH", "designationCode": "C", "categoryCode": "44", "address": "PO BOX 35", "city": "UTTERSON", "province": "ON", "country": "CA", "postalCode": "P0B1M0", "twitter": "None", "instagram": "None", "facebook": "None", "youtube": "None", "website": "None", "summary": "None", "logo": "None", "latitude": 45.16353600000005, "longitude": -79.44010549999993}, "118986413RR0001": {"name": "KNOX UNITED CHURCH", "designationCode": "C", "categoryCode": "44", "address": "1 SHUNIAH ST", "city": "THUNDER BAY", "province": "ON", "country": "CA", "postalCode": "P7A2Y7", "twitter": "None", "instagram": "None", "facebook": "None", "youtube": "None", "website": "None", "summary": "None", "logo": "None", "latitude": 48.447312653067115, "longitude": -89.21404373954053}, "118986421RR0001": {"name": "KNOX UNITED CHURCH", "designationCode": "C", "categoryCode": "44", "address": "340 CHURCH ST", "city": "FORT FRANCES", "province": "ON", "country": "CA", "postalCode": "P9A1E1", "twitter": "None", "instagram": "None", "facebook": "None", "youtube": "None", "website": "None", "summary": "None", "logo": "None", "latitude": 48.609027114627224, "longitude": -93.39436194026811}, "118986447RR0001": {"name": "KNOX UNITED CHURCH", "designationCode": "C", "categoryCode": "44", "address": "451 18TH ST", "city": "BRANDON", "province": "MB", "country": "CA", "postalCode": "R7A5A9", "twitter": "None", "instagram": "None", "facebook": "None", "youtube": "None", "website": "None", "summary": "None", "logo": "None", "latitude": 49.84309085976433, "longitude": -99.96179949363147}, "118986454RR0001": {"name": "KNOX UNITED CHURCH", "designationCode": "C", "categoryCode": "44", "address": "P.O. BOX 89", "city": "ABERNETHY", "province": "SK", "country": "CA", "postalCode": "S0A0A0", "twitter": "None", "instagram": "None", "facebook": "None", "youtube": "None", "website": "None", "summary": "None", "logo": "None", "latitude": 50.74592000000007, "longitude": -103.42393999999996}, "118986462RR0001": {"name": "KNOX UNITED CHURCH", "designationCode": "C", "categoryCode": "44", "address": "LOUISE MCLACHLAN BOX 185", "city": "BREDENBURY", "province": "SK", "country": "CA", "postalCode": "S0A0H0", "twitter": "None", "instagram": "None", "facebook": "None", "youtube": "None", "website": "None", "summary": "None", "logo": "None", "latitude": 50.939583000000056, "longitude": -102.05054449999993}, "118986488RR0001": {"name": "KNOX UNITED CHURCH", "designationCode": "C", "categoryCode": "44", "address": "PO BOX 119                    203 STEPHENS ST", "city": "GAINSBOROUGH", "province": "SK", "country": "CA", "postalCode": "S0C0Z0", "twitter": "None", "instagram": "None", "facebook": "None", "youtube": "None", "website": "None", "summary": "None", "logo": "None", "latitude": 49.17851951888195, "longitude": -101.45052224599068}, "118986496RR0001": {"name": "KNOX UNITED CHURCH", "designationCode": "C", "categoryCode": "44", "address": "BOX 8", "city": "NORTH PORTAL", "province": "SK", "country": "CA", "postalCode": "S0C1W0", "twitter": "None", "instagram": "None", "facebook": "None", "youtube": "None", "website": "None", "summary": "None", "logo": "None", "latitude": 49.002350000000035, "longitude": -102.54839999999996}, "118986504RR0001": {"name": "KNOX UNITED CHURCH", "designationCode": "C", "categoryCode": "44", "address": "BOX 18", "city": "REDVERS", "province": "SK", "country": "CA", "postalCode": "S0C2H0", "twitter": "None", "instagram": "None", "facebook": "None", "youtube": "None", "website": "None", "summary": "None", "logo": "None", "latitude": 49.573392000000055, "longitude": -101.69623249999994}, "118986512RR0001": {"name": "KNOX UNITED CHURCH", "designationCode": "C", "categoryCode": "44", "address": "BOX 302", "city": "CODETTE", "province": "SK", "country": "CA", "postalCode": "S0E0P0", "twitter": "None", "instagram": "None", "facebook": "None", "youtube": "None", "website": "None", "summary": "None", "logo": "None", "latitude": 53.28337000000005, "longitude": -104.03422999999998}, "118986520RR0001": {"name": "KNOX UNITED CHURCH", "designationCode": "C", "categoryCode": "44", "address": "BOX 162 103 WALSH ST.", "city": "QU'APPELLE", "province": "SK", "country": "CA", "postalCode": "S0G4A0", "twitter": "None", "instagram": "None", "facebook": "None", "youtube": "None", "website": "None", "summary": "None", "logo": "None", "latitude": 50.54289424975262, "longitude": -103.87946524960314}, "118986546RR0001": {"name": "KNOX UNITED CHURCH", "designationCode": "C", "categoryCode": "44", "address": "BOX 74", "city": "BRADWELL", "province": "SK", "country": "CA", "postalCode": "S0K0P0", "twitter": "None", "instagram": "None", "facebook": "None", "youtube": "None", "website": "None", "summary": "None", "logo": "None", "latitude": 51.94708098965215, "longitude": -106.22788384156064}, "118986579RR0001": {"name": "KNOX UNITED CHURCH", "designationCode": "C", "categoryCode": "44", "address": "BOX 583", "city": "DRUMHELLER", "province": "AB", "country": "CA", "postalCode": "T0J0Y0", "twitter": "None", "instagram": "None", "facebook": "None", "youtube": "None", "website": "None", "summary": "None", "logo": "None", "latitude": 51.46154700000005, "longitude": -112.70878099999993}, "118986595RR0001": {"name": "KNOX UNITED CHURCH", "designationCode": "C", "categoryCode": "44", "address": "BOX 417", "city": "THREE HILLS", "province": "AB", "country": "CA", "postalCode": "T0M2A0", "twitter": "None", "instagram": "None", "facebook": "None", "youtube": "None", "website": "None", "summary": "None", "logo": "None", "latitude": 51.320666258486725, "longitude": -113.6045484454242}, "118986603RR0001": {"name": "KNOX UNITED CHURCH", "designationCode": "C", "categoryCode": "44", "address": "506 - 4 STREET S.W.", "city": "CALGARY", "province": "AB", "country": "CA", "postalCode": "T2P1S7", "twitter": "None", "instagram": "None", "facebook": "None", "youtube": "None", "website": "None", "summary": "None", "logo": "None", "latitude": 51.04794507799065, "longitude": -114.07144631138569}, "118986629RR0001": {"name": "KNOX UNITED CHURCH", "designationCode": "C", "categoryCode": "44", "address": "5600 BALACLAVA ST", "city": "VANCOUVER", "province": "BC", "country": "CA", "postalCode": "V6N1L1", "twitter": "None", "instagram": "None", "facebook": "None", "youtube": "None", "website": "None", "summary": "None", "logo": "None", "latitude": 49.235607520974824, "longitude": -123.17661834985428}, "132173626RR0001": {"name": "KNOX UNITED CHURCH", "designationCode": "C", "categoryCode": "44", "address": "214 ONE MILE RD", "city": "CORBEIL", "province": "ON", "country": "CA", "postalCode": "P0H1K0", "twitter": "None", "instagram": "None", "facebook": "None", "youtube": "None", "website": "None", "summary": "None", "logo": "None", "latitude": 46.26281400000006, "longitude": -79.28751499999993}, "132530379RR0001": {"name": "KNOX UNITED CHURCH", "designationCode": "C", "categoryCode": "44", "address": "1448-5TH AVENUE", "city": "PRINCE GEORGE", "province": "BC", "country": "CA", "postalCode": "V2L3L7", "twitter": "None", "instagram": "None", "facebook": "None", "youtube": "None", "website": "None", "summary": "None", "logo": "None", "latitude": 53.91618509984352, "longitude": -122.74954774775608}, "879445922RR0001": {"name": "KNOX UNITED CHURCH", "designationCode": "C", "categoryCode": "44", "address": "1175 COXHEATH RD", "city": "SYDNEY", "province": "NS", "country": "CA", "postalCode": "B1L1B2", "twitter": "None", "instagram": "None", "facebook": "None", "youtube": "None", "website": "None", "summary": "None", "logo": "None", "latitude": 46.084339351698986, "longitude": -60.27408674829229}, "888269230RR0001": {"name": "KNOX UNITED CHURCH", "designationCode": "C", "categoryCode": "44", "address": "PO BOX 177", "city": "MINITONAS", "province": "MB", "country": "CA", "postalCode": "R0L1G0", "twitter": "None", "instagram": "None", "facebook": "None", "youtube": "None", "website": "None", "summary": "None", "logo": "None", "latitude": 52.086580000000026, "longitude": -101.03713999999997}, "889548442RR0001": {"name": "KNOX UNITED CHURCH", "designationCode": "C", "categoryCode": "44", "address": "PO BOX 1808                   201 - 2ND AVENUE", "city": "FERNIE", "province": "BC", "country": "CA", "postalCode": "V0B1M0", "twitter": "None", "instagram": "None", "facebook": "None", "youtube": "None", "website": "None", "summary": "None", "logo": "None", "latitude": 49.50063600114417, "longitude": -115.0641225}, "890416845RR0001": {"name": "KNOX UNITED CHURCH", "designationCode": "C", "categoryCode": "44", "address": "BOX 85", "city": "SHELLBROOK", "province": "SK", "country": "CA", "postalCode": "S0J2E0", "twitter": "None", "instagram": "None", "facebook": "None", "youtube": "None", "website": "None", "summary": "None", "logo": "None", "latitude": 53.21857000000006, "longitude": -106.38843999999995}, "891080640RR0001": {"name": "KNOX UNITED CHURCH", "designationCode": "C", "categoryCode": "44", "address": "2057 HWY 124", "city": "DUNCHURCH", "province": "ON", "country": "CA", "postalCode": "P0A1G0", "twitter": "None", "instagram": "None", "facebook": "None", "youtube": "None", "website": "None", "summary": "None", "logo": "None", "latitude": 45.640653135027726, "longitude": -79.86404382034506}, "893933770RR0001": {"name": "KNOX UNITED CHURCH", "designationCode": "C", "categoryCode": "44", "address": "P.O. BOX 355", "city": "DURHAM", "province": "ON", "country": "CA", "postalCode": "N0G1R0", "twitter": "None", "instagram": "None", "facebook": "None", "youtube": "None", "website": "None", "summary": "None", "logo": "None", "latitude": 44.125520383994086, "longitude": -81.21636506037191}, "119207033RR0001": {"name": "KNOX UNITED CHURCH - SUTTON", "designationCode": "C", "categoryCode": "44", "address": "P.O. BOX 989", "city": "SUTTON", "province": "ON", "country": "CA", "postalCode": "L0E1R0", "twitter": "None", "instagram": "None", "facebook": "None", "youtube": "None", "website": "None", "summary": "None", "logo": "None", "latitude": 44.304850000000044, "longitude": -79.36126999999993}, "122099625RR0001": {"name": "KNOX UNITED CHURCH,", "designationCode": "C", "categoryCode": "44", "address": "PO BOX 182", "city": "BENGOUGH", "province": "SK", "country": "CA", "postalCode": "S0C0K0", "twitter": "None", "instagram": "None", "facebook": "None", "youtube": "None", "website": "None", "summary": "None", "logo": "None", "latitude": 49.40006000000005, "longitude": -105.13438999999994}, "119005205RR0001": {"name": "KNOX UNITED CHURCH, LANGHAM", "designationCode": "C", "categoryCode": "44", "address": "BOX 637", "city": "LANGHAM", "province": "SK", "country": "CA", "postalCode": "S0K2L0", "twitter": "None", "instagram": "None", "facebook": "None", "youtube": "None", "website": "None", "summary": "None", "logo": "None", "latitude": 52.405424999999994, "longitude": -106.9638075}, "896934114RR0001": {"name": "KNOX UNITED CHURCH, RUSSELL", "designationCode": "C", "categoryCode": "44", "address": "BOX 416", "city": "RUSSELL", "province": "MB", "country": "CA", "postalCode": "R0J1W0", "twitter": "None", "instagram": "None", "facebook": "None", "youtube": "None", "website": "None", "summary": "None", "logo": "None", "latitude": 50.69676379161792, "longitude": -101.40612232134879}, "890699796RR0001": {"name": "KNOX WMS KINCARDINE", "designationCode": "C", "categoryCode": "47", "address": "345 DURHAM ST", "city": "KINCARDINE", "province": "ON", "country": "CA", "postalCode": "N2Z1Y6", "twitter": "None", "instagram": "None", "facebook": "None", "youtube": "None", "website": "None", "summary": "None", "logo": "None", "latitude": 44.17840033028448, "longitude": -81.63259055966878}, "107574865RR0001": {"name": "KNOX-CALVIN PRESBYTERIAN CHURCH", "designationCode": "C", "categoryCode": "37", "address": "BOX 689", "city": "HARRISTON", "province": "ON", "country": "CA", "postalCode": "N0G1Z0", "twitter": "None", "instagram": "None", "facebook": "None", "youtube": "None", "website": "None", "summary": "None", "logo": "None", "latitude": 43.89520950000001, "longitude": -80.970777}, "107574998RR0001": {"name": "KNOX-METROPOLITAN UNITED CHURCH", "designationCode": "C", "categoryCode": "44", "address": "2340 VICTORIA AVE", "city": "REGINA", "province": "SK", "country": "CA", "postalCode": "S4P0S6", "twitter": "None", "instagram": "None", "facebook": "None", "youtube": "None", "website": "None", "summary": "None", "logo": "None", "latitude": 50.447316466259146, "longitude": -104.61429187617797}, "118986215RR0001": {"name": "KNOX-ST. JAMES JOINT CEMETERY COMMITTEE", "designationCode": "C", "categoryCode": "59", "address": "62 NORTH KOUCHIBOUGUAC RD", "city": "KOUCHIBOUGUAC", "province": "NB", "country": "CA", "postalCode": "E4X1K6", "twitter": "None", "instagram": "None", "facebook": "None", "youtube": "None", "website": "None", "summary": "None", "logo": "None", "latitude": 46.7959502226317, "longitude": -65.05248230804844}, "107576340RR0001": {"name": "KNOX-ZION PRESBYTERIAN CHURCH", "designationCode": "C", "categoryCode": "37", "address": "BOX 429", "city": "CARBERRY", "province": "MB", "country": "CA", "postalCode": "R0K0H0", "twitter": "None", "instagram": "None", "facebook": "None", "youtube": "None", "website": "None", "summary": "None", "logo": "None", "latitude": 49.84164228965453, "longitude": -99.31431075066462}, "118984749RR0001": {"name": "KNOXFORD PRAYING BAND CHURCH INC.", "designationCode": "C", "categoryCode": "36", "address": "PO BOX 607 STN MAIN", "city": "CENTREVILLE", "province": "NB", "country": "CA", "postalCode": "E7K3H5", "twitter": "None", "instagram": "None", "facebook": "None", "youtube": "None", "website": "None", "summary": "None", "logo": "None", "latitude": 46.430830204383255, "longitude": -67.71161665294667}, "118986207RR0001": {"name": "KNOXS GALT PRESBYTERIAN CHURCH", "designationCode": "C", "categoryCode": "37", "address": "2 GRAND AVENUE S", "city": "CAMBRIDGE", "province": "ON", "country": "CA", "postalCode": "N1S2L2", "twitter": "None", "instagram": "None", "facebook": "None", "youtube": "None", "website": "None", "summary": "None", "logo": "None", "latitude": 43.358453497085804, "longitude": -80.31757831406874}, "830978086RR0001": {"name": "KOA Care Camps of Canada", "designationCode": "A", "categoryCode": "19", "address": "CARDINAL KOA                  609 PITTSTON ROAD, RR #1", "city": "CARDINAL", "province": "ON", "country": "CA", "postalCode": "K0E1E0", "twitter": "None", "instagram": "None", "facebook": "None", "youtube": "None", "website": "None", "summary": "None", "logo": "None", "latitude": 44.86089991776847, "longitude": -75.44398997648584}, "141535989RR0001": {"name": "KOBOL", "designationCode": "C", "categoryCode": "22", "address": "3601 RUE SAINTE-FAMILLE       PORTE 1108", "city": "MONTREAL", "province": "QC", "country": "CA", "postalCode": "H2X2L6", "twitter": "None", "instagram": "None", "facebook": "None", "youtube": "None", "website": "None", "summary": "None", "logo": "None", "latitude": 45.51187419207678, "longitude": -73.57466202441003}, "890942196RR0001": {"name": "KOCH FOUNDATION", "designationCode": "B", "categoryCode": "03", "address": "2926 PARK LANE", "city": "WEST VANCOUVER", "province": "BC", "country": "CA", "postalCode": "V7V1E9", "twitter": "None", "instagram": "None", "facebook": "None", "youtube": "None", "website": "None", "summary": "None", "logo": "None", "latitude": 49.337136168734595, "longitude": -123.1963664757342}, "886070390RR0001": {"name": "KODALY ENSEMBLE", "designationCode": "C", "categoryCode": "22", "address": "107 - 5795 YONGE ST", "city": "NORTH YORK", "province": "ON", "country": "CA", "postalCode": "M2M4J3", "twitter": "None", "instagram": "None", "facebook": "None", "youtube": "None", "website": "None", "summary": "None", "logo": "None", "latitude": 43.78469643239671, "longitude": -79.41541379681473}, "888593456RR0001": {"name": "KODIAK ATHLETIC ASSOCIATION", "designationCode": "C", "categoryCode": "21", "address": "3000 COLLEGE DR SOUTH", "city": "LETHBRIDGE", "province": "AB", "country": "CA", "postalCode": "T1K1L6", "twitter": "None", "instagram": "None", "facebook": "None", "youtube": "None", "website": "None", "summary": "None", "logo": "None", "latitude": 49.66566684306094, "longitude": -112.8088559994582}, "118979939RR0001": {"name": "KOERNER FOUNDATION", "designationCode": "B", "categoryCode": "25", "address": "PO BOX 62, 200 BAY ST         SUITE 2910, ROYAL BANK TOWER S", "city": "TORONTO", "province": "ON", "country": "CA", "postalCode": "M5J2J2", "twitter": "None", "instagram": "None", "facebook": "None", "youtube": "None", "website": "None", "summary": "None", "logo": "None", "latitude": 43.64665675816111, "longitude": -79.37941611867521}, "118986694RR0001": {"name": "KOHAI EDUCATIONAL CENTRE", "designationCode": "C", "categoryCode": "20", "address": "41 ROEHAMPTON AVE", "city": "TORONTO", "province": "ON", "country": "CA", "postalCode": "M4P1P9", "twitter": "None", "instagram": "None", "facebook": "None", "youtube": "None", "website": "None", "summary": "None", "logo": "None", "latitude": 43.708217794881506, "longitude": -79.3971453985516}, "854181336RR0001": {"name": "KOINONIA BAPTIST CHURCH", "designationCode": "C", "categoryCode": "31", "address": "2410 ST. MARGARET'S BAY ROAD", "city": "TIMBERLEA", "province": "NS", "country": "CA", "postalCode": "B3T1H1", "twitter": "None", "instagram": "None", "facebook": "None", "youtube": "None", "website": "None", "summary": "None", "logo": "None", "latitude": 44.658917917277485, "longitude": -63.73878372704704}, "118842590RR0001": {"name": "KOINONIA CHRISTIAN EDUCATION SOCIETY", "designationCode": "C", "categoryCode": "20", "address": "BOX 1405", "city": "DIDSBURY", "province": "AB", "country": "CA", "postalCode": "T0M0W0", "twitter": "None", "instagram": "None", "facebook": "None", "youtube": "None", "website": "None", "summary": "None", "logo": "None", "latitude": 51.666270000000054, "longitude": -114.13792999999998}, "107576613RR0001": {"name": "KOINONIA CHRISTIAN FELLOWSHIP INC.", "designationCode": "C", "categoryCode": "39", "address": "850 SAWMILL RD", "city": "BLOOMINGDALE", "province": "ON", "country": "CA", "postalCode": "N0B1K0", "twitter": "None", "instagram": "None", "facebook": "None", "youtube": "None", "website": "None", "summary": "None", "logo": "None", "latitude": 43.50945112543604, "longitude": -80.46244951582813}, "107576621RR0001": {"name": "KOINONIA CHRISTIAN SCHOOL - RED DEER SOCIETY", "designationCode": "C", "categoryCode": "20", "address": "6014 - 57 AVENUE", "city": "RED DEER", "province": "AB", "country": "CA", "postalCode": "T4N4S9", "twitter": "None", "instagram": "None", "facebook": "None", "youtube": "None", "website": "None", "summary": "None", "logo": "None", "latitude": 52.280640869553935, "longitude": -113.82436632601396}, "891469991RR0001": {"name": "KOINONIA COMMUNITY FOR SPIRITUAL RENEWAL", "designationCode": "C", "categoryCode": "49", "address": "22311 50TH AVE", "city": "LANGLEY", "province": "BC", "country": "CA", "postalCode": "V2Y2V4", "twitter": "None", "instagram": "None", "facebook": "None", "youtube": "None", "website": "None", "summary": "None", "logo": "None", "latitude": 49.093050478215694, "longitude": -122.60638277699232}, "836204768RR0001": {"name": "KOINONIA EVANGELICAL CHURCH", "designationCode": "C", "categoryCode": "39", "address": "241-8680 CAMBIE RD", "city": "RICHMOND", "province": "BC", "country": "CA", "postalCode": "V6X4K1", "twitter": "None", "instagram": "None", "facebook": "None", "youtube": "None", "website": "None", "summary": "None", "logo": "None", "latitude": 49.18458173421635, "longitude": -123.1272854098138}, "118986751RR0001": {"name": "KOINONIA INCORPORATED", "designationCode": "C", "categoryCode": "56", "address": "PO BOX 29041                  RPO WELLINGTON PLAZ", "city": "BARRIE", "province": "ON", "country": "CA", "postalCode": "L4N7W7", "twitter": "None", "instagram": "None", "facebook": "None", "youtube": "None", "website": "None", "summary": "None", "logo": "None", "latitude": 44.39011427363513, "longitude": -79.70204896201092}, "869018960RR0001": {"name": "KOINONIA WORSHIP CENTRE", "designationCode": "C", "categoryCode": "39", "address": "452 - 701 ROSSLAND RD E", "city": "WHITBY", "province": "ON", "country": "CA", "postalCode": "L1N9K3", "twitter": "None", "instagram": "None", "facebook": "None", "youtube": "None", "website": "None", "summary": "None", "logo": "None", "latitude": 43.902493945558355, "longitude": -78.92788466814449}, "894491596RR0001": {"name": "KOINONIKOS FOUNDATION", "designationCode": "B", "categoryCode": "43", "address": "1500 GEORGIA STREET WEST      BOX 62  SUITE 1250", "city": "VANCOUVER", "province": "BC", "country": "CA", "postalCode": "V6G2Z6", "twitter": "None", "instagram": "None", "facebook": "None", "youtube": "None", "website": "None", "summary": "None", "logo": "None", "latitude": 49.29013479542975, "longitude": -123.1300069287031}, "118986769RR0001": {"name": "KOKO PLATZ RECREATION CLUB INC.", "designationCode": "C", "categoryCode": "56", "address": "PO BOX 884", "city": "PORTAGE LA PRAIRIE", "province": "MB", "country": "CA", "postalCode": "R1N3C3", "twitter": "None", "instagram": "None", "facebook": "None", "youtube": "None", "website": "None", "summary": "None", "logo": "None", "latitude": 49.97301900000005, "longitude": -98.29058299999993}, "885849893RR0001": {"name": "KOKOPELLI CHOIR ASSOCIATION", "designationCode": "C", "categoryCode": "22", "address": "PO BOX 68110                  RPO BONNIE DOON SHO", "city": "EDMONTON", "province": "AB", "country": "CA", "postalCode": "T6C4N6", "twitter": "None", "instagram": "None", "facebook": "None", "youtube": "None", "website": "None", "summary": "None", "logo": "None", "latitude": 53.52532000000008, "longitude": -113.46759999999995}, "118986777RR0001": {"name": "KOKORO DANCE THEATRE SOCIETY", "designationCode": "C", "categoryCode": "22", "address": "250 - 111 HASTINGS ST W", "city": "VANCOUVER", "province": "BC", "country": "CA", "postalCode": "V6B1H4", "twitter": "None", "instagram": "None", "facebook": "None", "youtube": "None", "website": "None", "summary": "None", "logo": "None", "latitude": 49.282138914441255, "longitude": -123.10753795129177}, "118986785RR0001": {"name": "KOKSILAH SCHOOL HISTORICAL SOCIETY", "designationCode": "C", "categoryCode": "52", "address": "5213 TRANS CANADA HIGHWAY", "city": "KOKSILAH", "province": "BC", "country": "CA", "postalCode": "V0R2C0", "twitter": "None", "instagram": "None", "facebook": "None", "youtube": "None", "website": "None", "summary": "None", "logo": "None", "latitude": 48.75917626508997, "longitude": -123.68332770246903}, "890489966RR0001": {"name": "KOL TORAH SEPHARDIC CENTRE", "designationCode": "C", "categoryCode": "42", "address": "26 RODEO DRIVE", "city": "THORNHILL", "province": "ON", "country": "CA", "postalCode": "L4J4X9", "twitter": "None", "instagram": "None", "facebook": "None", "youtube": "None", "website": "None", "summary": "None", "logo": "None", "latitude": 43.808422157943205, "longitude": -79.44346853886542}, "136937802RR0001": {"name": "KOLA CHURCH OF THE ADVENT AND CEMETERY CORPORATION", "designationCode": "C", "categoryCode": "59", "address": "P.O. BOX 2398", "city": "VIRDEN", "province": "MB", "country": "CA", "postalCode": "R0M2C0", "twitter": "None", "instagram": "None", "facebook": "None", "youtube": "None", "website": "None", "summary": "None", "logo": "None", "latitude": 49.85688000000005, "longitude": -100.92262999999997}, "877212514RR0001": {"name": "KOLA COMMUNITY SCHOOL INC.", "designationCode": "C", "categoryCode": "20", "address": "P.O. BOX 553", "city": "KOLA", "province": "MB", "country": "CA", "postalCode": "R0M1B0", "twitter": "None", "instagram": "None", "facebook": "None", "youtube": "None", "website": "None", "summary": "None", "logo": "None", "latitude": 49.84236000000004, "longitude": -101.36586999999997}, "800992091RR0001": {"name": "KOLAPORE CALVARY CHURCH OF THE NAZARENE", "designationCode": "C", "categoryCode": "39", "address": "495402 GREY ROAD 2, R.R.1", "city": "RAVENNA", "province": "ON", "country": "CA", "postalCode": "N0H2E0", "twitter": "None", "instagram": "None", "facebook": "None", "youtube": "None", "website": "None", "summary": "None", "logo": "None", "latitude": 44.45910600000006, "longitude": -80.44973449999993}, "886881390RR0001": {"name": "KOLEL MAREH YECHKEL CONGREGATION", "designationCode": "C", "categoryCode": "42", "address": "1902 VAN HORNE AVENUE", "city": "OUTREMONT", "province": "QC", "country": "CA", "postalCode": "H2V1M8", "twitter": "None", "instagram": "None", "facebook": "None", "youtube": "None", "website": "None", "summary": "None", "logo": "None", "latitude": 45.51367833276598, "longitude": -73.6209156609443}, "107576670RR0001": {"name": "KOLEL OF CONGREGATION CHASIDE BELZ UMACHZIKE HADASZ", "designationCode": "C", "categoryCode": "21", "address": "5340 JEANNE MANCE", "city": "MONTREAL", "province": "QC", "country": "CA", "postalCode": "H2V4K4", "twitter": "None", "instagram": "None", "facebook": "None", "youtube": "None", "website": "None", "summary": "None", "logo": "None", "latitude": 45.52198386620703, "longitude": -73.59958555219562}, "886951995RR0001": {"name": "KOLEL YESHIVAT KEHILAT JACOB", "designationCode": "C", "categoryCode": "21", "address": "550 BEAUMONT AVENUE SUITE 501", "city": "MONTREAL", "province": "QC", "country": "CA", "postalCode": "H3N1V1", "twitter": "None", "instagram": "None", "facebook": "None", "youtube": "None", "website": "None", "summary": "None", "logo": "None", "latitude": 45.52730730861573, "longitude": -73.6195984028221}, "137617056RR0001": {"name": "KOLLEL KESER TORAH", "designationCode": "C", "categoryCode": "20", "address": "180 BATES ROAD", "city": "MONTREAL", "province": "QC", "country": "CA", "postalCode": "H3S1A3", "twitter": "None", "instagram": "None", "facebook": "None", "youtube": "None", "website": "None", "summary": "None", "logo": "None", "latitude": 45.51579011627916, "longitude": -73.62868584497099}, "890374168RR0001": {"name": "KOLLEL OF OTTAWA AND CENTRE FOR JEWISH EDUCATION", "designationCode": "C", "categoryCode": "20", "address": "676 GOLDEN AVE", "city": "OTTAWA", "province": "ON", "country": "CA", "postalCode": "K2A2G2", "twitter": "None", "instagram": "None", "facebook": "None", "youtube": "None", "website": "None", "summary": "None", "logo": "None", "latitude": 45.38138935414626, "longitude": -75.75357154053886}, "118986843RR0001": {"name": "KOLLEL TOLDOS YAKOV YOSEF", "designationCode": "C", "categoryCode": "49", "address": "6019 DUROCHER AVE", "city": "OUTREMONT", "province": "QC", "country": "CA", "postalCode": "H2V3Y7", "twitter": "None", "instagram": "None", "facebook": "None", "youtube": "None", "website": "None", "summary": "None", "logo": "None", "latitude": 45.523213301431035, "longitude": -73.60870052732423}}