{"140416587RR0001": {"name": "THE B.C. CENTRE FOR NON-PROFIT MANAGEMENT AND SUSTAINABILITY", "designationCode": "A", "categoryCode": "23", "address": "501 - 6880 WALLACE DR", "city": "BRENTWOOD BAY", "province": "BC", "country": "CA", "postalCode": "V8M1N8", "twitter": "None", "instagram": "None", "facebook": "None", "youtube": "None", "website": "None", "summary": "None", "logo": "None", "latitude": 48.568884554153875, "longitude": -123.45954201690799}, "889099115RR0001": {"name": "THE B&C ZY GEZUNT CHARITABLE FOUNDATION", "designationCode": "B", "categoryCode": "03", "address": "22 ST. CLAIR AVENUE EAST      SUITE 1200", "city": "TORONTO", "province": "ON", "country": "CA", "postalCode": "M4T2S3", "twitter": "None", "instagram": "None", "facebook": "None", "youtube": "None", "website": "None", "summary": "None", "logo": "None", "latitude": 43.688336132408, "longitude": -79.39301839967676}, "131401226RR0001": {"name": "THE BACK DOOR A YOUTH EMPLOYMENT SOCIETY", "designationCode": "C", "categoryCode": "59", "address": "BOX 46067 INGLEWOOD RPO", "city": "CALGARY", "province": "AB", "country": "CA", "postalCode": "T2G5H7", "twitter": "None", "instagram": "None", "facebook": "None", "youtube": "None", "website": "None", "summary": "None", "logo": "None", "latitude": 51.04275304741815, "longitude": -114.01966341871173}, "864117239RR0001": {"name": "THE BACULA FOUNDATION", "designationCode": "B", "categoryCode": "03", "address": "1 TORONTO STREET              SUITE 800 BOX 1", "city": "TORONTO", "province": "ON", "country": "CA", "postalCode": "M5C2V6", "twitter": "None", "instagram": "None", "facebook": "None", "youtube": "None", "website": "None", "summary": "None", "logo": "None", "latitude": 43.64988730558597, "longitude": -79.37604079929623}, "890532591RR0001": {"name": "THE BAHAMAS NATIONAL TRUST (CANADA) FOUNDATION", "designationCode": "C", "categoryCode": "52", "address": "ROYAL BANK PLAZA              SUITE 3800 200 BAY STREET", "city": "TORONTO", "province": "ON", "country": "CA", "postalCode": "M5J2Z4", "twitter": "None", "instagram": "None", "facebook": "None", "youtube": "None", "website": "None", "summary": "None", "logo": "None", "latitude": 43.646369963356356, "longitude": -79.37931001558054}, "882079023RR0001": {"name": "THE BAIE VERTE SCHOLARSHIP FUND", "designationCode": "C", "categoryCode": "21", "address": "P.O. BOX 457                  23 RATTLING BROOK TERRACE", "city": "BAIE VERTE", "province": "NL", "country": "CA", "postalCode": "A0K1B0", "twitter": "None", "instagram": "None", "facebook": "None", "youtube": "None", "website": "None", "summary": "None", "logo": "None", "latitude": 49.93324411228074, "longitude": -56.203294888492486}, "892265521RR0001": {"name": "THE BAILEY THEATRE SOCIETY", "designationCode": "C", "categoryCode": "22", "address": "5041 50TH STREET", "city": "CAMROSE", "province": "AB", "country": "CA", "postalCode": "T4V1R3", "twitter": "None", "instagram": "None", "facebook": "None", "youtube": "None", "website": "None", "summary": "None", "logo": "None", "latitude": 53.02284377546312, "longitude": -112.82464126475864}, "888969276RR0001": {"name": "THE BALLYTOBIN FOUNDATION", "designationCode": "B", "categoryCode": "03", "address": "1602-1000 KING ST W", "city": "KINGSTON", "province": "ON", "country": "CA", "postalCode": "K7M8H3", "twitter": "None", "instagram": "None", "facebook": "None", "youtube": "None", "website": "None", "summary": "None", "logo": "None", "latitude": 44.21999259296196, "longitude": -76.5331661329727}, "869683540RR0001": {"name": "THE BALWIN CONGREGATION OF JEHOVAH'S WITNESSES", "designationCode": "C", "categoryCode": "61", "address": "15824 67B ST NW", "city": "EDMONTON", "province": "AB", "country": "CA", "postalCode": "T5Z3A8", "twitter": "None", "instagram": "None", "facebook": "None", "youtube": "None", "website": "None", "summary": "None", "logo": "None", "latitude": 53.620352999999994, "longitude": -113.4461168092213}, "890889595RR0001": {"name": "THE BAMFIELD ARTS COUNCIL", "designationCode": "C", "categoryCode": "22", "address": "P.O. BOX 53", "city": "BAMFIELD", "province": "BC", "country": "CA", "postalCode": "V0R1B0", "twitter": "None", "instagram": "None", "facebook": "None", "youtube": "None", "website": "None", "summary": "None", "logo": "None", "latitude": 48.81641080852422, "longitude": -125.133641999157}, "889002796RR0001": {"name": "THE BANBURY CHILDREN'S PROGRAM", "designationCode": "C", "categoryCode": "09", "address": "157 VILLAGE GREENWAY", "city": "NORTH YORK", "province": "ON", "country": "CA", "postalCode": "M2J1L1", "twitter": "None", "instagram": "None", "facebook": "None", "youtube": "None", "website": "None", "summary": "None", "logo": "None", "latitude": 43.769214503462464, "longitude": -79.34398952262103}, "119214955RR0001": {"name": "THE BANFF CENTRE", "designationCode": "C", "categoryCode": "22", "address": "PO BOX 1020 STATION 18", "city": "BANFF", "province": "AB", "country": "CA", "postalCode": "T1L1H5", "twitter": "None", "instagram": "None", "facebook": "None", "youtube": "None", "website": "None", "summary": "None", "logo": "None", "latitude": 51.17577900000006, "longitude": -115.57274299999993}, "887727667RR0001": {"name": "THE BANI HASHIM SOCIETY", "designationCode": "C", "categoryCode": "39", "address": "910 EGLINTON AVE E", "city": "MISSISSAUGA", "province": "ON", "country": "CA", "postalCode": "L4W1K1", "twitter": "None", "instagram": "None", "facebook": "None", "youtube": "None", "website": "None", "summary": "None", "logo": "None", "latitude": 43.625228941976005, "longitude": -79.63227974115665}, "888055647RR0001": {"name": "THE BANNERMAN FAMILY FOUNDATION / LA FONDATION DE LA FAMILLEBANNERMAN", "designationCode": "B", "categoryCode": "23", "address": "2000 PEEL                     SUITE 630", "city": "MONTREAL", "province": "QC", "country": "CA", "postalCode": "H3A2W5", "twitter": "None", "instagram": "None", "facebook": "None", "youtube": "None", "website": "None", "summary": "None", "logo": "None", "latitude": 45.50097208433863, "longitude": -73.57500697478189}, "108072927RR0001": {"name": "THE BANTING RESEARCH FOUNDATION", "designationCode": "A", "categoryCode": "11", "address": "10-6 QUEEN'S PARK CRES W", "city": "TORONTO", "province": "ON", "country": "CA", "postalCode": "M5S3H2", "twitter": "None", "instagram": "None", "facebook": "None", "youtube": "None", "website": "None", "summary": "None", "logo": "None"}, "119214997RR0001": {"name": "THE BAPTIST FOUNDATION OF B C", "designationCode": "C", "categoryCode": "01", "address": "125-6165 HIGHWAY 17A", "city": "DELTA", "province": "BC", "country": "CA", "postalCode": "V4K5B8", "twitter": "None", "instagram": "None", "facebook": "None", "youtube": "None", "website": "None", "summary": "None", "logo": "None", "latitude": 49.11029597670904, "longitude": -123.05324789938778}, "106771686RR0001": {"name": "THE BAPTIST HOUSING MINISTRIES SOCIETY", "designationCode": "C", "categoryCode": "01", "address": "125 - 6165 17A HWY", "city": "DELTA", "province": "BC", "country": "CA", "postalCode": "V4K5B8", "twitter": "None", "instagram": "None", "facebook": "None", "youtube": "None", "website": "None", "summary": "None", "logo": "None", "latitude": 49.11029597670904, "longitude": -123.05324789938778}, "119215010RR0001": {"name": "THE BAPTIST HOUSING SOCIETY OF B C", "designationCode": "C", "categoryCode": "01", "address": "125-6165 HIGHWAY 17A", "city": "DELTA", "province": "BC", "country": "CA", "postalCode": "V4K5B8", "twitter": "None", "instagram": "None", "facebook": "None", "youtube": "None", "website": "None", "summary": "None", "logo": "None", "latitude": 49.11029597670904, "longitude": -123.05324789938778}, "119215044RR0001": {"name": "THE BAPTIST WOMEN'S MISSIONARY SOCIETY OF ONTARIO AND QUEBEC", "designationCode": "C", "categoryCode": "47", "address": "5 INTERNATIONAL BLVD", "city": "ETOBICOKE", "province": "ON", "country": "CA", "postalCode": "M9W6H3", "twitter": "None", "instagram": "None", "facebook": "None", "youtube": "None", "website": "None", "summary": "None", "logo": "None", "latitude": 43.67705782705315, "longitude": -79.59016536620705}, "887843860RR0001": {"name": "THE BARBARA A BARROW FOUNDATION", "designationCode": "B", "categoryCode": "23", "address": "200 LONSDALE RD", "city": "TORONTO", "province": "ON", "country": "CA", "postalCode": "M4V1W6", "twitter": "None", "instagram": "None", "facebook": "None", "youtube": "None", "website": "None", "summary": "None", "logo": "None", "latitude": 43.690779173523765, "longitude": -79.40314577687674}, "886974955RR0001": {"name": "THE BARBARA AND DAVID ZUKOR CHARITABLE FOUNDATION OF HAMPSTEAD", "designationCode": "B", "categoryCode": "53", "address": "5699 QUEEN MARY ROAD", "city": "HAMPSTEAD", "province": "QC", "country": "CA", "postalCode": "H3X1X5", "twitter": "None", "instagram": "None", "facebook": "None", "youtube": "None", "website": "None", "summary": "None", "logo": "None", "latitude": 45.479932217611996, "longitude": -73.64615016651288}, "861203594RR0001": {"name": "THE BARBARA AND HARVEY WOLFE FAMILY CHARITABLE FOUNDATION", "designationCode": "B", "categoryCode": "03", "address": "1702-38 AVENUE ROAD", "city": "TORONTO", "province": "ON", "country": "CA", "postalCode": "M5R2G2", "twitter": "None", "instagram": "None", "facebook": "None", "youtube": "None", "website": "None", "summary": "None", "logo": "None", "latitude": 43.670229810433405, "longitude": -79.3948121697442}, "886472562RR0001": {"name": "THE BARBARA TURNBULL FOUNDATION FOR SPINAL CORD RESEARCH", "designationCode": "C", "categoryCode": "13", "address": "9 AVA ROAD", "city": "TORONTO", "province": "ON", "country": "CA", "postalCode": "M5P1X8", "twitter": "None", "instagram": "None", "facebook": "None", "youtube": "None", "website": "None", "summary": "None", "logo": "None", "latitude": 43.69793884205679, "longitude": -79.41770407048882}, "892621046RR0001": {"name": "THE BARBER FAMILY CHARITABLE FOUNDATION", "designationCode": "B", "categoryCode": "05", "address": "380 WELLINGTON ST             12TH FLOOR", "city": "LONDON", "province": "ON", "country": "CA", "postalCode": "N6A5B5", "twitter": "None", "instagram": "None", "facebook": "None", "youtube": "None", "website": "None", "summary": "None", "logo": "None", "latitude": 42.98403487844074, "longitude": -81.24475227780037}, "863766234RR0001": {"name": "THE BARKERVILLE HERITAGE TRUST", "designationCode": "C", "categoryCode": "52", "address": "P.O. BOX 19                   14301 BARKERVILLE HIGHWAY", "city": "BARKERVILLE", "province": "BC", "country": "CA", "postalCode": "V0K1B0", "twitter": "None", "instagram": "None", "facebook": "None", "youtube": "None", "website": "None", "summary": "None", "logo": "None", "latitude": 53.09212801293123, "longitude": -121.52520291240846}, "119215051RR0001": {"name": "THE BARNABAS CORPORATION", "designationCode": "C", "categoryCode": "09", "address": "8717 BEATTIE RD.", "city": "STRAFFORDVILLE", "province": "ON", "country": "CA", "postalCode": "N0J1Y0", "twitter": "None", "instagram": "None", "facebook": "None", "youtube": "None", "website": "None", "summary": "None", "logo": "None", "latitude": 42.75305563296059, "longitude": -80.83310835678445}, "138984315RR0001": {"name": "THE BARRACLOUGH FOUNDATION", "designationCode": "B", "categoryCode": "03", "address": "418-650 WEST GEORGIA ST       PO BOX 11602", "city": "VANCOUVER", "province": "BC", "country": "CA", "postalCode": "V6B4N9", "twitter": "None", "instagram": "None", "facebook": "None", "youtube": "None", "website": "None", "summary": "None", "logo": "None", "latitude": 49.28012307167682, "longitude": -123.11442679241839}, "892455361RR0001": {"name": "THE BARRHEAD CHRISTIAN REFORMED CHURCH", "designationCode": "C", "categoryCode": "39", "address": "4704 52 AVENUE", "city": "BARRHEAD", "province": "AB", "country": "CA", "postalCode": "T7N1H3", "twitter": "None", "instagram": "None", "facebook": "None", "youtube": "None", "website": "None", "summary": "None", "logo": "None", "latitude": 54.12148943848572, "longitude": -114.3972614384857}, "119215101RR0001": {"name": "THE BARRIE FOUNDATION", "designationCode": "B", "categoryCode": "05", "address": "246-450 SUNSET DRIVE", "city": "ST. THOMAS", "province": "ON", "country": "CA", "postalCode": "N5R5V1", "twitter": "None", "instagram": "None", "facebook": "None", "youtube": "None", "website": "None", "summary": "None", "logo": "None", "latitude": 42.73771164887843, "longitude": -81.19228835112156}, "886666684RR0001": {"name": "THE BARRINGTON RIVER, PUBNICO LAKE ENVIRONMENTAL COMMITTEE", "designationCode": "C", "categoryCode": "52", "address": "P.O. BOX 83", "city": "LOWER WEST PUBNICO", "province": "NS", "country": "CA", "postalCode": "B0W2C0", "twitter": "None", "instagram": "None", "facebook": "None", "youtube": "None", "website": "None", "summary": "None", "logo": "None", "latitude": 43.631950000000074, "longitude": -65.80098999999996}, "898358379RR0001": {"name": "THE BARWICK FAMILY FOUNDATION LA FONDATION FAMILLE BARWICK", "designationCode": "B", "categoryCode": "03", "address": "5 TERRACE VILLENEUVE", "city": "POINTE-CLAIRE", "province": "QC", "country": "CA", "postalCode": "H9S4Y7", "twitter": "None", "instagram": "None", "facebook": "None", "youtube": "None", "website": "None", "summary": "None", "logo": "None", "latitude": 45.433642500000005, "longitude": -73.81300275}, "134560077RR0001": {"name": "THE BASHAW AND DISTRICT AGRICULTURAL SOCIETY", "designationCode": "C", "categoryCode": "56", "address": "BOX 607", "city": "BASHAW", "province": "AB", "country": "CA", "postalCode": "T0B0H0", "twitter": "None", "instagram": "None", "facebook": "None", "youtube": "None", "website": "None", "summary": "None", "logo": "None", "latitude": 52.58378000000005, "longitude": -112.97087999999997}, "119215135RR0001": {"name": "THE BASILIAN FATHERS OF SANDWICH IN ONTARIO", "designationCode": "C", "categoryCode": "46", "address": "400 HURON CHURCH RD", "city": "WINDSOR", "province": "ON", "country": "CA", "postalCode": "N9C2J9", "twitter": "None", "instagram": "None", "facebook": "None", "youtube": "None", "website": "None", "summary": "None", "logo": "None", "latitude": 42.30581785403067, "longitude": -83.0697532695774}, "869830760RR0001": {"name": "THE BASILIAN FATHERS OF ST. MICHAEL'S COLLEGE SCHOOL", "designationCode": "C", "categoryCode": "21", "address": "5 ORIOLE PARKWAY", "city": "TORONTO", "province": "ON", "country": "CA", "postalCode": "M4V2C8", "twitter": "None", "instagram": "None", "facebook": "None", "youtube": "None", "website": "None", "summary": "None", "logo": "None", "latitude": 43.691570161261424, "longitude": -79.40098381637733}, "119215143RR0001": {"name": "THE BASILIAN FATHERS OF TORONTO", "designationCode": "C", "categoryCode": "46", "address": "95 SAINT JOSEPH ST", "city": "TORONTO", "province": "ON", "country": "CA", "postalCode": "M5S3C2", "twitter": "None", "instagram": "None", "facebook": "None", "youtube": "None", "website": "None", "summary": "None", "logo": "None", "latitude": 43.66538190365883, "longitude": -79.38863533345845}, "119215168RR0001": {"name": "THE BATA SHOE MUSEUM FOUNDATION / FONDATION MUS\u00c9E DE LA CHAUSSURE BATA", "designationCode": "C", "categoryCode": "50", "address": "327 BLOOR ST WEST", "city": "TORONTO", "province": "ON", "country": "CA", "postalCode": "M5S1W7", "twitter": "None", "instagram": "None", "facebook": "None", "youtube": "None", "website": "None", "summary": "None", "logo": "None", "latitude": 43.66740880930821, "longitude": -79.40017478919734}, "891214785RR0001": {"name": "THE BATHURST VOLUNTEER CENTRE DE BENEVOLAT DE BATHURST INC", "designationCode": "C", "categoryCode": "59", "address": "464 KING AVE", "city": "BATHURST", "province": "NB", "country": "CA", "postalCode": "E2A1P6", "twitter": "None", "instagram": "None", "facebook": "None", "youtube": "None", "website": "None", "summary": "None", "logo": "None", "latitude": 47.61713425561205, "longitude": -65.65234964216015}, "139585731RR0001": {"name": "THE BATTALION SENATE OF 18 (THUNDER BAY) SERVICE BATTALION", "designationCode": "C", "categoryCode": "51", "address": "P.O. BOX 29122", "city": "THUNDER BAY", "province": "ON", "country": "CA", "postalCode": "P7B6P9", "twitter": "None", "instagram": "None", "facebook": "None", "youtube": "None", "website": "None", "summary": "None", "logo": "None", "latitude": 48.38168400000005, "longitude": -89.24550199999993}, "121669386RR0001": {"name": "THE BATTLE RIVER AGRICULTURAL SOCIETY", "designationCode": "C", "categoryCode": "56", "address": "BOX 272", "city": "MANNING", "province": "AB", "country": "CA", "postalCode": "T0H2M0", "twitter": "None", "instagram": "None", "facebook": "None", "youtube": "None", "website": "None", "summary": "None", "logo": "None", "latitude": 56.92804794843537, "longitude": -117.62848367126821}, "131437691RR0001": {"name": "THE BATTLEFORDS INTERVAL HOUSE SOCIETY", "designationCode": "C", "categoryCode": "01", "address": "2092 102ND ST", "city": "N-BATTLEFORD", "province": "SK", "country": "CA", "postalCode": "S9A1H7", "twitter": "None", "instagram": "None", "facebook": "None", "youtube": "None", "website": "None", "summary": "None", "logo": "None", "latitude": 52.785767509173155, "longitude": -108.29596440863058}, "119059046RR0001": {"name": "THE BATTLEFORDS MUSIC FESTIVAL", "designationCode": "C", "categoryCode": "22", "address": "BOX 1301", "city": "NORTH BATTLEFORD", "province": "SK", "country": "CA", "postalCode": "S9A3L8", "twitter": "None", "instagram": "None", "facebook": "None", "youtube": "None", "website": "None", "summary": "None", "logo": "None", "latitude": 52.77640200000006, "longitude": -108.29903299999994}, "119030666RR0026": {"name": "THE BATTLEFORDS SEVENTH-DAY ADVENTIST CHURCH", "designationCode": "C", "categoryCode": "41", "address": "1004 VICTORIA AVE", "city": "SASKATOON", "province": "SK", "country": "CA", "postalCode": "S7N0Z8", "twitter": "None", "instagram": "None", "facebook": "None", "youtube": "None", "website": "None", "summary": "None", "logo": "None", "latitude": 52.115409, "longitude": -106.66240826773014}, "890908197RR0001": {"name": "THE BAVARIAN SCHUHPLATTERS (EDMONTON", "designationCode": "C", "categoryCode": "22", "address": "8310 ROPER ROAD", "city": "EDMONTON", "province": "AB", "country": "CA", "postalCode": "T6E5W2", "twitter": "None", "instagram": "None", "facebook": "None", "youtube": "None", "website": "None", "summary": "None", "logo": "None", "latitude": 53.49093778466702, "longitude": -113.44684005891806}, "891261372RR0001": {"name": "THE BAXTER CEMETERY SOCIETY", "designationCode": "C", "categoryCode": "59", "address": "HWY 366 #5864", "city": "LORNEVILLE", "province": "NS", "country": "CA", "postalCode": "B4H3X9", "twitter": "None", "instagram": "None", "facebook": "None", "youtube": "None", "website": "None", "summary": "None", "logo": "None", "latitude": 45.97918332206682, "longitude": -63.917886108047504}, "868181967RR0001": {"name": "THE BAY OF FUNDY MARINE RESOURCE CENTRE ASSOCIATION", "designationCode": "C", "categoryCode": "52", "address": "P O BOX 273", "city": "CORNWALLIS PARK", "province": "NS", "country": "CA", "postalCode": "B0S1H0", "twitter": "None", "instagram": "None", "facebook": "None", "youtube": "None", "website": "None", "summary": "None", "logo": "None", "latitude": 44.650960000000055, "longitude": -65.62879999999996}, "892292848RR0001": {"name": "THE BAY OF ISLANDS SOCIETY FOR THE PREVENTION OF CRUELTY TO ANIMALS CORP.", "designationCode": "C", "categoryCode": "54", "address": "PO BOX 7", "city": "CORNERBROOK", "province": "NL", "country": "CA", "postalCode": "A2H6C3", "twitter": "None", "instagram": "None", "facebook": "None", "youtube": "None", "website": "None", "summary": "None", "logo": "None", "latitude": 48.94121000000007, "longitude": -57.97073999999998}, "106776875RR0001": {"name": "THE BAY OF QUINTE CONFERENCE CAMP CORPORATION", "designationCode": "C", "categoryCode": "56", "address": "336 FRANKS RD                 RR 1", "city": "TWEED", "province": "ON", "country": "CA", "postalCode": "K0K3J0", "twitter": "None", "instagram": "None", "facebook": "None", "youtube": "None", "website": "None", "summary": "None", "logo": "None", "latitude": 44.48809297474426, "longitude": -77.41874955400871}, "853448041RR0001": {"name": "THE BAY STREET CHILDREN'S FOUNDATION / LA FONDATION BAY STREET POUR ENFANTS", "designationCode": "A", "categoryCode": "03", "address": "77 KING ST WEST               PO BOX 1008 TO POSTAL STATION", "city": "TORONTO", "province": "ON", "country": "CA", "postalCode": "M5K1P2", "twitter": "None", "instagram": "None", "facebook": "None", "youtube": "None", "website": "None", "summary": "None", "logo": "None", "latitude": 43.64868300000006, "longitude": -79.38544399999994}, "119215242RR0001": {"name": "THE BAYCREST CENTRE FOUNDATION", "designationCode": "A", "categoryCode": "13", "address": "3560 BATHURST ST", "city": "NORTH YORK", "province": "ON", "country": "CA", "postalCode": "M6A2E1", "twitter": "None", "instagram": "None", "facebook": "None", "youtube": "None", "website": "None", "summary": "None", "logo": "None", "latitude": 43.730265584771324, "longitude": -79.43232918168847}, "892472366RR0001": {"name": "THE BAYFIELD HISTORICAL SOCIETY", "designationCode": "C", "categoryCode": "50", "address": "20 MAIN ST. N., BOX 161", "city": "BAYFIELD", "province": "ON", "country": "CA", "postalCode": "N0M1G0", "twitter": "None", "instagram": "None", "facebook": "None", "youtube": "None", "website": "None", "summary": "None", "logo": "None", "latitude": 43.35671786321773, "longitude": -81.4824488896149}, "889258398RR0001": {"name": "THE BAYVIEW HOSPITAL CENTRE AUXILIARY", "designationCode": "C", "categoryCode": "19", "address": "27 LAKESHORE", "city": "POINTE-CLAIRE", "province": "QC", "country": "CA", "postalCode": "H9S4H1", "twitter": "None", "instagram": "None", "facebook": "None", "youtube": "None", "website": "None", "summary": "None", "logo": "None", "latitude": 45.448121376651706, "longitude": -73.78665393228114}, "807477070RR0001": {"name": "THE BC ASSOCIATION FOR INDIVIDUALIZED TECHNOLOGY AND SUPPORTS FOR PEOPLE WITH DISABILITIES", "designationCode": "C", "categoryCode": "11", "address": "103 - 366 E KENT AVE SOUTH", "city": "VANCOUVER", "province": "BC", "country": "CA", "postalCode": "V5X4N6", "twitter": "None", "instagram": "None", "facebook": "None", "youtube": "None", "website": "None", "summary": "None", "logo": "None", "latitude": 49.2088505772988, "longitude": -123.08044888944023}, "132985581RR0001": {"name": "THE BC CONFEDERATION OF PARENT ADVISORY COUNCILS", "designationCode": "C", "categoryCode": "21", "address": "C - 2288 ELGIN AVE", "city": "PORT COQUITLAM", "province": "BC", "country": "CA", "postalCode": "V3C2B2", "twitter": "None", "instagram": "None", "facebook": "None", "youtube": "None", "website": "None", "summary": "None", "logo": "None", "latitude": 49.26344841104509, "longitude": -122.78009385651218}, "889974622RR0001": {"name": "THE BC REGIMENT (DCO) ASSOCIATION CHARITABLE TRUST", "designationCode": "A", "categoryCode": "25", "address": "208-1899 WILLINGDON AVE", "city": "BURNABY", "province": "BC", "country": "CA", "postalCode": "V5C5T1", "twitter": "None", "instagram": "None", "facebook": "None", "youtube": "None", "website": "None", "summary": "None", "logo": "None", "latitude": 49.267534163845426, "longitude": -123.00332640130463}, "869023580RR0001": {"name": "THE BCC PEACE FOUNDATION", "designationCode": "C", "categoryCode": "59", "address": "3490 EDINBURGH STREET", "city": "PORT COQUITLAM", "province": "BC", "country": "CA", "postalCode": "V3B4K3", "twitter": "None", "instagram": "None", "facebook": "None", "youtube": "None", "website": "None", "summary": "None", "logo": "None", "latitude": 49.27515325145711, "longitude": -122.77170186730356}, "119022283RR0001": {"name": "THE BEA FISHER CENTRE", "designationCode": "C", "categoryCode": "20", "address": "BOX 296", "city": "LLOYDMINSTER", "province": "SK", "country": "CA", "postalCode": "S9V0Y2", "twitter": "None", "instagram": "None", "facebook": "None", "youtube": "None", "website": "None", "summary": "None", "logo": "None", "latitude": 53.274840000000054, "longitude": -109.99074949999994}, "136633252RR0001": {"name": "THE BEA FISHER FOUNDATION", "designationCode": "A", "categoryCode": "03", "address": "P.O. BOX 1575", "city": "LLOYDMINSTER", "province": "SK", "country": "CA", "postalCode": "S9V1K5", "twitter": "None", "instagram": "None", "facebook": "None", "youtube": "None", "website": "None", "summary": "None", "logo": "None", "latitude": 53.274840000000054, "longitude": -109.99074949999994}, "119215374RR0001": {"name": "THE BEACH SOCIETY FOR THE PERFORMING AND VISUAL ARTS", "designationCode": "C", "categoryCode": "22", "address": "10 JOHN ST, PH", "city": "DUNDAS", "province": "ON", "country": "CA", "postalCode": "L9H6J3", "twitter": "None", "instagram": "None", "facebook": "None", "youtube": "None", "website": "None", "summary": "None", "logo": "None", "latitude": 43.26684389827454, "longitude": -79.96027638992454}, "119215358RR0001": {"name": "THE BEACHCOMBERS SENIOR CITIZENS ASSOCIATION OF CRYSTAL BEACH", "designationCode": "C", "categoryCode": "56", "address": "237 RIDGE ROAD", "city": "RIDGEWAY", "province": "ON", "country": "CA", "postalCode": "L0S1N0", "twitter": "None", "instagram": "None", "facebook": "None", "youtube": "None", "website": "None", "summary": "None", "logo": "None", "latitude": 42.8811841887299, "longitude": -79.05192095772944}, "106779622RR0001": {"name": "THE BEACHES PRESBYTERIAN CHURCH", "designationCode": "C", "categoryCode": "37", "address": "65 GLEN MANOR DR.", "city": "TORONTO", "province": "ON", "country": "CA", "postalCode": "M4E3V3", "twitter": "None", "instagram": "None", "facebook": "None", "youtube": "None", "website": "None", "summary": "None", "logo": "None", "latitude": 43.67106990091752, "longitude": -79.29227986635128}, "119215390RR0001": {"name": "THE BEAR LAKE BIBLE CAMP", "designationCode": "C", "categoryCode": "56", "address": "PO BOX 390", "city": "SEXSMITH", "province": "AB", "country": "CA", "postalCode": "T0H3C0", "twitter": "None", "instagram": "None", "facebook": "None", "youtube": "None", "website": "None", "summary": "None", "logo": "None", "latitude": 55.348520000000065, "longitude": -118.78230999999994}, "133994780RR0001": {"name": "THE BEAR RIVER FIRE DEPARTMENT", "designationCode": "C", "categoryCode": "59", "address": "PO BOX 219", "city": "BEAR RIVER", "province": "NS", "country": "CA", "postalCode": "B0S1B0", "twitter": "None", "instagram": "None", "facebook": "None", "youtube": "None", "website": "None", "summary": "None", "logo": "None", "latitude": 44.57421000000005, "longitude": -65.65773999999993}, "896901568RR0001": {"name": "THE BEAR RIVER HISTORICAL SOCIETY", "designationCode": "C", "categoryCode": "50", "address": "PO BOX 182", "city": "BEAR RIVER", "province": "NS", "country": "CA", "postalCode": "B0S1B0", "twitter": "None", "instagram": "None", "facebook": "None", "youtube": "None", "website": "None", "summary": "None", "logo": "None", "latitude": 44.57421000000005, "longitude": -65.65773999999993}, "119215382RR0001": {"name": "THE BEARDMORE EVERGREENS INCORPORATED", "designationCode": "C", "categoryCode": "56", "address": "BOX 165", "city": "BEARDMORE", "province": "ON", "country": "CA", "postalCode": "P0T1G0", "twitter": "None", "instagram": "None", "facebook": "None", "youtube": "None", "website": "None", "summary": "None", "logo": "None", "latitude": 49.131541807289835, "longitude": -88.18428440661056}, "881727325RR0001": {"name": "THE BEATRICE WATSON-ACHESON FOUNDATION", "designationCode": "B", "categoryCode": "54", "address": "1 COUSINS CRT", "city": "BRADFORD", "province": "ON", "country": "CA", "postalCode": "L3Z0H1", "twitter": "None", "instagram": "None", "facebook": "None", "youtube": "None", "website": "None", "summary": "None", "logo": "None", "latitude": 44.07506766966329, "longitude": -79.59171734823742}, "896692829RR0001": {"name": "THE BEATTY RYCKMAN TRUST", "designationCode": "B", "categoryCode": "05", "address": "130 KING ST 20TH FLOOR        BOX 430 STN FIRST CANADIAN PL", "city": "TORONTO", "province": "ON", "country": "CA", "postalCode": "M5X1K1", "twitter": "None", "instagram": "None", "facebook": "None", "youtube": "None", "website": "None", "summary": "None", "logo": "None", "latitude": 43.64826932503962, "longitude": -79.38190945606182}, "132172453RR0001": {"name": "THE BEAUFORT ASSOCIATION FOR THE MENTALLY HANDICAPPED", "designationCode": "C", "categoryCode": "11", "address": "960 CUMBERLAND RD", "city": "COURTENAY", "province": "BC", "country": "CA", "postalCode": "V9N2E4", "twitter": "None", "instagram": "None", "facebook": "None", "youtube": "None", "website": "None", "summary": "None", "logo": "None", "latitude": 49.68269409158065, "longitude": -125.00292166633999}, "119215432RR0001": {"name": "THE BEAUTIFUL PLAINS AGRICULTURAL SOCIETY", "designationCode": "C", "categoryCode": "56", "address": "BOX 1810", "city": "NEEPAWA", "province": "MB", "country": "CA", "postalCode": "R0J1H0", "twitter": "None", "instagram": "None", "facebook": "None", "youtube": "None", "website": "None", "summary": "None", "logo": "None", "latitude": 50.22581100000005, "longitude": -99.48963949999994}, "858817141RR0001": {"name": "THE BEAVER VALLEY AND THE PEND D'OREILLE HISTORICAL SOCIETY", "designationCode": "C", "categoryCode": "50", "address": "BOX 802", "city": "FRUITVALE", "province": "BC", "country": "CA", "postalCode": "V0G1L0", "twitter": "None", "instagram": "None", "facebook": "None", "youtube": "None", "website": "None", "summary": "None", "logo": "None", "latitude": 49.115270000000066, "longitude": -117.54598999999996}, "890598592RR0001": {"name": "THE BEAVER VALLEY NURSERY SCHOOL SOCIETY", "designationCode": "C", "categoryCode": "20", "address": "PO BOX 507", "city": "MONTROSE", "province": "BC", "country": "CA", "postalCode": "V0G1P0", "twitter": "None", "instagram": "None", "facebook": "None", "youtube": "None", "website": "None", "summary": "None", "logo": "None", "latitude": 49.07853000000006, "longitude": -117.59350999999998}, "119215440RR0001": {"name": "THE BEAVERBROOK CANADIAN FOUNDATION", "designationCode": "B", "categoryCode": "03", "address": "1201-3555 COTE DE NEIGES", "city": "MONTREAL", "province": "QC", "country": "CA", "postalCode": "H3H1V2", "twitter": "None", "instagram": "None", "facebook": "None", "youtube": "None", "website": "None", "summary": "None", "logo": "None", "latitude": 45.4963594899011, "longitude": -73.58495144324539}, "887645158RR0001": {"name": "THE BEAVERLODGE DAY CARE SOCIETY", "designationCode": "C", "categoryCode": "20", "address": "BOX 838", "city": "BEAVERLODGE", "province": "AB", "country": "CA", "postalCode": "T0H0C0", "twitter": "None", "instagram": "None", "facebook": "None", "youtube": "None", "website": "None", "summary": "None", "logo": "None", "latitude": 55.209100000000035, "longitude": -119.42957999999999}, "120862792RR0001": {"name": "THE BECKET PLAYERS", "designationCode": "C", "categoryCode": "22", "address": "PO BOX 48014", "city": "POINTE CLAIRE", "province": "QC", "country": "CA", "postalCode": "H9R5R4", "twitter": "None", "instagram": "None", "facebook": "None", "youtube": "None", "website": "None", "summary": "None", "logo": "None", "latitude": 45.44809800000006, "longitude": -73.81735099999993}, "889777546RR0001": {"name": "THE BEDOLFE FOUNDATION", "designationCode": "B", "categoryCode": "05", "address": "20 QUEEN STREET WEST          SUITE 2750, P.O. BOX 18", "city": "TORONTO", "province": "ON", "country": "CA", "postalCode": "M5H3R3", "twitter": "None", "instagram": "None", "facebook": "None", "youtube": "None", "website": "None", "summary": "None", "logo": "None", "latitude": 43.652350571469775, "longitude": -79.38077842754927}, "888112018RR0001": {"name": "THE BEECHWOOD CEMETERY FOUNDATION / LA FONDATION CIMETI\u00c8RE BEECHWOOD", "designationCode": "C", "categoryCode": "59", "address": "280 BEECHWOOD AVENUE", "city": "VANIER", "province": "ON", "country": "CA", "postalCode": "K1L8A6", "twitter": "None", "instagram": "None", "facebook": "None", "youtube": "None", "website": "None", "summary": "None", "logo": "None", "latitude": 45.445079829284516, "longitude": -75.67001028004297}, "123527632RR0001": {"name": "THE BEECHY COMMUNITY RINK CO-OPERATIVE ASSOCIATION LIMITED", "designationCode": "C", "categoryCode": "56", "address": "BOX 417", "city": "BEECHY", "province": "SK", "country": "CA", "postalCode": "S0L0C0", "twitter": "None", "instagram": "None", "facebook": "None", "youtube": "None", "website": "None", "summary": "None", "logo": "None", "latitude": 50.87650000000008, "longitude": -107.38328999999999}, "119215481RR0001": {"name": "THE BEEHIVE ADULT SERVICE CENTRE", "designationCode": "C", "categoryCode": "09", "address": "1119 STATION STREET           PO BOX 98", "city": "AYLESFORD", "province": "NS", "country": "CA", "postalCode": "B0P1C0", "twitter": "None", "instagram": "None", "facebook": "None", "youtube": "None", "website": "None", "summary": "None", "logo": "None", "latitude": 45.05247321068297, "longitude": -64.675585543466}, "129894986RR0001": {"name": "THE BEEHIVE DAY CARE & COMMUNITY CENTRE", "designationCode": "C", "categoryCode": "01", "address": "35 CENTRE ST", "city": "CAMPBELLFORD", "province": "ON", "country": "CA", "postalCode": "K0L1L0", "twitter": "None", "instagram": "None", "facebook": "None", "youtube": "None", "website": "None", "summary": "None", "logo": "None", "latitude": 44.30661914960466, "longitude": -77.79290887451693}, "723688529RR0001": {"name": "THE BEGIN FAMILY CHARITABLE FOUNDATION", "designationCode": "B", "categoryCode": "03", "address": "88 SUNSET CLOSE SE", "city": "CALGARY", "province": "AB", "country": "CA", "postalCode": "T2X3A7", "twitter": "None", "instagram": "None", "facebook": "None", "youtube": "None", "website": "None", "summary": "None", "logo": "None", "latitude": 50.8999365678631, "longitude": -114.03657213601466}, "119215507RR0001": {"name": "THE BEGINNING EXPERIENCE-SARNIA", "designationCode": "C", "categoryCode": "59", "address": "261 CHRISTINA STREET NORTH", "city": "SARNIA", "province": "ON", "country": "CA", "postalCode": "N7T5V4", "twitter": "None", "instagram": "None", "facebook": "None", "youtube": "None", "website": "None", "summary": "None", "logo": "None", "latitude": 42.97510711237053, "longitude": -82.4061425770942}, "129333027RR0001": {"name": "THE BEHAVIOURAL HEALTH FOUNDATION INC.", "designationCode": "C", "categoryCode": "59", "address": "PO BOX 250", "city": "ST NORBERT", "province": "MB", "country": "CA", "postalCode": "R3V1L6", "twitter": "None", "instagram": "None", "facebook": "None", "youtube": "None", "website": "None", "summary": "None", "logo": "None", "latitude": 49.765360077182656, "longitude": -97.15356999826922}, "119215531RR0001": {"name": "THE BEL CANTO CHORUS", "designationCode": "C", "categoryCode": "22", "address": "851 CHESTNET CRESCENT", "city": "SUDBURY", "province": "ON", "country": "CA", "postalCode": "P3A5B3", "twitter": "None", "instagram": "None", "facebook": "None", "youtube": "None", "website": "None", "summary": "None", "logo": "None", "latitude": 46.53002430409403, "longitude": -80.95623304520072}, "891764045RR0001": {"name": "THE BELFAST PIPE AND DRUM BAND INC", "designationCode": "C", "categoryCode": "22", "address": "48 STARLING CRESCENT", "city": "STRATFORD", "province": "PE", "country": "CA", "postalCode": "C1B0K1", "twitter": "None", "instagram": "None", "facebook": "None", "youtube": "None", "website": "None", "summary": "None", "logo": "None", "latitude": 46.238463602169034, "longitude": -63.089246620289664}, "119215549RR0001": {"name": "THE BELFRY THEATRE SOCIETY", "designationCode": "C", "categoryCode": "22", "address": "1291 GLADSTONE AVENUE", "city": "VICTORIA", "province": "BC", "country": "CA", "postalCode": "V8T1G5", "twitter": "None", "instagram": "None", "facebook": "None", "youtube": "None", "website": "None", "summary": "None", "logo": "None", "latitude": 48.43044450678067, "longitude": -123.34545275007213}, "898741624RR0001": {"name": "THE BELIEVER'S MIRACLE AND HEALING CENTRE INC.", "designationCode": "C", "categoryCode": "39", "address": "625 THE WEST MALL,            SUITE 1803", "city": "ETOBICOKE", "province": "ON", "country": "CA", "postalCode": "M9C4W9", "twitter": "None", "instagram": "None", "facebook": "None", "youtube": "None", "website": "None", "summary": "None", "logo": "None", "latitude": 43.65580299971154, "longitude": -79.57124655938033}, "108084658RR0019": {"name": "THE BELL'S CORNERS PARISH OF CHRIST CHURCH", "designationCode": "C", "categoryCode": "30", "address": "3861 OLD RICHMOND ROAD", "city": "NEPEAN", "province": "ON", "country": "CA", "postalCode": "K2H5C1", "twitter": "None", "instagram": "None", "facebook": "None", "youtube": "None", "website": "None", "summary": "None", "logo": "None", "latitude": 45.32197500000001, "longitude": -75.82609112300158}, "868781147RR0001": {"name": "THE BELLEVILLE CHORAL SOCIETY", "designationCode": "C", "categoryCode": "22", "address": "12 CHELSEA CRES               RR 5", "city": "BELLEVILLE", "province": "ON", "country": "CA", "postalCode": "K8N4Z5", "twitter": "None", "instagram": "None", "facebook": "None", "youtube": "None", "website": "None", "summary": "None", "logo": "None", "latitude": 44.20955148903573, "longitude": -77.39524156647812}, "106783053RR0001": {"name": "THE BELLEVILLE PUBLIC LIBRARY BOARD", "designationCode": "C", "categoryCode": "50", "address": "254 PINNACLE ST", "city": "BELLEVILLE", "province": "ON", "country": "CA", "postalCode": "K8N3B1", "twitter": "None", "instagram": "None", "facebook": "None", "youtube": "None", "website": "None", "summary": "None", "logo": "None", "latitude": 44.165503875930554, "longitude": -77.3833345488774}, "119215572RR0001": {"name": "THE BELLEVILLE SPORTS HALL OF FAME", "designationCode": "C", "categoryCode": "50", "address": "71 DUNDAS ST W", "city": "TRENTON", "province": "ON", "country": "CA", "postalCode": "K8V3P4", "twitter": "None", "instagram": "None", "facebook": "None", "youtube": "None", "website": "None", "summary": "None", "logo": "None", "latitude": 44.100915947256105, "longitude": -77.57656452648752}, "118802891RR0001": {"name": "THE BELLEVILLE THEATRE GUILD INC.", "designationCode": "C", "categoryCode": "22", "address": "256 PINNACLE STREET", "city": "BELLEVILLE", "province": "ON", "country": "CA", "postalCode": "K8N3B1", "twitter": "None", "instagram": "None", "facebook": "None", "youtube": "None", "website": "None", "summary": "None", "logo": "None", "latitude": 44.16573690146579, "longitude": -77.38344449780695}, "830598124RR0001": {"name": "THE BELLINI FOUNDATION", "designationCode": "A", "categoryCode": "05", "address": "910 5TH AVENUE SW             SUITE 2801", "city": "CALGARY", "province": "AB", "country": "CA", "postalCode": "T2P0C3", "twitter": "None", "instagram": "None", "facebook": "None", "youtube": "None", "website": "None", "summary": "None", "logo": "None", "latitude": 51.0489414893242, "longitude": -114.08155205245542}, "891290579RR0001": {"name": "THE BELLWOOD FOUNDATION", "designationCode": "C", "categoryCode": "11", "address": "1020 MCNICOLL AVENUE", "city": "TORONTO", "province": "ON", "country": "CA", "postalCode": "M1W2J6", "twitter": "None", "instagram": "None", "facebook": "None", "youtube": "None", "website": "None", "summary": "None", "logo": "None", "latitude": 43.804300190258175, "longitude": -79.33537751837918}, "883413627RR0001": {"name": "THE BELMONT CEMETERY COMPANY", "designationCode": "C", "categoryCode": "59", "address": "41 ONSLOW MT.ROAD  RR#1", "city": "BELMONT", "province": "NS", "country": "CA", "postalCode": "B0M1C0", "twitter": "None", "instagram": "None", "facebook": "None", "youtube": "None", "website": "None", "summary": "None", "logo": "None", "latitude": 45.424335434935536, "longitude": -63.38250957646144}, "889442190RR0001": {"name": "THE BEN AND ESTHER DAYSON CHARITABLE FOUNDATION", "designationCode": "A", "categoryCode": "03", "address": "400-1788 5TH AVE W", "city": "VANCOUVER", "province": "BC", "country": "CA", "postalCode": "V6J1P2", "twitter": "None", "instagram": "None", "facebook": "None", "youtube": "None", "website": "None", "summary": "None", "logo": "None", "latitude": 49.2671245100989, "longitude": -123.14515274715794}, "119215598RR0001": {"name": "THE BEN AND HILDA KATZ CHARITABLE FOUNDATION", "designationCode": "B", "categoryCode": "03", "address": "18 OLD ENGLISH LANE", "city": "THORNHILL", "province": "ON", "country": "CA", "postalCode": "L3T2T9", "twitter": "None", "instagram": "None", "facebook": "None", "youtube": "None", "website": "None", "summary": "None", "logo": "None", "latitude": 43.80659763252355, "longitude": -79.39375029868971}, "887790350RR0001": {"name": "THE BEN AND SYLVIA MARKS CHARITABLE FOUNDATION", "designationCode": "B", "categoryCode": "03", "address": "2600-120 ADELAIDE STREET WEST", "city": "TORONTO", "province": "ON", "country": "CA", "postalCode": "M5H1T1", "twitter": "None", "instagram": "None", "facebook": "None", "youtube": "None", "website": "None", "summary": "None", "logo": "None", "latitude": 43.64911539870523, "longitude": -79.38439020582648}, "868486499RR0001": {"name": "THE BEN SAWATZKY FOUNDATION", "designationCode": "B", "categoryCode": "05", "address": "803 53016 HWY 60              ACHESON INDUSTRIAL PARK", "city": "SPRUCE GROVE", "province": "AB", "country": "CA", "postalCode": "T7X3G7", "twitter": "None", "instagram": "None", "facebook": "None", "youtube": "None", "website": "None", "summary": "None", "logo": "None", "latitude": 53.548308614835356, "longitude": -113.76273401161674}, "131894719RR0001": {"name": "THE BENEDICTINES OF NANAIMO (HOUSE OF BREAD MONASTERY)", "designationCode": "C", "categoryCode": "46", "address": "2329 ARBOT RD", "city": "NANAIMO", "province": "BC", "country": "CA", "postalCode": "V9R6S8", "twitter": "None", "instagram": "None", "facebook": "None", "youtube": "None", "website": "None", "summary": "None", "logo": "None", "latitude": 49.16663640627402, "longitude": -124.00406827885206}, "105196786RR0001": {"name": "THE BENJAMIN FOUNDATION", "designationCode": "B", "categoryCode": "03", "address": "2401 STEELES AVE W", "city": "NORTH YORK", "province": "ON", "country": "CA", "postalCode": "M3J2P1", "twitter": "None", "instagram": "None", "facebook": "None", "youtube": "None", "website": "None", "summary": "None", "logo": "None", "latitude": 43.78454095083414, "longitude": -79.4816434032548}, "888794641RR0001": {"name": "THE BENJAMIN WALKER FOUNDATION", "designationCode": "B", "categoryCode": "03", "address": "150 CONSUMERS ROAD            SUITE 207", "city": "NORTH YORK", "province": "ON", "country": "CA", "postalCode": "M2J1P9", "twitter": "None", "instagram": "None", "facebook": "None", "youtube": "None", "website": "None", "summary": "None", "logo": "None", "latitude": 43.77350757700969, "longitude": -79.33204828316741}}