{"129209565RR0001": {"name": "NEW COVENANT MINISTRIES INC", "designationCode": "C", "categoryCode": "47", "address": "PO BOX 804", "city": "WEYBURN", "province": "SK", "country": "CA", "postalCode": "S4H2L1", "twitter": "None", "instagram": "None", "facebook": "None", "youtube": "None", "website": "None", "summary": "None", "logo": "None", "latitude": 49.66802700000005, "longitude": -103.85818999999994}, "832004543RR0001": {"name": "NEW COVENANT MINISTRIES INTERNATIONAL (CANADA)", "designationCode": "C", "categoryCode": "47", "address": "101 - 96 EDMONTON AVE", "city": "PENTICTON", "province": "BC", "country": "CA", "postalCode": "V2A2G8", "twitter": "None", "instagram": "None", "facebook": "None", "youtube": "None", "website": "None", "summary": "None", "logo": "None", "latitude": 49.48941781320337, "longitude": -119.58735572799934}, "107769564RR0001": {"name": "NEW COVENANT WAY MINISTIES", "designationCode": "C", "categoryCode": "36", "address": "R.R. 2", "city": "COMBERMERE", "province": "ON", "country": "CA", "postalCode": "K0J1L0", "twitter": "None", "instagram": "None", "facebook": "None", "youtube": "None", "website": "None", "summary": "None", "logo": "None", "latitude": 45.374815513507876, "longitude": -77.61668356253622}, "119054658RR0001": {"name": "NEW CREATION MINISTRIES", "designationCode": "B", "categoryCode": "39", "address": "272 BRONSON AVE #505", "city": "OTTAWA", "province": "ON", "country": "CA", "postalCode": "K1R6H9", "twitter": "None", "instagram": "None", "facebook": "None", "youtube": "None", "website": "None", "summary": "None", "logo": "None", "latitude": 45.411785361359605, "longitude": -75.70598057718259}, "826535163RR0001": {"name": "NEW CREATION MINISTRIES", "designationCode": "C", "categoryCode": "39", "address": "19 TWIN PAULS CRES", "city": "TORONTO", "province": "ON", "country": "CA", "postalCode": "M1R3Z6", "twitter": "None", "instagram": "None", "facebook": "None", "youtube": "None", "website": "None", "summary": "None", "logo": "None", "latitude": 43.75002283651687, "longitude": -79.29411042379836}, "847478476RR0001": {"name": "NEW CREATION PRESBYTERIAN CHURCH", "designationCode": "C", "categoryCode": "39", "address": "77 FINCH AVENUE EAST          SUITE 223", "city": "NORTH YORK", "province": "ON", "country": "CA", "postalCode": "M2N6H8", "twitter": "None", "instagram": "None", "facebook": "None", "youtube": "None", "website": "None", "summary": "None", "logo": "None", "latitude": 43.78069877930094, "longitude": -79.41127438354796}, "842192528RR0001": {"name": "NEW DALE CHARITABLE TRUST", "designationCode": "B", "categoryCode": "39", "address": "3425 - 2ND AVENUE SOUTH", "city": "LETHBRIDGE", "province": "AB", "country": "CA", "postalCode": "T1J4V1", "twitter": "None", "instagram": "None", "facebook": "None", "youtube": "None", "website": "None", "summary": "None", "logo": "None", "latitude": 49.696839530439966, "longitude": -112.78914308381903}, "136816394RR0001": {"name": "NEW DANCE HORIZONS INC", "designationCode": "C", "categoryCode": "22", "address": "2207 HARVEY STREET", "city": "REGINA", "province": "SK", "country": "CA", "postalCode": "S4N2N2", "twitter": "None", "instagram": "None", "facebook": "None", "youtube": "None", "website": "None", "summary": "None", "logo": "None", "latitude": 50.443604381903185, "longitude": -104.57778740143712}, "863074795RR0001": {"name": "NEW DAWN COMMUNITY DEVELOPMENT EDUCATIONAL FOUNDATION INC.", "designationCode": "C", "categoryCode": "59", "address": "PO BOX 1055 STN A", "city": "SYDNEY", "province": "NS", "country": "CA", "postalCode": "B1P6J7", "twitter": "None", "instagram": "None", "facebook": "None", "youtube": "None", "website": "None", "summary": "None", "logo": "None", "latitude": 46.137372000000056, "longitude": -60.19552249999994}, "872569223RR0001": {"name": "NEW DAWN MORAVIAN CHURCH OF TORONTO", "designationCode": "C", "categoryCode": "39", "address": "5-7 GLENORA AVE", "city": "YORK", "province": "ON", "country": "CA", "postalCode": "M6C3Y2", "twitter": "None", "instagram": "None", "facebook": "None", "youtube": "None", "website": "None", "summary": "None", "logo": "None", "latitude": 43.691747327178696, "longitude": -79.43875418014225}, "886290105RR0001": {"name": "NEW DAY CHRISTIAN CENTRE", "designationCode": "C", "categoryCode": "39", "address": "499 WILSON ROAD R.R. #4", "city": "STIRLING", "province": "ON", "country": "CA", "postalCode": "K0K3E0", "twitter": "None", "instagram": "None", "facebook": "None", "youtube": "None", "website": "None", "summary": "None", "logo": "None", "latitude": 44.33436150564831, "longitude": -77.44631725623208}, "870439643RR0001": {"name": "NEW DAY MINISTRIES INC.", "designationCode": "C", "categoryCode": "39", "address": "PO BOX 2700", "city": "VANCOUVER", "province": "BC", "country": "CA", "postalCode": "V6B3W8", "twitter": "None", "instagram": "None", "facebook": "None", "youtube": "None", "website": "None", "summary": "None", "logo": "None", "latitude": 49.28024400000005, "longitude": -123.11294749999993}, "119054724RR0001": {"name": "NEW DAYTON RECREATION ASSOCIATION", "designationCode": "C", "categoryCode": "55", "address": "BOX 54", "city": "NEW DAYTON", "province": "AB", "country": "CA", "postalCode": "T0K1P0", "twitter": "None", "instagram": "None", "facebook": "None", "youtube": "None", "website": "None", "summary": "None", "logo": "None", "latitude": 49.42155000000008, "longitude": -112.37670999999995}, "890864937RR0001": {"name": "NEW DENMARK SENIOR'S COMPLEX INC", "designationCode": "C", "categoryCode": "09", "address": "3024 ROUTE 108", "city": "NEW DENMARK", "province": "NB", "country": "CA", "postalCode": "E7G2T2", "twitter": "None", "instagram": "None", "facebook": "None", "youtube": "None", "website": "None", "summary": "None", "logo": "None", "latitude": 46.9969851928991, "longitude": -67.59843515999226}, "119288918RR0450": {"name": "NEW DENVER CONGREGATION OF JEHOVAH'S WITNESSES", "designationCode": "C", "categoryCode": "61", "address": "BOX 102", "city": "NEW DENVER", "province": "BC", "country": "CA", "postalCode": "V0G1S0", "twitter": "None", "instagram": "None", "facebook": "None", "youtube": "None", "website": "None", "summary": "None", "logo": "None", "latitude": 49.99242000000004, "longitude": -117.37212999999997}, "887722460RR0001": {"name": "NEW DENVER HOSPICE SOCIETY", "designationCode": "C", "categoryCode": "11", "address": "P.O. BOX 217", "city": "NEW DENVER", "province": "BC", "country": "CA", "postalCode": "V0G1S0", "twitter": "None", "instagram": "None", "facebook": "None", "youtube": "None", "website": "None", "summary": "None", "logo": "None", "latitude": 49.99242000000004, "longitude": -117.37212999999997}, "119054740RR0001": {"name": "NEW DENVER KYOWAKAI SOCIETY", "designationCode": "C", "categoryCode": "59", "address": "P.O.BOX 273", "city": "NEW DENVER", "province": "BC", "country": "CA", "postalCode": "V0G1S0", "twitter": "None", "instagram": "None", "facebook": "None", "youtube": "None", "website": "None", "summary": "None", "logo": "None", "latitude": 49.99242000000004, "longitude": -117.37212999999997}, "818193278RR0001": {"name": "NEW DIRECTION CHINA MINISTRIES", "designationCode": "C", "categoryCode": "47", "address": "174 JACOB STREET", "city": "FREDERICTON", "province": "NB", "country": "CA", "postalCode": "E3G0X4", "twitter": "None", "instagram": "None", "facebook": "None", "youtube": "None", "website": "None", "summary": "None", "logo": "None", "latitude": 46.009905527612695, "longitude": -66.6449741888741}, "119054765RR0001": {"name": "NEW DIRECTION INC.", "designationCode": "C", "categoryCode": "01", "address": "PO BOX 549", "city": "SAINT JOHN", "province": "NB", "country": "CA", "postalCode": "E2L3Z8", "twitter": "None", "instagram": "None", "facebook": "None", "youtube": "None", "website": "None", "summary": "None", "logo": "None", "latitude": 45.27342600000006, "longitude": -66.06407149999993}, "130531114RR0001": {"name": "NEW DIRECTIONS FOR CHILDREN, YOUTH, ADULTS AND FAMILIES INC.", "designationCode": "C", "categoryCode": "01", "address": "500 - 717 PORTAGE AVE", "city": "WINNIPEG", "province": "MB", "country": "CA", "postalCode": "R3G0M8", "twitter": "None", "instagram": "None", "facebook": "None", "youtube": "None", "website": "None", "summary": "None", "logo": "None", "latitude": 49.88770105580232, "longitude": -97.16199734722134}, "140644683RR0001": {"name": "NEW DIRECTIONS WORKERS RESOURCE CENTRE", "designationCode": "C", "categoryCode": "59", "address": "86 SOUTH CUMBERLAND STREET", "city": "THUNDER BAY", "province": "ON", "country": "CA", "postalCode": "P7B2V3", "twitter": "None", "instagram": "None", "facebook": "None", "youtube": "None", "website": "None", "summary": "None", "logo": "None", "latitude": 48.43174287206409, "longitude": -89.22262440538958}, "119054807RR0001": {"name": "NEW DUNDEE BAPTIST CHURCH", "designationCode": "C", "categoryCode": "31", "address": "1173 QUEEN ST. PO BOX 89", "city": "NEW DUNDEE", "province": "ON", "country": "CA", "postalCode": "N0B2E0", "twitter": "None", "instagram": "None", "facebook": "None", "youtube": "None", "website": "None", "summary": "None", "logo": "None", "latitude": 43.350274937561245, "longitude": -80.53761970508985}, "119054815RR0001": {"name": "NEW DUNDEE COMMUNITY TRUST", "designationCode": "C", "categoryCode": "05", "address": "PO BOX 192", "city": "NEW DUNDEE", "province": "ON", "country": "CA", "postalCode": "N0B2E0", "twitter": "None", "instagram": "None", "facebook": "None", "youtube": "None", "website": "None", "summary": "None", "logo": "None", "latitude": 43.404130000000066, "longitude": -80.60290999999995}, "851880732RR0001": {"name": "NEW EDINBURGH PARK TRUST", "designationCode": "C", "categoryCode": "52", "address": "183 STANLEY AVENUE", "city": "OTTAWA", "province": "ON", "country": "CA", "postalCode": "K1M1P2", "twitter": "None", "instagram": "None", "facebook": "None", "youtube": "None", "website": "None", "summary": "None", "logo": "None", "latitude": 45.439582140689204, "longitude": -75.68682022205539}, "141049916RR0001": {"name": "NEW ELM CHARITABLE TRUST", "designationCode": "B", "categoryCode": "39", "address": "3425 2 AVE S", "city": "LETHBRIDGE", "province": "AB", "country": "CA", "postalCode": "T1J4V1", "twitter": "None", "instagram": "None", "facebook": "None", "youtube": "None", "website": "None", "summary": "None", "logo": "None", "latitude": 49.696839530439966, "longitude": -112.78914308381903}, "840915474RR0001": {"name": "NEW FOUND FOUNDATION", "designationCode": "C", "categoryCode": "05", "address": "14 IVYDALE PL", "city": "PARADISE", "province": "NL", "country": "CA", "postalCode": "A1L0E9", "twitter": "None", "instagram": "None", "facebook": "None", "youtube": "None", "website": "None", "summary": "None", "logo": "None", "latitude": 47.55754500000006, "longitude": -52.89203599999993}, "135633147RR0001": {"name": "NEW FRONTIERS SUPPORT SERVICES - LONDON MIDDLESEX", "designationCode": "C", "categoryCode": "09", "address": "403-111 WATERLOO ST", "city": "LONDON", "province": "ON", "country": "CA", "postalCode": "N6B2M4", "twitter": "None", "instagram": "None", "facebook": "None", "youtube": "None", "website": "None", "summary": "None", "logo": "None", "latitude": 42.97699346404877, "longitude": -81.2381310286223}, "108090010RR0001": {"name": "NEW GATE KOREAN PRESBYTERIAN CHURCH", "designationCode": "C", "categoryCode": "39", "address": "240 THE WESTWAY", "city": "ETOBICOKE", "province": "ON", "country": "CA", "postalCode": "M9R1G1", "twitter": "None", "instagram": "None", "facebook": "None", "youtube": "None", "website": "None", "summary": "None", "logo": "None", "latitude": 43.687535005308774, "longitude": -79.54917690648611}, "108092461RR0001": {"name": "NEW GENERATION MINISTRY", "designationCode": "C", "categoryCode": "47", "address": "76 CEDAR ST", "city": "PARIS", "province": "ON", "country": "CA", "postalCode": "N3L0A1", "twitter": "None", "instagram": "None", "facebook": "None", "youtube": "None", "website": "None", "summary": "None", "logo": "None", "latitude": 43.2126518318809, "longitude": -80.35239041594043}, "892070244RR0001": {"name": "NEW GERMANY & AREA FOOD BANK", "designationCode": "C", "categoryCode": "09", "address": "5341 UPPER BRANCH RD.", "city": "HEMFORD", "province": "NS", "country": "CA", "postalCode": "B0R1E0", "twitter": "None", "instagram": "None", "facebook": "None", "youtube": "None", "website": "None", "summary": "None", "logo": "None", "latitude": 44.506644558024945, "longitude": -64.78598065768247}, "138351119RR0001": {"name": "NEW GERMANY & AREA MEDICAL CENTRE ASSOCIATION", "designationCode": "C", "categoryCode": "19", "address": "BOX 128", "city": "NEW GERMANY", "province": "NS", "country": "CA", "postalCode": "B0R1E0", "twitter": "None", "instagram": "None", "facebook": "None", "youtube": "None", "website": "None", "summary": "None", "logo": "None", "latitude": 44.53315800000006, "longitude": -64.71399049999994}, "119055127RR0001": {"name": "NEW GERMANY PASTORAL CHARGE", "designationCode": "C", "categoryCode": "44", "address": "5341 UPPER BRANCH ROAD", "city": "HEMFORD", "province": "NS", "country": "CA", "postalCode": "B0R1E0", "twitter": "None", "instagram": "None", "facebook": "None", "youtube": "None", "website": "None", "summary": "None", "logo": "None", "latitude": 44.506644558024945, "longitude": -64.78598065768247}, "119055135RR0001": {"name": "NEW GERMANY VOLUNTEER FIRE DEPARTMENT", "designationCode": "C", "categoryCode": "29", "address": "PO BOX 163, 12 FIRE HALL ROAD", "city": "NEW GERMANY", "province": "NS", "country": "CA", "postalCode": "B0R1E0", "twitter": "None", "instagram": "None", "facebook": "None", "youtube": "None", "website": "None", "summary": "None", "logo": "None", "latitude": 44.547742842373914, "longitude": -64.72371930708651}, "107770240RR0001": {"name": "NEW GLASGOW CHRISTIAN CHURCH", "designationCode": "C", "categoryCode": "39", "address": "843 ST. PATRICKS RD           RR1", "city": "HUNTER RIVER", "province": "PE", "country": "CA", "postalCode": "C0A1N0", "twitter": "None", "instagram": "None", "facebook": "None", "youtube": "None", "website": "None", "summary": "None", "logo": "None", "latitude": 46.39758245490216, "longitude": -63.386689287235434}, "119055150RR0001": {"name": "NEW GLASGOW GOSPEL HALL", "designationCode": "C", "categoryCode": "39", "address": "454 SOUTH FREDERICK ST", "city": "NEW GLASGOW", "province": "NS", "country": "CA", "postalCode": "B2H9Z9", "twitter": "None", "instagram": "None", "facebook": "None", "youtube": "None", "website": "None", "summary": "None", "logo": "None", "latitude": 45.579615328611034, "longitude": -62.64271240117732}, "889976999RR0001": {"name": "NEW GLASGOW MUSIC FESTIVAL ASSOCIATION", "designationCode": "C", "categoryCode": "22", "address": "P.O. BOX 671", "city": "NEW GLASGOW", "province": "NS", "country": "CA", "postalCode": "B2H5E7", "twitter": "None", "instagram": "None", "facebook": "None", "youtube": "None", "website": "None", "summary": "None", "logo": "None", "latitude": 45.591837000000055, "longitude": -62.643414499999935}, "108141342RR0001": {"name": "NEW GLASGOW PASTORAL CHARGE", "designationCode": "C", "categoryCode": "44", "address": "151 TEMPERANCE ST", "city": "NEW GLASGOW", "province": "NS", "country": "CA", "postalCode": "B2H3A9", "twitter": "None", "instagram": "None", "facebook": "None", "youtube": "None", "website": "None", "summary": "None", "logo": "None", "latitude": 45.5869118060476, "longitude": -62.64231111187088}, "119055218RR0001": {"name": "NEW GLASGOW PIONEER CEMETERY BOARD", "designationCode": "C", "categoryCode": "59", "address": "22552 TALBOT LINE             RR#3", "city": "RODNEY", "province": "ON", "country": "CA", "postalCode": "N0L2C0", "twitter": "None", "instagram": "None", "facebook": "None", "youtube": "None", "website": "None", "summary": "None", "logo": "None", "latitude": 42.525354383834554, "longitude": -81.6225197831646}, "890950595RR0001": {"name": "NEW GLASGOW RIVERFRONT MUSIC JUBILEE SOCIETY", "designationCode": "C", "categoryCode": "22", "address": "400 EAST RIVER ROAD", "city": "NEW GLASGOW", "province": "NS", "country": "CA", "postalCode": "B2H3P7", "twitter": "None", "instagram": "None", "facebook": "None", "youtube": "None", "website": "None", "summary": "None", "logo": "None", "latitude": 45.58249490896761, "longitude": -62.64494538591388}, "889468245RR0001": {"name": "NEW GLASGOW SEVENTH-DAY ADVENTIST CHURCH", "designationCode": "C", "categoryCode": "41", "address": "121 SALISBURY ROAD", "city": "MONCTON", "province": "NB", "country": "CA", "postalCode": "E1E1A6", "twitter": "None", "instagram": "None", "facebook": "None", "youtube": "None", "website": "None", "summary": "None", "logo": "None", "latitude": 46.0711640413756, "longitude": -64.82144086984238}, "853747541RR0001": {"name": "NEW GROUND INTERNATIONAL MINISTRIES", "designationCode": "C", "categoryCode": "47", "address": "3480-40 ST. N.W.", "city": "EDMONTON", "province": "AB", "country": "CA", "postalCode": "T6L3Z2", "twitter": "None", "instagram": "None", "facebook": "None", "youtube": "None", "website": "None", "summary": "None", "logo": "None", "latitude": 53.475410620395955, "longitude": -113.39475637223757}, "851719542RR0001": {"name": "NEW GROWTH FAMILY CENTRE INC.", "designationCode": "C", "categoryCode": "09", "address": "135 SLIGO ROAD EAST", "city": "MOUNT FOREST", "province": "ON", "country": "CA", "postalCode": "N0G2L2", "twitter": "None", "instagram": "None", "facebook": "None", "youtube": "None", "website": "None", "summary": "None", "logo": "None", "latitude": 43.986580472622784, "longitude": -80.7413323366357}, "119055242RR0001": {"name": "NEW HAMBURG CHRISTIAN CENTRE", "designationCode": "C", "categoryCode": "36", "address": "177 JACOB ST", "city": "NEW HAMBURG", "province": "ON", "country": "CA", "postalCode": "N3A1C5", "twitter": "None", "instagram": "None", "facebook": "None", "youtube": "None", "website": "None", "summary": "None", "logo": "None", "latitude": 43.378508722747895, "longitude": -80.7078600706044}, "888437399RR0001": {"name": "NEW HAMBURG CONSERVATIVE MENNONITE CHURCH,", "designationCode": "C", "categoryCode": "34", "address": "2758 SANDHILLS ROAD", "city": "BADEN", "province": "ON", "country": "CA", "postalCode": "N3A3A6", "twitter": "None", "instagram": "None", "facebook": "None", "youtube": "None", "website": "None", "summary": "None", "logo": "None", "latitude": 43.39877763202573, "longitude": -80.64187826143161}, "869138107RR0001": {"name": "NEW HAMBURG LIONS COMMUNITY SERVICES CORPORATION", "designationCode": "C", "categoryCode": "09", "address": "PO BOX 6181 STN MAIN", "city": "NEW HAMBURG", "province": "ON", "country": "CA", "postalCode": "N3A2K6", "twitter": "None", "instagram": "None", "facebook": "None", "youtube": "None", "website": "None", "summary": "None", "logo": "None", "latitude": 43.37823300000005, "longitude": -80.71132399999993}, "119055275RR0001": {"name": "NEW HARBOUR UNITED BAPTIST CHURCH", "designationCode": "C", "categoryCode": "31", "address": "7090 TORBAY BRANCH RD.        RR#1", "city": "LARRY'S RIVER", "province": "NS", "country": "CA", "postalCode": "B0H1T0", "twitter": "None", "instagram": "None", "facebook": "None", "youtube": "None", "website": "None", "summary": "None", "logo": "None", "latitude": 45.22809891300898, "longitude": -61.38005515645688}, "119055283RR0001": {"name": "NEW HAVEN CEMETERY BOARD", "designationCode": "C", "categoryCode": "59", "address": "PO BOX 292", "city": "CARMAN", "province": "MB", "country": "CA", "postalCode": "R0G0J0", "twitter": "None", "instagram": "None", "facebook": "None", "youtube": "None", "website": "None", "summary": "None", "logo": "None", "latitude": 49.50860000000006, "longitude": -98.00231999999994}, "891422842RR0001": {"name": "NEW HAVEN CHARITABLE TRUST", "designationCode": "B", "categoryCode": "39", "address": "2500-201 PORTAGE AVENUE", "city": "WINNIPEG", "province": "MB", "country": "CA", "postalCode": "R3B3K6", "twitter": "None", "instagram": "None", "facebook": "None", "youtube": "None", "website": "None", "summary": "None", "logo": "None", "latitude": 49.895359615067065, "longitude": -97.13919299627776}, "878886662RR0001": {"name": "NEW HAVEN LEARNING CENTRE FOR CHILDREN", "designationCode": "C", "categoryCode": "20", "address": "301 LANOR AVE", "city": "ETOBICOKE", "province": "ON", "country": "CA", "postalCode": "M8W2R1", "twitter": "None", "instagram": "None", "facebook": "None", "youtube": "None", "website": "None", "summary": "None", "logo": "None", "latitude": 43.61105476934628, "longitude": -79.53532689855159}, "119288918RR0538": {"name": "NEW HAZELTON CONGREGATION OF JEHOVAH'S WITNESSES", "designationCode": "C", "categoryCode": "61", "address": "BOX 206", "city": "NEW HAZELTON", "province": "BC", "country": "CA", "postalCode": "V0J2J0", "twitter": "None", "instagram": "None", "facebook": "None", "youtube": "None", "website": "None", "summary": "None", "logo": "None", "latitude": 55.246710000000064, "longitude": -127.58310999999998}, "752753897RR0001": {"name": "NEW HEART OUTREACH INC.", "designationCode": "C", "categoryCode": "39", "address": "300-1ST ST. W                 PO BOX 1503", "city": "NIPAWIN", "province": "SK", "country": "CA", "postalCode": "S0E1E0", "twitter": "None", "instagram": "None", "facebook": "None", "youtube": "None", "website": "None", "summary": "None", "logo": "None", "latitude": 53.3605052623744, "longitude": -104.0163943869041}, "107406316RR0030": {"name": "NEW HEIGHTS COMMUNITY CHURCH", "designationCode": "C", "categoryCode": "39", "address": "PO BOX 3393", "city": "MISSION", "province": "BC", "country": "CA", "postalCode": "V2V4J5", "twitter": "None", "instagram": "None", "facebook": "None", "youtube": "None", "website": "None", "summary": "None", "logo": "None", "latitude": 49.13294100000006, "longitude": -122.32108249999993}, "107770364RR0001": {"name": "NEW HOPE BAPTIST CHURCH", "designationCode": "C", "categoryCode": "31", "address": "4 CAMDON COURT", "city": "TILLSONBURG", "province": "ON", "country": "CA", "postalCode": "N4G4B3", "twitter": "None", "instagram": "None", "facebook": "None", "youtube": "None", "website": "None", "summary": "None", "logo": "None", "latitude": 42.869459536211046, "longitude": -80.74487243782104}, "864283692RR0001": {"name": "NEW HOPE BAPTIST CHURCH", "designationCode": "C", "categoryCode": "31", "address": "11 EVERETTE STREET", "city": "DARTMOUTH", "province": "NS", "country": "CA", "postalCode": "B2W1G2", "twitter": "None", "instagram": "None", "facebook": "None", "youtube": "None", "website": "None", "summary": "None", "logo": "None", "latitude": 44.645401612008655, "longitude": -63.53988177133682}, "884853821RR0001": {"name": "NEW HOPE BAPTIST CHURCH", "designationCode": "B", "categoryCode": "31", "address": "116 NEW MEXICO DRIVE", "city": "STEPHENVILLE", "province": "NL", "country": "CA", "postalCode": "A2N2W6", "twitter": "None", "instagram": "None", "facebook": "None", "youtube": "None", "website": "None", "summary": "None", "logo": "None", "latitude": 48.553888128372385, "longitude": -58.574231134235426}, "884355520RR0001": {"name": "NEW HOPE CHRISTIAN ASSEMBLY", "designationCode": "C", "categoryCode": "36", "address": "7625 89 ST NW", "city": "EDMONTON", "province": "AB", "country": "CA", "postalCode": "T6C3J9", "twitter": "None", "instagram": "None", "facebook": "None", "youtube": "None", "website": "None", "summary": "None", "logo": "None", "latitude": 53.51296500000001, "longitude": -113.4643153289864}, "119056059RR0001": {"name": "NEW HOPE CHRISTIAN CENTRE", "designationCode": "C", "categoryCode": "39", "address": "350 OLD BROCK RD", "city": "GREENSVILLE", "province": "ON", "country": "CA", "postalCode": "L9H5H9", "twitter": "None", "instagram": "None", "facebook": "None", "youtube": "None", "website": "None", "summary": "None", "logo": "None", "latitude": 43.28105826395059, "longitude": -79.99335539797468}, "130927692RR0001": {"name": "NEW HOPE CHRISTIAN CENTRE OF LETHBRIDGE", "designationCode": "C", "categoryCode": "39", "address": "4101 20 AVE S", "city": "LETHBRIDGE", "province": "AB", "country": "CA", "postalCode": "T1K4X8", "twitter": "None", "instagram": "None", "facebook": "None", "youtube": "None", "website": "None", "summary": "None", "logo": "None", "latitude": 49.67269653375819, "longitude": -112.7809305}, "897800793RR0001": {"name": "NEW HOPE CHRISTIAN CENTRE SOCIETY", "designationCode": "C", "categoryCode": "39", "address": "101A 3020 LINCOLN AVE", "city": "COQUITLAM", "province": "BC", "country": "CA", "postalCode": "V3B6B4", "twitter": "None", "instagram": "None", "facebook": "None", "youtube": "None", "website": "None", "summary": "None", "logo": "None", "latitude": 49.27912852063048, "longitude": -122.79254526700899}, "892497819RR0001": {"name": "NEW HOPE CHRISTIAN CHURCH", "designationCode": "C", "categoryCode": "34", "address": "11838 88 AVE", "city": "DELTA", "province": "BC", "country": "CA", "postalCode": "V4C3C5", "twitter": "None", "instagram": "None", "facebook": "None", "youtube": "None", "website": "None", "summary": "None", "logo": "None", "latitude": 49.163144834069975, "longitude": -122.89492684885431}, "890848948RR0001": {"name": "NEW HOPE CHRISTIAN REFORMED CHURCH", "designationCode": "C", "categoryCode": "39", "address": "4039 BRENTWOOD RD NW", "city": "CALGARY", "province": "AB", "country": "CA", "postalCode": "T2L1L1", "twitter": "None", "instagram": "None", "facebook": "None", "youtube": "None", "website": "None", "summary": "None", "logo": "None", "latitude": 51.08883299945175, "longitude": -114.13259956165933}, "132029125RR0001": {"name": "NEW HOPE CHRISTIAN SCHOOL", "designationCode": "C", "categoryCode": "20", "address": "BOX 120", "city": "KLEEFELD", "province": "MB", "country": "CA", "postalCode": "R0A0V0", "twitter": "None", "instagram": "None", "facebook": "None", "youtube": "None", "website": "None", "summary": "None", "logo": "None", "latitude": 49.50258000000008, "longitude": -96.87267999999995}, "879065605RR0001": {"name": "NEW HOPE CHURCH NIAGARA", "designationCode": "C", "categoryCode": "39", "address": "2360 FIRST ST LOUTH", "city": "ST CATHARINES", "province": "ON", "country": "CA", "postalCode": "L2R6P7", "twitter": "None", "instagram": "None", "facebook": "None", "youtube": "None", "website": "None", "summary": "None", "logo": "None", "latitude": 43.13654170191586, "longitude": -79.275463430175}, "816067870RR0001": {"name": "NEW HOPE CHURCH OF MORRIS MANITOBA", "designationCode": "C", "categoryCode": "39", "address": "BOX 443                       147 MAIN ST N", "city": "MORRIS", "province": "MB", "country": "CA", "postalCode": "R0G1K0", "twitter": "None", "instagram": "None", "facebook": "None", "youtube": "None", "website": "None", "summary": "None", "logo": "None", "latitude": 49.35568298102653, "longitude": -97.364707784602}, "119090520RR0001": {"name": "NEW HOPE COMMUNITY CHURCH", "designationCode": "C", "categoryCode": "36", "address": "P.O. BOX 23", "city": "WESTERN SHORE", "province": "NS", "country": "CA", "postalCode": "B0J3M0", "twitter": "None", "instagram": "None", "facebook": "None", "youtube": "None", "website": "None", "summary": "None", "logo": "None", "latitude": 44.527730000000076, "longitude": -64.30865999999997}, "126910199RR0001": {"name": "NEW HOPE COMMUNITY CHURCH", "designationCode": "C", "categoryCode": "31", "address": "43 ST. JEROME CRES", "city": "KITCHENER", "province": "ON", "country": "CA", "postalCode": "N2C2K9", "twitter": "None", "instagram": "None", "facebook": "None", "youtube": "None", "website": "None", "summary": "None", "logo": "None", "latitude": 43.430583312222396, "longitude": -80.44486076784573}, "858861289RR0001": {"name": "NEW HOPE COMMUNITY CHURCH", "designationCode": "C", "categoryCode": "39", "address": "67 NEWCASTLE BLVD. SUITE B", "city": "MIRAMICHI", "province": "NB", "country": "CA", "postalCode": "E1V2B2", "twitter": "None", "instagram": "None", "facebook": "None", "youtube": "None", "website": "None", "summary": "None", "logo": "None", "latitude": 46.99929299278664, "longitude": -65.56432870803269}, "887572469RR0001": {"name": "NEW HOPE COMMUNITY CHURCH", "designationCode": "C", "categoryCode": "39", "address": "3-11 BELLEROSE DR             SUITE 190", "city": "ST ALBERT", "province": "AB", "country": "CA", "postalCode": "T8N5C9", "twitter": "None", "instagram": "None", "facebook": "None", "youtube": "None", "website": "None", "summary": "None", "logo": "None", "latitude": 53.66897418377522, "longitude": -113.60619338691195}, "889696191RR0001": {"name": "NEW HOPE COMMUNITY CHURCH", "designationCode": "C", "categoryCode": "36", "address": "6140 CREEK CROSSING STREET", "city": "ORLEANS", "province": "ON", "country": "CA", "postalCode": "K1W1E2", "twitter": "None", "instagram": "None", "facebook": "None", "youtube": "None", "website": "None", "summary": "None", "logo": "None", "latitude": 45.438225067978685, "longitude": -75.52319551497497}, "891081143RR0001": {"name": "NEW HOPE COMMUNITY CHURCH", "designationCode": "C", "categoryCode": "39", "address": "48 BLOEM AVE", "city": "TORONTO", "province": "ON", "country": "CA", "postalCode": "M6E1S1", "twitter": "None", "instagram": "None", "facebook": "None", "youtube": "None", "website": "None", "summary": "None", "logo": "None", "latitude": 43.68583112519463, "longitude": -79.44831775757393}, "136750734RR0001": {"name": "NEW HOPE COMMUNITY CHURCH (LONDON)", "designationCode": "C", "categoryCode": "36", "address": "4009 COLONEL TALBOT RD", "city": "LONDON", "province": "ON", "country": "CA", "postalCode": "N6P1E8", "twitter": "None", "instagram": "None", "facebook": "None", "youtube": "None", "website": "None", "summary": "None", "logo": "None", "latitude": 42.91507815290719, "longitude": -81.30878489337402}, "107299414RR0001": {"name": "NEW HOPE COMMUNITY CHURCH OF THE NAZARENE INC.", "designationCode": "C", "categoryCode": "39", "address": "214 HENDERSON HWY", "city": "WINNIPEG", "province": "MB", "country": "CA", "postalCode": "R2L1L9", "twitter": "None", "instagram": "None", "facebook": "None", "youtube": "None", "website": "None", "summary": "None", "logo": "None", "latitude": 49.914199958653064, "longitude": -97.11503758814686}, "107770422RR0001": {"name": "NEW HOPE COMMUNITY CHURCH, LANGLEY", "designationCode": "C", "categoryCode": "31", "address": "PO BOX 42039                  RPO CHAMPLAIN MALL", "city": "VANCOUVER", "province": "BC", "country": "CA", "postalCode": "V5S4R5", "twitter": "None", "instagram": "None", "facebook": "None", "youtube": "None", "website": "None", "summary": "None", "logo": "None", "latitude": 49.2149931308859, "longitude": -123.03009685514765}, "861962678RR0001": {"name": "NEW HOPE COMMUNITY SERVICES SOCIETY", "designationCode": "C", "categoryCode": "09", "address": "101 - 13478 HILTON RD", "city": "SURREY", "province": "BC", "country": "CA", "postalCode": "V3R5J4", "twitter": "None", "instagram": "None", "facebook": "None", "youtube": "None", "website": "None", "summary": "None", "logo": "None", "latitude": 49.20301363168684, "longitude": -122.84858865932817}, "890586340RR0001": {"name": "NEW HOPE FAMILY FELLOWSHIP", "designationCode": "C", "categoryCode": "39", "address": "5833 53 AVE", "city": "RED DEER", "province": "AB", "country": "CA", "postalCode": "T4N4L4", "twitter": "None", "instagram": "None", "facebook": "None", "youtube": "None", "website": "None", "summary": "None", "logo": "None", "latitude": 52.27796904302036, "longitude": -113.81822837826783}, "892709841RR0001": {"name": "NEW HOPE FELLOWSHIP AND NATIVE MINISTRIES", "designationCode": "C", "categoryCode": "34", "address": "218 BRIAR BAY", "city": "THUNDER BAY", "province": "ON", "country": "CA", "postalCode": "P7C1L8", "twitter": "None", "instagram": "None", "facebook": "None", "youtube": "None", "website": "None", "summary": "None", "logo": "None", "latitude": 48.38495948124545, "longitude": -89.28272266763805}, "140416561RR0001": {"name": "NEW HOPE FELLOWSHIP-BRETHREN IN CHRIST CHURCH", "designationCode": "C", "categoryCode": "39", "address": "151 CLOVERLEAF DRIVE          RR 5", "city": "BELLEVILLE", "province": "ON", "country": "CA", "postalCode": "K8N4Z5", "twitter": "None", "instagram": "None", "facebook": "None", "youtube": "None", "website": "None", "summary": "None", "logo": "None", "latitude": 44.19434640857019, "longitude": -77.40631126345745}, "871368825RR0001": {"name": "NEW HOPE FOR WIDOW/ERS AND THEIR FAMILIES", "designationCode": "C", "categoryCode": "11", "address": "#004-3402-27TH AVE.", "city": "VERNON", "province": "BC", "country": "CA", "postalCode": "V1T1S1", "twitter": "None", "instagram": "None", "facebook": "None", "youtube": "None", "website": "None", "summary": "None", "logo": "None", "latitude": 50.26130859781307, "longitude": -119.27748610949848}, "107406175RR0001": {"name": "NEW HOPE FREE METHODIST CHURCH", "designationCode": "C", "categoryCode": "39", "address": "17 QUEEN STREET", "city": "BRACEBRIDGE", "province": "ON", "country": "CA", "postalCode": "P1L1H2", "twitter": "None", "instagram": "None", "facebook": "None", "youtube": "None", "website": "None", "summary": "None", "logo": "None", "latitude": 45.0374937571699, "longitude": -79.30572309299428}, "118912211RR0001": {"name": "NEW HOPE LUTHERAN CHURCH INC.", "designationCode": "C", "categoryCode": "32", "address": "370 MCINTOSH ST N", "city": "REGINA", "province": "SK", "country": "CA", "postalCode": "S4R5A2", "twitter": "None", "instagram": "None", "facebook": "None", "youtube": "None", "website": "None", "summary": "None", "logo": "None", "latitude": 50.48240369608749, "longitude": -104.65257517906367}, "873158000RR0001": {"name": "NEW HOPE LUTHERAN PARISH", "designationCode": "C", "categoryCode": "39", "address": "BOX 266", "city": "ROSE VALLEY", "province": "SK", "country": "CA", "postalCode": "S0E1M0", "twitter": "None", "instagram": "None", "facebook": "None", "youtube": "None", "website": "None", "summary": "None", "logo": "None", "latitude": 52.60019217517509, "longitude": -103.25791255163378}, "118931666RR0001": {"name": "NEW HOPE METHODIST CHURCH", "designationCode": "C", "categoryCode": "39", "address": "337 QUEEN ST", "city": "NEWMARKET", "province": "ON", "country": "CA", "postalCode": "L3Y2G5", "twitter": "None", "instagram": "None", "facebook": "None", "youtube": "None", "website": "None", "summary": "None", "logo": "None", "latitude": 44.055011000836735, "longitude": -79.46450872675858}, "888299229RR0001": {"name": "NEW HOPE MINISTRIES", "designationCode": "C", "categoryCode": "39", "address": "1011 QUEEN'S WALK RD", "city": "TORRANCE", "province": "ON", "country": "CA", "postalCode": "P0C1M0", "twitter": "None", "instagram": "None", "facebook": "None", "youtube": "None", "website": "None", "summary": "None", "logo": "None", "latitude": 44.996018270875474, "longitude": -79.57029585235723}, "860638329RR0001": {"name": "NEW HOPE MINISTRIES INC.", "designationCode": "C", "categoryCode": "09", "address": "129 ATHABASKA AVE", "city": "RIVERVIEW", "province": "NB", "country": "CA", "postalCode": "E1B2T2", "twitter": "None", "instagram": "None", "facebook": "None", "youtube": "None", "website": "None", "summary": "None", "logo": "None", "latitude": 46.0569501201743, "longitude": -64.8130553205896}, "858713001RR0001": {"name": "NEW HOPE OUTREACH SERVICES", "designationCode": "C", "categoryCode": "59", "address": "487 BOUCHARD ST", "city": "SUDBURY", "province": "ON", "country": "CA", "postalCode": "P3E2K8", "twitter": "None", "instagram": "None", "facebook": "None", "youtube": "None", "website": "None", "summary": "None", "logo": "None", "latitude": 46.46095951399403, "longitude": -81.01274305689883}, "867119901RR0001": {"name": "NEW HOPE SCHOOLS SOCIETY", "designationCode": "C", "categoryCode": "09", "address": "1519 AMELIA ST", "city": "VICTORIA", "province": "BC", "country": "CA", "postalCode": "V8W2K1", "twitter": "None", "instagram": "None", "facebook": "None", "youtube": "None", "website": "None", "summary": "None", "logo": "None", "latitude": 48.42819645406544, "longitude": -123.36026046474126}, "868013913RR0001": {"name": "NEW HOPE TABERNACLE", "designationCode": "C", "categoryCode": "39", "address": "2431 ST CLAIR AVE WEST", "city": "TORONTO", "province": "ON", "country": "CA", "postalCode": "M6N1K9", "twitter": "None", "instagram": "None", "facebook": "None", "youtube": "None", "website": "None", "summary": "None", "logo": "None", "latitude": 43.66924889644547, "longitude": -79.48222519135561}, "119055432RR0001": {"name": "NEW HOPE THERAPEUTIC SOCIETY", "designationCode": "C", "categoryCode": "09", "address": "204-13911 70TH AVE", "city": "SURREY", "province": "BC", "country": "CA", "postalCode": "V3W6B4", "twitter": "None", "instagram": "None", "facebook": "None", "youtube": "None", "website": "None", "summary": "None", "logo": "None", "latitude": 49.13004329641303, "longitude": -122.83638382820816}, "889709291RR0001": {"name": "NEW HOPE WESLEYAN", "designationCode": "C", "categoryCode": "39", "address": "P.O. BOX 903", "city": "KENTVILLE", "province": "NS", "country": "CA", "postalCode": "B4N4H8", "twitter": "None", "instagram": "None", "facebook": "None", "youtube": "None", "website": "None", "summary": "None", "logo": "None", "latitude": 45.07663200000006, "longitude": -64.49369299999994}, "800505158RR0001": {"name": "NEW HOPE WORSHIP CENTRE", "designationCode": "C", "categoryCode": "39", "address": "7- 29 LAKESHORE ROAD", "city": "ST CATHARINES", "province": "ON", "country": "CA", "postalCode": "L2N2S8", "twitter": "None", "instagram": "None", "facebook": "None", "youtube": "None", "website": "None", "summary": "None", "logo": "None", "latitude": 43.19926046906908, "longitude": -79.25467116431984}, "834418329RR0001": {"name": "NEW HORIZON FOUNDATION", "designationCode": "B", "categoryCode": "03", "address": "1-911 BORDEN AVE", "city": "KELOWNA", "province": "BC", "country": "CA", "postalCode": "V1Y6A5", "twitter": "None", "instagram": "None", "facebook": "None", "youtube": "None", "website": "None", "summary": "None", "logo": "None", "latitude": 49.88123252120739, "longitude": -119.48242388926076}, "898487681RR0001": {"name": "NEW HORIZONS CHARTER SCHOOL SOCIETY", "designationCode": "C", "categoryCode": "20", "address": "1000 STRATHCONA DR", "city": "SHERWOOD PARK", "province": "AB", "country": "CA", "postalCode": "T8A3R6", "twitter": "None", "instagram": "None", "facebook": "None", "youtube": "None", "website": "None", "summary": "None", "logo": "None", "latitude": 53.521122532315886, "longitude": -113.320962}, "854162740RR0001": {"name": "NEW HORIZONS COMMUNITY CHURCH OF SARNIA", "designationCode": "C", "categoryCode": "39", "address": "383 RUSSELL STREET NORTH", "city": "SARNIA", "province": "ON", "country": "CA", "postalCode": "N7T6S8", "twitter": "None", "instagram": "None", "facebook": "None", "youtube": "None", "website": "None", "summary": "None", "logo": "None", "latitude": 42.98049975299555, "longitude": -82.39135728448005}, "107770471RR0001": {"name": "NEW HORIZONS DAY CENTRE INCORPORATED", "designationCode": "C", "categoryCode": "09", "address": "42 HILLMOUNT AVENUE", "city": "TORONTO", "province": "ON", "country": "CA", "postalCode": "M6B1X4", "twitter": "None", "instagram": "None", "facebook": "None", "youtube": "None", "website": "None", "summary": "None", "logo": "None", "latitude": 43.71095514351648, "longitude": -79.43011958993587}, "743988727RR0001": {"name": "NEW HORIZONS INTERNATIONAL CHURCH (WESLEYAN) INC.", "designationCode": "C", "categoryCode": "39", "address": "24 - 2077 PEMBINA HWY", "city": "WINNIPEG", "province": "MB", "country": "CA", "postalCode": "R3T5J9", "twitter": "None", "instagram": "None", "facebook": "None", "youtube": "None", "website": "None", "summary": "None", "logo": "None"}, "119055507RR0001": {"name": "NEW HORIZONS SENIOR CITIZENS OF YORKTON", "designationCode": "C", "categoryCode": "56", "address": "78 FIRST AVE N", "city": "YORKTON", "province": "SK", "country": "CA", "postalCode": "S3N1J5", "twitter": "None", "instagram": "None", "facebook": "None", "youtube": "None", "website": "None", "summary": "None", "logo": "None", "latitude": 51.2132249824991, "longitude": -102.46278840025232}, "119055531RR0001": {"name": "NEW HORTON BAPTIST CHURCH", "designationCode": "C", "categoryCode": "31", "address": "1046 ROUTE 915", "city": "NEW HORTON", "province": "NB", "country": "CA", "postalCode": "E4H3T7", "twitter": "None", "instagram": "None", "facebook": "None", "youtube": "None", "website": "None", "summary": "None", "logo": "None", "latitude": 45.676330220544024, "longitude": -64.72315116865985}, "896579646RR0001": {"name": "NEW ICELAND HERITAGE MUSEUM INC.", "designationCode": "C", "categoryCode": "50", "address": "108-94 1ST AVE.", "city": "GIMLI", "province": "MB", "country": "CA", "postalCode": "R0C1B1", "twitter": "None", "instagram": "None", "facebook": "None", "youtube": "None", "website": "None", "summary": "None", "logo": "None", "latitude": 50.633473677511994, "longitude": -96.98544729783993}, "134012244RR0001": {"name": "NEW JERUSALEM FELLOWSHIP TABERNACLE", "designationCode": "C", "categoryCode": "36", "address": "210-3455 WESTON ROAD", "city": "NORTH YORK", "province": "ON", "country": "CA", "postalCode": "M9M2S7", "twitter": "None", "instagram": "None", "facebook": "None", "youtube": "None", "website": "None", "summary": "None", "logo": "None", "latitude": 43.75043379653358, "longitude": -79.54196788920135}, "891252918RR0001": {"name": "NEW JOY CHURCH", "designationCode": "C", "categoryCode": "39", "address": "14455 104 AVE", "city": "SURREY", "province": "BC", "country": "CA", "postalCode": "V3R1M1", "twitter": "None", "instagram": "None", "facebook": "None", "youtube": "None", "website": "None", "summary": "None", "logo": "None", "latitude": 49.191553507646056, "longitude": -122.82122233236194}}