{"886157858RR0001": {"name": "EARLY INTERVENTION ASSOCIATION OF NOVA SCOTIA", "designationCode": "C", "categoryCode": "09", "address": "P.O. BOX 245                  22709 HWY #7", "city": "SHEET HARBOUR", "province": "NS", "country": "CA", "postalCode": "B0J3B0", "twitter": "None", "instagram": "None", "facebook": "None", "youtube": "None", "website": "None", "summary": "None", "logo": "None", "latitude": 44.91769025791971, "longitude": -62.52964719328885}, "118890367RR0001": {"name": "EARLY MUSIC SOCIETY OF THE ISLANDS", "designationCode": "C", "categoryCode": "22", "address": "PO BOX 5577 STN B", "city": "VICTORIA", "province": "BC", "country": "CA", "postalCode": "V8R6S4", "twitter": "None", "instagram": "None", "facebook": "None", "youtube": "None", "website": "None", "summary": "None", "logo": "None", "latitude": 48.42854700000005, "longitude": -123.36445249999994}, "894389212RR0001": {"name": "EARLY MUSIC VOICES CONCERT SOCIETY IN ELBOW PARK", "designationCode": "C", "categoryCode": "22", "address": "11 SOMME LANE SW", "city": "CALGARY", "province": "AB", "country": "CA", "postalCode": "T2T6L9", "twitter": "None", "instagram": "None", "facebook": "None", "youtube": "None", "website": "None", "summary": "None", "logo": "None", "latitude": 51.01952052178431, "longitude": -114.1157432828207}, "894646785RR0001": {"name": "EARNEST CHARITABLE FOUNDATION", "designationCode": "B", "categoryCode": "09", "address": "11 ERIN HEIGHTS DRIVE", "city": "ERIN", "province": "ON", "country": "CA", "postalCode": "N0B1T0", "twitter": "None", "instagram": "None", "facebook": "None", "youtube": "None", "website": "None", "summary": "None", "logo": "None", "latitude": 43.77076543219423, "longitude": -80.07862427130817}, "131951378RR0001": {"name": "EARTH DAY CANADA (1991) INC /JOUR DE LA TERRE CANADA (1991) INC", "designationCode": "C", "categoryCode": "59", "address": "276 RONCESVALLES AVE", "city": "TORONTO", "province": "ON", "country": "CA", "postalCode": "M6R2M2", "twitter": "None", "instagram": "None", "facebook": "None", "youtube": "None", "website": "None", "summary": "None", "logo": "None", "latitude": 43.64764288037396, "longitude": -79.44959587166005}, "817522071RR0001": {"name": "EARTH STOP ONE FOUNDATION", "designationCode": "C", "categoryCode": "54", "address": "117 - 5723 10 ST NE", "city": "CALGARY", "province": "AB", "country": "CA", "postalCode": "T2E8W7", "twitter": "None", "instagram": "None", "facebook": "None", "youtube": "None", "website": "None", "summary": "None", "logo": "None", "latitude": 51.10461841326679, "longitude": -114.03830523247139}, "867386013RR0001": {"name": "EARTHANIMAL HUMANE EDUCATION AND RESCUE SOCIETY", "designationCode": "C", "categoryCode": "54", "address": "9-240 BURNSIDE ROAD", "city": "VICTORIA", "province": "BC", "country": "CA", "postalCode": "V9A1A3", "twitter": "None", "instagram": "None", "facebook": "None", "youtube": "None", "website": "None", "summary": "None", "logo": "None", "latitude": 48.44862910162131, "longitude": -123.38291693029058}, "881865620RR0001": {"name": "EARTHCARE CONNECTIONS INC", "designationCode": "C", "categoryCode": "21", "address": "BOX 1790", "city": "WYNYARD", "province": "SK", "country": "CA", "postalCode": "S0A4T0", "twitter": "None", "instagram": "None", "facebook": "None", "youtube": "None", "website": "None", "summary": "None", "logo": "None", "latitude": 51.76523000000003, "longitude": -104.18008999999995}, "118890383RR0001": {"name": "EARTHLIFE CANADA FOUNDATION", "designationCode": "C", "categoryCode": "52", "address": "PO BOX 638", "city": "QUEEN CHARLOTTE CITY", "province": "BC", "country": "CA", "postalCode": "V0T1S0", "twitter": "None", "instagram": "None", "facebook": "None", "youtube": "None", "website": "None", "summary": "None", "logo": "None", "latitude": 53.25422100000006, "longitude": -132.09436249999993}, "135165140RR0001": {"name": "EARTHROOTS FUND", "designationCode": "C", "categoryCode": "21", "address": "410-401 RICHMOND ST W", "city": "TORONTO", "province": "ON", "country": "CA", "postalCode": "M5V3A8", "twitter": "None", "instagram": "None", "facebook": "None", "youtube": "None", "website": "None", "summary": "None", "logo": "None", "latitude": 43.64792255983254, "longitude": -79.39538964100468}, "129954707RR0001": {"name": "EARTHSAVE CANADA", "designationCode": "C", "categoryCode": "59", "address": "349 WEST GEORGIA STREET       P.O.BOX 2213", "city": "VANCOUVER", "province": "BC", "country": "CA", "postalCode": "V6B1Z1", "twitter": "None", "instagram": "None", "facebook": "None", "youtube": "None", "website": "None", "summary": "None", "logo": "None", "latitude": 49.28043242659698, "longitude": -123.11485604495361}, "870473741RR0001": {"name": "EARTHVALUES INSTITUTE / L'INSTITUT EARTHVALUES", "designationCode": "C", "categoryCode": "53", "address": "3586 BOUTHILLIER AVENUE", "city": "CARIGNAN", "province": "QC", "country": "CA", "postalCode": "J3L0J3", "twitter": "None", "instagram": "None", "facebook": "None", "youtube": "None", "website": "None", "summary": "None", "logo": "None", "latitude": 45.44896709492754, "longitude": -73.35945726438327}, "892505728RR0001": {"name": "EAST BEACHES RESOURCE CENTRE, INC.", "designationCode": "C", "categoryCode": "09", "address": "PO BOX 2", "city": "TRAVERSE BAY", "province": "MB", "country": "CA", "postalCode": "R0E2A0", "twitter": "None", "instagram": "None", "facebook": "None", "youtube": "None", "website": "None", "summary": "None", "logo": "None", "latitude": 50.66575200000001, "longitude": -96.50521735495977}, "118890409RR0001": {"name": "EAST BERTIE AUXILIARY VOLUNTEER FIRE ASSOCIATION", "designationCode": "C", "categoryCode": "59", "address": "1015 DOMINION ROAD", "city": "FORT ERIE", "province": "ON", "country": "CA", "postalCode": "L2A1H3", "twitter": "None", "instagram": "None", "facebook": "None", "youtube": "None", "website": "None", "summary": "None", "logo": "None", "latitude": 42.88636547735031, "longitude": -78.95245088773154}, "860211291RR0001": {"name": "EAST BORDERLAND COMMUNITY HOUSING INC", "designationCode": "C", "categoryCode": "09", "address": "PO BOX 207", "city": "SPRAGUE", "province": "MB", "country": "CA", "postalCode": "R0A1Z0", "twitter": "None", "instagram": "None", "facebook": "None", "youtube": "None", "website": "None", "summary": "None", "logo": "None", "latitude": 49.03615000000008, "longitude": -95.64291999999995}, "894054667RR0001": {"name": "EAST BURNABY FAMILY PLACE SOCIETY", "designationCode": "C", "categoryCode": "09", "address": "9887 CAMERON ST", "city": "BURNABY", "province": "BC", "country": "CA", "postalCode": "V3J1M3", "twitter": "None", "instagram": "None", "facebook": "None", "youtube": "None", "website": "None", "summary": "None", "logo": "None", "latitude": 49.253509153723236, "longitude": -122.89442927616359}, "891271678RR0001": {"name": "EAST CARDSTON CHARITABLE TRUST", "designationCode": "B", "categoryCode": "39", "address": "3425 2 AVE S", "city": "LETHBRIDGE", "province": "AB", "country": "CA", "postalCode": "T1J4V1", "twitter": "None", "instagram": "None", "facebook": "None", "youtube": "None", "website": "None", "summary": "None", "logo": "None", "latitude": 49.696839530439966, "longitude": -112.78914308381903}, "139555403RR0001": {"name": "EAST CENTRAL ALBERTA CATHOLIC SEPARATE SCHOOLS RD #16", "designationCode": "C", "categoryCode": "20", "address": "1018-1 AVE", "city": "WAINWRIGHT", "province": "AB", "country": "CA", "postalCode": "T9W1G9", "twitter": "None", "instagram": "None", "facebook": "None", "youtube": "None", "website": "None", "summary": "None", "logo": "None", "latitude": 52.83233270609947, "longitude": -110.86114044973762}, "875467078RR0001": {"name": "EAST CENTRAL ALBERTA HERITAGE SOCIETY", "designationCode": "C", "categoryCode": "52", "address": "PO BOX 13", "city": "STETTLER", "province": "AB", "country": "CA", "postalCode": "T0C2L0", "twitter": "None", "instagram": "None", "facebook": "None", "youtube": "None", "website": "None", "summary": "None", "logo": "None", "latitude": 52.32597900000006, "longitude": -112.70698099999993}, "139330526RR0001": {"name": "EAST CENTRAL FRANCOPHONE EDUCATION REGION #3", "designationCode": "C", "categoryCode": "20", "address": "C.P. 249", "city": "ST-PAUL", "province": "AB", "country": "CA", "postalCode": "T0A3A0", "twitter": "None", "instagram": "None", "facebook": "None", "youtube": "None", "website": "None", "summary": "None", "logo": "None", "latitude": 53.99207006217902, "longitude": -111.26834992613558}, "118890441RR0001": {"name": "EAST CHESTER RECREATIONAL ASSOCIATION", "designationCode": "C", "categoryCode": "56", "address": "92 GOAT LAKE ROAD", "city": "CHESTER", "province": "NS", "country": "CA", "postalCode": "B0J1J0", "twitter": "None", "instagram": "None", "facebook": "None", "youtube": "None", "website": "None", "summary": "None", "logo": "None", "latitude": 44.577238504039364, "longitude": -64.21336259994786}, "118890458RR0001": {"name": "EAST CHRISTIAN REFORMED CHURCH", "designationCode": "C", "categoryCode": "39", "address": "4766 EGREMONT DRIVE           RR 1", "city": "STRATHROY", "province": "ON", "country": "CA", "postalCode": "N7G3H3", "twitter": "None", "instagram": "None", "facebook": "None", "youtube": "None", "website": "None", "summary": "None", "logo": "None", "latitude": 43.00476051500271, "longitude": -81.55144004856028}, "899356364RR0001": {"name": "EAST COAST TRAIL ASSOCIATION INC", "designationCode": "C", "categoryCode": "56", "address": "P.O. BOX 8034, STN A          50 PIPPY PLACE, SUITE 9", "city": "ST.JOHN'S", "province": "NL", "country": "CA", "postalCode": "A1B3M7", "twitter": "None", "instagram": "None", "facebook": "None", "youtube": "None", "website": "None", "summary": "None", "logo": "None", "latitude": 47.56112886707241, "longitude": -52.771224410151035}, "119288918RR0194": {"name": "EAST CONGREGATION OF JEHOVAH'S WITNESSES, BELLEVILLE, ONTARIO", "designationCode": "C", "categoryCode": "61", "address": "R.R.#4", "city": "BELLEVILLE", "province": "ON", "country": "CA", "postalCode": "K8N4Z4", "twitter": "None", "instagram": "None", "facebook": "None", "youtube": "None", "website": "None", "summary": "None", "logo": "None", "latitude": 44.16366300000006, "longitude": -77.28358399999993}, "119288918RR0557": {"name": "EAST CONGREGATION OF JEHOVAH'S WITNESSES, BRADFORD, ONTARIO", "designationCode": "C", "categoryCode": "61", "address": "2157 HUGHES DR., BOX 324", "city": "GILFORD", "province": "ON", "country": "CA", "postalCode": "L0L1R0", "twitter": "None", "instagram": "None", "facebook": "None", "youtube": "None", "website": "None", "summary": "None", "logo": "None", "latitude": 44.213944528420754, "longitude": -79.58584397778299}, "119288918RR1419": {"name": "EAST CONGREGATION OF JEHOVAH'S WITNESSES, HAWKESBURY ONTARIO", "designationCode": "C", "categoryCode": "61", "address": "275 HOFFMAN CRES", "city": "HAWKESBURY", "province": "ON", "country": "CA", "postalCode": "K6A3M3", "twitter": "None", "instagram": "None", "facebook": "None", "youtube": "None", "website": "None", "summary": "None", "logo": "None", "latitude": 45.602901654497366, "longitude": -74.57288501786334}, "119288918RR0262": {"name": "EAST CONGREGATION OF JEHOVAH'S WITNESSES, LONDON, ONTARIO", "designationCode": "C", "categoryCode": "61", "address": "30 WYNDHAM CRESCENT", "city": "LONDON", "province": "ON", "country": "CA", "postalCode": "N5Y5G3", "twitter": "None", "instagram": "None", "facebook": "None", "youtube": "None", "website": "None", "summary": "None", "logo": "None", "latitude": 43.016237162906215, "longitude": -81.23059536565879}, "119288918RR0421": {"name": "EAST CONGREGATION OF JEHOVAH'S WITNESSES, MARKHAM, ONTARIO", "designationCode": "C", "categoryCode": "61", "address": "8205 MCCOWAN ROAD", "city": "MARKHAM", "province": "ON", "country": "CA", "postalCode": "L3P3J3", "twitter": "None", "instagram": "None", "facebook": "None", "youtube": "None", "website": "None", "summary": "None", "logo": "None", "latitude": 43.86044101638861, "longitude": -79.28280552432406}, "119288918RR0239": {"name": "EAST CONGREGATION OF JEHOVAH'S WITNESSES, MIDLAND, ONTARIO", "designationCode": "C", "categoryCode": "61", "address": "281 HANLY ST", "city": "MIDLAND", "province": "ON", "country": "CA", "postalCode": "L4R2N8", "twitter": "None", "instagram": "None", "facebook": "None", "youtube": "None", "website": "None", "summary": "None", "logo": "None", "latitude": 44.74446808898357, "longitude": -79.86877786698395}, "119288918RR1190": {"name": "EAST CONGREGATION OF JEHOVAH'S WITNESSES, MILTON, ONTARIO", "designationCode": "C", "categoryCode": "61", "address": "101 HESLOP RD.", "city": "MILTON", "province": "ON", "country": "CA", "postalCode": "L9T1B2", "twitter": "None", "instagram": "None", "facebook": "None", "youtube": "None", "website": "None", "summary": "None", "logo": "None", "latitude": 43.50544594866977, "longitude": -79.87820184987574}, "119288918RR1439": {"name": "EAST CONGREGATION OF JEHOVAH'S WITNESSES, NAPANEE, ONTARIO", "designationCode": "C", "categoryCode": "61", "address": "351 BRIDGE ST. W.", "city": "NAPANEE", "province": "ON", "country": "CA", "postalCode": "K7R4B4", "twitter": "None", "instagram": "None", "facebook": "None", "youtube": "None", "website": "None", "summary": "None", "logo": "None", "latitude": 44.23835986710108, "longitude": -76.97475891912381}, "119288918RR0280": {"name": "EAST CONGREGATION OF JEHOVAH'S WITNESSES, NEWMARKET, ONTARIO", "designationCode": "C", "categoryCode": "61", "address": "513 GREIG CIR", "city": "NEWMARKET", "province": "ON", "country": "CA", "postalCode": "L3Y8S6", "twitter": "None", "instagram": "None", "facebook": "None", "youtube": "None", "website": "None", "summary": "None", "logo": "None", "latitude": 44.04607629586244, "longitude": -79.44879919888609}, "119288918RR1080": {"name": "EAST CONGREGATION OF JEHOVAH'S WITNESSES, ORLEANS, ONT", "designationCode": "C", "categoryCode": "61", "address": "1839 SPINGRIDGE DR", "city": "ORLEANS", "province": "ON", "country": "CA", "postalCode": "K4A4P3", "twitter": "None", "instagram": "None", "facebook": "None", "youtube": "None", "website": "None", "summary": "None", "logo": "None", "latitude": 45.48248401584036, "longitude": -75.46607756301567}, "119288918RR0345": {"name": "EAST CONGREGATION OF JEHOVAH'S WITNESSES, OWEN SOUND, ONTARIO", "designationCode": "C", "categoryCode": "61", "address": "1194 10TH AVE E", "city": "OWEN SOUND", "province": "ON", "country": "CA", "postalCode": "N4K3J1", "twitter": "None", "instagram": "None", "facebook": "None", "youtube": "None", "website": "None", "summary": "None", "logo": "None", "latitude": 44.57128051084342, "longitude": -80.92598376914508}, "119288918RR1107": {"name": "EAST CONGREGATION OF JEHOVAH'S WITNESSES, SUDBURY, ONTARIO", "designationCode": "C", "categoryCode": "61", "address": "2571 DORSETT DRIVE", "city": "SUDBURY", "province": "ON", "country": "CA", "postalCode": "P3B3Y6", "twitter": "None", "instagram": "None", "facebook": "None", "youtube": "None", "website": "None", "summary": "None", "logo": "None", "latitude": 46.4869745323159, "longitude": -80.91824369608747}, "874262819RR0001": {"name": "EAST DARTMOUTH CHRISTIAN FOOD BANK ASSOCIATION", "designationCode": "C", "categoryCode": "09", "address": "9 BRIAN DRIVE", "city": "DARTMOUTH", "province": "NS", "country": "CA", "postalCode": "B2W3N2", "twitter": "None", "instagram": "None", "facebook": "None", "youtube": "None", "website": "None", "summary": "None", "logo": "None", "latitude": 44.69446873382772, "longitude": -63.49106567265838}, "889904447RR0001": {"name": "EAST ELGIN COMMUNITY ASSISTANCE PROGRAM", "designationCode": "C", "categoryCode": "09", "address": "280 CAVERLY RD", "city": "AYLMER", "province": "ON", "country": "CA", "postalCode": "N5H2V3", "twitter": "None", "instagram": "None", "facebook": "None", "youtube": "None", "website": "None", "summary": "None", "logo": "None", "latitude": 42.761263977692, "longitude": -80.99589633573072}, "857940449RR0001": {"name": "EAST END CHURCH OF CHRIST", "designationCode": "C", "categoryCode": "39", "address": "390 PUMPHOUSE RD", "city": "BRADFORD", "province": "ON", "country": "CA", "postalCode": "L3Z4A2", "twitter": "None", "instagram": "None", "facebook": "None", "youtube": "None", "website": "None", "summary": "None", "logo": "None", "latitude": 44.1111104572689, "longitude": -79.54712570736078}, "888766946RR0001": {"name": "EAST END COMMUNITY CENTRE INCORPORATED", "designationCode": "C", "categoryCode": "56", "address": "42 CEDAR BAY", "city": "BRANDON", "province": "MB", "country": "CA", "postalCode": "R7B0Z4", "twitter": "None", "instagram": "None", "facebook": "None", "youtube": "None", "website": "None", "summary": "None", "logo": "None", "latitude": 49.837031999999994, "longitude": -99.97933937160273}, "129135604RR0001": {"name": "EAST END COMMUNITY HEALTH CENTRE", "designationCode": "C", "categoryCode": "11", "address": "1619 QUEEN STREET EAST", "city": "TORONTO", "province": "ON", "country": "CA", "postalCode": "M4L1G4", "twitter": "None", "instagram": "None", "facebook": "None", "youtube": "None", "website": "None", "summary": "None", "logo": "None", "latitude": 43.666372918662475, "longitude": -79.3162372322985}, "864136874RR0001": {"name": "EAST END REVIVAL MINISTRIES INC.", "designationCode": "C", "categoryCode": "39", "address": "941 ATHABASCA ST E", "city": "MOOSE JAW", "province": "SK", "country": "CA", "postalCode": "S6H0M8", "twitter": "None", "instagram": "None", "facebook": "None", "youtube": "None", "website": "None", "summary": "None", "logo": "None", "latitude": 50.39523040155295, "longitude": -105.51055112477502}, "894871136RR0001": {"name": "EAST EUROPEAN GENEALOGICAL SOCIETY INC.", "designationCode": "C", "categoryCode": "21", "address": "PO BOX 2536", "city": "WINNIPEG", "province": "MB", "country": "CA", "postalCode": "R3C4A7", "twitter": "None", "instagram": "None", "facebook": "None", "youtube": "None", "website": "None", "summary": "None", "logo": "None", "latitude": 49.899525000000054, "longitude": -97.14112999999993}, "890961642RR0001": {"name": "EAST FERRIS COUNCIL NO. 6664 CHARITABLE TRUST", "designationCode": "A", "categoryCode": "65", "address": "1016 CENTENNIAL CRES", "city": "CORBEIL", "province": "ON", "country": "CA", "postalCode": "P0H1K0", "twitter": "None", "instagram": "None", "facebook": "None", "youtube": "None", "website": "None", "summary": "None", "logo": "None", "latitude": 46.300175528997684, "longitude": -79.3153625656414}, "118890938RR0001": {"name": "EAST FERRIS SANTA CLAUS FUND", "designationCode": "C", "categoryCode": "09", "address": "R.R. #1,89 BIG MOOSE ROAD", "city": "CORBEIL", "province": "ON", "country": "CA", "postalCode": "P0H1K0", "twitter": "None", "instagram": "None", "facebook": "None", "youtube": "None", "website": "None", "summary": "None", "logo": "None", "latitude": 46.211052275924466, "longitude": -79.25831925555379}, "894945633RR0033": {"name": "EAST GATE ALLIANCE CHURCH", "designationCode": "C", "categoryCode": "39", "address": "EAST GATE ALLIANCE CHURCH     550 CODD'S ROAD", "city": "OTTAWA", "province": "ON", "country": "CA", "postalCode": "K1K2G8", "twitter": "None", "instagram": "None", "facebook": "None", "youtube": "None", "website": "None", "summary": "None", "logo": "None", "latitude": 45.44785236467784, "longitude": -75.63215002726598}, "851288233RR0001": {"name": "EAST GATE MINISTRIES", "designationCode": "C", "categoryCode": "39", "address": "PO BOX 16132                  RPO SUMAS MOUNTAIN", "city": "ABBOTSFORD", "province": "BC", "country": "CA", "postalCode": "V3G0C6", "twitter": "None", "instagram": "None", "facebook": "None", "youtube": "None", "website": "None", "summary": "None", "logo": "None", "latitude": 49.11576302439391, "longitude": -122.19183393463035}, "836846923RR0001": {"name": "EAST HALDIMAND HOSPICE INC.", "designationCode": "C", "categoryCode": "01", "address": "206 JOHN ST                   HALDIMAND WAR MEMORIAL HOSPIT", "city": "DUNNVILLE", "province": "ON", "country": "CA", "postalCode": "N1A2P7", "twitter": "None", "instagram": "None", "facebook": "None", "youtube": "None", "website": "None", "summary": "None", "logo": "None", "latitude": 42.905710000000056, "longitude": -79.62494999999996}, "118891027RR0001": {"name": "EAST HAMILTON SPIRITUAL CHURCH", "designationCode": "C", "categoryCode": "39", "address": "83 OTTAWA ST NORTH", "city": "HAMILTON", "province": "ON", "country": "CA", "postalCode": "L8H3Y9", "twitter": "None", "instagram": "None", "facebook": "None", "youtube": "None", "website": "None", "summary": "None", "logo": "None", "latitude": 43.24496125451553, "longitude": -79.81881506191914}, "123956583RR0001": {"name": "EAST HANTS ARENA ASSOCIATION", "designationCode": "C", "categoryCode": "56", "address": "1076 HIGHWAY 2", "city": "LANTZ", "province": "NS", "country": "CA", "postalCode": "B2N1M8", "twitter": "None", "instagram": "None", "facebook": "None", "youtube": "None", "website": "None", "summary": "None", "logo": "None", "latitude": 44.98534787412125, "longitude": -63.48570303433058}, "893156331RR0001": {"name": "EAST HANTS CRIME PREVENTION ASSOCIATION", "designationCode": "C", "categoryCode": "59", "address": "96 STEPHENS WOOD RD", "city": "ENFIELD", "province": "NS", "country": "CA", "postalCode": "B2T1H1", "twitter": "None", "instagram": "None", "facebook": "None", "youtube": "None", "website": "None", "summary": "None", "logo": "None", "latitude": 44.94251713737098, "longitude": -63.57686499391181}, "846830164RR0001": {"name": "EAST HANTS EMERGENCY RESPONSE ASSOCIATION", "designationCode": "C", "categoryCode": "59", "address": "103 ALDERNEY DRIVE", "city": "ENFIELD", "province": "NS", "country": "CA", "postalCode": "B2T1J9", "twitter": "None", "instagram": "None", "facebook": "None", "youtube": "None", "website": "None", "summary": "None", "logo": "None", "latitude": 44.95577764695028, "longitude": -63.53597095146838}, "866811474RR0001": {"name": "EAST HANTS MUSEUM SOCIETY", "designationCode": "C", "categoryCode": "50", "address": "PO BOX 317", "city": "SHUBENACADIE", "province": "NS", "country": "CA", "postalCode": "B0N2H0", "twitter": "None", "instagram": "None", "facebook": "None", "youtube": "None", "website": "None", "summary": "None", "logo": "None", "latitude": 45.08345000000003, "longitude": -63.39868999999999}, "119288918RR0777": {"name": "EAST HART CONGREGATION OF JEHOVAH'S WITNESSES", "designationCode": "C", "categoryCode": "61", "address": "1031-B INVERNESS ROAD", "city": "PRINCE GEORGE", "province": "BC", "country": "CA", "postalCode": "V2K1G8", "twitter": "None", "instagram": "None", "facebook": "None", "youtube": "None", "website": "None", "summary": "None", "logo": "None"}, "106919897RR0001": {"name": "EAST HILL COMMUNITY REFORMED CHURCH", "designationCode": "C", "categoryCode": "39", "address": "2920B 28 AVE", "city": "VERNON", "province": "BC", "country": "CA", "postalCode": "V1T1V9", "twitter": "None", "instagram": "None", "facebook": "None", "youtube": "None", "website": "None", "summary": "None", "logo": "None", "latitude": 50.26210316121644, "longitude": -119.26921035119135}, "119288918RR1382": {"name": "EAST HILL CONGREGATION OF JEHOVAH'S WITNESSES, VERNON, BRITISH COLUMBIA", "designationCode": "C", "categoryCode": "61", "address": "1800 19 ST", "city": "VERNON", "province": "BC", "country": "CA", "postalCode": "V1T8E6", "twitter": "None", "instagram": "None", "facebook": "None", "youtube": "None", "website": "None", "summary": "None", "logo": "None", "latitude": 50.25505900441474, "longitude": -119.25681746808813}, "887368033RR0001": {"name": "EAST INDIAN CREMATORIUM SOCIETY, PORT ALBERNI", "designationCode": "C", "categoryCode": "59", "address": "P.O. BOX 95", "city": "PORT ALBERNI", "province": "BC", "country": "CA", "postalCode": "V9Y7L5", "twitter": "None", "instagram": "None", "facebook": "None", "youtube": "None", "website": "None", "summary": "None", "logo": "None", "latitude": 49.351860000000045, "longitude": -124.89526177018638}, "887931061RR0001": {"name": "EAST INDIAN WOMEN'S CULTURAL CONNECTION SOCIETY", "designationCode": "C", "categoryCode": "09", "address": "PO BOX 51148                  8120 BEDDINGTON BLVD NW", "city": "CALGARY", "province": "AB", "country": "CA", "postalCode": "T3K3V9", "twitter": "None", "instagram": "None", "facebook": "None", "youtube": "None", "website": "None", "summary": "None", "logo": "None", "latitude": 51.125655980581634, "longitude": -114.07408676850955}, "825068745RR0001": {"name": "EAST INTERLAKE CONSERVATION DISTRICT", "designationCode": "C", "categoryCode": "52", "address": "BOX 1740 74-1ST AVENUE", "city": "GIMLI", "province": "MB", "country": "CA", "postalCode": "R0C1B0", "twitter": "None", "instagram": "None", "facebook": "None", "youtube": "None", "website": "None", "summary": "None", "logo": "None", "latitude": 50.63245690935615, "longitude": -96.9856592719316}, "119288918RR0065": {"name": "EAST KILDONAN CONGREGATION OF JEHOVAH'S WITNESSES, WINNIPEG,MANITOBA", "designationCode": "C", "categoryCode": "61", "address": "937 GATEWAY ROAD", "city": "WINNIPEG", "province": "MB", "country": "CA", "postalCode": "R2K3L1", "twitter": "None", "instagram": "None", "facebook": "None", "youtube": "None", "website": "None", "summary": "None", "logo": "None", "latitude": 49.926051538115615, "longitude": -97.07476256610369}, "107273955RR0001": {"name": "EAST KOOTENAY ADDICTION SERVICES SOCIETY", "designationCode": "C", "categoryCode": "09", "address": "202-1617 BAKER ST.", "city": "CRANBROOK", "province": "BC", "country": "CA", "postalCode": "V1C1B4", "twitter": "None", "instagram": "None", "facebook": "None", "youtube": "None", "website": "None", "summary": "None", "logo": "None", "latitude": 49.51205851399405, "longitude": -115.75882197016561}, "107273971RR0001": {"name": "EAST KOOTENAY CRIME STOPPERS", "designationCode": "C", "categoryCode": "59", "address": "31 11TH AVE S", "city": "CRANBROOK", "province": "BC", "country": "CA", "postalCode": "V1C2N9", "twitter": "None", "instagram": "None", "facebook": "None", "youtube": "None", "website": "None", "summary": "None", "logo": "None", "latitude": 49.51123183236194, "longitude": -115.76625385140495}, "118878677RR0001": {"name": "EAST KOOTENAY FOUNDATION FOR HEALTH", "designationCode": "A", "categoryCode": "13", "address": "13-24TH AVE N", "city": "CRANBROOK", "province": "BC", "country": "CA", "postalCode": "V1C3H9", "twitter": "None", "instagram": "None", "facebook": "None", "youtube": "None", "website": "None", "summary": "None", "logo": "None", "latitude": 49.51245508752551, "longitude": -115.74883637203895}, "118891076RR0001": {"name": "EAST KORAH-MAXWELL UNITED CHURCH", "designationCode": "C", "categoryCode": "44", "address": "4 FOURTH LINE EAST", "city": "SAULT STE MARIE", "province": "ON", "country": "CA", "postalCode": "P6A0B5", "twitter": "None", "instagram": "None", "facebook": "None", "youtube": "None", "website": "None", "summary": "None", "logo": "None", "latitude": 46.56678651875456, "longitude": -84.35065114692067}, "890765548RR0001": {"name": "EAST LAMBTON SECONDARY SCHOOL FOUNDATION", "designationCode": "C", "categoryCode": "23", "address": "86 SUNSET AVE, BOX 562", "city": "WATFORD", "province": "ON", "country": "CA", "postalCode": "N0M2S0", "twitter": "None", "instagram": "None", "facebook": "None", "youtube": "None", "website": "None", "summary": "None", "logo": "None", "latitude": 42.953202000000005, "longitude": -81.88564858093349}, "833980154RR0001": {"name": "EAST LONDON UNITED CHURCH OUTREACH (ELUCO)", "designationCode": "C", "categoryCode": "09", "address": "PO BOX 32013", "city": "LONDON", "province": "ON", "country": "CA", "postalCode": "N5V5K4", "twitter": "None", "instagram": "None", "facebook": "None", "youtube": "None", "website": "None", "summary": "None", "logo": "None", "latitude": 42.98689500000006, "longitude": -81.24624349999993}, "871179826RR0001": {"name": "EAST MANITOU CEMETERY", "designationCode": "C", "categoryCode": "59", "address": "BOX 141", "city": "NEILBURG", "province": "SK", "country": "CA", "postalCode": "S0M2C0", "twitter": "None", "instagram": "None", "facebook": "None", "youtube": "None", "website": "None", "summary": "None", "logo": "None", "latitude": 52.83345000000003, "longitude": -109.63480999999996}, "844064121RR0001": {"name": "EAST MARKHAM NON-PROFIT HOMES", "designationCode": "C", "categoryCode": "09", "address": "25 DEVERILL COURT             MAIN OFFICE", "city": "MARKHAM", "province": "ON", "country": "CA", "postalCode": "L6G0C7", "twitter": "None", "instagram": "None", "facebook": "None", "youtube": "None", "website": "None", "summary": "None", "logo": "None", "latitude": 43.84479472271923, "longitude": -79.30719989558008}, "130563166RR0001": {"name": "EAST METRO YOUTH SERVICES", "designationCode": "C", "categoryCode": "11", "address": "200-1200 MARKHAM RD", "city": "SCARBOROUGH", "province": "ON", "country": "CA", "postalCode": "M1H3C3", "twitter": "None", "instagram": "None", "facebook": "None", "youtube": "None", "website": "None", "summary": "None", "logo": "None", "latitude": 43.77665010629583, "longitude": -79.23186416307908}, "118891167RR0001": {"name": "EAST NISSOURI UNION CHURCH", "designationCode": "C", "categoryCode": "31", "address": "RR#1", "city": "LAKESIDE", "province": "ON", "country": "CA", "postalCode": "N0M2G0", "twitter": "None", "instagram": "None", "facebook": "None", "youtube": "None", "website": "None", "summary": "None", "logo": "None", "latitude": 43.31355694847995, "longitude": -81.76276693623282}, "890030463RR0001": {"name": "EAST NISSOURI UNION CHURCH MISSION CIRCLE", "designationCode": "A", "categoryCode": "45", "address": "156740-15TH LINE              RR#1", "city": "LAKESIDE", "province": "ON", "country": "CA", "postalCode": "N0M2G0", "twitter": "None", "instagram": "None", "facebook": "None", "youtube": "None", "website": "None", "summary": "None", "logo": "None", "latitude": 43.20276065251885, "longitude": -81.08047204077}, "118891183RR0001": {"name": "EAST NORTHUMBERLAND SECONDARY SCHOOL SCHOLARSHIP FUND", "designationCode": "C", "categoryCode": "21", "address": "71 DUNDAS ST.", "city": "BRIGHTON", "province": "ON", "country": "CA", "postalCode": "K0K1H0", "twitter": "None", "instagram": "None", "facebook": "None", "youtube": "None", "website": "None", "summary": "None", "logo": "None", "latitude": 44.04523094108196, "longitude": -77.73147091722016}, "118891191RR0001": {"name": "EAST OLDS BAPTIST CHURCH", "designationCode": "C", "categoryCode": "31", "address": "RR 1 SITE 5 BOX 27", "city": "OLDS", "province": "AB", "country": "CA", "postalCode": "T4H1P2", "twitter": "None", "instagram": "None", "facebook": "None", "youtube": "None", "website": "None", "summary": "None", "logo": "None", "latitude": 51.791613000000055, "longitude": -114.11061199999993}, "140888637RR0001": {"name": "EAST PARKLAND BIBLE CHURCH", "designationCode": "C", "categoryCode": "39", "address": "BOX 2128", "city": "STONY PLAIN", "province": "AB", "country": "CA", "postalCode": "T7Z1X6", "twitter": "None", "instagram": "None", "facebook": "None", "youtube": "None", "website": "None", "summary": "None", "logo": "None", "latitude": 53.52878400000006, "longitude": -114.00552349999992}, "896748977RR0001": {"name": "EAST PICTOU RURAL EDUCATIONAL FOUNDATION", "designationCode": "C", "categoryCode": "21", "address": "843 ARDNESS ROAD", "city": "MERIGOMISH", "province": "NS", "country": "CA", "postalCode": "B0K1G0", "twitter": "None", "instagram": "None", "facebook": "None", "youtube": "None", "website": "None", "summary": "None", "logo": "None", "latitude": 45.60764100000006, "longitude": -62.37279799999993}, "107274227RR0001": {"name": "EAST PLAINS CO-OPERATIVE PRE-SCHOOL CORPORATION", "designationCode": "C", "categoryCode": "01", "address": "375 PLAINS RD E", "city": "BURLINGTON", "province": "ON", "country": "CA", "postalCode": "L7T2C7", "twitter": "None", "instagram": "None", "facebook": "None", "youtube": "None", "website": "None", "summary": "None", "logo": "None", "latitude": 43.315980096600974, "longitude": -79.84059876591247}, "107274235RR0001": {"name": "EAST PLAINS UNITED CHURCH", "designationCode": "C", "categoryCode": "44", "address": "375 PLAINS ROAD EAST", "city": "BURLINGTON", "province": "ON", "country": "CA", "postalCode": "L7T2C7", "twitter": "None", "instagram": "None", "facebook": "None", "youtube": "None", "website": "None", "summary": "None", "logo": "None", "latitude": 43.315980096600974, "longitude": -79.84059876591247}, "129542999RR0001": {"name": "EAST PRESTON DAY CARE CENTRE", "designationCode": "C", "categoryCode": "01", "address": "1799 HIGHWAY 7", "city": "EAST PRESTON", "province": "NS", "country": "CA", "postalCode": "B2Z1E9", "twitter": "None", "instagram": "None", "facebook": "None", "youtube": "None", "website": "None", "summary": "None", "logo": "None", "latitude": 44.70937496257107, "longitude": -63.43950093052496}, "139192496RR0001": {"name": "EAST PRINCE COMMUNITY COALITION INC", "designationCode": "C", "categoryCode": "01", "address": "75 CENTRAL STREET", "city": "SUMMERSIDE", "province": "PE", "country": "CA", "postalCode": "C1N3L2", "twitter": "None", "instagram": "None", "facebook": "None", "youtube": "None", "website": "None", "summary": "None", "logo": "None", "latitude": 46.39450636219633, "longitude": -63.791825757833735}, "107274326RR0001": {"name": "EAST PUBNICO FIRE DEPARTMENT", "designationCode": "C", "categoryCode": "59", "address": "1401 HIGHWAY 3", "city": "MIDDLE EAST PUBNICO", "province": "NS", "country": "CA", "postalCode": "B0W2A0", "twitter": "None", "instagram": "None", "facebook": "None", "youtube": "None", "website": "None", "summary": "None", "logo": "None", "latitude": 43.70345920875459, "longitude": -65.7850530461282}, "870138237RR0001": {"name": "EAST RAYMOND CHARITABLE TRUST", "designationCode": "B", "categoryCode": "39", "address": "3425 2 AVENUE SOUTH", "city": "LETHBRIDGE", "province": "AB", "country": "CA", "postalCode": "T1J4V1", "twitter": "None", "instagram": "None", "facebook": "None", "youtube": "None", "website": "None", "summary": "None", "logo": "None", "latitude": 49.696839530439966, "longitude": -112.78914308381903}, "856905377RR0001": {"name": "EAST RIVER FIRE COMPANY INC.", "designationCode": "C", "categoryCode": "59", "address": "RR 4", "city": "MOUNT STEWART", "province": "PE", "country": "CA", "postalCode": "C0A1T0", "twitter": "None", "instagram": "None", "facebook": "None", "youtube": "None", "website": "None", "summary": "None", "logo": "None", "latitude": 46.33696289701434, "longitude": -62.85434065264637}, "888703865RR0001": {"name": "EAST RIVER ST MARY'S CEMETERY SOCIETY", "designationCode": "C", "categoryCode": "59", "address": "1445 SHERBROOKE RD            RR 5", "city": "NEW GLASGOW", "province": "NS", "country": "CA", "postalCode": "B2H5C8", "twitter": "None", "instagram": "None", "facebook": "None", "youtube": "None", "website": "None", "summary": "None", "logo": "None", "latitude": 45.395568549483926, "longitude": -62.21890299140165}, "107274359RR0001": {"name": "EAST RIVER ST MARY'S FIRE DEPARTMENT", "designationCode": "C", "categoryCode": "59", "address": "1924 SHERBROOKE RD", "city": "ROCKY MOUNTAIN", "province": "NS", "country": "CA", "postalCode": "B2H5C8", "twitter": "None", "instagram": "None", "facebook": "None", "youtube": "None", "website": "None", "summary": "None", "logo": "None", "latitude": 45.394416406082065, "longitude": -62.245163524294476}, "118891308RR0001": {"name": "EAST SCARBOROUGH BOYS' AND GIRLS' CLUB", "designationCode": "C", "categoryCode": "09", "address": "100 GALLOWAY ROAD", "city": "SCARBOROUGH", "province": "ON", "country": "CA", "postalCode": "M1E1W7", "twitter": "None", "instagram": "None", "facebook": "None", "youtube": "None", "website": "None", "summary": "None", "logo": "None", "latitude": 43.757529025246775, "longitude": -79.19280594731343}, "859939738RR0001": {"name": "EAST SCARBOROUGH CHURCH OF GOD", "designationCode": "C", "categoryCode": "39", "address": "869 PROGRESS AV", "city": "SCARBOROUGH", "province": "ON", "country": "CA", "postalCode": "M1H2X6", "twitter": "None", "instagram": "None", "facebook": "None", "youtube": "None", "website": "None", "summary": "None", "logo": "None", "latitude": 43.78092682705315, "longitude": -79.23773725255361}, "118891324RR0001": {"name": "EAST SELKIRK RECREATION ASSOCIATION INC.", "designationCode": "C", "categoryCode": "56", "address": "BOX 293", "city": "EAST SELKIRK", "province": "MB", "country": "CA", "postalCode": "R0E0M0", "twitter": "None", "instagram": "None", "facebook": "None", "youtube": "None", "website": "None", "summary": "None", "logo": "None", "latitude": 50.582348999999994, "longitude": -96.58096875000001}, "118891357RR0001": {"name": "EAST SIDE CHURCH OF CHRIST", "designationCode": "C", "categoryCode": "39", "address": "1060 THIRD LINE EAST          RR5", "city": "SAULT STE MARIE", "province": "ON", "country": "CA", "postalCode": "P6A6J8", "twitter": "None", "instagram": "None", "facebook": "None", "youtube": "None", "website": "None", "summary": "None", "logo": "None", "latitude": 46.554030000000004, "longitude": -84.27950999999999}, "131789216RR0001": {"name": "EAST SIDE CHURCH OF GOD", "designationCode": "C", "categoryCode": "39", "address": "2105 ADAMS ST", "city": "SWIFT CURRENT", "province": "SK", "country": "CA", "postalCode": "S9H3X6", "twitter": "None", "instagram": "None", "facebook": "None", "youtube": "None", "website": "None", "summary": "None", "logo": "None", "latitude": 50.309955540649185, "longitude": -107.77149166815775}, "129817631RR0001": {"name": "EAST SIDE FAMILY PLACE SOCIETY", "designationCode": "C", "categoryCode": "59", "address": "1655 WILLIAM ST.", "city": "VANCOUVER", "province": "BC", "country": "CA", "postalCode": "V5L2R3", "twitter": "None", "instagram": "None", "facebook": "None", "youtube": "None", "website": "None", "summary": "None", "logo": "None", "latitude": 49.27404355024705, "longitude": -123.07013754146078}, "118891407RR0001": {"name": "EAST SIDE PLAYERS", "designationCode": "C", "categoryCode": "22", "address": "43 FOURSOME CRESCENT", "city": "TORONTO", "province": "ON", "country": "CA", "postalCode": "M2P1W1", "twitter": "None", "instagram": "None", "facebook": "None", "youtube": "None", "website": "None", "summary": "None", "logo": "None"}, "118891423RR0001": {"name": "EAST SMOKY RECREATION BOARD", "designationCode": "A", "categoryCode": "56", "address": "BOX 382", "city": "DEBOLT", "province": "AB", "country": "CA", "postalCode": "T0H1B0", "twitter": "None", "instagram": "None", "facebook": "None", "youtube": "None", "website": "None", "summary": "None", "logo": "None", "latitude": 55.21796000000006, "longitude": -118.02602999999999}, "119288918RR0058": {"name": "EAST ST PAUL CONGREGATION OF JEHOVAH'S WITNESSES, WINNIPEG, MANITOBA", "designationCode": "C", "categoryCode": "61", "address": "391 HEADMASTER ROW", "city": "WINNIPEG", "province": "MB", "country": "CA", "postalCode": "R2G3J3", "twitter": "None", "instagram": "None", "facebook": "None", "youtube": "None", "website": "None", "summary": "None", "logo": "None", "latitude": 49.95388395449813, "longitude": -97.0583600879453}, "890739386RR0001": {"name": "EAST TORONTO CHINESE BAPTIST CHURCH", "designationCode": "C", "categoryCode": "31", "address": "22 CARNFORTH RD", "city": "NORTH YORK", "province": "ON", "country": "CA", "postalCode": "M4A2K7", "twitter": "None", "instagram": "None", "facebook": "None", "youtube": "None", "website": "None", "summary": "None", "logo": "None", "latitude": 43.74028655179161, "longitude": -79.31491377635714}, "890447675RR0001": {"name": "EAST TORONTO FAMILY COMMUNITY CENTRE", "designationCode": "C", "categoryCode": "56", "address": "86 BLAKE STREET", "city": "TORONTO", "province": "ON", "country": "CA", "postalCode": "M4J3C9", "twitter": "None", "instagram": "None", "facebook": "None", "youtube": "None", "website": "None", "summary": "None", "logo": "None", "latitude": 43.67514475408282, "longitude": -79.33937400129807}, "894945633RR0009": {"name": "EAST TORONTO MANDARIN ALLIANCE CHURCH OF THE CHRISTIAN AND MISSIONARY ALLIANCE IN CANADA", "designationCode": "C", "categoryCode": "39", "address": "UNIT 79-2220 MIDLAND AVE.", "city": "SCARBOROUGH", "province": "ON", "country": "CA", "postalCode": "M1P3E6", "twitter": "None", "instagram": "None", "facebook": "None", "youtube": "None", "website": "None", "summary": "None", "logo": "None", "latitude": 43.77428025810259, "longitude": -79.27363298214279}, "118891480RR0001": {"name": "EAST TORONTO VILLAGE CHILDREN'S CENTRE", "designationCode": "C", "categoryCode": "01", "address": "43 KIMBERLEY AVENUE", "city": "TORONTO", "province": "ON", "country": "CA", "postalCode": "M4E2Z4", "twitter": "None", "instagram": "None", "facebook": "None", "youtube": "None", "website": "None", "summary": "None", "logo": "None", "latitude": 43.68272897613822, "longitude": -79.2980697183914}, "886110113RR0001": {"name": "EAST WEST MISSION FOUNDATION", "designationCode": "C", "categoryCode": "47", "address": "191 WESTMORELAND AVENUE", "city": "TORONTO", "province": "ON", "country": "CA", "postalCode": "M6H3A1", "twitter": "None", "instagram": "None", "facebook": "None", "youtube": "None", "website": "None", "summary": "None", "logo": "None", "latitude": 43.66598298335158, "longitude": -79.43247876614362}, "118891555RR0001": {"name": "EAST WINDSOR COMMUNITY SERVICE CENTRE", "designationCode": "C", "categoryCode": "56", "address": "1102 DROUILLARD ROAD", "city": "WINDSOR", "province": "ON", "country": "CA", "postalCode": "N8Y2R1", "twitter": "None", "instagram": "None", "facebook": "None", "youtube": "None", "website": "None", "summary": "None", "logo": "None", "latitude": 42.31986308327079, "longitude": -82.99904201107984}, "888531209RR0001": {"name": "EAST WINNIPEG SPORTS ASSOCIATION INC.", "designationCode": "C", "categoryCode": "56", "address": "PO BOX 62088                  104 REGENT AVE EAST", "city": "WINNIPEG", "province": "MB", "country": "CA", "postalCode": "R2C5G2", "twitter": "None", "instagram": "None", "facebook": "None", "youtube": "None", "website": "None", "summary": "None", "logo": "None", "latitude": 49.89504248124546, "longitude": -97.00195049999999}, "130497795RR0001": {"name": "EAST YORK AND EAST TORONTO FAMILY RESOURCES ORGANIZATION", "designationCode": "C", "categoryCode": "01", "address": "947 QUEEN ST E", "city": "TORONTO", "province": "ON", "country": "CA", "postalCode": "M4M1J9", "twitter": "None", "instagram": "None", "facebook": "None", "youtube": "None", "website": "None", "summary": "None", "logo": "None", "latitude": 43.66114277655962, "longitude": -79.33955634748115}}