{"119064970RR0001": {"name": "Odd Fellow Rebekah Visual Research Foundation of Alberta", "designationCode": "C", "categoryCode": "11", "address": "432 28 ST NE", "city": "CALGARY", "province": "AB", "country": "CA", "postalCode": "T2A6T3", "twitter": "None", "instagram": "None", "facebook": "None", "youtube": "None", "website": "None", "summary": "None", "logo": "None", "latitude": 51.055784947544566, "longitude": -113.99327984298043}, "864923354RR0001": {"name": "Odd Squad Productions Society", "designationCode": "C", "categoryCode": "11", "address": "190 KEEFER PLACE", "city": "VANCOUVER", "province": "BC", "country": "CA", "postalCode": "V6B0J6", "twitter": "None", "instagram": "None", "facebook": "None", "youtube": "None", "website": "None", "summary": "None", "logo": "None", "latitude": 49.279734296159425, "longitude": -123.10830752192061}, "792748329RR0001": {"name": "Odette Federer Family Foundation", "designationCode": "B", "categoryCode": "03", "address": "157 ROCHESTER AVENUE", "city": "TORONTO", "province": "ON", "country": "CA", "postalCode": "M4N1P2", "twitter": "None", "instagram": "None", "facebook": "None", "youtube": "None", "website": "None", "summary": "None", "logo": "None", "latitude": 43.725666762132896, "longitude": -79.3843368687172}, "849021944RR0001": {"name": "Odyssey Showcase / Pr\u00e9sentoire de l'Odyss\u00e9e", "designationCode": "C", "categoryCode": "29", "address": "2 DALEY AVE                   ROOM 250C", "city": "OTTAWA", "province": "ON", "country": "CA", "postalCode": "K1N6E2", "twitter": "None", "instagram": "None", "facebook": "None", "youtube": "None", "website": "None", "summary": "None", "logo": "None", "latitude": 45.42564301552326, "longitude": -75.68902925893026}, "119288918RR1579": {"name": "Oeste Spanish Congregation of Jehovah's Witnesses, Edmonton, Alberta", "designationCode": "C", "categoryCode": "61", "address": "2369 SPARROW CRESCENT", "city": "EDMONTON", "province": "AB", "country": "CA", "postalCode": "T5S0G7", "twitter": "None", "instagram": "None", "facebook": "None", "youtube": "None", "website": "None", "summary": "None", "logo": "None", "latitude": 53.5984838891774, "longitude": -113.65694362543155}, "884859380RR0001": {"name": "Oeuvre \u00c9milie-Gr\u00e9goire", "designationCode": "C", "categoryCode": "46", "address": "1820, RUE GALT OUEST          SOEUR MADELEINE ROY", "city": "SHERBROOKE", "province": "QC", "country": "CA", "postalCode": "J1K1H9", "twitter": "None", "instagram": "None", "facebook": "None", "youtube": "None", "website": "None", "summary": "None", "logo": "None", "latitude": 45.386774648475146, "longitude": -71.9172799320736}, "861645422RR0001": {"name": "Oeuvre internationale de d\u00e9veloppement integral", "designationCode": "C", "categoryCode": "29", "address": "20280 BOUL. HENRI-BOURASSA", "city": "QUEBEC", "province": "QC", "country": "CA", "postalCode": "G2M1K9", "twitter": "None", "instagram": "None", "facebook": "None", "youtube": "None", "website": "None", "summary": "None", "logo": "None", "latitude": 46.89811412158795, "longitude": -71.30332719755937}, "831342258RR0001": {"name": "Oeuvre Anne-Marie-Audet", "designationCode": "C", "categoryCode": "43", "address": "253, RUE DU DOMAINE-SAINT-PAUL", "city": "SAINTE-ANNE-DES-MONTS", "province": "QC", "country": "CA", "postalCode": "G4V2G3", "twitter": "None", "instagram": "None", "facebook": "None", "youtube": "None", "website": "None", "summary": "None", "logo": "None", "latitude": 49.11740248765076, "longitude": -66.48007596932888}, "119115103RR0001": {"name": "Oeuvre Cur\u00e9-Fafard", "designationCode": "C", "categoryCode": "46", "address": "294, RUE SAINT-JOSEPH", "city": "L\u00c9VIS", "province": "QC", "country": "CA", "postalCode": "G6V1G2", "twitter": "None", "instagram": "None", "facebook": "None", "youtube": "None", "website": "None", "summary": "None", "logo": "None"}, "815035035RR0001": {"name": "Oeuvre Grignion", "designationCode": "C", "categoryCode": "49", "address": "6455, AVENUE LOUIS-RIEL", "city": "MONTR\u00c9AL", "province": "QC", "country": "CA", "postalCode": "H1M1P1", "twitter": "None", "instagram": "None", "facebook": "None", "youtube": "None", "website": "None", "summary": "None", "logo": "None", "latitude": 45.58260586317727, "longitude": -73.54911009397524}, "839955036RR0001": {"name": "Oeuvre Immaculata", "designationCode": "C", "categoryCode": "49", "address": "313, RUE QUEEN", "city": "SHERBROOKE", "province": "QC", "country": "CA", "postalCode": "J1M1K8", "twitter": "None", "instagram": "None", "facebook": "None", "youtube": "None", "website": "None", "summary": "None", "logo": "None", "latitude": 45.37797585532968, "longitude": -71.86651025815085}, "831047105RR0001": {"name": "Oeuvre Julia", "designationCode": "C", "categoryCode": "49", "address": "115 CH C\u00d4TE ST-LOUIS O.", "city": "SAINTE-TH\u00c9R\u00c8SE", "province": "QC", "country": "CA", "postalCode": "J7E2H8", "twitter": "None", "instagram": "None", "facebook": "None", "youtube": "None", "website": "None", "summary": "None", "logo": "None", "latitude": 45.64789500885814, "longitude": -73.8506137715393}, "803620178RR0001": {"name": "Oeuvre Marie-Dominique-Philippe", "designationCode": "C", "categoryCode": "49", "address": "825 RUE SAINT-LOUIS", "city": "TERREBONNE", "province": "QC", "country": "CA", "postalCode": "J6W1J7", "twitter": "None", "instagram": "None", "facebook": "None", "youtube": "None", "website": "None", "summary": "None", "logo": "None", "latitude": 45.6948694205088, "longitude": -73.63657497169481}, "852121888RR0001": {"name": "Oeuvre Rose-Eynac", "designationCode": "C", "categoryCode": "49", "address": "294 RUE SAINT-JOSEPH", "city": "L\u00c9VIS", "province": "QC", "country": "CA", "postalCode": "G6V1G2", "twitter": "None", "instagram": "None", "facebook": "None", "youtube": "None", "website": "None", "summary": "None", "logo": "None", "latitude": 46.82563876458425, "longitude": -71.16543293669835}, "850587064RR0001": {"name": "Oeuvre Vosh Santa Cruz", "designationCode": "C", "categoryCode": "09", "address": "1805 DE L'\u00c9GLISE", "city": "SAINT-LAURENT", "province": "QC", "country": "CA", "postalCode": "H4L2J8", "twitter": "None", "instagram": "None", "facebook": "None", "youtube": "None", "website": "None", "summary": "None", "logo": "None", "latitude": 45.50788869054756, "longitude": -73.68318088386508}, "764623898RR0001": {"name": "Oeuvres de M\u00e8re \u00c9milie-Jauron", "designationCode": "A", "categoryCode": "43", "address": "16470 AV BOURDAGES S", "city": "SAINT-HYACINTHE", "province": "QC", "country": "CA", "postalCode": "J2T4J8", "twitter": "None", "instagram": "None", "facebook": "None", "youtube": "None", "website": "None", "summary": "None", "logo": "None", "latitude": 45.616190349211905, "longitude": -72.9427241230025}, "818908030RR0001": {"name": "Oeuvres des B\u00e9n\u00e9dictines / Benedictine Charities", "designationCode": "C", "categoryCode": "46", "address": "2803 CHEMIN D'OKA", "city": "SAINTE-MARTHE-SUR-LE-LAC", "province": "QC", "country": "CA", "postalCode": "J0N1P0", "twitter": "None", "instagram": "None", "facebook": "None", "youtube": "None", "website": "None", "summary": "None", "logo": "None", "latitude": 45.53223546047074, "longitude": -73.91299132791853}, "748655321RR0001": {"name": "Off The W.A.L. Animal Rescue", "designationCode": "C", "categoryCode": "54", "address": "PO BOX 2077", "city": "BLACKFALDS", "province": "AB", "country": "CA", "postalCode": "T0M0J0", "twitter": "None", "instagram": "None", "facebook": "None", "youtube": "None", "website": "None", "summary": "None", "logo": "None", "latitude": 52.37008281578276, "longitude": -113.79281997964283}, "854735156RR0001": {"name": "Office des t\u00e9l\u00e9communications \u00e9ducatives de langue fran\u00e7aise de l'Ontario / Ontario French-Language Educational Communi cations Authority", "designationCode": "C", "categoryCode": "21", "address": "600-21, RUE COLLEGE", "city": "TORONTO", "province": "ON", "country": "CA", "postalCode": "M5G2B3", "twitter": "None", "instagram": "None", "facebook": "None", "youtube": "None", "website": "None", "summary": "None", "logo": "None", "latitude": 43.66120084205681, "longitude": -79.38382523091353}, "119288918RR0435": {"name": "Ogden Congregation of Jehovah's Witnesses, Calgary, Alberta", "designationCode": "C", "categoryCode": "61", "address": "48 OGMOOR CRESC SE", "city": "CALGARY", "province": "AB", "country": "CA", "postalCode": "T2C2E9", "twitter": "None", "instagram": "None", "facebook": "None", "youtube": "None", "website": "None", "summary": "None", "logo": "None", "latitude": 50.986225456287144, "longitude": -114.01291755173428}, "840238802RR0001": {"name": "Ogema Heritage Railway Association Inc.", "designationCode": "C", "categoryCode": "52", "address": "PO BOX 82", "city": "OGEMA", "province": "SK", "country": "CA", "postalCode": "S0C1Y0", "twitter": "None", "instagram": "None", "facebook": "None", "youtube": "None", "website": "None", "summary": "None", "logo": "None", "latitude": 49.58337000000006, "longitude": -104.91778999999997}, "850667775RR0001": {"name": "Ohel Sarah Canada", "designationCode": "C", "categoryCode": "11", "address": "20 ROBERTA DR", "city": "NORTH YORK", "province": "ON", "country": "CA", "postalCode": "M6A2J5", "twitter": "None", "instagram": "None", "facebook": "None", "youtube": "None", "website": "None", "summary": "None", "logo": "None", "latitude": 43.721024386058126, "longitude": -79.43662803026707}, "812391845RR0001": {"name": "Ohr Chaya Charitable Organization", "designationCode": "C", "categoryCode": "42", "address": "604 - 4576 YONGE ST", "city": "NORTH YORK", "province": "ON", "country": "CA", "postalCode": "M2N6N4", "twitter": "None", "instagram": "None", "facebook": "None", "youtube": "None", "website": "None", "summary": "None", "logo": "None", "latitude": 43.75643698531664, "longitude": -79.40976312757434}, "838432870RR0001": {"name": "Ohr HaDerek Messianic Synagogue", "designationCode": "C", "categoryCode": "42", "address": "865 BEAVER BANK RD", "city": "BEAVER BANK", "province": "NS", "country": "CA", "postalCode": "B4G1C1", "twitter": "None", "instagram": "None", "facebook": "None", "youtube": "None", "website": "None", "summary": "None", "logo": "None", "latitude": 44.82229277961806, "longitude": -63.68090986089827}, "836239939RR0001": {"name": "Ohr Lamizrach Jewish Educational Centre", "designationCode": "C", "categoryCode": "39", "address": "27 BLACK HAWK WAY", "city": "NORTH YORK", "province": "ON", "country": "CA", "postalCode": "M2R3L5", "twitter": "None", "instagram": "None", "facebook": "None", "youtube": "None", "website": "None", "summary": "None", "logo": "None", "latitude": 43.789481758814695, "longitude": -79.45470773867515}, "813305893RR0001": {"name": "Ohr Torah", "designationCode": "C", "categoryCode": "49", "address": "288 HILLHURST BLVD", "city": "NORTH YORK", "province": "ON", "country": "CA", "postalCode": "M6B1N1", "twitter": "None", "instagram": "None", "facebook": "None", "youtube": "None", "website": "None", "summary": "None", "logo": "None", "latitude": 43.708462165156575, "longitude": -79.4286870133302}, "812524155RR0001": {"name": "Okala Foundation", "designationCode": "C", "categoryCode": "09", "address": "7335 PLACE TOULOUSE", "city": "BROSSARD", "province": "QC", "country": "CA", "postalCode": "J4W2H1", "twitter": "None", "instagram": "None", "facebook": "None", "youtube": "None", "website": "None", "summary": "None", "logo": "None", "latitude": 45.46324900473186, "longitude": -73.49532447792721}, "818432312RR0001": {"name": "Okanagan Children's Theatre Society", "designationCode": "C", "categoryCode": "22", "address": "1809 OLYMPUS WAY", "city": "WEST KELOWNA", "province": "BC", "country": "CA", "postalCode": "V1Z3H9", "twitter": "None", "instagram": "None", "facebook": "None", "youtube": "None", "website": "None", "summary": "None", "logo": "None", "latitude": 49.88313567860234, "longitude": -119.55718156298701}, "814103602RR0001": {"name": "Okanagan Chinese Canadian Association", "designationCode": "C", "categoryCode": "59", "address": "1643 BRAEBURN COURT", "city": "WEST KELOWNA", "province": "BC", "country": "CA", "postalCode": "V4T2V5", "twitter": "None", "instagram": "None", "facebook": "None", "youtube": "None", "website": "None", "summary": "None", "logo": "None", "latitude": 49.83922312877265, "longitude": -119.5845055681229}, "137008348RR0001": {"name": "Okanagan Christian Church", "designationCode": "C", "categoryCode": "39", "address": "29 - 2005 BOUCHERIE RD", "city": "WESTBANK", "province": "BC", "country": "CA", "postalCode": "V4T1R4", "twitter": "None", "instagram": "None", "facebook": "None", "youtube": "None", "website": "None", "summary": "None", "logo": "None", "latitude": 49.827827543355674, "longitude": -119.59950917396382}, "119065951RR0001": {"name": "Okanagan Christian School", "designationCode": "C", "categoryCode": "20", "address": "1035 HOLLYWOOD RD", "city": "KELOWNA", "province": "BC", "country": "CA", "postalCode": "V1X4N3", "twitter": "None", "instagram": "None", "facebook": "None", "youtube": "None", "website": "None", "summary": "None", "logo": "None", "latitude": 49.87608733415073, "longitude": -119.39823965134173}, "819840778RR0001": {"name": "Okanagan Fruit Tree Project Society", "designationCode": "C", "categoryCode": "09", "address": "PO BOX 22001", "city": "KELOWNA", "province": "BC", "country": "CA", "postalCode": "V1W5A4", "twitter": "None", "instagram": "None", "facebook": "None", "youtube": "None", "website": "None", "summary": "None", "logo": "None", "latitude": 49.792317000000054, "longitude": -119.51886949999994}, "822758736RR0001": {"name": "Okanagan Global Gateway Foundation", "designationCode": "B", "categoryCode": "03", "address": "1250-1500 WEST GEORGIA STREET POST OFFICE BOX 62", "city": "VANCOUVER", "province": "BC", "country": "CA", "postalCode": "V6G2Z6", "twitter": "None", "instagram": "None", "facebook": "None", "youtube": "None", "website": "None", "summary": "None", "logo": "None", "latitude": 49.290187500000016, "longitude": -123.130035}, "810527358RR0001": {"name": "Okanagan Hispanic Baptist Church", "designationCode": "C", "categoryCode": "31", "address": "675 ACE ROAD", "city": "KELOWNA", "province": "BC", "country": "CA", "postalCode": "V1X4C4", "twitter": "None", "instagram": "None", "facebook": "None", "youtube": "None", "website": "None", "summary": "None", "logo": "None", "latitude": 49.88109566472389, "longitude": -119.41075940766953}, "119288918RR1620": {"name": "Okanagan Lake Tagalog Congregation of Jehovah's Witnesses, Kelowna, British Columbia", "designationCode": "C", "categoryCode": "61", "address": "625 FRANKLYN ROAD", "city": "KELOWNA", "province": "BC", "country": "CA", "postalCode": "V1X3T9", "twitter": "None", "instagram": "None", "facebook": "None", "youtube": "None", "website": "None", "summary": "None", "logo": "None", "latitude": 49.896423251457094, "longitude": -119.40093783495901}, "119066116RR0001": {"name": "Okanagan Landing & District Community Association", "designationCode": "C", "categoryCode": "52", "address": "7813 OKANAGAN LANDING ROAD", "city": "VERNON", "province": "BC", "country": "CA", "postalCode": "V1H1H2", "twitter": "None", "instagram": "None", "facebook": "None", "youtube": "None", "website": "None", "summary": "None", "logo": "None", "latitude": 50.23435206085128, "longitude": -119.35898878619624}, "739546893RR0001": {"name": "Okanagan Learning Foundation", "designationCode": "C", "categoryCode": "21", "address": "209 MELROSE CRT", "city": "VERNON", "province": "BC", "country": "CA", "postalCode": "V1H1T7", "twitter": "None", "instagram": "None", "facebook": "None", "youtube": "None", "website": "None", "summary": "None", "logo": "None", "latitude": 50.226809144324534, "longitude": -119.36572665352845}, "856086095RR0001": {"name": "Okanagan Similkameen Healthy Living Society", "designationCode": "C", "categoryCode": "11", "address": "113-437 MARTIN ST             SUITE 383", "city": "PENTICTON", "province": "BC", "country": "CA", "postalCode": "V2A5L1", "twitter": "None", "instagram": "None", "facebook": "None", "youtube": "None", "website": "None", "summary": "None", "logo": "None", "latitude": 49.496193, "longitude": -119.59238475}, "845398775RR0001": {"name": "Okanagan Similkameen Stewardship Society", "designationCode": "C", "categoryCode": "52", "address": "324 PENTICTON AVENUE", "city": "PENTICTON", "province": "BC", "country": "CA", "postalCode": "V2A2M3", "twitter": "None", "instagram": "None", "facebook": "None", "youtube": "None", "website": "None", "summary": "None", "logo": "None", "latitude": 49.487049587281476, "longitude": -119.58378787745978}, "823621222RR0001": {"name": "Okanagan Suicide Awareness Society", "designationCode": "C", "categoryCode": "09", "address": "3010 ALLEGRO MEWS", "city": "KELOWNA", "province": "BC", "country": "CA", "postalCode": "V1V2K3", "twitter": "None", "instagram": "None", "facebook": "None", "youtube": "None", "website": "None", "summary": "None", "logo": "None", "latitude": 49.96293753447982, "longitude": -119.40533879002261}, "819093956RR0001": {"name": "Okanagan Summer Festival Society", "designationCode": "C", "categoryCode": "22", "address": "14-570 SARSONS ROAD", "city": "KELOWNA", "province": "BC", "country": "CA", "postalCode": "V1W5H5", "twitter": "None", "instagram": "None", "facebook": "None", "youtube": "None", "website": "None", "summary": "None", "logo": "None", "latitude": 49.82334444102026, "longitude": -119.49022731696422}, "849058888RR0001": {"name": "Okanagan Valley Baptist Church", "designationCode": "C", "categoryCode": "31", "address": "PO BOX 21022                  POLSON PLACE", "city": "VERNON", "province": "BC", "country": "CA", "postalCode": "V1T9T7", "twitter": "None", "instagram": "None", "facebook": "None", "youtube": "None", "website": "None", "summary": "None", "logo": "None", "latitude": 50.25176488794129, "longitude": -119.26552944709336}, "823082060RR0001": {"name": "Okanagan Zambia Health Initiative Society", "designationCode": "C", "categoryCode": "21", "address": "1912 ABBOTT ST", "city": "KELOWNA", "province": "BC", "country": "CA", "postalCode": "V1Y1B7", "twitter": "None", "instagram": "None", "facebook": "None", "youtube": "None", "website": "None", "summary": "None", "logo": "None", "latitude": 49.8801499530845, "longitude": -119.49901686444669}, "866766157RR0001": {"name": "Okotoks Area Rural Crime Watch Association", "designationCode": "C", "categoryCode": "59", "address": "BOX 670", "city": "OKOTOKS", "province": "AB", "country": "CA", "postalCode": "T1S1A8", "twitter": "None", "instagram": "None", "facebook": "None", "youtube": "None", "website": "None", "summary": "None", "logo": "None", "latitude": 50.72589600000006, "longitude": -113.97494149999994}, "841248958RR0001": {"name": "Okotoks, Alberta Congregation of Jehovah's Witnesses", "designationCode": "C", "categoryCode": "61", "address": "3 SHEEP RIVER HILL", "city": "OKATOKS", "province": "AB", "country": "CA", "postalCode": "T1S1X2", "twitter": "None", "instagram": "None", "facebook": "None", "youtube": "None", "website": "None", "summary": "None", "logo": "None", "latitude": 50.71808541661365, "longitude": -113.99843528143572}, "802674853RR0001": {"name": "Okyerema International Foundation", "designationCode": "C", "categoryCode": "21", "address": "426 QUEEN MARY DR", "city": "BRAMPTON", "province": "ON", "country": "CA", "postalCode": "L7A4K5", "twitter": "None", "instagram": "None", "facebook": "None", "youtube": "None", "website": "None", "summary": "None", "logo": "None", "latitude": 43.71438990657201, "longitude": -79.82899823797972}, "118832658RR0001": {"name": "Olam Chesed Yibone Fund", "designationCode": "C", "categoryCode": "21", "address": "51 BOOKVIEW AVENUE", "city": "TORONTO", "province": "ON", "country": "CA", "postalCode": "M6A2K4", "twitter": "None", "instagram": "None", "facebook": "None", "youtube": "None", "website": "None", "summary": "None", "logo": "None", "latitude": 43.720826625050385, "longitude": -79.43791312626249}, "831920301RR0001": {"name": "Old Friends Canada Society", "designationCode": "C", "categoryCode": "54", "address": "510 - 1800 WEST GEORGE STREET", "city": "VANCOUVER", "province": "BC", "country": "CA", "postalCode": "V6B0M3", "twitter": "None", "instagram": "None", "facebook": "None", "youtube": "None", "website": "None", "summary": "None", "logo": "None", "latitude": 49.28130600000006, "longitude": -123.11634499999994}, "813223880RR0001": {"name": "Old Reformed Congregation", "designationCode": "C", "categoryCode": "39", "address": "PO BOX 35                     16 MILL ST W", "city": "OTTERVILLE", "province": "ON", "country": "CA", "postalCode": "N0J1R0", "twitter": "None", "instagram": "None", "facebook": "None", "youtube": "None", "website": "None", "summary": "None", "logo": "None", "latitude": 42.92503730004604, "longitude": -80.60487576034389}, "780555926RR0001": {"name": "Old Sun Community College", "designationCode": "C", "categoryCode": "20", "address": "PO BOX 1250", "city": "SIKSIKA", "province": "AB", "country": "CA", "postalCode": "T0J3W0", "twitter": "None", "instagram": "None", "facebook": "None", "youtube": "None", "website": "None", "summary": "None", "logo": "None", "latitude": 50.853423516106545, "longitude": -113.01955794170736}, "869556746RR0001": {"name": "Olde Time Baptist Church", "designationCode": "C", "categoryCode": "39", "address": "19 BURROUGHS LANE NE", "city": "CALGARY", "province": "AB", "country": "CA", "postalCode": "T1Y0A3", "twitter": "None", "instagram": "None", "facebook": "None", "youtube": "None", "website": "None", "summary": "None", "logo": "None", "latitude": 51.0780884142862, "longitude": -113.92328298820956}, "840029078RR0001": {"name": "Oldman Watershed Council", "designationCode": "C", "categoryCode": "52", "address": "319 6 ST S", "city": "LETHBRIDGE", "province": "AB", "country": "CA", "postalCode": "T1J2C7", "twitter": "None", "instagram": "None", "facebook": "None", "youtube": "None", "website": "None", "summary": "None", "logo": "None", "latitude": 49.69477325850442, "longitude": -112.8385387635949}, "835177403RR0001": {"name": "Olds & District Hospice Society", "designationCode": "C", "categoryCode": "11", "address": "PO BOX 4231 STN MAIN", "city": "OLDS", "province": "AB", "country": "CA", "postalCode": "T4H1P8", "twitter": "None", "instagram": "None", "facebook": "None", "youtube": "None", "website": "None", "summary": "None", "logo": "None", "latitude": 51.791613000000055, "longitude": -114.11061199999993}, "810758896RR0001": {"name": "Olive Branch Mennonite Missions-Canada", "designationCode": "C", "categoryCode": "47", "address": "6539 WELLINGTON RD 11         RR 2", "city": "WALLENSTEIN", "province": "ON", "country": "CA", "postalCode": "N0B2S0", "twitter": "None", "instagram": "None", "facebook": "None", "youtube": "None", "website": "None", "summary": "None", "logo": "None", "latitude": 43.66434674916115, "longitude": -80.72481217660477}, "852810019RR0001": {"name": "Olive Branch Playground Builders Foundation", "designationCode": "C", "categoryCode": "56", "address": "9269 LAKESHORE DR", "city": "WHISTLER", "province": "BC", "country": "CA", "postalCode": "V0N1B9", "twitter": "None", "instagram": "None", "facebook": "None", "youtube": "None", "website": "None", "summary": "None", "logo": "None", "latitude": 50.161107475474374, "longitude": -122.92361145614292}, "820853307RR0001": {"name": "Olive Lionel Memorial Society", "designationCode": "B", "categoryCode": "21", "address": "6606 KNIGHT DR", "city": "DELTA", "province": "BC", "country": "CA", "postalCode": "V4E1S5", "twitter": "None", "instagram": "None", "facebook": "None", "youtube": "None", "website": "None", "summary": "None", "logo": "None", "latitude": 49.12328621371687, "longitude": -122.90365008156867}, "813631306RR0001": {"name": "Olives Harvest Church", "designationCode": "C", "categoryCode": "39", "address": "731 BLOOR STREET WEST         2ND FLOOR", "city": "TORONTO", "province": "ON", "country": "CA", "postalCode": "M6G1L5", "twitter": "None", "instagram": "None", "facebook": "None", "youtube": "None", "website": "None", "summary": "None", "logo": "None", "latitude": 43.66351756534701, "longitude": -79.41821718525624}, "802046193RR0001": {"name": "Oltumo Maasai Project", "designationCode": "C", "categoryCode": "09", "address": "218 MAPLE ST.", "city": "SASKATOON", "province": "SK", "country": "CA", "postalCode": "S7J0A4", "twitter": "None", "instagram": "None", "facebook": "None", "youtube": "None", "website": "None", "summary": "None", "logo": "None", "latitude": 52.10626952842075, "longitude": -106.66601189064573}, "835162405RR0001": {"name": "Olympia Charitable Foundation", "designationCode": "B", "categoryCode": "03", "address": "2300-125-9TH AVENUE SE", "city": "CALGARY", "province": "AB", "country": "CA", "postalCode": "T2G0P6", "twitter": "None", "instagram": "None", "facebook": "None", "youtube": "None", "website": "None", "summary": "None", "logo": "None", "latitude": 51.0445575, "longitude": -114.06165974999999}, "848103735RR0001": {"name": "Omar Al-Farooq Islamic Foundation", "designationCode": "A", "categoryCode": "03", "address": "1250 - 1500 GEORGIA ST W", "city": "VANCOUVER", "province": "BC", "country": "CA", "postalCode": "V6G2Z6", "twitter": "None", "instagram": "None", "facebook": "None", "youtube": "None", "website": "None", "summary": "None", "logo": "None", "latitude": 49.29013479542975, "longitude": -123.1300069287031}, "873819726RR0001": {"name": "Omega Church Centre", "designationCode": "C", "categoryCode": "39", "address": "3 DUNEGRASS WAY", "city": "BRAMPTON", "province": "ON", "country": "CA", "postalCode": "L6P2T5", "twitter": "None", "instagram": "None", "facebook": "None", "youtube": "None", "website": "None", "summary": "None", "logo": "None", "latitude": 43.76925281958001, "longitude": -79.68232575962274}, "820315968RR0001": {"name": "Omega Fire Ministries of Calgary", "designationCode": "C", "categoryCode": "39", "address": "BAY#9 1215 LAKE SYLVAN DR. SE", "city": "CALGARY", "province": "AB", "country": "CA", "postalCode": "T2J3Z5", "twitter": "None", "instagram": "None", "facebook": "None", "youtube": "None", "website": "None", "summary": "None", "logo": "None", "latitude": 50.94249157617299, "longitude": -114.0333397440995}, "820514842RR0001": {"name": "Omega Ministry Service Centre", "designationCode": "C", "categoryCode": "39", "address": "25 PETTIBONE SQUARE", "city": "TORONTO", "province": "ON", "country": "CA", "postalCode": "M1W2J1", "twitter": "None", "instagram": "None", "facebook": "None", "youtube": "None", "website": "None", "summary": "None", "logo": "None", "latitude": 43.79707886037867, "longitude": -79.32895753774024}, "119111722RR0001": {"name": "Omemee Baptist Church", "designationCode": "C", "categoryCode": "31", "address": "21 STURGEON STREET            P.O. BOX 127", "city": "OMEMEE", "province": "ON", "country": "CA", "postalCode": "K0L2W0", "twitter": "None", "instagram": "None", "facebook": "None", "youtube": "None", "website": "None", "summary": "None", "logo": "None", "latitude": 44.30200442636564, "longitude": -78.56125115499167}, "836673756RR0001": {"name": "Omemee Medical Centre", "designationCode": "C", "categoryCode": "11", "address": "23 WELLINGTON ST. E           P O BOX 310", "city": "OMEMEE", "province": "ON", "country": "CA", "postalCode": "K0L2W0", "twitter": "None", "instagram": "None", "facebook": "None", "youtube": "None", "website": "None", "summary": "None", "logo": "None", "latitude": 44.298861302731936, "longitude": -78.54993514197187}, "771694494RR0001": {"name": "Omers Foundation", "designationCode": "A", "categoryCode": "23", "address": "ONE UNIVERSITY AVENUE         16TH FLOOR", "city": "TORONTO", "province": "ON", "country": "CA", "postalCode": "M5J2P1", "twitter": "None", "instagram": "None", "facebook": "None", "youtube": "None", "website": "None", "summary": "None", "logo": "None", "latitude": 43.64664999747912, "longitude": -79.38423913129603}, "124564626RR0001": {"name": "Omnibus, le corps du th\u00e9\u00e2tre", "designationCode": "C", "categoryCode": "22", "address": "1945 FULLUM", "city": "MONTREAL", "province": "QC", "country": "CA", "postalCode": "H2K3N3", "twitter": "None", "instagram": "None", "facebook": "None", "youtube": "None", "website": "None", "summary": "None", "logo": "None", "latitude": 45.53015310825773, "longitude": -73.5544206891339}, "816315865RR0001": {"name": "Ompah Community Volunteer Association", "designationCode": "C", "categoryCode": "59", "address": "POST OFFICE BOX 2022", "city": "OMPAH", "province": "ON", "country": "CA", "postalCode": "K0H2J0", "twitter": "None", "instagram": "None", "facebook": "None", "youtube": "None", "website": "None", "summary": "None", "logo": "None", "latitude": 45.01156000000003, "longitude": -76.82910999999996}, "848964995RR0001": {"name": "Omwaana Ono International", "designationCode": "B", "categoryCode": "23", "address": "739 SIMMONS ROAD", "city": "ODESSA", "province": "ON", "country": "CA", "postalCode": "K0H2H0", "twitter": "None", "instagram": "None", "facebook": "None", "youtube": "None", "website": "None", "summary": "None", "logo": "None", "latitude": 44.308950185870216, "longitude": -76.7559416323765}, "836799783RR0001": {"name": "On roule", "designationCode": "C", "categoryCode": "09", "address": "1580, RUE ONTARIO EST         C.P. 55021, CHAMPLAIN PO", "city": "MONTREAL", "province": "QC", "country": "CA", "postalCode": "H2L0C1", "twitter": "None", "instagram": "None", "facebook": "None", "youtube": "None", "website": "None", "summary": "None", "logo": "None", "latitude": 45.52466940660168, "longitude": -73.560162600179}, "854928124RR0001": {"name": "On the Front Line Society (Breast Cancer Fund)", "designationCode": "A", "categoryCode": "03", "address": "6309 CORNWALL STREET", "city": "HALIFAX", "province": "NS", "country": "CA", "postalCode": "B3H2J2", "twitter": "None", "instagram": "None", "facebook": "None", "youtube": "None", "website": "None", "summary": "None", "logo": "None", "latitude": 44.642041081337524, "longitude": -63.59676085152051}, "807498910RR0001": {"name": "On the Rock Community Church", "designationCode": "C", "categoryCode": "39", "address": "P.O. BOX 54", "city": "NIAGARA FALLS", "province": "ON", "country": "CA", "postalCode": "L2E6S8", "twitter": "None", "instagram": "None", "facebook": "None", "youtube": "None", "website": "None", "summary": "None", "logo": "None", "latitude": 43.10663100000005, "longitude": -79.06433299999993}, "845269075RR0001": {"name": "On Guard for Humanity", "designationCode": "C", "categoryCode": "59", "address": "208 HOMEWOOD AVENUE           WILLOWDALE", "city": "NORTH YORK", "province": "ON", "country": "CA", "postalCode": "M2M1K6", "twitter": "None", "instagram": "None", "facebook": "None", "youtube": "None", "website": "None", "summary": "None", "logo": "None", "latitude": 43.78867113962135, "longitude": -79.42961859714923}, "829142355RR0001": {"name": "On-Track Career and Employment Services Inc.", "designationCode": "C", "categoryCode": "59", "address": "1371 NEILSON RD               SUITE 113", "city": "SCARBOROUGH", "province": "ON", "country": "CA", "postalCode": "M1B4Z8", "twitter": "None", "instagram": "None", "facebook": "None", "youtube": "None", "website": "None", "summary": "None", "logo": "None", "latitude": 43.809013820733824, "longitude": -79.22118808739705}, "832009039RR0001": {"name": "Onaway Pond Foundation", "designationCode": "B", "categoryCode": "03", "address": "1615 MUSKOKA ROAD NORTH", "city": "GRAVENHURST", "province": "ON", "country": "CA", "postalCode": "P1P1R4", "twitter": "None", "instagram": "None", "facebook": "None", "youtube": "None", "website": "None", "summary": "None", "logo": "None", "latitude": 44.94100395377794, "longitude": -79.39044451471425}, "818807000RR0001": {"name": "Ondo Foundations Canada International", "designationCode": "C", "categoryCode": "09", "address": "1280 FINCH AVE WEST UNIT 405", "city": "TORONTO", "province": "ON", "country": "CA", "postalCode": "M3J3K6", "twitter": "None", "instagram": "None", "facebook": "None", "youtube": "None", "website": "None", "summary": "None", "logo": "None", "latitude": 43.764281738271116, "longitude": -79.48836339330013}, "809050578RR0001": {"name": "One with God Community", "designationCode": "C", "categoryCode": "47", "address": "106 DOUBTFIRE CRESCENT", "city": "MARKHAM", "province": "ON", "country": "CA", "postalCode": "L3S3V5", "twitter": "None", "instagram": "None", "facebook": "None", "youtube": "None", "website": "None", "summary": "None", "logo": "None", "latitude": 43.843413342489505, "longitude": -79.26484868584434}, "776896524RR0001": {"name": "One Body Village", "designationCode": "C", "categoryCode": "09", "address": "605 - 1027 CAMERON AVE SW", "city": "CALGARY", "province": "AB", "country": "CA", "postalCode": "T2T0K3", "twitter": "None", "instagram": "None", "facebook": "None", "youtube": "None", "website": "None", "summary": "None", "logo": "None", "latitude": 51.03623153231591, "longitude": -114.086124}, "857161228RR0001": {"name": "One Boy One Van Foundation", "designationCode": "C", "categoryCode": "59", "address": "6217 TEALWOOD PLACE", "city": "OTTAWA", "province": "ON", "country": "CA", "postalCode": "K1C7K1", "twitter": "None", "instagram": "None", "facebook": "None", "youtube": "None", "website": "None", "summary": "None", "logo": "None", "latitude": 45.45289235276127, "longitude": -75.53144215903971}, "851871517RR0001": {"name": "One Church", "designationCode": "C", "categoryCode": "39", "address": "PO BOX 8001, STATION A", "city": "HALIFAX", "province": "NS", "country": "CA", "postalCode": "B3K5L8", "twitter": "None", "instagram": "None", "facebook": "None", "youtube": "None", "website": "None", "summary": "None", "logo": "None", "latitude": 44.645478000000054, "longitude": -63.576552499999934}, "806786398RR0001": {"name": "One Diaper Canada", "designationCode": "C", "categoryCode": "09", "address": "279 JOHN ASELFORD DR", "city": "KANATA", "province": "ON", "country": "CA", "postalCode": "K2W1A8", "twitter": "None", "instagram": "None", "facebook": "None", "youtube": "None", "website": "None", "summary": "None", "logo": "None", "latitude": 45.377797804259245, "longitude": -76.04005616758074}, "858865561RR0001": {"name": "One Flock One Shepherd Ministries (OFOSM)", "designationCode": "C", "categoryCode": "39", "address": "984 FIELDFAIR WAY", "city": "ORLEANS", "province": "ON", "country": "CA", "postalCode": "K4A0E4", "twitter": "None", "instagram": "None", "facebook": "None", "youtube": "None", "website": "None", "summary": "None", "logo": "None", "latitude": 45.459422915632715, "longitude": -75.45317079084212}, "825149834RR0001": {"name": "One Girl Can Society", "designationCode": "C", "categoryCode": "21", "address": "3765 WILLIAM STREET", "city": "BURNABY", "province": "BC", "country": "CA", "postalCode": "V5C3H8", "twitter": "None", "instagram": "None", "facebook": "None", "youtube": "None", "website": "None", "summary": "None", "logo": "None", "latitude": 49.27403264413869, "longitude": -123.02197312065563}, "107764573RR0001": {"name": "One Hope Ministries of Canada", "designationCode": "C", "categoryCode": "47", "address": "6 - 875 GATEWAY RD", "city": "WINNIPEG", "province": "MB", "country": "CA", "postalCode": "R2K3L1", "twitter": "None", "instagram": "None", "facebook": "None", "youtube": "None", "website": "None", "summary": "None", "logo": "None", "latitude": 49.92433960808486, "longitude": -97.07694387797937}, "107764573RR0010": {"name": "One Hope Ministries of Canada", "designationCode": "C", "categoryCode": "49", "address": "6 - 875 GATEWAY RD", "city": "WINNIPEG", "province": "MB", "country": "CA", "postalCode": "R2K3L1", "twitter": "None", "instagram": "None", "facebook": "None", "youtube": "None", "website": "None", "summary": "None", "logo": "None", "latitude": 49.92433960808486, "longitude": -97.07694387797937}, "107764573RR0002": {"name": "One Hope Ministries of Canada (British Columbia Branch)", "designationCode": "C", "categoryCode": "49", "address": "6 - 875 GATEWAY RD", "city": "WINNIPEG", "province": "MB", "country": "CA", "postalCode": "R2K3L1", "twitter": "None", "instagram": "None", "facebook": "None", "youtube": "None", "website": "None", "summary": "None", "logo": "None", "latitude": 49.92433960808486, "longitude": -97.07694387797937}, "107764573RR0006": {"name": "One Hope Ministries of Canada (Quebec)", "designationCode": "C", "categoryCode": "49", "address": "CP 818 CSP MAGOG", "city": "MAGOG", "province": "QC", "country": "CA", "postalCode": "J1X5C6", "twitter": "None", "instagram": "None", "facebook": "None", "youtube": "None", "website": "None", "summary": "None", "logo": "None", "latitude": 45.26478600000006, "longitude": -72.14726149999993}, "107764573RR0003": {"name": "One Hope Ministries of Canada Alberta Branch", "designationCode": "C", "categoryCode": "39", "address": "6 - 875 GATEWAY RD", "city": "WINNIPEG", "province": "MB", "country": "CA", "postalCode": "R2K3L1", "twitter": "None", "instagram": "None", "facebook": "None", "youtube": "None", "website": "None", "summary": "None", "logo": "None", "latitude": 49.92433960808486, "longitude": -97.07694387797937}, "107764573RR0007": {"name": "One Hope Ministries of Canada Ontario Branch", "designationCode": "C", "categoryCode": "49", "address": "6 - 875 GATEWAY RD", "city": "WINNIPEG", "province": "MB", "country": "CA", "postalCode": "R2K3L1", "twitter": "None", "instagram": "None", "facebook": "None", "youtube": "None", "website": "None", "summary": "None", "logo": "None", "latitude": 49.92433960808486, "longitude": -97.07694387797937}, "816384291RR0001": {"name": "One Life One Chance Ministries", "designationCode": "C", "categoryCode": "09", "address": "P O BOX 4023 YARROW STN. MAIN", "city": "CHILLIWACK", "province": "BC", "country": "CA", "postalCode": "V2R5H8", "twitter": "None", "instagram": "None", "facebook": "None", "youtube": "None", "website": "None", "summary": "None", "logo": "None", "latitude": 49.08102000000008, "longitude": -122.04812999999996}, "820686632RR0001": {"name": "One Love Africa Foundation", "designationCode": "B", "categoryCode": "29", "address": "3505 MAPLEWOOD ROAD", "city": "VICTORIA", "province": "BC", "country": "CA", "postalCode": "V8P3N6", "twitter": "None", "instagram": "None", "facebook": "None", "youtube": "None", "website": "None", "summary": "None", "logo": "None", "latitude": 48.45729692200936, "longitude": -123.35087856339105}, "821516440RR0001": {"name": "One More Time", "designationCode": "C", "categoryCode": "09", "address": "216-67 MINER STREET", "city": "NEW WESTMINSTER", "province": "BC", "country": "CA", "postalCode": "V3L5N5", "twitter": "None", "instagram": "None", "facebook": "None", "youtube": "None", "website": "None", "summary": "None", "logo": "None", "latitude": 49.218513770442804, "longitude": -122.89751860589182}, "842867434RR0001": {"name": "One Spark", "designationCode": "C", "categoryCode": "09", "address": "195 CONCESSION 11 EAST", "city": "FREELTON", "province": "ON", "country": "CA", "postalCode": "L0R1K0", "twitter": "None", "instagram": "None", "facebook": "None", "youtube": "None", "website": "None", "summary": "None", "logo": "None", "latitude": 43.41229123206738, "longitude": -80.01791035128937}, "825126642RR0001": {"name": "One Voice Chorus Society", "designationCode": "C", "categoryCode": "22", "address": "PO BOX 52277                  RPO EDMONTON TRAIL", "city": "CALGARY", "province": "AB", "country": "CA", "postalCode": "T2E8K9", "twitter": "None", "instagram": "None", "facebook": "None", "youtube": "None", "website": "None", "summary": "None", "logo": "None", "latitude": 51.07181492607277, "longitude": -114.0562368497271}, "856281498RR0001": {"name": "One Voice One Team Youth Leadership Organization", "designationCode": "C", "categoryCode": "09", "address": "100 QUEEN STREET WEST", "city": "BRAMPTON", "province": "ON", "country": "CA", "postalCode": "L6X1A4", "twitter": "None", "instagram": "None", "facebook": "None", "youtube": "None", "website": "None", "summary": "None", "logo": "None", "latitude": 43.68398318180499, "longitude": -79.76206447795587}, "119304624RR0001": {"name": "One World Arts", "designationCode": "C", "categoryCode": "59", "address": "450 CHURCHILL AVE N", "city": "OTTAWA", "province": "ON", "country": "CA", "postalCode": "K1Z5E2", "twitter": "None", "instagram": "None", "facebook": "None", "youtube": "None", "website": "None", "summary": "None", "logo": "None", "latitude": 45.39011920814826, "longitude": -75.75259383351576}, "819252248RR0001": {"name": "One World Missions Outreach", "designationCode": "C", "categoryCode": "39", "address": "PO BOX 30148                  RPO REXDALE", "city": "ETOBICOKE", "province": "ON", "country": "CA", "postalCode": "M9W0B1", "twitter": "None", "instagram": "None", "facebook": "None", "youtube": "None", "website": "None", "summary": "None", "logo": "None", "latitude": 43.718359616880875, "longitude": -79.60036247497096}, "825358484RR0001": {"name": "One World Schoolhouse Foundation", "designationCode": "C", "categoryCode": "21", "address": "77 SUFFOLK ST.WEST", "city": "GUELPH", "province": "ON", "country": "CA", "postalCode": "N1H2J3", "twitter": "None", "instagram": "None", "facebook": "None", "youtube": "None", "website": "None", "summary": "None", "logo": "None", "latitude": 43.54592876576824, "longitude": -80.25758686055156}, "841057219RR0001": {"name": "One Yellow Rabbit Creative Capital Foundation", "designationCode": "A", "categoryCode": "23", "address": "21, 225 - 8TH AVENUE S.E.", "city": "CALGARY", "province": "AB", "country": "CA", "postalCode": "T2G0K8", "twitter": "None", "instagram": "None", "facebook": "None", "youtube": "None", "website": "None", "summary": "None", "logo": "None", "latitude": 51.04519282943797, "longitude": -114.05143117605162}, "827851536RR0001": {"name": "Oneball Charitable Cancer Organization", "designationCode": "A", "categoryCode": "03", "address": "#505                          535 10TH AVENUE SW", "city": "CALGARY", "province": "AB", "country": "CA", "postalCode": "T2R0R5", "twitter": "None", "instagram": "None", "facebook": "None", "youtube": "None", "website": "None", "summary": "None", "logo": "None", "latitude": 51.04365729686165, "longitude": -114.07597409329618}}