{"878530609RR0001": {"name": "RESIDENCE DES JARDINS DU GOUFFRE", "designationCode": "C", "categoryCode": "09", "address": "15, RUE DU MOULIN             LOCAL 108", "city": "QUEBEC", "province": "QC", "country": "CA", "postalCode": "G3Z2R8", "twitter": "None", "instagram": "None", "facebook": "None", "youtube": "None", "website": "None", "summary": "None", "logo": "None", "latitude": 47.44240263165816, "longitude": -70.51442201895702}, "860262856RR0001": {"name": "RESIDENCE DR LUCIEN FERLAND", "designationCode": "C", "categoryCode": "09", "address": "411 RUE ARBOUR", "city": "STE-\u00c9M\u00c9LIE-DE-L'\u00c9N\u00c9RGIE", "province": "QC", "country": "CA", "postalCode": "J0K2K0", "twitter": "None", "instagram": "None", "facebook": "None", "youtube": "None", "website": "None", "summary": "None", "logo": "None", "latitude": 46.32269209270582, "longitude": -73.64501134150854}, "887194884RR0001": {"name": "RESIDENCE ELLE DU HAUT ST-LAURENT", "designationCode": "C", "categoryCode": "09", "address": "C.P.90018", "city": "HUNTINGDON", "province": "QC", "country": "CA", "postalCode": "J0S1H0", "twitter": "None", "instagram": "None", "facebook": "None", "youtube": "None", "website": "None", "summary": "None", "logo": "None", "latitude": 45.08652809804847, "longitude": -74.16945534161125}, "119117026RR0001": {"name": "RESIDENCE GARNIER", "designationCode": "C", "categoryCode": "01", "address": "413-2140 CH. SAINT-LOUIS", "city": "QUEBEC", "province": "QC", "country": "CA", "postalCode": "G1T1P8", "twitter": "None", "instagram": "None", "facebook": "None", "youtube": "None", "website": "None", "summary": "None", "logo": "None", "latitude": 46.774928660568925, "longitude": -71.25426465003734}, "880724000RR0001": {"name": "RESIDENCE GEORGES-L'ALLIER", "designationCode": "C", "categoryCode": "09", "address": "552 DE L'\u00c9GLISE", "city": "CHERTSEY", "province": "QC", "country": "CA", "postalCode": "J0K3K0", "twitter": "None", "instagram": "None", "facebook": "None", "youtube": "None", "website": "None", "summary": "None", "logo": "None", "latitude": 46.07432939327148, "longitude": -73.88869572978834}, "879315307RR0001": {"name": "RESIDENCE INTERLUDE", "designationCode": "C", "categoryCode": "01", "address": "537 AV ROBERT-CLICHE", "city": "SAINT-JOSEPH-DE-BEAUCE", "province": "QC", "country": "CA", "postalCode": "G0S2V0", "twitter": "None", "instagram": "None", "facebook": "None", "youtube": "None", "website": "None", "summary": "None", "logo": "None", "latitude": 46.3178586833342, "longitude": -70.88575529528552}, "119117059RR0001": {"name": "RESIDENCE L'AMITIE SARAGUAY (1974) INC.", "designationCode": "C", "categoryCode": "01", "address": "9167 BOUL GOUIN OUEST", "city": "MONTREAL", "province": "QC", "country": "CA", "postalCode": "H4K2E2", "twitter": "None", "instagram": "None", "facebook": "None", "youtube": "None", "website": "None", "summary": "None", "logo": "None", "latitude": 45.514111094667726, "longitude": -73.74757225122595}, "107887697RR0001": {"name": "RESIDENCE LA JEROMIENNE INC.", "designationCode": "C", "categoryCode": "09", "address": "555 RUE LAVIOLETTE", "city": "ST-JEROME", "province": "QC", "country": "CA", "postalCode": "J7Y3Y5", "twitter": "None", "instagram": "None", "facebook": "None", "youtube": "None", "website": "None", "summary": "None", "logo": "None", "latitude": 45.784180549829706, "longitude": -74.00700769464517}, "892526682RR0001": {"name": "RESIDENCE LANOYEE", "designationCode": "C", "categoryCode": "09", "address": "3 RUE PRINCIPALE", "city": "NOTRE-DAME-DES-MONTS", "province": "QC", "country": "CA", "postalCode": "G0T1L0", "twitter": "None", "instagram": "None", "facebook": "None", "youtube": "None", "website": "None", "summary": "None", "logo": "None", "latitude": 47.66573373160601, "longitude": -70.38005763209087}, "135936565RR0001": {"name": "RESIDENCE LE GRAND AGE", "designationCode": "C", "categoryCode": "01", "address": "1650 ST TIMOTHE STE 105", "city": "MONTREAL", "province": "QC", "country": "CA", "postalCode": "H2L3P1", "twitter": "None", "instagram": "None", "facebook": "None", "youtube": "None", "website": "None", "summary": "None", "logo": "None", "latitude": 45.5183408151366, "longitude": -73.56041207773085}, "139351993RR0001": {"name": "RESIDENCE LE PORTAIL", "designationCode": "C", "categoryCode": "57", "address": "1240 ROUTE FOSSAMBAULT", "city": "SAINT-AUGUSTIN DE DESMAURES", "province": "QC", "country": "CA", "postalCode": "G3A1W8", "twitter": "None", "instagram": "None", "facebook": "None", "youtube": "None", "website": "None", "summary": "None", "logo": "None", "latitude": 46.771439004760516, "longitude": -71.4954562017143}, "891541823RR0001": {"name": "RESIDENCE LE TREMPLIN", "designationCode": "C", "categoryCode": "09", "address": "524 ROUTE DU SANCTUAIRE       BUREAU 13", "city": "LAC-ETCHEMIN", "province": "QC", "country": "CA", "postalCode": "G0R1S0", "twitter": "None", "instagram": "None", "facebook": "None", "youtube": "None", "website": "None", "summary": "None", "logo": "None", "latitude": 46.3959133050377, "longitude": -70.52015821236053}, "847280070RR0001": {"name": "RESIDENCE LE VILLAGEOIS INC.", "designationCode": "C", "categoryCode": "09", "address": "1000, 1IERE RUE EST           CASIER POSTAL 100", "city": "L'ASCENSION-DE-NOTRE-SEIGNEUR", "province": "QC", "country": "CA", "postalCode": "G0W1Y0", "twitter": "None", "instagram": "None", "facebook": "None", "youtube": "None", "website": "None", "summary": "None", "logo": "None", "latitude": 48.69655800000005, "longitude": -71.66769199999993}, "888198843RR0001": {"name": "RESIDENCE LEONIE PARADIS", "designationCode": "C", "categoryCode": "01", "address": "740, BOUL. STE-FOY", "city": "LONGUEUIL", "province": "QC", "country": "CA", "postalCode": "J4J1Z3", "twitter": "None", "instagram": "None", "facebook": "None", "youtube": "None", "website": "None", "summary": "None", "logo": "None", "latitude": 45.52391010794063, "longitude": -73.49585410600737}, "107706947RR0001": {"name": "RESIDENCE MARIANNHILL", "designationCode": "C", "categoryCode": "21", "address": "2014, RUE HELENE-BOULL\u00c9", "city": "QU\u00c9BEC", "province": "QC", "country": "CA", "postalCode": "G1V2B8", "twitter": "None", "instagram": "None", "facebook": "None", "youtube": "None", "website": "None", "summary": "None", "logo": "None", "latitude": 46.790296825437046, "longitude": -71.26343770901364}, "119117117RR0001": {"name": "RESIDENCE MGR MELANSON INC.", "designationCode": "C", "categoryCode": "01", "address": "11, RUE LEVESQUE", "city": "SAINT-QUENTIN", "province": "NB", "country": "CA", "postalCode": "E8A1T1", "twitter": "None", "instagram": "None", "facebook": "None", "youtube": "None", "website": "None", "summary": "None", "logo": "None", "latitude": 47.49973047619648, "longitude": -67.39164072300768}, "131298937RR0001": {"name": "RESIDENCE MORIN HEIGHTS INC", "designationCode": "C", "categoryCode": "01", "address": "15 GLEN ST.", "city": "MORIN HEIGHTS", "province": "QC", "country": "CA", "postalCode": "J0R1H0", "twitter": "None", "instagram": "None", "facebook": "None", "youtube": "None", "website": "None", "summary": "None", "logo": "None", "latitude": 45.90564552703578, "longitude": -74.23873263569754}, "104483862RR0001": {"name": "RESIDENCE NOTRE-DAME DE FATIMA INC.", "designationCode": "C", "categoryCode": "01", "address": "402 GOSFORD OUEST", "city": "STE-AGATHE", "province": "QC", "country": "CA", "postalCode": "G0S2A0", "twitter": "None", "instagram": "None", "facebook": "None", "youtube": "None", "website": "None", "summary": "None", "logo": "None", "latitude": 46.382635532575705, "longitude": -71.4105768510305}, "856327903RR0001": {"name": "RESIDENCE NOTRE-DAME-DE-RICHELIEU", "designationCode": "C", "categoryCode": "47", "address": "460, 1ERE RUE", "city": "RICHELIEU", "province": "QC", "country": "CA", "postalCode": "J3L4B5", "twitter": "None", "instagram": "None", "facebook": "None", "youtube": "None", "website": "None", "summary": "None", "logo": "None", "latitude": 45.44870556942925, "longitude": -73.2618040494552}, "107597973RR0001": {"name": "RESIDENCE OF LACHUTE (SENIOR CITIZENS' HOME)", "designationCode": "C", "categoryCode": "01", "address": "377 RUE PRINCIPALE", "city": "LACHUTE", "province": "QC", "country": "CA", "postalCode": "J8H1Y1", "twitter": "None", "instagram": "None", "facebook": "None", "youtube": "None", "website": "None", "summary": "None", "logo": "None", "latitude": 45.65611238891406, "longitude": -74.33900427243334}, "886135995RR0001": {"name": "RESIDENCE PROJET CHANCE INC.", "designationCode": "C", "categoryCode": "09", "address": "3950 CAVENDISH BOUL. SUITE 17", "city": "MONTR\u00c9AL", "province": "QC", "country": "CA", "postalCode": "H4B2N3", "twitter": "None", "instagram": "None", "facebook": "None", "youtube": "None", "website": "None", "summary": "None", "logo": "None", "latitude": 45.4644527346358, "longitude": -73.63063202042798}, "891183543RR0001": {"name": "RESIDENCE PROVENCHER", "designationCode": "C", "categoryCode": "01", "address": "501 RUE PROVENCHER", "city": "LAURIERVILLE", "province": "QC", "country": "CA", "postalCode": "G0S1P0", "twitter": "None", "instagram": "None", "facebook": "None", "youtube": "None", "website": "None", "summary": "None", "logo": "None", "latitude": 46.296200232846765, "longitude": -71.65792834390312}, "119117158RR0002": {"name": "RESIDENCE RICHELIEU (WELLAND) INCORPORATED", "designationCode": "C", "categoryCode": "01", "address": "649 TANGUAY AVENUE", "city": "WELLAND", "province": "ON", "country": "CA", "postalCode": "L3B5W5", "twitter": "None", "instagram": "None", "facebook": "None", "youtube": "None", "website": "None", "summary": "None", "logo": "None", "latitude": 42.98978350548168, "longitude": -79.2250324417162}, "893360321RR0001": {"name": "RESIDENCE ROSALIE", "designationCode": "C", "categoryCode": "09", "address": "3904, RUE NOTRE-DAME OUEST", "city": "MONTREAL", "province": "QC", "country": "CA", "postalCode": "H4C1R1", "twitter": "None", "instagram": "None", "facebook": "None", "youtube": "None", "website": "None", "summary": "None", "logo": "None", "latitude": 45.47843036190787, "longitude": -73.58305790339904}, "140011404RR0001": {"name": "RESIDENCE SAINT-ETIENNE-DE-LAUZON", "designationCode": "C", "categoryCode": "01", "address": "18 RUE DE ST-ETIENNE DE LAUZON", "city": "LEVIS", "province": "QC", "country": "CA", "postalCode": "G6J1V1", "twitter": "None", "instagram": "None", "facebook": "None", "youtube": "None", "website": "None", "summary": "None", "logo": "None", "latitude": 46.65150696814452, "longitude": -71.30224433998785}, "863823878RR0001": {"name": "RESIDENCE SAINT-PASCAL", "designationCode": "C", "categoryCode": "09", "address": "2601, CHEMIN DE LA CANARDI\u00c8RE J-9000", "city": "QU\u00c9BEC", "province": "QC", "country": "CA", "postalCode": "G1J2G3", "twitter": "None", "instagram": "None", "facebook": "None", "youtube": "None", "website": "None", "summary": "None", "logo": "None", "latitude": 46.84564443851354, "longitude": -71.2174281421315}, "143082535RR0001": {"name": "RESIDENCE SAINT-PIERRE DE BROUGHTON", "designationCode": "C", "categoryCode": "09", "address": "2, RUE ST-LOUIS", "city": "SAINT-PIERRE DE BROUGHTON", "province": "QC", "country": "CA", "postalCode": "G0N1T0", "twitter": "None", "instagram": "None", "facebook": "None", "youtube": "None", "website": "None", "summary": "None", "logo": "None", "latitude": 46.24437568471919, "longitude": -71.20756210993117}, "893269365RR0001": {"name": "RESIDENCE SEPHARADE SALOMON (COMMUNAUTE SEPHARADE UNIFIEE DU QUEBEC)", "designationCode": "C", "categoryCode": "49", "address": "5151 CHEMIN COTE STE-CATHERINEBUREAU 216", "city": "MONTREAL", "province": "QC", "country": "CA", "postalCode": "H3W1M6", "twitter": "None", "instagram": "None", "facebook": "None", "youtube": "None", "website": "None", "summary": "None", "logo": "None", "latitude": 45.48237058633354, "longitude": -73.62092347255091}, "104484167RR0001": {"name": "RESIDENCE ST. CLAUDE LTEE.", "designationCode": "C", "categoryCode": "01", "address": "BOX 368", "city": "ST. CLAUDE", "province": "MB", "country": "CA", "postalCode": "R0G1Z0", "twitter": "None", "instagram": "None", "facebook": "None", "youtube": "None", "website": "None", "summary": "None", "logo": "None", "latitude": 49.65375240493102, "longitude": -98.34234710777315}, "119117265RR0001": {"name": "RESIDENCE ST-FLAVIEN INC.", "designationCode": "C", "categoryCode": "01", "address": "2 RUE CAUX", "city": "ST-FLAVIEN", "province": "QC", "country": "CA", "postalCode": "G0S2M0", "twitter": "None", "instagram": "None", "facebook": "None", "youtube": "None", "website": "None", "summary": "None", "logo": "None", "latitude": 46.512027387731564, "longitude": -71.59921344676518}, "107888869RR0001": {"name": "RESIDENCE UKRAINIENNE DE MONTREAL- UKRAINIAN RESIDENCE OF MONTREAL", "designationCode": "C", "categoryCode": "01", "address": "6300 8TH AVE ROSEMONT", "city": "MONTREAL", "province": "QC", "country": "CA", "postalCode": "H1Y3E6", "twitter": "None", "instagram": "None", "facebook": "None", "youtube": "None", "website": "None", "summary": "None", "logo": "None", "latitude": 45.55253514790256, "longitude": -73.58555227312584}, "898393681RR0001": {"name": "RESIDENCES DE L'OUEST DE L'ILEPOUR LES HANDICAPES INTELLECTUELS", "designationCode": "C", "categoryCode": "01", "address": "111 DONEGANI", "city": "POINTE-CLAIRE", "province": "QC", "country": "CA", "postalCode": "H9R2W3", "twitter": "None", "instagram": "None", "facebook": "None", "youtube": "None", "website": "None", "summary": "None", "logo": "None", "latitude": 45.450077467684125, "longitude": -73.79088586525474}, "145371928RR0001": {"name": "RESIDENCES DU MEANDRE", "designationCode": "C", "categoryCode": "09", "address": "100A - 300 PLACE DE COURVILLE", "city": "L'ASSOMPTION", "province": "QC", "country": "CA", "postalCode": "J5W6E6", "twitter": "None", "instagram": "None", "facebook": "None", "youtube": "None", "website": "None", "summary": "None", "logo": "None", "latitude": 45.831169540106174, "longitude": -73.42605030117122}, "886328152RR0001": {"name": "RESIDENCES DU MIEUX-VIVRE INC", "designationCode": "C", "categoryCode": "09", "address": "C.P. 3098", "city": "MALARTIC", "province": "QC", "country": "CA", "postalCode": "J0Y1Z0", "twitter": "None", "instagram": "None", "facebook": "None", "youtube": "None", "website": "None", "summary": "None", "logo": "None", "latitude": 48.14962800000005, "longitude": -78.11180449999993}, "896630274RR0001": {"name": "RESIDENCES DU PRECIEUX SANG INC.", "designationCode": "C", "categoryCode": "09", "address": "69, RUE SAINT LOUIS", "city": "L\u00c9VIS", "province": "QC", "country": "CA", "postalCode": "G6V4G2", "twitter": "None", "instagram": "None", "facebook": "None", "youtube": "None", "website": "None", "summary": "None", "logo": "None", "latitude": 46.80283367210465, "longitude": -71.18542020454824}, "119025195RR0001": {"name": "RESIDENCES FOR INDEPENDENT LIVING SOCIETY", "designationCode": "C", "categoryCode": "01", "address": "1167 FORGE WALK", "city": "VANCOUVER", "province": "BC", "country": "CA", "postalCode": "V6H3R1", "twitter": "None", "instagram": "None", "facebook": "None", "youtube": "None", "website": "None", "summary": "None", "logo": "None", "latitude": 49.26712915794321, "longitude": -123.12936515569285}, "129951190RR0001": {"name": "RESIDENCES 445 GEORGES INC", "designationCode": "C", "categoryCode": "01", "address": "445 RUE GEORGES", "city": "MAGOG", "province": "QC", "country": "CA", "postalCode": "J1X5P6", "twitter": "None", "instagram": "None", "facebook": "None", "youtube": "None", "website": "None", "summary": "None", "logo": "None", "latitude": 45.27158341162201, "longitude": -72.15243298185102}, "868876798RR0001": {"name": "RESIDENT COUNCIL OF GLEN STOR DUN LODGE", "designationCode": "C", "categoryCode": "09", "address": "1900 MONTREAL ROAD", "city": "CORWALL", "province": "ON", "country": "CA", "postalCode": "K6H7L1", "twitter": "None", "instagram": "None", "facebook": "None", "youtube": "None", "website": "None", "summary": "None", "logo": "None", "latitude": 45.02556403029573, "longitude": -74.68285752559254}, "887424000RR0001": {"name": "RESIDENTS COUNCIL AT GABLES LODGE", "designationCode": "C", "categoryCode": "56", "address": "260 CHURCH STREET", "city": "AMHERST", "province": "NS", "country": "CA", "postalCode": "B4H3C9", "twitter": "None", "instagram": "None", "facebook": "None", "youtube": "None", "website": "None", "summary": "None", "logo": "None", "latitude": 45.823696293207114, "longitude": -64.19065853944326}, "139275499RR0001": {"name": "RESIDUAL TRUST UNDER THE WILL OF FREDERICK R MACKELCAN", "designationCode": "B", "categoryCode": "25", "address": "130 KING STREET WEST 20TH FLO BOX 430 STN FIRST CANADIAN PL", "city": "TORONTO", "province": "ON", "country": "CA", "postalCode": "M5X1K1", "twitter": "None", "instagram": "None", "facebook": "None", "youtube": "None", "website": "None", "summary": "None", "logo": "None", "latitude": 43.64826932503962, "longitude": -79.38190945606182}, "119117323RR0001": {"name": "RESIDUAL TRUST UNDER THE WILL OF NELSON LAWRENCE THURSTON", "designationCode": "B", "categoryCode": "03", "address": "1402 - 1 KING ST W", "city": "HAMILTON", "province": "ON", "country": "CA", "postalCode": "L8P1A4", "twitter": "None", "instagram": "None", "facebook": "None", "youtube": "None", "website": "None", "summary": "None", "logo": "None", "latitude": 43.26019321073324, "longitude": -79.88135629363086}, "886583996RR0001": {"name": "RESIDUAL TRUST UNDER THE WILL OF PATRICK POWER", "designationCode": "B", "categoryCode": "25", "address": "74 CEDAR CRESCENT", "city": "DARMOUTH", "province": "NS", "country": "CA", "postalCode": "B2V1Y6", "twitter": "None", "instagram": "None", "facebook": "None", "youtube": "None", "website": "None", "summary": "None", "logo": "None", "latitude": 44.65595265168212, "longitude": -63.485767166137514}, "107889057RR0001": {"name": "RESOLIDAIRE, RESEAU BENEVOLE HOCHELAGA-MAISONNEUVE INC.", "designationCode": "C", "categoryCode": "09", "address": "1625 AV DESJARDINS", "city": "MONTREAL", "province": "QC", "country": "CA", "postalCode": "H1V2G7", "twitter": "None", "instagram": "None", "facebook": "None", "youtube": "None", "website": "None", "summary": "None", "logo": "None", "latitude": 45.55010379323671, "longitude": -73.53747260407413}, "130585045RR0001": {"name": "RESOLVE COUNSELLING SERVICES CANADA", "designationCode": "C", "categoryCode": "59", "address": "417 BAGOT STREET", "city": "KINGSTON", "province": "ON", "country": "CA", "postalCode": "K7K3C1", "twitter": "None", "instagram": "None", "facebook": "None", "youtube": "None", "website": "None", "summary": "None", "logo": "None", "latitude": 44.235406005828395, "longitude": -76.48382318301707}, "861943769RR0001": {"name": "RESONANCE CHURCH", "designationCode": "C", "categoryCode": "39", "address": "282-6362 FRASER STREET", "city": "VANCOUVER", "province": "BC", "country": "CA", "postalCode": "V5W0A1", "twitter": "None", "instagram": "None", "facebook": "None", "youtube": "None", "website": "None", "summary": "None", "logo": "None", "latitude": 49.226767239800324, "longitude": -123.09070052383312}, "839191475RR0001": {"name": "RESONATE COMMUNITY BAPTIST CHURCH", "designationCode": "C", "categoryCode": "39", "address": "544 SPITFIRE DR", "city": "COMOX", "province": "BC", "country": "CA", "postalCode": "V9M0A1", "twitter": "None", "instagram": "None", "facebook": "None", "youtube": "None", "website": "None", "summary": "None", "logo": "None", "latitude": 49.68626228823885, "longitude": -124.95229112136775}, "894183177RR0001": {"name": "RESOURCE ASSISTANCE FOR YOUTH, INC.", "designationCode": "C", "categoryCode": "09", "address": "125 SHERBROOK ST", "city": "WINNIPEG", "province": "MB", "country": "CA", "postalCode": "R3C2B5", "twitter": "None", "instagram": "None", "facebook": "None", "youtube": "None", "website": "None", "summary": "None", "logo": "None", "latitude": 49.882659873160605, "longitude": -97.15946864469991}, "119117349RR0001": {"name": "RESOURCE CENTRE FOR THE ARTS", "designationCode": "C", "categoryCode": "22", "address": "3 VICTORIA STREET", "city": "ST. JOHN'S", "province": "NL", "country": "CA", "postalCode": "A1C3V2", "twitter": "None", "instagram": "None", "facebook": "None", "youtube": "None", "website": "None", "summary": "None", "logo": "None", "latitude": 47.56628379249236, "longitude": -52.706473511853545}, "107877839RR0001": {"name": "RESOURCE EFFICIENT AGRICULTURAL PRODUCTION (REAP)-CANADA", "designationCode": "C", "categoryCode": "52", "address": "CENTENNIAL CENTER             21111 LAKESHORE ROAD", "city": "STE ANNE DE BELLEVUE", "province": "QC", "country": "CA", "postalCode": "H9X3V9", "twitter": "None", "instagram": "None", "facebook": "None", "youtube": "None", "website": "None", "summary": "None", "logo": "None", "latitude": 45.40511593202903, "longitude": -73.93603765247339}, "119074821RR0001": {"name": "RESOURCE LEADERSHIP INTERNATIONAL FOR THEOLOGICAL EDUCATION", "designationCode": "C", "categoryCode": "47", "address": "5335 GAINSBERG ROAD", "city": "BOWSER", "province": "BC", "country": "CA", "postalCode": "V0R1G0", "twitter": "None", "instagram": "None", "facebook": "None", "youtube": "None", "website": "None", "summary": "None", "logo": "None", "latitude": 49.46178516581602, "longitude": -124.72347500274032}, "889832390RR0001": {"name": "RESOURCE LIBRARY FOR THE ENVIRONMENT AND THE LAW (TORONTO)", "designationCode": "C", "categoryCode": "50", "address": "1500 - 55 UNIVERSITY AVE", "city": "TORONTO", "province": "ON", "country": "CA", "postalCode": "M5J2H7", "twitter": "None", "instagram": "None", "facebook": "None", "youtube": "None", "website": "None", "summary": "None", "logo": "None", "latitude": 43.64683659867845, "longitude": -79.38431430818304}, "850742529RR0001": {"name": "RESOURCE PARTNERS SRG CANADA, INC.", "designationCode": "C", "categoryCode": "47", "address": "2500, 10123-99 STREET", "city": "EDMONTON", "province": "AB", "country": "CA", "postalCode": "T5J3H1", "twitter": "None", "instagram": "None", "facebook": "None", "youtube": "None", "website": "None", "summary": "None", "logo": "None", "latitude": 53.54197556203473, "longitude": -113.48865557807756}, "894005461RR0001": {"name": "RESOURCEFUL FUTURES COMMUNITY SUPPORT LTD.", "designationCode": "C", "categoryCode": "01", "address": "2918 3 AVE NE", "city": "CALGARY", "province": "AB", "country": "CA", "postalCode": "T2A6T7", "twitter": "None", "instagram": "None", "facebook": "None", "youtube": "None", "website": "None", "summary": "None", "logo": "None", "latitude": 51.05450947936953, "longitude": -113.99205438634658}, "122096407RR0001": {"name": "RESOURCES FOR EXCEPTIONAL CHILDREN - DURHAM REGION", "designationCode": "C", "categoryCode": "09", "address": "865 WESTNEY ROAD S.", "city": "AJAX", "province": "ON", "country": "CA", "postalCode": "L1S3M4", "twitter": "None", "instagram": "None", "facebook": "None", "youtube": "None", "website": "None", "summary": "None", "logo": "None", "latitude": 43.83007916241527, "longitude": -79.02029697726338}, "871500443RR0001": {"name": "RESPECT LIFE CENTRE SOCIETY", "designationCode": "C", "categoryCode": "49", "address": "344 MAIN ST                   P.O. BOX 1161", "city": "ANTIGONISH", "province": "NS", "country": "CA", "postalCode": "B2G2R6", "twitter": "None", "instagram": "None", "facebook": "None", "youtube": "None", "website": "None", "summary": "None", "logo": "None", "latitude": 45.62222856731484, "longitude": -61.99428181363604}, "871502316RR0001": {"name": "RESPECT LIFE OFFICE, DIOCESE OF PETERBOROUGH", "designationCode": "C", "categoryCode": "49", "address": "40 RUSSELL ST E", "city": "LINDSAY", "province": "ON", "country": "CA", "postalCode": "K9V2A4", "twitter": "None", "instagram": "None", "facebook": "None", "youtube": "None", "website": "None", "summary": "None", "logo": "None", "latitude": 44.35529947260091, "longitude": -78.72993775585347}, "891137267RR0001": {"name": "RESPONSIBLE ANIMAL CARE SOCIETY", "designationCode": "C", "categoryCode": "54", "address": "PO BOX 29074 OKM", "city": "KELOWNA", "province": "BC", "country": "CA", "postalCode": "V1W4A7", "twitter": "None", "instagram": "None", "facebook": "None", "youtube": "None", "website": "None", "summary": "None", "logo": "None", "latitude": 49.77796200000006, "longitude": -119.49561349999993}, "106846462RR0001": {"name": "RESPONSIBLE GAMBLING COUNCIL (ONTARIO)", "designationCode": "C", "categoryCode": "09", "address": "411 RICHMOND ST. E.           SUITE 205", "city": "TORONTO", "province": "ON", "country": "CA", "postalCode": "M5A3S5", "twitter": "None", "instagram": "None", "facebook": "None", "youtube": "None", "website": "None", "summary": "None", "logo": "None", "latitude": 43.6538198892321, "longitude": -79.36691630070987}, "893355362RR0001": {"name": "RESPONSIBLE GAMBLING COUNCIL OF CANADA/CONSEIL CANADIEN POUR LE JEU RESPONSABLE", "designationCode": "C", "categoryCode": "57", "address": "205-411 RICHMOND ST. E", "city": "TORONTO", "province": "ON", "country": "CA", "postalCode": "M5A3S5", "twitter": "None", "instagram": "None", "facebook": "None", "youtube": "None", "website": "None", "summary": "None", "logo": "None", "latitude": 43.6538198892321, "longitude": -79.36691630070987}, "885067405RR0001": {"name": "RESQ YOUTH INTERNATIONAL", "designationCode": "C", "categoryCode": "56", "address": "18 - 289 RUTHERFORD RD S", "city": "BRAMPTON", "province": "ON", "country": "CA", "postalCode": "L6W3R9", "twitter": "None", "instagram": "None", "facebook": "None", "youtube": "None", "website": "None", "summary": "None", "logo": "None", "latitude": 43.690482939087886, "longitude": -79.73120297341605}, "862765484RR0001": {"name": "RESSOURCE ACTION-ALIMENTATION PARC EXTENSION", "designationCode": "C", "categoryCode": "09", "address": "419 SAINT-ROCH LOCAL SS05", "city": "MONTREAL", "province": "QC", "country": "CA", "postalCode": "H3N1K2", "twitter": "None", "instagram": "None", "facebook": "None", "youtube": "None", "website": "None", "summary": "None", "logo": "None", "latitude": 45.53121014293955, "longitude": -73.62847271830448}, "875552366RR0001": {"name": "RESSOURCE AIDE ALIMENTAIRE", "designationCode": "C", "categoryCode": "09", "address": "160 RUE FRERE-DOMINIQUE", "city": "NICOLET", "province": "QC", "country": "CA", "postalCode": "J3T1K6", "twitter": "None", "instagram": "None", "facebook": "None", "youtube": "None", "website": "None", "summary": "None", "logo": "None", "latitude": 46.234201014138264, "longitude": -72.60629711506706}, "140021007RR0001": {"name": "RESSOURCE ALTERNATIVE DES JEUNES DE BELLECHASSE", "designationCode": "C", "categoryCode": "09", "address": "229 PRINCIPALE", "city": "ST-GERVAIS", "province": "QC", "country": "CA", "postalCode": "G0R3C0", "twitter": "None", "instagram": "None", "facebook": "None", "youtube": "None", "website": "None", "summary": "None", "logo": "None", "latitude": 46.714156741618005, "longitude": -70.88796309781307}, "132040932RR0001": {"name": "RESSOURCE COMMUNAUTAIRE EN SANT\u00c9 MENTALE \"L'EVEIL\"", "designationCode": "C", "categoryCode": "09", "address": "240, RUE ROY", "city": "COATICOOK", "province": "QC", "country": "CA", "postalCode": "J1A1J3", "twitter": "None", "instagram": "None", "facebook": "None", "youtube": "None", "website": "None", "summary": "None", "logo": "None", "latitude": 45.13674652510253, "longitude": -71.81020333236194}, "879131167RR0001": {"name": "RESSOURCE D'AIDE AUX PERSONNES HANDICAPEES BAS ST-LAURENT/GASPESIE/ILES-DE-LA-MADELEINE", "designationCode": "C", "categoryCode": "09", "address": "CP 323 SUCC A", "city": "RIMOUSKI", "province": "QC", "country": "CA", "postalCode": "G5L7C3", "twitter": "None", "instagram": "None", "facebook": "None", "youtube": "None", "website": "None", "summary": "None", "logo": "None", "latitude": 48.44933700000006, "longitude": -68.52474349999993}, "104486188RR0001": {"name": "RESSOURCE DE TRANSITION LE TOURNANT", "designationCode": "C", "categoryCode": "01", "address": "414 RUE SALABERRY O", "city": "VALLEYFIELD", "province": "QC", "country": "CA", "postalCode": "J6T2K3", "twitter": "None", "instagram": "None", "facebook": "None", "youtube": "None", "website": "None", "summary": "None", "logo": "None", "latitude": 45.24861235250147, "longitude": -74.13845249529679}, "127288108RR0001": {"name": "RESSOURCE GENESIS CHARLEVOIX INC", "designationCode": "C", "categoryCode": "57", "address": "CP 245 SUCC LA MALBAIE BP", "city": "LA MALBAIE", "province": "QC", "country": "CA", "postalCode": "G5A1T8", "twitter": "None", "instagram": "None", "facebook": "None", "youtube": "None", "website": "None", "summary": "None", "logo": "None", "latitude": 47.65837200000006, "longitude": -70.15455349999993}, "130158520RR0001": {"name": "RESSOURCE LE BERCEAU INC.", "designationCode": "C", "categoryCode": "09", "address": "12910, 2E AVE", "city": "ST-GEORGES", "province": "QC", "country": "CA", "postalCode": "G5Y1Y3", "twitter": "None", "instagram": "None", "facebook": "None", "youtube": "None", "website": "None", "summary": "None", "logo": "None", "latitude": 46.11732083207349, "longitude": -70.66519790787108}, "894201698RR0001": {"name": "RESSOURCE PARENFANTS", "designationCode": "C", "categoryCode": "09", "address": "117 - 514 RUE DU BOISE", "city": "LES BERGERONNES", "province": "QC", "country": "CA", "postalCode": "G0T1G0", "twitter": "None", "instagram": "None", "facebook": "None", "youtube": "None", "website": "None", "summary": "None", "logo": "None", "latitude": 48.242544736886146, "longitude": -69.54372210465105}, "895262988RR0001": {"name": "RESSOURCE PARENT-AILES", "designationCode": "C", "categoryCode": "09", "address": "752 BOUL DUCHARME", "city": "LA TUQUE", "province": "QC", "country": "CA", "postalCode": "G9X3B6", "twitter": "None", "instagram": "None", "facebook": "None", "youtube": "None", "website": "None", "summary": "None", "logo": "None", "latitude": 47.432736000000006, "longitude": -72.78503940879472}, "132153313RR0001": {"name": "RESSOURCE POUR HOMMES DE LA HAUTE-YAMASKA", "designationCode": "C", "categoryCode": "09", "address": "739 RUE DUFFERIN", "city": "GRANBY", "province": "QC", "country": "CA", "postalCode": "J2H2H5", "twitter": "None", "instagram": "None", "facebook": "None", "youtube": "None", "website": "None", "summary": "None", "logo": "None", "latitude": 45.429407360811354, "longitude": -72.71664282866928}, "890637143RR0001": {"name": "RESSOURCE POUR PERSONNES HANDICAP\u00c9ES, ABITIBI-T\u00c9MISCAMINGUE NORD DU QU\u00c9BEC", "designationCode": "C", "categoryCode": "09", "address": "380, AVENUE RICHARD, LOCAL 203", "city": "ROUYN-NORANDA", "province": "QC", "country": "CA", "postalCode": "J9X4L3", "twitter": "None", "instagram": "None", "facebook": "None", "youtube": "None", "website": "None", "summary": "None", "logo": "None", "latitude": 48.232449115182646, "longitude": -79.01576169294215}, "886099324RR0001": {"name": "RESSOURCE RESIDENTIELLE LE TANDEM", "designationCode": "C", "categoryCode": "01", "address": "255 ST-HUBERT", "city": "GRANBY", "province": "QC", "country": "CA", "postalCode": "J2G5N2", "twitter": "None", "instagram": "None", "facebook": "None", "youtube": "None", "website": "None", "summary": "None", "logo": "None", "latitude": 45.40976319011487, "longitude": -72.7297688527326}, "125571273RR0001": {"name": "RESSOURCEMENT ALLIANCE", "designationCode": "C", "categoryCode": "49", "address": "193-3RANG OUEST", "city": "STOKE", "province": "QC", "country": "CA", "postalCode": "J0B3G0", "twitter": "None", "instagram": "None", "facebook": "None", "youtube": "None", "website": "None", "summary": "None", "logo": "None", "latitude": 45.535416000000055, "longitude": -71.80288099999993}, "132866906RR0001": {"name": "RESSOURCES ALTERNATIVES MASKINONG\u00c9", "designationCode": "C", "categoryCode": "59", "address": "121, RANG PETITE RIVIERE      PORTE 25", "city": "LOUISEVILLE", "province": "QC", "country": "CA", "postalCode": "J5V2H3", "twitter": "None", "instagram": "None", "facebook": "None", "youtube": "None", "website": "None", "summary": "None", "logo": "None", "latitude": 46.25360541159335, "longitude": -72.95106513154259}, "119117372RR0001": {"name": "RESSOURCES ALTERNATIVES RIVE-SUD", "designationCode": "C", "categoryCode": "09", "address": "620 BOUL SAINTE-FOY", "city": "LONGUEUIL", "province": "QC", "country": "CA", "postalCode": "J4J1Y9", "twitter": "None", "instagram": "None", "facebook": "None", "youtube": "None", "website": "None", "summary": "None", "logo": "None", "latitude": 45.52477036635127, "longitude": -73.49351246667449}, "118874502RR0001": {"name": "RESSOURCES COMMUNAUTAIRES OM\u00c9GA / OMEGA COMMUNITY RESOURCES", "designationCode": "C", "categoryCode": "10", "address": "600 AVE DE L'EGLISE", "city": "DORVAL", "province": "QC", "country": "CA", "postalCode": "H9S1R3", "twitter": "None", "instagram": "None", "facebook": "None", "youtube": "None", "website": "None", "summary": "None", "logo": "None", "latitude": 45.44244554342441, "longitude": -73.73559135345376}, "896826914RR0001": {"name": "RESSOURCES FAMILIALES DE LA COTE-DE-BEAUPRE", "designationCode": "C", "categoryCode": "59", "address": "20, RUE FATIMA E, PORTE C8    C.P. 2072", "city": "BEAUPRE", "province": "QC", "country": "CA", "postalCode": "G0A1E0", "twitter": "None", "instagram": "None", "facebook": "None", "youtube": "None", "website": "None", "summary": "None", "logo": "None", "latitude": 47.04925596950583, "longitude": -70.88471720234652}, "806120077RR0001": {"name": "RESSOURCES FAMILIALES LA VIEILLE CASERNE DE MONTMORENCY", "designationCode": "C", "categoryCode": "59", "address": "49 AVENUE RUEL", "city": "BEAUPORT", "province": "QC", "country": "CA", "postalCode": "G1C2C9", "twitter": "None", "instagram": "None", "facebook": "None", "youtube": "None", "website": "None", "summary": "None", "logo": "None", "latitude": 46.87696901664843, "longitude": -71.15783074756196}, "130627268RR0001": {"name": "RESSOURCES JEUNESSE DE ST-LAURENT INC", "designationCode": "C", "categoryCode": "09", "address": "1550 RUE ELIZABETH            SUITE 100", "city": "SAINT-LAURENT", "province": "QC", "country": "CA", "postalCode": "H4L5N7", "twitter": "None", "instagram": "None", "facebook": "None", "youtube": "None", "website": "None", "summary": "None", "logo": "None", "latitude": 45.52356986814028, "longitude": -73.68345603222897}, "140087529RR0001": {"name": "RESSOURCES PARENTS VANIER", "designationCode": "C", "categoryCode": "09", "address": "194 AVE BERNATCHEZ", "city": "QUEBEC", "province": "QC", "country": "CA", "postalCode": "G1M0B4", "twitter": "None", "instagram": "None", "facebook": "None", "youtube": "None", "website": "None", "summary": "None", "logo": "None", "latitude": 46.8127061976167, "longitude": -71.26069769871322}, "898362595RR0001": {"name": "RESSOURCES TROISIEME AGE LACHINE INC./ LACHINE SENIOR CITIZENS RESOURCES INC.", "designationCode": "C", "categoryCode": "56", "address": "2901 RUE SAINT-JOSEPH", "city": "LACHINE", "province": "QC", "country": "CA", "postalCode": "H8S4B7", "twitter": "None", "instagram": "None", "facebook": "None", "youtube": "None", "website": "None", "summary": "None", "logo": "None", "latitude": 45.43354570716732, "longitude": -73.68965918858565}, "120504733RR0001": {"name": "RESSOURCES-NAISSANCES", "designationCode": "C", "categoryCode": "59", "address": "1100 BOUL GUILLAUME-COUTURE   BUREAU 210", "city": "LEVIS", "province": "QC", "country": "CA", "postalCode": "G6W5M6", "twitter": "None", "instagram": "None", "facebook": "None", "youtube": "None", "website": "None", "summary": "None", "logo": "None", "latitude": 46.732825785129315, "longitude": -71.26788795112259}, "107889461RR0001": {"name": "REST HAVEN NURSING HOME OF STEINBACH INC.", "designationCode": "C", "categoryCode": "09", "address": "185 WOODHAVEN AVE", "city": "STEINBACH", "province": "MB", "country": "CA", "postalCode": "R5G1K7", "twitter": "None", "instagram": "None", "facebook": "None", "youtube": "None", "website": "None", "summary": "None", "logo": "None", "latitude": 49.524760424432515, "longitude": -96.6970240899005}, "118818491RR0027": {"name": "REST HAVEN SEVENTH-DAY ADVENTIST CHURCH", "designationCode": "C", "categoryCode": "41", "address": "PO 1000", "city": "ABBOTSFORD", "province": "BC", "country": "CA", "postalCode": "V2S4P5", "twitter": "None", "instagram": "None", "facebook": "None", "youtube": "None", "website": "None", "summary": "None", "logo": "None", "latitude": 49.03851300000005, "longitude": -122.29441549999993}, "890017866RR0001": {"name": "REST INTERNATIONAL MINISTRIES SOCIETY", "designationCode": "C", "categoryCode": "47", "address": "1925 PRAIRIE AVENUE", "city": "PORT COQUITLAM", "province": "BC", "country": "CA", "postalCode": "V3B1V5", "twitter": "None", "instagram": "None", "facebook": "None", "youtube": "None", "website": "None", "summary": "None", "logo": "None", "latitude": 49.27119546047076, "longitude": -122.767533}, "893031815RR0001": {"name": "REST TABERNACLE CHURCH OF JESUS CHRIST APOSTOLIC INC.", "designationCode": "C", "categoryCode": "36", "address": "1355 MARTINGROVE ROAD", "city": "ETOBICOKE", "province": "ON", "country": "CA", "postalCode": "M9W4X6", "twitter": "None", "instagram": "None", "facebook": "None", "youtube": "None", "website": "None", "summary": "None", "logo": "None", "latitude": 43.717031799901804, "longitude": -79.58253845054567}, "830359568RR0001": {"name": "REST.Q ANIMAL SANCTUARY SOCIETY", "designationCode": "C", "categoryCode": "54", "address": "S12 C11", "city": "GALIANO ISLAND", "province": "BC", "country": "CA", "postalCode": "V0N1P0", "twitter": "None", "instagram": "None", "facebook": "None", "youtube": "None", "website": "None", "summary": "None", "logo": "None", "latitude": 48.90217438271622, "longitude": -123.36977755047218}, "119117448RR0001": {"name": "RESTIGOUCHE COUNTY S.P.C.A.", "designationCode": "C", "categoryCode": "54", "address": "165 BAYBREEZE DR", "city": "DALHOUSIE", "province": "NB", "country": "CA", "postalCode": "E8C1E4", "twitter": "None", "instagram": "None", "facebook": "None", "youtube": "None", "website": "None", "summary": "None", "logo": "None", "latitude": 48.04381591868201, "longitude": -66.38167405521986}, "119117455RR0001": {"name": "RESTIGOUCHE COUNTY VOLUNTEER ACTION ASSOCIATION INC.", "designationCode": "C", "categoryCode": "59", "address": "PO BOX 1007", "city": "CAMPBELLTON", "province": "NB", "country": "CA", "postalCode": "E3N3H4", "twitter": "None", "instagram": "None", "facebook": "None", "youtube": "None", "website": "None", "summary": "None", "logo": "None", "latitude": 47.99757300000006, "longitude": -66.66103249999993}, "119117471RR0001": {"name": "RESTIGOUCHE RIVER SALMON CONSERVATION FOUNDATION", "designationCode": "C", "categoryCode": "59", "address": "P.O. BOX 69", "city": "MATAPEDIA", "province": "QC", "country": "CA", "postalCode": "G0J1V0", "twitter": "None", "instagram": "None", "facebook": "None", "youtube": "None", "website": "None", "summary": "None", "logo": "None", "latitude": 47.97235500000005, "longitude": -66.95187199999994}, "889795571RR0001": {"name": "RESTITUTION BETHESTA TABERNACLE", "designationCode": "C", "categoryCode": "36", "address": "3174 BARWELL ROAD", "city": "MISSISSAUGA", "province": "ON", "country": "CA", "postalCode": "L5L4L6", "twitter": "None", "instagram": "None", "facebook": "None", "youtube": "None", "website": "None", "summary": "None", "logo": "None", "latitude": 43.53550759642808, "longitude": -79.70836128169552}, "880187109RR0001": {"name": "RESTLESS LEGS SYNDROME FOUNDATION INC.", "designationCode": "C", "categoryCode": "11", "address": "LARRY K. MYRES C.A.           156 WILD DUCK ROAD", "city": "BAMFIELD", "province": "BC", "country": "CA", "postalCode": "V0R1B0", "twitter": "None", "instagram": "None", "facebook": "None", "youtube": "None", "website": "None", "summary": "None", "logo": "None", "latitude": 48.82696926787438, "longitude": -125.14240496306782}, "134528918RR0001": {"name": "RESTO PLATEAU", "designationCode": "C", "categoryCode": "09", "address": "4450 RUE ST-HUBERT            BUREAU 235", "city": "MONTREAL", "province": "QC", "country": "CA", "postalCode": "H2J2W9", "twitter": "None", "instagram": "None", "facebook": "None", "youtube": "None", "website": "None", "summary": "None", "logo": "None", "latitude": 45.52513365803011, "longitude": -73.58025329450612}, "860060334RR0001": {"name": "RESTO POP THERESE DE BLAINVILLE", "designationCode": "C", "categoryCode": "09", "address": "61 RUE BLAINVILLE OUEST", "city": "STE-THERESE", "province": "QC", "country": "CA", "postalCode": "J7E1X4", "twitter": "None", "instagram": "None", "facebook": "None", "youtube": "None", "website": "None", "summary": "None", "logo": "None", "latitude": 45.63943762724344, "longitude": -73.84527870690752}, "811105204RR0001": {"name": "RESTON AND AREA DAYCARE INC.", "designationCode": "C", "categoryCode": "01", "address": "BOX 369", "city": "RESTON", "province": "MB", "country": "CA", "postalCode": "R0M1X0", "twitter": "None", "instagram": "None", "facebook": "None", "youtube": "None", "website": "None", "summary": "None", "logo": "None", "latitude": 49.18753799999999, "longitude": -100.49400221363014}, "119117513RR0001": {"name": "RESTON AND DISTRICT UNITED APPEAL INC.", "designationCode": "C", "categoryCode": "05", "address": "PO BOX 404", "city": "RESTON", "province": "MB", "country": "CA", "postalCode": "R0M1X0", "twitter": "None", "instagram": "None", "facebook": "None", "youtube": "None", "website": "None", "summary": "None", "logo": "None", "latitude": 49.18753799999999, "longitude": -100.49400221363014}, "119117521RR0001": {"name": "RESTON NURSERY SCHOOL CO-OP INC.", "designationCode": "A", "categoryCode": "20", "address": "PO BOX 424", "city": "RESTON", "province": "MB", "country": "CA", "postalCode": "R0M1X0", "twitter": "None", "instagram": "None", "facebook": "None", "youtube": "None", "website": "None", "summary": "None", "logo": "None", "latitude": 49.18753799999999, "longitude": -100.49400221363014}, "107889636RR0001": {"name": "RESTON-PIPESTONE PASTORAL CHARGE", "designationCode": "C", "categoryCode": "44", "address": "BOX 148", "city": "RESTON", "province": "MB", "country": "CA", "postalCode": "R0M1X0", "twitter": "None", "instagram": "None", "facebook": "None", "youtube": "None", "website": "None", "summary": "None", "logo": "None", "latitude": 49.18753799999999, "longitude": -100.49400221363014}, "811570365RR0001": {"name": "RESTORATION AND EMPOWERMENT FOR SOCIAL TRANSITION CENTRE", "designationCode": "C", "categoryCode": "09", "address": "1211-310 NISKA ROAD", "city": "TORONTO", "province": "ON", "country": "CA", "postalCode": "M3N2R4", "twitter": "None", "instagram": "None", "facebook": "None", "youtube": "None", "website": "None", "summary": "None", "logo": "None", "latitude": 43.764880744128156, "longitude": -79.5096674862371}}