{"107881799RR0001": {"name": "CORNERSTONE BAPTIST CHURCH, INC.", "designationCode": "C", "categoryCode": "31", "address": "110 GARNET ST N", "city": "REGINA", "province": "SK", "country": "CA", "postalCode": "S4R3S5", "twitter": "None", "instagram": "None", "facebook": "None", "youtube": "None", "website": "None", "summary": "None", "logo": "None", "latitude": 50.47815820415333, "longitude": -104.62693619619247}, "891194540RR0001": {"name": "CORNERSTONE BAPTIST TABERNACLE OF ONTARIO", "designationCode": "C", "categoryCode": "31", "address": "21 BLACKTHORN AVENUE", "city": "TORONTO", "province": "ON", "country": "CA", "postalCode": "M6N3H4", "twitter": "None", "instagram": "None", "facebook": "None", "youtube": "None", "website": "None", "summary": "None", "logo": "None", "latitude": 43.67497961977026, "longitude": -79.4588587782044}, "130373277RR0001": {"name": "CORNERSTONE BIBLE CHURCH", "designationCode": "C", "categoryCode": "34", "address": "290 FIRST ST", "city": "STEINBACH", "province": "MB", "country": "CA", "postalCode": "R5G0T5", "twitter": "None", "instagram": "None", "facebook": "None", "youtube": "None", "website": "None", "summary": "None", "logo": "None", "latitude": 49.525478039857276, "longitude": -96.6866896582878}, "899927164RR0001": {"name": "CORNERSTONE BIBLE CHURCH INC", "designationCode": "C", "categoryCode": "39", "address": "668, ROUTE 104", "city": "BURTTS CORNER", "province": "NB", "country": "CA", "postalCode": "E6L2B8", "twitter": "None", "instagram": "None", "facebook": "None", "youtube": "None", "website": "None", "summary": "None", "logo": "None", "latitude": 46.047462826836494, "longitude": -66.84609628996982}, "106974538RR0001": {"name": "CORNERSTONE CANADIAN REFORMED CHURCH OF HAMILTON BOARD OF MISSION AID", "designationCode": "C", "categoryCode": "47", "address": "46 DELEVAN CRES", "city": "HAMILTON", "province": "ON", "country": "CA", "postalCode": "L9A4A7", "twitter": "None", "instagram": "None", "facebook": "None", "youtube": "None", "website": "None", "summary": "None", "logo": "None", "latitude": 43.22696494419768, "longitude": -79.86814040689013}, "870919909RR0001": {"name": "CORNERSTONE CARE SOCIETY", "designationCode": "C", "categoryCode": "11", "address": "6676 203 ST", "city": "LANGLEY", "province": "BC", "country": "CA", "postalCode": "V2Y2Z1", "twitter": "None", "instagram": "None", "facebook": "None", "youtube": "None", "website": "None", "summary": "None", "logo": "None", "latitude": 49.12347507799066, "longitude": -122.66004907158535}, "893254979RR0002": {"name": "CORNERSTONE CHINESE ALLIANCE CHURCH OF THE CHRISTIAN AND MISSIONARY ALLIANCE IN CANADA", "designationCode": "C", "categoryCode": "39", "address": "4757 14TH AVE", "city": "MARKHAM", "province": "ON", "country": "CA", "postalCode": "L3S3K3", "twitter": "None", "instagram": "None", "facebook": "None", "youtube": "None", "website": "None", "summary": "None", "logo": "None", "latitude": 43.84534291808556, "longitude": -79.29654575685278}, "118875988RR0001": {"name": "CORNERSTONE CHRISTIAN ASSEMBLY", "designationCode": "C", "categoryCode": "39", "address": "BOX 30", "city": "ARCADIA", "province": "NS", "country": "CA", "postalCode": "B0W1B0", "twitter": "None", "instagram": "None", "facebook": "None", "youtube": "None", "website": "None", "summary": "None", "logo": "None", "latitude": 43.82606000000004, "longitude": -66.06526999999994}, "871448940RR0001": {"name": "CORNERSTONE CHRISTIAN ASSEMBLY", "designationCode": "C", "categoryCode": "36", "address": "8 CHRISTIE STREET", "city": "GRIMSBY", "province": "ON", "country": "CA", "postalCode": "L3M4G5", "twitter": "None", "instagram": "None", "facebook": "None", "youtube": "None", "website": "None", "summary": "None", "logo": "None", "latitude": 43.19469255675461, "longitude": -79.56217573907918}, "141065946RR0001": {"name": "CORNERSTONE CHRISTIAN ASSEMBLY OF CALGARY", "designationCode": "C", "categoryCode": "39", "address": "2640 RUNDLELAWN ROAD, NE", "city": "CALGARY", "province": "AB", "country": "CA", "postalCode": "T1Y5X3", "twitter": "None", "instagram": "None", "facebook": "None", "youtube": "None", "website": "None", "summary": "None", "logo": "None", "latitude": 51.07599745989381, "longitude": -113.97405696070187}, "847080611RR0001": {"name": "CORNERSTONE CHRISTIAN CARE SOCIETY INC.", "designationCode": "C", "categoryCode": "09", "address": "PO BOX 367", "city": "CARMAN", "province": "MB", "country": "CA", "postalCode": "R0G0J0", "twitter": "None", "instagram": "None", "facebook": "None", "youtube": "None", "website": "None", "summary": "None", "logo": "None", "latitude": 49.50860000000006, "longitude": -98.00231999999994}, "134410315RR0001": {"name": "CORNERSTONE CHRISTIAN CENTRE OF CALEDON - ORANGEVILLE", "designationCode": "C", "categoryCode": "39", "address": "254 BEECHFIELD CRESCENT", "city": "ORANGEVILLE", "province": "ON", "country": "CA", "postalCode": "L9W4N3", "twitter": "None", "instagram": "None", "facebook": "None", "youtube": "None", "website": "None", "summary": "None", "logo": "None", "latitude": 43.924994801546596, "longitude": -80.11235410502641}, "130896905RR0001": {"name": "CORNERSTONE CHRISTIAN FELLOWSHIP", "designationCode": "C", "categoryCode": "39", "address": "BOX 7", "city": "ALHAMBRA", "province": "AB", "country": "CA", "postalCode": "T0M0C0", "twitter": "None", "instagram": "None", "facebook": "None", "youtube": "None", "website": "None", "summary": "None", "logo": "None", "latitude": 52.34294712917351, "longitude": -114.673401}, "860337930RR0001": {"name": "CORNERSTONE CHRISTIAN FELLOWSHIP", "designationCode": "C", "categoryCode": "39", "address": "382 BRITANNIA STREET", "city": "STRATFORD", "province": "ON", "country": "CA", "postalCode": "N5A5Z8", "twitter": "None", "instagram": "None", "facebook": "None", "youtube": "None", "website": "None", "summary": "None", "logo": "None", "latitude": 43.38154111272979, "longitude": -80.99462217314932}, "888453644RR0001": {"name": "CORNERSTONE CHRISTIAN FELLOWSHIP", "designationCode": "C", "categoryCode": "39", "address": "2124 CHAMBERS ST.", "city": "VICTORIA", "province": "BC", "country": "CA", "postalCode": "V8T3L2", "twitter": "None", "instagram": "None", "facebook": "None", "youtube": "None", "website": "None", "summary": "None", "logo": "None", "latitude": 48.43232508604075, "longitude": -123.34965291967208}, "891734469RR0001": {"name": "CORNERSTONE CHRISTIAN REFORMED CHURCH OF CHILLIWACK", "designationCode": "C", "categoryCode": "39", "address": "9800 MCNAUGHT RD", "city": "CHILLIWACK", "province": "BC", "country": "CA", "postalCode": "V2P6G2", "twitter": "None", "instagram": "None", "facebook": "None", "youtube": "None", "website": "None", "summary": "None", "logo": "None", "latitude": 49.179564, "longitude": -121.9267119677137}, "893970970RR0001": {"name": "CORNERSTONE CHRISTIAN SCHOOL INC.", "designationCode": "C", "categoryCode": "20", "address": "43 IROQUOIS ST E", "city": "MOOSE JAW", "province": "SK", "country": "CA", "postalCode": "S6H4S9", "twitter": "None", "instagram": "None", "facebook": "None", "youtube": "None", "website": "None", "summary": "None", "logo": "None", "latitude": 50.383394575808666, "longitude": -105.5334026545148}, "106974629RR0001": {"name": "CORNERSTONE CHRISTIAN SCHOOL SOCIETY", "designationCode": "C", "categoryCode": "20", "address": "P.O. BOX  1405                #107  1001-20TH AVE", "city": "DIDSBURY", "province": "AB", "country": "CA", "postalCode": "T0M0W0", "twitter": "None", "instagram": "None", "facebook": "None", "youtube": "None", "website": "None", "summary": "None", "logo": "None", "latitude": 51.66061152899768, "longitude": -114.12443202844942}, "805783651RR0001": {"name": "CORNERSTONE CHURCH OF STONEWALL INC.", "designationCode": "C", "categoryCode": "39", "address": "PO BOX 3006", "city": "STONEWALL", "province": "MB", "country": "CA", "postalCode": "R0C2Z0", "twitter": "None", "instagram": "None", "facebook": "None", "youtube": "None", "website": "None", "summary": "None", "logo": "None", "latitude": 50.36947800000006, "longitude": -96.84479599999993}, "106974637RR0001": {"name": "CORNERSTONE CHURCH, MENNONITE", "designationCode": "C", "categoryCode": "34", "address": "315 LENORE DR", "city": "SASKATOON", "province": "SK", "country": "CA", "postalCode": "S7K7Z5", "twitter": "None", "instagram": "None", "facebook": "None", "youtube": "None", "website": "None", "summary": "None", "logo": "None", "latitude": 52.173240793727665, "longitude": -106.62815484399003}, "107493090RR0001": {"name": "CORNERSTONE COMMUNITY ASSOCIATION DURHAM INC.", "designationCode": "C", "categoryCode": "01", "address": "133 SIMCOE STREET SOUTH", "city": "OSHAWA", "province": "ON", "country": "CA", "postalCode": "L1H4G8", "twitter": "None", "instagram": "None", "facebook": "None", "youtube": "None", "website": "None", "summary": "None", "logo": "None", "latitude": 43.89380469776092, "longitude": -78.86183775405416}, "106974785RR0001": {"name": "CORNERSTONE COMMUNITY CHURCH", "designationCode": "C", "categoryCode": "36", "address": "10 GATEHOUSE DRIVE", "city": "CAMBRIDGE", "province": "ON", "country": "CA", "postalCode": "N1P1C7", "twitter": "None", "instagram": "None", "facebook": "None", "youtube": "None", "website": "None", "summary": "None", "logo": "None", "latitude": 43.34395613073454, "longitude": -80.27986980261446}, "824220271RR0001": {"name": "CORNERSTONE COMMUNITY CHURCH", "designationCode": "C", "categoryCode": "39", "address": "20 WOLFE ST.", "city": "LINDSAY", "province": "ON", "country": "CA", "postalCode": "K9V2J2", "twitter": "None", "instagram": "None", "facebook": "None", "youtube": "None", "website": "None", "summary": "None", "logo": "None", "latitude": 44.349217124069455, "longitude": -78.72816795112259}, "833241763RR0001": {"name": "CORNERSTONE COMMUNITY CHURCH", "designationCode": "C", "categoryCode": "39", "address": "PO BOX 27587 RPO OAKRIDGE", "city": "VANCOUVER", "province": "BC", "country": "CA", "postalCode": "V5Z4M4", "twitter": "None", "instagram": "None", "facebook": "None", "youtube": "None", "website": "None", "summary": "None", "logo": "None", "latitude": 49.23004000000003, "longitude": -123.12116999999995}, "880798806RR0001": {"name": "CORNERSTONE COMMUNITY CHURCH", "designationCode": "C", "categoryCode": "39", "address": "1706 MERSEA RD 5", "city": "LEAMINGTON", "province": "ON", "country": "CA", "postalCode": "N8H3V6", "twitter": "None", "instagram": "None", "facebook": "None", "youtube": "None", "website": "None", "summary": "None", "logo": "None", "latitude": 42.08976089229709, "longitude": -82.52278536978638}, "891489379RR0001": {"name": "CORNERSTONE COMMUNITY CHURCH", "designationCode": "C", "categoryCode": "39", "address": "HIGHWAY 62 SOUTH              P.O. BOX 23  RR#7", "city": "BELLEVILLE", "province": "ON", "country": "CA", "postalCode": "K8N4Z7", "twitter": "None", "instagram": "None", "facebook": "None", "youtube": "None", "website": "None", "summary": "None", "logo": "None", "latitude": 44.10788892301695, "longitude": -77.39471549530863}, "899798557RR0001": {"name": "CORNERSTONE COMMUNITY CHURCH", "designationCode": "C", "categoryCode": "39", "address": "225 SIXTH AVE", "city": "LIVELY", "province": "ON", "country": "CA", "postalCode": "P3Y1M4", "twitter": "None", "instagram": "None", "facebook": "None", "youtube": "None", "website": "None", "summary": "None", "logo": "None", "latitude": 46.43675014615785, "longitude": -81.14323765985736}, "859512493RR0001": {"name": "CORNERSTONE COMMUNITY CHURCH (NIAGARA)", "designationCode": "C", "categoryCode": "34", "address": "BOX 112", "city": "VIRGIL", "province": "ON", "country": "CA", "postalCode": "L0S1T0", "twitter": "None", "instagram": "None", "facebook": "None", "youtube": "None", "website": "None", "summary": "None", "logo": "None", "latitude": 43.21981000000005, "longitude": -79.12214999999998}, "118903905RR0001": {"name": "CORNERSTONE COMMUNITY CHURCH (WINDSOR)", "designationCode": "C", "categoryCode": "39", "address": "5415 WALKER RD", "city": "OLDCASTLE", "province": "ON", "country": "CA", "postalCode": "N0R1L0", "twitter": "None", "instagram": "None", "facebook": "None", "youtube": "None", "website": "None", "summary": "None", "logo": "None", "latitude": 42.23303307334137, "longitude": -82.96401861580841}, "850531864RR0001": {"name": "CORNERSTONE COMMUNITY CHURCH OF BOWMANVILLE", "designationCode": "C", "categoryCode": "39", "address": "182 WELLINGTON STREET WEST    STE 2", "city": "BOWMANVILLE", "province": "ON", "country": "CA", "postalCode": "L1C1W3", "twitter": "None", "instagram": "None", "facebook": "None", "youtube": "None", "website": "None", "summary": "None", "logo": "None", "latitude": 43.91562085695968, "longitude": -78.69380830865553}, "136414018RR0001": {"name": "CORNERSTONE COMMUNITY CHURCH OF EDMONTON", "designationCode": "C", "categoryCode": "36", "address": "7120-109 STREET", "city": "EDMONTON", "province": "AB", "country": "CA", "postalCode": "T6G1B8", "twitter": "None", "instagram": "None", "facebook": "None", "youtube": "None", "website": "None", "summary": "None", "logo": "None", "latitude": 53.50826658090486, "longitude": -113.51210022540226}, "118920065RR0001": {"name": "CORNERSTONE COMMUNITY CHURCH OF FLIN FLON", "designationCode": "C", "categoryCode": "34", "address": "298 GREEN STREET", "city": "FLIN FLON", "province": "MB", "country": "CA", "postalCode": "R8A0H1", "twitter": "None", "instagram": "None", "facebook": "None", "youtube": "None", "website": "None", "summary": "None", "logo": "None", "latitude": 54.7786557927013, "longitude": -101.8459575511637}, "856476981RR0001": {"name": "CORNERSTONE COMMUNITY CHURCH, ALMONTE", "designationCode": "C", "categoryCode": "39", "address": "1728 CONC 11 A", "city": "ALMONTE", "province": "ON", "country": "CA", "postalCode": "K0A1A0", "twitter": "None", "instagram": "None", "facebook": "None", "youtube": "None", "website": "None", "summary": "None", "logo": "None", "latitude": 45.13533066720646, "longitude": -76.32919488125216}, "106693047RR0057": {"name": "CORNERSTONE COMMUNITY SEVENTH-DAY ADVENTIST CHURCH", "designationCode": "C", "categoryCode": "41", "address": "5816 HIGHWAY, 2A", "city": "LACOMBE", "province": "AB", "country": "CA", "postalCode": "T4L2G5", "twitter": "None", "instagram": "None", "facebook": "None", "youtube": "None", "website": "None", "summary": "None", "logo": "None", "latitude": 52.474063600197404, "longitude": -113.71692568401835}, "106974728RR0001": {"name": "CORNERSTONE ENTERPRISES INC.", "designationCode": "C", "categoryCode": "01", "address": "PO BOX 1799", "city": "GIMLI", "province": "MB", "country": "CA", "postalCode": "R0C1B0", "twitter": "None", "instagram": "None", "facebook": "None", "youtube": "None", "website": "None", "summary": "None", "logo": "None", "latitude": 50.30677349294383, "longitude": -96.92898988377391}, "106974736RR0001": {"name": "CORNERSTONE EVANGELICAL BAPTIST CHURCH OF VANCOUVER B.C.", "designationCode": "C", "categoryCode": "39", "address": "7890 NO. 5 ROAD", "city": "RICHMOND", "province": "BC", "country": "CA", "postalCode": "V6Y2V2", "twitter": "None", "instagram": "None", "facebook": "None", "youtube": "None", "website": "None", "summary": "None", "logo": "None", "latitude": 49.156176152929795, "longitude": -123.09170199318534}, "895503506RR0001": {"name": "CORNERSTONE FAMILY & YOUTH CENTRE INC.", "designationCode": "C", "categoryCode": "09", "address": "P.O. BOX 1408", "city": "CARLYLE", "province": "SK", "country": "CA", "postalCode": "S0C0R0", "twitter": "None", "instagram": "None", "facebook": "None", "youtube": "None", "website": "None", "summary": "None", "logo": "None", "latitude": 49.628016, "longitude": -102.26315694795335}, "107463655RR0001": {"name": "CORNERSTONE FAMILY WORSHIP CENTRE HAMIOTA", "designationCode": "C", "categoryCode": "36", "address": "BOX 241", "city": "HAMIOTA", "province": "MB", "country": "CA", "postalCode": "R0M0T0", "twitter": "None", "instagram": "None", "facebook": "None", "youtube": "None", "website": "None", "summary": "None", "logo": "None", "latitude": 50.182510000000036, "longitude": -100.59984999999995}, "132256405RR0001": {"name": "CORNERSTONE FELLOWSHIP CHURCH", "designationCode": "C", "categoryCode": "34", "address": "2150 WALKER ST", "city": "SWIFT CURRENT", "province": "SK", "country": "CA", "postalCode": "S9H4C1", "twitter": "None", "instagram": "None", "facebook": "None", "youtube": "None", "website": "None", "summary": "None", "logo": "None", "latitude": 50.28367884869325, "longitude": -107.76988891468042}, "863626735RR0001": {"name": "CORNERSTONE FORMATION INC.", "designationCode": "C", "categoryCode": "49", "address": "3302 L'ARCHE CRESCENT", "city": "REGINA", "province": "SK", "country": "CA", "postalCode": "S4S5V8", "twitter": "None", "instagram": "None", "facebook": "None", "youtube": "None", "website": "None", "summary": "None", "logo": "None", "latitude": 50.4210612356454, "longitude": -104.62875611945314}, "107406258RR0001": {"name": "CORNERSTONE FREE METHODIST CHURCH", "designationCode": "C", "categoryCode": "39", "address": "2200 15TH AVE EAST", "city": "PRINCE ALBERT", "province": "SK", "country": "CA", "postalCode": "S6V6J5", "twitter": "None", "instagram": "None", "facebook": "None", "youtube": "None", "website": "None", "summary": "None", "logo": "None", "latitude": 53.19299472361918, "longitude": -105.71019535807471}, "132270091RR0001": {"name": "CORNERSTONE GOSPEL CHAPEL OF RED DEER", "designationCode": "C", "categoryCode": "39", "address": "5911 63 ST", "city": "RED DEER", "province": "AB", "country": "CA", "postalCode": "T4N5N8", "twitter": "None", "instagram": "None", "facebook": "None", "youtube": "None", "website": "None", "summary": "None", "logo": "None", "latitude": 52.28406249567218, "longitude": -113.82734305536961}, "855818696RR0001": {"name": "CORNERSTONE GOSPEL CHURCH INC.", "designationCode": "C", "categoryCode": "39", "address": "PO BOX 235", "city": "MOSSBANK", "province": "SK", "country": "CA", "postalCode": "S0H3G0", "twitter": "None", "instagram": "None", "facebook": "None", "youtube": "None", "website": "None", "summary": "None", "logo": "None", "latitude": 49.93336000000005, "longitude": -105.96785999999997}, "861653780RR0001": {"name": "CORNERSTONE KOREAN CHURCH", "designationCode": "C", "categoryCode": "39", "address": "41 MAPLE VALLEY RD", "city": "MAPLE", "province": "ON", "country": "CA", "postalCode": "L6A0X9", "twitter": "None", "instagram": "None", "facebook": "None", "youtube": "None", "website": "None", "summary": "None", "logo": "None", "latitude": 43.84358980209485, "longitude": -79.48905428919734}, "863790762RR0001": {"name": "CORNERSTONE MENNONITE BRETHREN CHURCH", "designationCode": "C", "categoryCode": "34", "address": "202-6TH AVE WEST", "city": "PRINCE RUPERT", "province": "BC", "country": "CA", "postalCode": "V8J1Z1", "twitter": "None", "instagram": "None", "facebook": "None", "youtube": "None", "website": "None", "summary": "None", "logo": "None", "latitude": 54.312448933406316, "longitude": -130.31911839012614}, "891431520RR0001": {"name": "CORNERSTONE MINISTRIES CHURCH", "designationCode": "C", "categoryCode": "47", "address": "BOX 380", "city": "CRYSTAL CITY", "province": "MB", "country": "CA", "postalCode": "R0K0N0", "twitter": "None", "instagram": "None", "facebook": "None", "youtube": "None", "website": "None", "summary": "None", "logo": "None", "latitude": 49.146274354951295, "longitude": -98.94961515158063}, "822211678RR0001": {"name": "CORNERSTONE MINISTRY OF CANADA", "designationCode": "C", "categoryCode": "39", "address": "121 SANDWOOD DRIVE", "city": "THORNHILL", "province": "ON", "country": "CA", "postalCode": "L4J8W5", "twitter": "None", "instagram": "None", "facebook": "None", "youtube": "None", "website": "None", "summary": "None", "logo": "None", "latitude": 43.83967833166946, "longitude": -79.4733930905997}, "139137095RR0001": {"name": "CORNERSTONE NEW TESTAMENT CHURCH OF GOD", "designationCode": "C", "categoryCode": "39", "address": "12320 MOUNT LAWN RD NW", "city": "EDMONTON", "province": "AB", "country": "CA", "postalCode": "T5B4J4", "twitter": "None", "instagram": "None", "facebook": "None", "youtube": "None", "website": "None", "summary": "None", "logo": "None", "latitude": 53.57819984765404, "longitude": -113.45266378302225}, "861512952RR0001": {"name": "CORNERSTONE OF HOPE ALBERTA SOCIETY", "designationCode": "C", "categoryCode": "09", "address": "2839 BRECKEN ROAD NW", "city": "CALGARY", "province": "AB", "country": "CA", "postalCode": "T2L1H5", "twitter": "None", "instagram": "None", "facebook": "None", "youtube": "None", "website": "None", "summary": "None", "logo": "None", "latitude": 51.08874824923541, "longitude": -114.125568364014}, "106974793RR0001": {"name": "CORNERSTONE PENTECOSTAL CHURCH INC.", "designationCode": "C", "categoryCode": "39", "address": "350 ROUTE 10", "city": "RICHIBUCTO ROAD", "province": "NB", "country": "CA", "postalCode": "E3A7E1", "twitter": "None", "instagram": "None", "facebook": "None", "youtube": "None", "website": "None", "summary": "None", "logo": "None", "latitude": 45.953074203780815, "longitude": -66.58770942208697}, "133247593RR0001": {"name": "CORNERSTONE PENTECOSTAL FELLOWSHIP", "designationCode": "C", "categoryCode": "36", "address": "BOX 118", "city": "NOTTAWA", "province": "ON", "country": "CA", "postalCode": "L0M1P0", "twitter": "None", "instagram": "None", "facebook": "None", "youtube": "None", "website": "None", "summary": "None", "logo": "None", "latitude": 44.459610000000055, "longitude": -80.20835999999997}, "884244302RR0001": {"name": "CORNERSTONE PLACE", "designationCode": "C", "categoryCode": "01", "address": "21 BLACKTHORN AVE", "city": "TORONTO", "province": "ON", "country": "CA", "postalCode": "M6N3H4", "twitter": "None", "instagram": "None", "facebook": "None", "youtube": "None", "website": "None", "summary": "None", "logo": "None", "latitude": 43.67497961977026, "longitude": -79.4588587782044}, "132494543RR0001": {"name": "CORNERSTONE PRESBYTERIAN CHURCH", "designationCode": "C", "categoryCode": "37", "address": "110 YONGE ST NORTH            BOX 151", "city": "TARA", "province": "ON", "country": "CA", "postalCode": "N0H2N0", "twitter": "None", "instagram": "None", "facebook": "None", "youtube": "None", "website": "None", "summary": "None", "logo": "None", "latitude": 44.48177578850486, "longitude": -81.1467667480233}, "107797383RR0098": {"name": "CORNERSTONE SEVENTH-DAY ADVENTIST CHURCH", "designationCode": "C", "categoryCode": "41", "address": "407 MCNABB STREET", "city": "SAULT STE MARIE", "province": "ON", "country": "CA", "postalCode": "P6B1Z2", "twitter": "None", "instagram": "None", "facebook": "None", "youtube": "None", "website": "None", "summary": "None", "logo": "None", "latitude": 46.521775521207395, "longitude": -84.3069735}, "118818491RR0010": {"name": "CORNERSTONE SEVENTH-DAY ADVENTIST CHURCH", "designationCode": "C", "categoryCode": "41", "address": "PO 1000", "city": "ABBOTSFORD", "province": "BC", "country": "CA", "postalCode": "V2S4P5", "twitter": "None", "instagram": "None", "facebook": "None", "youtube": "None", "website": "None", "summary": "None", "logo": "None", "latitude": 49.03851300000005, "longitude": -122.29441549999993}, "107797383RR0127": {"name": "CORNERSTONE SEVENTH-DAY ADVENTIST SCHOOL", "designationCode": "C", "categoryCode": "20", "address": "120 CUNNINGHAM ROAD", "city": "SAULT STE MARIE", "province": "ON", "country": "CA", "postalCode": "P6B1N3", "twitter": "None", "instagram": "None", "facebook": "None", "youtube": "None", "website": "None", "summary": "None", "logo": "None", "latitude": 46.51908645657559, "longitude": -84.3092415}, "829911999RR0001": {"name": "CORNERSTONE STANDARDS COUNCIL", "designationCode": "C", "categoryCode": "59", "address": "9520 PINE VALLEY DRIVE", "city": "WOODBRIDGE", "province": "ON", "country": "CA", "postalCode": "L4L1A6", "twitter": "None", "instagram": "None", "facebook": "None", "youtube": "None", "website": "None", "summary": "None", "logo": "None", "latitude": 43.82890038689483, "longitude": -79.58395812675248}, "118876077RR0001": {"name": "CORNERSTONE THEATRE INC.", "designationCode": "C", "categoryCode": "22", "address": "P.O. BOX 1318", "city": "CARLYLE", "province": "SK", "country": "CA", "postalCode": "S0C0R0", "twitter": "None", "instagram": "None", "facebook": "None", "youtube": "None", "website": "None", "summary": "None", "logo": "None", "latitude": 49.628016, "longitude": -102.26315694795335}, "860545904RR0001": {"name": "CORNERSTONE UNITED PENTECOSTAL CHURCH", "designationCode": "C", "categoryCode": "39", "address": "997 ELGIN STREET NORTH", "city": "CAMBRIDGE", "province": "ON", "country": "CA", "postalCode": "N1R8J2", "twitter": "None", "instagram": "None", "facebook": "None", "youtube": "None", "website": "None", "summary": "None", "logo": "None", "latitude": 43.391397731317554, "longitude": -80.30496368847008}, "890260045RR0001": {"name": "CORNERSTONE UNITED REFORMED CHURCH", "designationCode": "C", "categoryCode": "39", "address": "180 WATERLOO ST", "city": "LONDON", "province": "ON", "country": "CA", "postalCode": "N6B2M9", "twitter": "None", "instagram": "None", "facebook": "None", "youtube": "None", "website": "None", "summary": "None", "logo": "None", "latitude": 42.97889172912452, "longitude": -81.2390126206939}, "892791161RR0001": {"name": "CORNERSTONE URBAN CHURCH", "designationCode": "C", "categoryCode": "36", "address": "152 THE ESPLANADE", "city": "TORONTO", "province": "ON", "country": "CA", "postalCode": "M5A4A5", "twitter": "None", "instagram": "None", "facebook": "None", "youtube": "None", "website": "None", "summary": "None", "logo": "None", "latitude": 43.648656106872764, "longitude": -79.36905925757394}, "892154170RR0001": {"name": "CORNERSTONE VICTORY FELLOWSHIP OF CARDSTON", "designationCode": "C", "categoryCode": "39", "address": "PO BOX 115                    STATION MAIN", "city": "LETHBRIDGE", "province": "AB", "country": "CA", "postalCode": "T1J3Y3", "twitter": "None", "instagram": "None", "facebook": "None", "youtube": "None", "website": "None", "summary": "None", "logo": "None", "latitude": 49.69383000000006, "longitude": -112.83373249999994}, "108003179RR0001": {"name": "CORNERSTONE WESLEYAN CHURCH", "designationCode": "C", "categoryCode": "39", "address": "P O BOX 412", "city": "NORTH GOWER", "province": "ON", "country": "CA", "postalCode": "K0A2T0", "twitter": "None", "instagram": "None", "facebook": "None", "youtube": "None", "website": "None", "summary": "None", "logo": "None", "latitude": 45.3567173236206, "longitude": -75.0434798516718}, "896241361RR0001": {"name": "CORNERSTONE WESLEYAN CHURCH", "designationCode": "C", "categoryCode": "39", "address": "1215 HAMMONDS PLAINS ROAD", "city": "HAMMONDS PLAINS", "province": "NS", "country": "CA", "postalCode": "B4B2E1", "twitter": "None", "instagram": "None", "facebook": "None", "youtube": "None", "website": "None", "summary": "None", "logo": "None", "latitude": 44.72461159400391, "longitude": -63.73706126862511}, "855345344RR0001": {"name": "CORNERSTONE YOUTH CENTRE (CALGARY) SOCIETY", "designationCode": "C", "categoryCode": "09", "address": "904 19 ST NE", "city": "CALGARY", "province": "AB", "country": "CA", "postalCode": "T2E4X7", "twitter": "None", "instagram": "None", "facebook": "None", "youtube": "None", "website": "None", "summary": "None", "logo": "None", "latitude": 51.05975738412488, "longitude": -114.01332085426182}, "885573139RR0001": {"name": "CORNERSTONE YOUTH SOCIETY", "designationCode": "C", "categoryCode": "49", "address": "PO BOX 100", "city": "VICTORIA", "province": "BC", "country": "CA", "postalCode": "V8W2M1", "twitter": "None", "instagram": "None", "facebook": "None", "youtube": "None", "website": "None", "summary": "None", "logo": "None", "latitude": 48.42854700000005, "longitude": -123.36445249999994}, "827948217RR0001": {"name": "CORNERSTONE 2007 INC.", "designationCode": "C", "categoryCode": "39", "address": "9 CORNERSTONE DR", "city": "CORNWALL", "province": "PE", "country": "CA", "postalCode": "C0A1H8", "twitter": "None", "instagram": "None", "facebook": "None", "youtube": "None", "website": "None", "summary": "None", "logo": "None", "latitude": 46.25437138550985, "longitude": -63.2021642169195}, "129755542RR0001": {"name": "CORNISH CHILD CARE CENTRE INCORPORATED", "designationCode": "C", "categoryCode": "01", "address": "107-25 FURBY ST", "city": "WINNIPEG", "province": "MB", "country": "CA", "postalCode": "R3C2A2", "twitter": "None", "instagram": "None", "facebook": "None", "youtube": "None", "website": "None", "summary": "None", "logo": "None", "latitude": 49.883851454007015, "longitude": -97.15798316240935}, "864332390RR0001": {"name": "CORNISH HEALTH SERVICES FOUNDATION INC.", "designationCode": "A", "categoryCode": "13", "address": "99 CORNISH AVE", "city": "WINNIPEG", "province": "MB", "country": "CA", "postalCode": "R3C1A2", "twitter": "None", "instagram": "None", "facebook": "None", "youtube": "None", "website": "None", "summary": "None", "logo": "None", "latitude": 49.878933955037134, "longitude": -97.16045983714248}, "118876226RR0001": {"name": "CORNWALL ALTERNATIVE SCHOOL INC.", "designationCode": "C", "categoryCode": "20", "address": "40 DIXON CRES", "city": "REGINA", "province": "SK", "country": "CA", "postalCode": "S4N1V4", "twitter": "None", "instagram": "None", "facebook": "None", "youtube": "None", "website": "None", "summary": "None", "logo": "None", "latitude": 50.44191614019825, "longitude": -104.5656301988861}, "125104463RR0001": {"name": "CORNWALL CEMETERY INC", "designationCode": "C", "categoryCode": "59", "address": "540 CUMBERLAND STREET", "city": "CORNWALL", "province": "ON", "country": "CA", "postalCode": "K6J4J5", "twitter": "None", "instagram": "None", "facebook": "None", "youtube": "None", "website": "None", "summary": "None", "logo": "None", "latitude": 45.021508805989995, "longitude": -74.74030183585305}, "106974918RR0001": {"name": "CORNWALL CHRISTIAN CHURCH INC.", "designationCode": "C", "categoryCode": "39", "address": "BOX 209", "city": "CORNWALL", "province": "PE", "country": "CA", "postalCode": "C0A1H0", "twitter": "None", "instagram": "None", "facebook": "None", "youtube": "None", "website": "None", "summary": "None", "logo": "None", "latitude": 46.241144818530714, "longitude": -63.21831691777574}, "861126043RR0001": {"name": "CORNWALL CHRISTIAN LEADERSHIP CENTRE", "designationCode": "C", "categoryCode": "49", "address": "2214 INNES ROAD", "city": "OTTAWA", "province": "ON", "country": "CA", "postalCode": "K1B4C4", "twitter": "None", "instagram": "None", "facebook": "None", "youtube": "None", "website": "None", "summary": "None", "logo": "None", "latitude": 45.42555465975044, "longitude": -75.57943544421859}, "894065432RR0001": {"name": "CORNWALL COMMUNITY HOSPITAL FOUNDATION/FONDATION DE L'HOPITAL COMMUNAUTAIRE DE CORNWALL", "designationCode": "A", "categoryCode": "15", "address": "840 MCCONNELL AVENUE          SUITE 2703", "city": "CORNWALL", "province": "ON", "country": "CA", "postalCode": "K6H5S5", "twitter": "None", "instagram": "None", "facebook": "None", "youtube": "None", "website": "None", "summary": "None", "logo": "None", "latitude": 45.029016850436925, "longitude": -74.71857318029656}, "106974991RR0001": {"name": "CORNWALL COMMUNITY HOSPITAL/HOPITAL COMMUNAUTAIRE DE CORNWALL", "designationCode": "C", "categoryCode": "10", "address": "840 MCCONNELL AVE", "city": "CORNWALL", "province": "ON", "country": "CA", "postalCode": "K6H5S5", "twitter": "None", "instagram": "None", "facebook": "None", "youtube": "None", "website": "None", "summary": "None", "logo": "None", "latitude": 45.029016850436925, "longitude": -74.71857318029656}, "138551213RR0001": {"name": "CORNWALL CONCERT SERIES ASSOCIATION/ASSOCIATION DES CONCERTS EN SERIE DE CORNWALL", "designationCode": "C", "categoryCode": "22", "address": "PO BOX 1933  STN MAIN", "city": "CORNWALL", "province": "ON", "country": "CA", "postalCode": "K6H6N7", "twitter": "None", "instagram": "None", "facebook": "None", "youtube": "None", "website": "None", "summary": "None", "logo": "None", "latitude": 45.028419000000056, "longitude": -74.73569299999993}, "132517160RR0001": {"name": "CORNWALL PENTCOSTAL CHURCH", "designationCode": "C", "categoryCode": "36", "address": "208 SECOND ST E", "city": "CORNWALL", "province": "ON", "country": "CA", "postalCode": "K6H1Y7", "twitter": "None", "instagram": "None", "facebook": "None", "youtube": "None", "website": "None", "summary": "None", "logo": "None", "latitude": 45.01960205355196, "longitude": -74.72389270093491}, "129826988RR0001": {"name": "CORNWALL PUBLIC LIBRARY BOARD", "designationCode": "C", "categoryCode": "50", "address": "PO BOX 939  STN MAIN", "city": "CORNWALL", "province": "ON", "country": "CA", "postalCode": "K6H5V1", "twitter": "None", "instagram": "None", "facebook": "None", "youtube": "None", "website": "None", "summary": "None", "logo": "None", "latitude": 45.028419000000056, "longitude": -74.73569299999993}, "125105999RR0001": {"name": "CORNWALL SENIOR CITIZENS CLUB", "designationCode": "C", "categoryCode": "56", "address": "119 PITT STREET", "city": "CORNWALL", "province": "ON", "country": "CA", "postalCode": "K6H3P5", "twitter": "None", "instagram": "None", "facebook": "None", "youtube": "None", "website": "None", "summary": "None", "logo": "None", "latitude": 45.01723535581969, "longitude": -74.72807173492424}, "107797383RR0086": {"name": "CORNWALL SEVENTH-DAY ADVENTIST CHURCH", "designationCode": "C", "categoryCode": "41", "address": "2134 PITT STREET", "city": "CORNWALL", "province": "ON", "country": "CA", "postalCode": "K6K1A2", "twitter": "None", "instagram": "None", "facebook": "None", "youtube": "None", "website": "None", "summary": "None", "logo": "None", "latitude": 45.053636449333574, "longitude": -74.75693685737755}, "118876234RR0001": {"name": "CORNWALL TOWNSHIP HISTORICAL SOCIETY", "designationCode": "C", "categoryCode": "52", "address": "20124 BEAUPRE RD", "city": "GREEN VALLEY", "province": "ON", "country": "CA", "postalCode": "K0C1L0", "twitter": "None", "instagram": "None", "facebook": "None", "youtube": "None", "website": "None", "summary": "None", "logo": "None", "latitude": 45.227870560361296, "longitude": -74.59724228559067}, "863850731RR0001": {"name": "CORNWALLIS PARK RECREATION AND PARKS SOCIETY", "designationCode": "C", "categoryCode": "52", "address": "263 SPINNAKER DRIVE           P.O. BOX 151", "city": "CORNWALLIS", "province": "NS", "country": "CA", "postalCode": "B0S1H0", "twitter": "None", "instagram": "None", "facebook": "None", "youtube": "None", "website": "None", "summary": "None", "logo": "None", "latitude": 44.650280063015686, "longitude": -65.63173799070917}, "867161226RR0001": {"name": "CORO ITALIA L'AQUILA", "designationCode": "C", "categoryCode": "22", "address": "175-305 CEDAR AVE", "city": "RICHMOND HILL", "province": "ON", "country": "CA", "postalCode": "L4C9V3", "twitter": "None", "instagram": "None", "facebook": "None", "youtube": "None", "website": "None", "summary": "None", "logo": "None", "latitude": 43.86814810080145, "longitude": -79.42595848564153}, "888907748RR0001": {"name": "CORO SAN MARCO CHOIR ORGANIZATION", "designationCode": "C", "categoryCode": "22", "address": "833 NAPA VALLEY AVE", "city": "WOODBRIDGE", "province": "ON", "country": "CA", "postalCode": "L4H1X4", "twitter": "None", "instagram": "None", "facebook": "None", "youtube": "None", "website": "None", "summary": "None", "logo": "None", "latitude": 43.82447301690823, "longitude": -79.61307412724342}, "131582546RR0001": {"name": "CORONACH ALLIANCE CHURCH OF THE CHRISTIAN AND MISSIONARY ALLIANCE IN CANADA", "designationCode": "C", "categoryCode": "39", "address": "PO BOX 660", "city": "CORONACH", "province": "SK", "country": "CA", "postalCode": "S0H0Z0", "twitter": "None", "instagram": "None", "facebook": "None", "youtube": "None", "website": "None", "summary": "None", "logo": "None", "latitude": 49.116760000000056, "longitude": -105.51780999999994}, "891661043RR0001": {"name": "CORONACH AND AREA HEALTH CARE FOUNDATION", "designationCode": "A", "categoryCode": "15", "address": "PO BOX 150", "city": "CORONACH", "province": "SK", "country": "CA", "postalCode": "S0H0Z0", "twitter": "None", "instagram": "None", "facebook": "None", "youtube": "None", "website": "None", "summary": "None", "logo": "None", "latitude": 49.116760000000056, "longitude": -105.51780999999994}, "118876291RR0001": {"name": "CORONACH NEW HORIZONS CLUB INC.", "designationCode": "C", "categoryCode": "56", "address": "PO BOX 435", "city": "CORONACH", "province": "SK", "country": "CA", "postalCode": "S0H0Z0", "twitter": "None", "instagram": "None", "facebook": "None", "youtube": "None", "website": "None", "summary": "None", "logo": "None", "latitude": 49.116760000000056, "longitude": -105.51780999999994}, "118876317RR0001": {"name": "CORONACH UNITED CHURCH", "designationCode": "C", "categoryCode": "44", "address": "BOX 72", "city": "CORONACH", "province": "SK", "country": "CA", "postalCode": "S0H0Z0", "twitter": "None", "instagram": "None", "facebook": "None", "youtube": "None", "website": "None", "summary": "None", "logo": "None", "latitude": 49.116760000000056, "longitude": -105.51780999999994}, "118876325RR0001": {"name": "CORONADO UNITED CHURCH", "designationCode": "C", "categoryCode": "44", "address": "BOX 270", "city": "GIBBONS", "province": "AB", "country": "CA", "postalCode": "T0A1N0", "twitter": "None", "instagram": "None", "facebook": "None", "youtube": "None", "website": "None", "summary": "None", "logo": "None", "latitude": 53.82811000000004, "longitude": -113.32767999999999}, "896750163RR0001": {"name": "CORONARY ARTERY REHABILITATION GROUP INC.", "designationCode": "C", "categoryCode": "11", "address": "2020 COLLEGE DRIVE", "city": "SASKATOON", "province": "SK", "country": "CA", "postalCode": "S7N2W4", "twitter": "None", "instagram": "None", "facebook": "None", "youtube": "None", "website": "None", "summary": "None", "logo": "None", "latitude": 52.12873432749651, "longitude": -106.62844738269278}, "882054471RR0001": {"name": "CORONATION & DISTRICT HISTORICAL & MUSEUM SOCIETY", "designationCode": "C", "categoryCode": "50", "address": "BOX 219", "city": "CORONATION", "province": "AB", "country": "CA", "postalCode": "T0C1C0", "twitter": "None", "instagram": "None", "facebook": "None", "youtube": "None", "website": "None", "summary": "None", "logo": "None", "latitude": 52.08834149999997, "longitude": -111.43338299999999}, "118876333RR0001": {"name": "CORONATION HEALTH CENTRE FOUNDATION", "designationCode": "A", "categoryCode": "13", "address": "MAIL BAG 500", "city": "CORONATION", "province": "AB", "country": "CA", "postalCode": "T0C1C0", "twitter": "None", "instagram": "None", "facebook": "None", "youtube": "None", "website": "None", "summary": "None", "logo": "None", "latitude": 51.999029789295456, "longitude": -111.11982563814588}, "892679770RR0001": {"name": "CORONATION PASTORAL CHARGE,", "designationCode": "C", "categoryCode": "44", "address": "BOX 369", "city": "CORONATION", "province": "AB", "country": "CA", "postalCode": "T0C1C0", "twitter": "None", "instagram": "None", "facebook": "None", "youtube": "None", "website": "None", "summary": "None", "logo": "None", "latitude": 52.08834149999997, "longitude": -111.43338299999999}, "893802470RR0001": {"name": "CORONATION PRESBYTERY HARDISTY LAKE CAMP COUNCIL", "designationCode": "C", "categoryCode": "49", "address": "PO BOX 603", "city": "HARDISTY", "province": "AB", "country": "CA", "postalCode": "T0B1V0", "twitter": "None", "instagram": "None", "facebook": "None", "youtube": "None", "website": "None", "summary": "None", "logo": "None", "latitude": 52.6759699594612, "longitude": -111.3037099339259}, "892693748RR0001": {"name": "CORPORATE COUNSELLING AND CHAPLAINCY INC.", "designationCode": "C", "categoryCode": "47", "address": "150 KING STREET W, SUITE 1702 P.O. BOX 46", "city": "TORONTO", "province": "ON", "country": "CA", "postalCode": "M5H1J9", "twitter": "None", "instagram": "None", "facebook": "None", "youtube": "None", "website": "None", "summary": "None", "logo": "None", "latitude": 43.64784614741163, "longitude": -79.38401990787108}, "136083508RR0001": {"name": "CORPORATION \"LES AMIS DES AINES DE L'ISLE-VERTE", "designationCode": "C", "categoryCode": "09", "address": "151 ST-JEAN-BAPTISTE-C.P. 4", "city": "ISLE-VERTE", "province": "QC", "country": "CA", "postalCode": "G0L1K0", "twitter": "None", "instagram": "None", "facebook": "None", "youtube": "None", "website": "None", "summary": "None", "logo": "None", "latitude": 48.015133251168635, "longitude": -69.33535353661507}, "133554444RR0001": {"name": "CORPORATION \"NORTH NATION MILLS\" INC", "designationCode": "C", "categoryCode": "50", "address": "276 RUE DESJARDINS", "city": "PLAISANCE", "province": "QC", "country": "CA", "postalCode": "J0V1S0", "twitter": "None", "instagram": "None", "facebook": "None", "youtube": "None", "website": "None", "summary": "None", "logo": "None", "latitude": 45.60740855727421, "longitude": -75.11195867179299}, "119017614RR0001": {"name": "CORPORATION AGATHE-V\u00c9ZINA", "designationCode": "C", "categoryCode": "46", "address": "4035 BOUL DES CIMES", "city": "QUEBEC", "province": "QC", "country": "CA", "postalCode": "G2A1M2", "twitter": "None", "instagram": "None", "facebook": "None", "youtube": "None", "website": "None", "summary": "None", "logo": "None", "latitude": 46.848775490623204, "longitude": -71.37424290758263}, "118876390RR0001": {"name": "CORPORATION ARCHIEPISCOPALE CATHOLIQUE ROMAINE DE MONTREAL", "designationCode": "C", "categoryCode": "49", "address": "2000 RUE SHERBROOKE OUEST", "city": "MONTREAL", "province": "QC", "country": "CA", "postalCode": "H3H1G4", "twitter": "None", "instagram": "None", "facebook": "None", "youtube": "None", "website": "None", "summary": "None", "logo": "None", "latitude": 45.49368344489018, "longitude": -73.5842704953837}, "865970586RR0001": {"name": "CORPORATION AU PIED DES MONTS INC", "designationCode": "C", "categoryCode": "09", "address": "989 RUE SAINT-EDOUARD", "city": "SAINT-URBAIN", "province": "QC", "country": "CA", "postalCode": "G0A4K0", "twitter": "None", "instagram": "None", "facebook": "None", "youtube": "None", "website": "None", "summary": "None", "logo": "None", "latitude": 47.558517433521885, "longitude": -70.5407921594724}}