{"130332786RR0001": {"name": "POOH CORNER DAY CARE SOCIETY", "designationCode": "C", "categoryCode": "20", "address": "975 LAGOON DRIVE", "city": "VANCOUVER", "province": "BC", "country": "CA", "postalCode": "V6G2S1", "twitter": "None", "instagram": "None", "facebook": "None", "youtube": "None", "website": "None", "summary": "None", "logo": "None", "latitude": 49.29341233279463, "longitude": -123.13923839523338}, "107851909RR0001": {"name": "POOLE MENNONITE CHURCH", "designationCode": "C", "categoryCode": "34", "address": "BOX 249", "city": "MILVERTON", "province": "ON", "country": "CA", "postalCode": "N0K1M0", "twitter": "None", "instagram": "None", "facebook": "None", "youtube": "None", "website": "None", "summary": "None", "logo": "None", "latitude": 43.567990000000066, "longitude": -80.92049999999995}, "134036698RR0001": {"name": "POPCO INC.", "designationCode": "C", "categoryCode": "20", "address": "4,BOUL. DES ILES              LOCAL C", "city": "PORT-CARTIER", "province": "QC", "country": "CA", "postalCode": "G5B1V6", "twitter": "None", "instagram": "None", "facebook": "None", "youtube": "None", "website": "None", "summary": "None", "logo": "None", "latitude": 50.021064484563674, "longitude": -66.87883205398464}, "119095875RR0001": {"name": "POPE JOHN PAUL II FUND FOR POLISH ORPHANS AND ABANDONED CHILDREN", "designationCode": "C", "categoryCode": "01", "address": "12 DENISON AVE", "city": "TORONTO", "province": "ON", "country": "CA", "postalCode": "M5T2M4", "twitter": "None", "instagram": "None", "facebook": "None", "youtube": "None", "website": "None", "summary": "None", "logo": "None", "latitude": 43.6483695961683, "longitude": -79.40082518180499}, "860122654RR0001": {"name": "POPE JOHN PAUL II TRUST FOR POLISH ORPHANS AND ABANDONED CHILDREN", "designationCode": "C", "categoryCode": "05", "address": "12 DENISON AVENUE", "city": "TORONTO", "province": "ON", "country": "CA", "postalCode": "M5T2M4", "twitter": "None", "instagram": "None", "facebook": "None", "youtube": "None", "website": "None", "summary": "None", "logo": "None", "latitude": 43.6483695961683, "longitude": -79.40082518180499}, "119095891RR0001": {"name": "POPE MEMORIAL STUDENT LOAN FUND", "designationCode": "C", "categoryCode": "21", "address": "28 HILLBURY STREET", "city": "BURY", "province": "QC", "country": "CA", "postalCode": "J0B1J0", "twitter": "None", "instagram": "None", "facebook": "None", "youtube": "None", "website": "None", "summary": "None", "logo": "None", "latitude": 45.47191350043268, "longitude": -71.4992227754631}, "136861515RR0001": {"name": "POPLAR AVENUE KIDS CARE INC.", "designationCode": "C", "categoryCode": "01", "address": "170 POPLAR AVE", "city": "WINNIPEG", "province": "MB", "country": "CA", "postalCode": "R2L2B6", "twitter": "None", "instagram": "None", "facebook": "None", "youtube": "None", "website": "None", "summary": "None", "logo": "None", "latitude": 49.91307610404547, "longitude": -97.11350953139227}, "889135596RR0001": {"name": "POPLAR GROVE-SPRING LAKE UNITED CHURCH", "designationCode": "C", "categoryCode": "44", "address": "PO BOX 626", "city": "BROADVIEW", "province": "SK", "country": "CA", "postalCode": "S0G0K0", "twitter": "None", "instagram": "None", "facebook": "None", "youtube": "None", "website": "None", "summary": "None", "logo": "None", "latitude": 50.378010000000074, "longitude": -102.58020999999997}, "107852006RR0001": {"name": "POPLAR HILL BAPTIST CHURCH", "designationCode": "C", "categoryCode": "31", "address": "24415 POPLAR HILL RD          RR 2", "city": "ILDERTON", "province": "ON", "country": "CA", "postalCode": "N0M2A0", "twitter": "None", "instagram": "None", "facebook": "None", "youtube": "None", "website": "None", "summary": "None", "logo": "None", "latitude": 43.006409855646794, "longitude": -81.51486838735617}, "108092719RR0001": {"name": "POPLAR HILL CHRISTIAN CHURCH", "designationCode": "C", "categoryCode": "39", "address": "RR2 9890 ILDERTON ROAD", "city": "ILDERTON", "province": "ON", "country": "CA", "postalCode": "N0M2A0", "twitter": "None", "instagram": "None", "facebook": "None", "youtube": "None", "website": "None", "summary": "None", "logo": "None", "latitude": 43.004424235385606, "longitude": -81.51635181075052}, "872119292RR0001": {"name": "POPLAR POINT CHARITABLE TRUST", "designationCode": "B", "categoryCode": "39", "address": "780 SASKATCHEWAN AVE W", "city": "PORTAGE LA PRAIRIE", "province": "MB", "country": "CA", "postalCode": "R1N0M7", "twitter": "None", "instagram": "None", "facebook": "None", "youtube": "None", "website": "None", "summary": "None", "logo": "None", "latitude": 49.97373494820344, "longitude": -98.30132080652011}, "887922730RR0001": {"name": "POPLAR RIVER ASSISTANCE TRUST", "designationCode": "C", "categoryCode": "09", "address": "BOX 634", "city": "CORONACH", "province": "SK", "country": "CA", "postalCode": "S0H0Z0", "twitter": "None", "instagram": "None", "facebook": "None", "youtube": "None", "website": "None", "summary": "None", "logo": "None", "latitude": 49.116760000000056, "longitude": -105.51780999999994}, "119095966RR0001": {"name": "POPOTE ET MULTI-SERVICES", "designationCode": "C", "categoryCode": "09", "address": "355-4855 RTE STE-GENEVI\u00c8VE", "city": "QU\u00c9BEC", "province": "QC", "country": "CA", "postalCode": "G2B4W3", "twitter": "None", "instagram": "None", "facebook": "None", "youtube": "None", "website": "None", "summary": "None", "logo": "None", "latitude": 46.84293945155528, "longitude": -71.3901717779446}, "120523659RR0001": {"name": "POPOTE EXPRESS CHICOUTIMI", "designationCode": "C", "categoryCode": "01", "address": "200 RUE R\u00c9GENT", "city": "CHICOUTIMI", "province": "QC", "country": "CA", "postalCode": "G7G2V7", "twitter": "None", "instagram": "None", "facebook": "None", "youtube": "None", "website": "None", "summary": "None", "logo": "None", "latitude": 48.44214892700101, "longitude": -71.06027785273261}, "104266796RR0001": {"name": "POPOTE LE GOURMET ROULANT INC.", "designationCode": "C", "categoryCode": "09", "address": "135 RUE DES GOUVERNEURS", "city": "RIMOUSKI", "province": "QC", "country": "CA", "postalCode": "G5L7R2", "twitter": "None", "instagram": "None", "facebook": "None", "youtube": "None", "website": "None", "summary": "None", "logo": "None", "latitude": 48.454808524525625, "longitude": -68.52255044892955}, "119095982RR0001": {"name": "POPOTE ROULANTE D'AHUNTSIC MEALS ON WHEELS", "designationCode": "C", "categoryCode": "09", "address": "10215 AV GEORGES-BARIL", "city": "MONTREAL", "province": "QC", "country": "CA", "postalCode": "H2C2M9", "twitter": "None", "instagram": "None", "facebook": "None", "youtube": "None", "website": "None", "summary": "None", "logo": "None", "latitude": 45.55810496087478, "longitude": -73.6578525545329}, "119095990RR0001": {"name": "POPOTE ROULANTE D'AYLMER-AYLMER MEALS ON WHEELS", "designationCode": "C", "categoryCode": "09", "address": "59 RUE BANCROFT", "city": "GATINEAU", "province": "QC", "country": "CA", "postalCode": "J9H4N6", "twitter": "None", "instagram": "None", "facebook": "None", "youtube": "None", "website": "None", "summary": "None", "logo": "None", "latitude": 45.39594124340701, "longitude": -75.84676848892015}, "119096006RR0001": {"name": "POPOTE ROULANTE DE ST-GERMAIN D'OUTREMONT MEALS ON WHEELS", "designationCode": "C", "categoryCode": "09", "address": "28 AV VINCENT-D'INDY", "city": "OUTREMONT", "province": "QC", "country": "CA", "postalCode": "H2V2S9", "twitter": "None", "instagram": "None", "facebook": "None", "youtube": "None", "website": "None", "summary": "None", "logo": "None", "latitude": 45.51133806829578, "longitude": -73.6145590614578}, "131159709RR0001": {"name": "POPOTE ROULANTE L'ISLET INC", "designationCode": "C", "categoryCode": "09", "address": "C.P. 2015", "city": "L'ISLET", "province": "QC", "country": "CA", "postalCode": "G0R2B0", "twitter": "None", "instagram": "None", "facebook": "None", "youtube": "None", "website": "None", "summary": "None", "logo": "None", "latitude": 47.125671000000054, "longitude": -70.31649049999993}, "889878062RR0001": {"name": "POPOTE ROULANTE LA PLAINE", "designationCode": "C", "categoryCode": "09", "address": "4400 D`ANGORA", "city": "TERREBONNE", "province": "QC", "country": "CA", "postalCode": "J6X0A4", "twitter": "None", "instagram": "None", "facebook": "None", "youtube": "None", "website": "None", "summary": "None", "logo": "None", "latitude": 45.71341051673533, "longitude": -73.66039055966878}, "120844113RR0001": {"name": "POPOTE ROULANTE LAVAL INC", "designationCode": "C", "categoryCode": "09", "address": "3180 AVE D'AMOURS", "city": "QU\u00c9BEC", "province": "QC", "country": "CA", "postalCode": "G1X1L9", "twitter": "None", "instagram": "None", "facebook": "None", "youtube": "None", "website": "None", "summary": "None", "logo": "None", "latitude": 46.775442968116806, "longitude": -71.31813876885532}, "892875683RR0001": {"name": "POPOTE ROULANTE VANKLEEK HILL MEALS ON WHEELS", "designationCode": "C", "categoryCode": "09", "address": "3560 COUNTY ROAD #10 EAST", "city": "VANKLEEK HILL", "province": "ON", "country": "CA", "postalCode": "K0B1R0", "twitter": "None", "instagram": "None", "facebook": "None", "youtube": "None", "website": "None", "summary": "None", "logo": "None", "latitude": 45.52999765367221, "longitude": -74.70013318419434}, "892435579RR0001": {"name": "PORCUPINE AND DISTRICT DONOR'S CHOICE", "designationCode": "A", "categoryCode": "05", "address": "BOX 296", "city": "PORCUPINE PLAIN", "province": "SK", "country": "CA", "postalCode": "S0E1H0", "twitter": "None", "instagram": "None", "facebook": "None", "youtube": "None", "website": "None", "summary": "None", "logo": "None", "latitude": 52.59907000000004, "longitude": -103.26022999999998}, "131167074RR0001": {"name": "PORCUPINE CARIBOU MANAGEMENT BOARD", "designationCode": "C", "categoryCode": "54", "address": "BOX 31723", "city": "WHITEHORSE", "province": "YT", "country": "CA", "postalCode": "Y1A6L3", "twitter": "None", "instagram": "None", "facebook": "None", "youtube": "None", "website": "None", "summary": "None", "logo": "None", "latitude": 60.72084600000005, "longitude": -135.05323399999992}, "119096063RR0001": {"name": "PORCUPINE FULL GOSPEL CHURCH", "designationCode": "C", "categoryCode": "39", "address": "P.O. BOX 761", "city": "PORCUPINE PLAIN", "province": "SK", "country": "CA", "postalCode": "S0E1H0", "twitter": "None", "instagram": "None", "facebook": "None", "youtube": "None", "website": "None", "summary": "None", "logo": "None", "latitude": 52.40432854035895, "longitude": -102.16241062311786}, "135528453RR0001": {"name": "PORCUPINE GO-GETTERS CLUB", "designationCode": "C", "categoryCode": "09", "address": "BOX 790", "city": "CLARESHOLM", "province": "AB", "country": "CA", "postalCode": "T0L0T0", "twitter": "None", "instagram": "None", "facebook": "None", "youtube": "None", "website": "None", "summary": "None", "logo": "None", "latitude": 50.026080000000036, "longitude": -113.58213999999998}, "887713113RR0001": {"name": "PORCUPINE HILLS SENIORS FOUNDATION", "designationCode": "C", "categoryCode": "09", "address": "PO BOX 790", "city": "CLARESHOLM", "province": "AB", "country": "CA", "postalCode": "T0L0T0", "twitter": "None", "instagram": "None", "facebook": "None", "youtube": "None", "website": "None", "summary": "None", "logo": "None", "latitude": 50.026080000000036, "longitude": -113.58213999999998}, "119096097RR0001": {"name": "PORCUPINE MUSIC FESTIVAL DE MUSIQUE", "designationCode": "C", "categoryCode": "22", "address": "TREASURER                     P.O. BOX 662", "city": "TIMMINS", "province": "ON", "country": "CA", "postalCode": "P4N7G2", "twitter": "None", "instagram": "None", "facebook": "None", "youtube": "None", "website": "None", "summary": "None", "logo": "None", "latitude": 48.47611200000006, "longitude": -81.32891299999993}, "119096105RR0001": {"name": "PORCUPINE OPPORTUNITIES PROGRAM", "designationCode": "C", "categoryCode": "59", "address": "BOX 697", "city": "PORCUPINE PLAIN", "province": "SK", "country": "CA", "postalCode": "S0E1H0", "twitter": "None", "instagram": "None", "facebook": "None", "youtube": "None", "website": "None", "summary": "None", "logo": "None", "latitude": 52.59907000000004, "longitude": -103.26022999999998}, "859793762RR0001": {"name": "PORCUPINE PLAIN HEALTHCARE AUXILIARY", "designationCode": "A", "categoryCode": "15", "address": "PO BOX 493", "city": "PORCUPINE PLAIN", "province": "SK", "country": "CA", "postalCode": "S0E1H0", "twitter": "None", "instagram": "None", "facebook": "None", "youtube": "None", "website": "None", "summary": "None", "logo": "None", "latitude": 52.40432854035895, "longitude": -102.16241062311786}, "890856248RR0001": {"name": "PORT ALBERNI ASSOCIATION FOR CHILDREN WITH DEVELOPMENT DISABILITIES", "designationCode": "C", "categoryCode": "11", "address": "4325 NEILL ST.", "city": "PORT ALBERNI", "province": "BC", "country": "CA", "postalCode": "V9Y1E5", "twitter": "None", "instagram": "None", "facebook": "None", "youtube": "None", "website": "None", "summary": "None", "logo": "None", "latitude": 49.2242864616246, "longitude": -124.79821335651216}, "106692361RR0001": {"name": "PORT ALBERNI ASSOCIATION FOR COMMUNITY LIVING", "designationCode": "C", "categoryCode": "11", "address": "3008-2ND AVENUE", "city": "PORT ALBERNI", "province": "BC", "country": "CA", "postalCode": "V9Y1Y9", "twitter": "None", "instagram": "None", "facebook": "None", "youtube": "None", "website": "None", "summary": "None", "logo": "None", "latitude": 49.23353332078357, "longitude": -124.8091592858145}, "141050690RR0001": {"name": "PORT ALBERNI CHRISTIAN SCHOOL ASSOCIATION", "designationCode": "C", "categoryCode": "20", "address": "6211 CHERRY CREEK ROAD", "city": "PORT ALBERNI", "province": "BC", "country": "CA", "postalCode": "V9Y8S9", "twitter": "None", "instagram": "None", "facebook": "None", "youtube": "None", "website": "None", "summary": "None", "logo": "None", "latitude": 49.283960437965284, "longitude": -124.78905304700241}, "107852527RR0001": {"name": "PORT ALBERNI FAMILY GUIDANCE ASSOCIATION", "designationCode": "C", "categoryCode": "09", "address": "3039 4TH AVE", "city": "PORT ALBERNI", "province": "BC", "country": "CA", "postalCode": "V9Y2B8", "twitter": "None", "instagram": "None", "facebook": "None", "youtube": "None", "website": "None", "summary": "None", "logo": "None", "latitude": 49.23407602553522, "longitude": -124.80621038894365}, "118780188RR0001": {"name": "PORT ALBERNI FRIENDSHIP CENTER", "designationCode": "C", "categoryCode": "56", "address": "3555-4TH AVE", "city": "PORT ALBERNI", "province": "BC", "country": "CA", "postalCode": "V9Y4H3", "twitter": "None", "instagram": "None", "facebook": "None", "youtube": "None", "website": "None", "summary": "None", "logo": "None", "latitude": 49.241103795459225, "longitude": -124.80622193181426}, "128973419RR0001": {"name": "PORT ALBERNI GYMNASIUM ASSOCIATION", "designationCode": "C", "categoryCode": "56", "address": "BOX 264", "city": "PORT ALBERNI", "province": "BC", "country": "CA", "postalCode": "V9Y7M7", "twitter": "None", "instagram": "None", "facebook": "None", "youtube": "None", "website": "None", "summary": "None", "logo": "None", "latitude": 49.23443400000005, "longitude": -124.80757099999994}, "889343893RR0001": {"name": "PORT ALBERNI MARINE RESCUE SOCIETY", "designationCode": "C", "categoryCode": "59", "address": "4594 MERRIFIELD RD", "city": "PORT ALBERNI", "province": "BC", "country": "CA", "postalCode": "V9Y6R4", "twitter": "None", "instagram": "None", "facebook": "None", "youtube": "None", "website": "None", "summary": "None", "logo": "None", "latitude": 49.26029278776899, "longitude": -124.80586340108621}, "888553468RR0001": {"name": "PORT ALBERNI SAVE-A-LIFE FOUNDATION", "designationCode": "C", "categoryCode": "09", "address": "350-522 7TH STREET", "city": "NEW WESTMINSTER", "province": "BC", "country": "CA", "postalCode": "V3M5T5", "twitter": "None", "instagram": "None", "facebook": "None", "youtube": "None", "website": "None", "summary": "None", "logo": "None", "latitude": 49.21168253900112, "longitude": -122.92105684693391}, "118818491RR0054": {"name": "PORT ALBERNI SEVENTH-DAY ADVENTIST CHURCH", "designationCode": "C", "categoryCode": "41", "address": "PO 1000", "city": "ABBOTSFORD", "province": "BC", "country": "CA", "postalCode": "V2S4P5", "twitter": "None", "instagram": "None", "facebook": "None", "youtube": "None", "website": "None", "summary": "None", "logo": "None", "latitude": 49.03851300000005, "longitude": -122.29441549999993}, "128847084RR0001": {"name": "PORT ALBERNI SHELTER SOCIETY", "designationCode": "C", "categoryCode": "01", "address": "3978 8TH AVE", "city": "PORT ALBERNI", "province": "BC", "country": "CA", "postalCode": "V9Y4S2", "twitter": "None", "instagram": "None", "facebook": "None", "youtube": "None", "website": "None", "summary": "None", "logo": "None", "latitude": 49.248505380942525, "longitude": -124.80073529912056}, "118782333RR0001": {"name": "PORT ALICE ANGLICAN - UNITED FELLOWSHIP", "designationCode": "C", "categoryCode": "44", "address": "BOX 159", "city": "PORT ALICE", "province": "BC", "country": "CA", "postalCode": "V0N2N0", "twitter": "None", "instagram": "None", "facebook": "None", "youtube": "None", "website": "None", "summary": "None", "logo": "None", "latitude": 50.42966000000007, "longitude": -127.48948999999999}, "862990090RR0001": {"name": "PORT ALICE HEALTH FORUM SOCIETY", "designationCode": "C", "categoryCode": "09", "address": "940 MARINE TER.               P.O. BOX 465", "city": "PORT ALICE", "province": "BC", "country": "CA", "postalCode": "V0N2N0", "twitter": "None", "instagram": "None", "facebook": "None", "youtube": "None", "website": "None", "summary": "None", "logo": "None", "latitude": 50.42641555208943, "longitude": -127.48852321064219}, "862747250RR0001": {"name": "PORT ALICE MARINE RESCUE SOCIETY", "designationCode": "C", "categoryCode": "59", "address": "P.O. BOX 137", "city": "PORT ALICE", "province": "BC", "country": "CA", "postalCode": "V0N2N0", "twitter": "None", "instagram": "None", "facebook": "None", "youtube": "None", "website": "None", "summary": "None", "logo": "None", "latitude": 50.42966000000007, "longitude": -127.48948999999999}, "118808021RR0001": {"name": "PORT BICKERTON UNITED BAPTIST CHURCH", "designationCode": "C", "categoryCode": "31", "address": "PO BOX 85                     3867 SONORA ROAD", "city": "SHERBROOKE", "province": "NS", "country": "CA", "postalCode": "B0J3C0", "twitter": "None", "instagram": "None", "facebook": "None", "youtube": "None", "website": "None", "summary": "None", "logo": "None", "latitude": 45.127108226470135, "longitude": -61.97724038170068}, "119096444RR0001": {"name": "PORT BLANDFORD PASTORAL CHARGE", "designationCode": "C", "categoryCode": "44", "address": "P O BOX 33", "city": "PORT BLANDFORD", "province": "NL", "country": "CA", "postalCode": "A0C2G0", "twitter": "None", "instagram": "None", "facebook": "None", "youtube": "None", "website": "None", "summary": "None", "logo": "None", "latitude": 48.359380000000044, "longitude": -54.171959999999956}, "894376672RR0001": {"name": "PORT BURWELL HISTORICAL SOCIETY", "designationCode": "C", "categoryCode": "52", "address": "P.O. BOX 10", "city": "PORT BURWELL", "province": "ON", "country": "CA", "postalCode": "N0J1T0", "twitter": "None", "instagram": "None", "facebook": "None", "youtube": "None", "website": "None", "summary": "None", "logo": "None", "latitude": 42.64570000000003, "longitude": -80.80595999999997}, "118838986RR0001": {"name": "PORT CARLING UNITED CHURCH", "designationCode": "C", "categoryCode": "44", "address": "1211 MILFORD BAY ROAD", "city": "MILFORD BAY", "province": "ON", "country": "CA", "postalCode": "P0B1E0", "twitter": "None", "instagram": "None", "facebook": "None", "youtube": "None", "website": "None", "summary": "None", "logo": "None", "latitude": 45.07476463310046, "longitude": -79.47712796110591}, "132587585RR0001": {"name": "PORT CLEMENTS HISTORICAL SOCIETY", "designationCode": "C", "categoryCode": "50", "address": "BOX 417", "city": "PORT CLEMENTS", "province": "BC", "country": "CA", "postalCode": "V0T1R0", "twitter": "None", "instagram": "None", "facebook": "None", "youtube": "None", "website": "None", "summary": "None", "logo": "None", "latitude": 53.68667000000005, "longitude": -132.16904999999997}, "119096477RR0001": {"name": "PORT CLYDE-PORT SAXON UNITED CHURCH", "designationCode": "C", "categoryCode": "44", "address": "PORT LA TOUR ROAD P.O.BOX 32", "city": "PORT CLYDE", "province": "NS", "country": "CA", "postalCode": "B0W2S0", "twitter": "None", "instagram": "None", "facebook": "None", "youtube": "None", "website": "None", "summary": "None", "logo": "None", "latitude": 43.626241967516144, "longitude": -65.47409983858066}, "107852857RR0001": {"name": "PORT COLBORNE BAPTIST CHURCH", "designationCode": "C", "categoryCode": "31", "address": "84 RIDGEWOOD", "city": "PORT COLBORNE", "province": "ON", "country": "CA", "postalCode": "L3K5N8", "twitter": "None", "instagram": "None", "facebook": "None", "youtube": "None", "website": "None", "summary": "None", "logo": "None", "latitude": 42.88571999999999, "longitude": -79.26832803101689}, "888654241RR0001": {"name": "PORT COLBORNE BRETHREN IN CHRIST CHURCH", "designationCode": "C", "categoryCode": "39", "address": "1586 FIRELANE 2", "city": "PORT COLBORNE", "province": "ON", "country": "CA", "postalCode": "L3K5V3", "twitter": "None", "instagram": "None", "facebook": "None", "youtube": "None", "website": "None", "summary": "None", "logo": "None", "latitude": 42.87254850182837, "longitude": -79.20009848847536}, "119096493RR0001": {"name": "PORT COLBORNE COMMUNITY ASSOCIATION FOR RESOURCE EXTENSION", "designationCode": "C", "categoryCode": "56", "address": "92 CHARLOTTE STREET", "city": "PORT COLBORNE", "province": "ON", "country": "CA", "postalCode": "L3K3E1", "twitter": "None", "instagram": "None", "facebook": "None", "youtube": "None", "website": "None", "summary": "None", "logo": "None", "latitude": 42.88499851399405, "longitude": -79.25315019164407}, "858650179RR0001": {"name": "PORT COLBORNE FESTIVAL OF THE ARTS", "designationCode": "C", "categoryCode": "22", "address": "BOX 531", "city": "PORT COLBORNE", "province": "ON", "country": "CA", "postalCode": "L3K5X7", "twitter": "None", "instagram": "None", "facebook": "None", "youtube": "None", "website": "None", "summary": "None", "logo": "None", "latitude": 42.88507800000005, "longitude": -79.25200099999994}, "899146492RR0001": {"name": "PORT COLBORNE MARINE AUXILIARY RESCUE", "designationCode": "C", "categoryCode": "59", "address": "PO BOX 423", "city": "PORT COLBORNE", "province": "ON", "country": "CA", "postalCode": "L3K1B7", "twitter": "None", "instagram": "None", "facebook": "None", "youtube": "None", "website": "None", "summary": "None", "logo": "None", "latitude": 42.88507800000005, "longitude": -79.25200099999994}, "119288918RR0072": {"name": "PORT COLBORNE ONTARIO CONGREGATION OF JEHOVAH'S WITNESSES", "designationCode": "C", "categoryCode": "61", "address": "222 CHRISTMAS ST", "city": "PORT COLBORNE", "province": "ON", "country": "CA", "postalCode": "L3K1N2", "twitter": "None", "instagram": "None", "facebook": "None", "youtube": "None", "website": "None", "summary": "None", "logo": "None", "latitude": 42.89071250432783, "longitude": -79.23055033236193}, "107852931RR0001": {"name": "PORT COQUITLAM CHRISTIAN ASSEMBLY", "designationCode": "C", "categoryCode": "36", "address": "1932 CAMERON AVENUE", "city": "PORT COQUITLAM", "province": "BC", "country": "CA", "postalCode": "V3C1J3", "twitter": "None", "instagram": "None", "facebook": "None", "youtube": "None", "website": "None", "summary": "None", "logo": "None", "latitude": 49.24812451399404, "longitude": -122.76980983236194}, "107852949RR0001": {"name": "PORT COQUITLAM DAY CARE-SOCIETY", "designationCode": "C", "categoryCode": "01", "address": "50-3150 COAST MERIDIAN RD", "city": "PORT COQUITLAM", "province": "BC", "country": "CA", "postalCode": "V3B5J8", "twitter": "None", "instagram": "None", "facebook": "None", "youtube": "None", "website": "None", "summary": "None", "logo": "None", "latitude": 49.26929386372555, "longitude": -122.75607944665052}, "119096584RR0001": {"name": "PORT COQUITLAM LEGION COMMUNITY PIPE BAND SOCIETY", "designationCode": "C", "categoryCode": "22", "address": "#203 12268 224TH ST.", "city": "MAPLE RIDGE", "province": "BC", "country": "CA", "postalCode": "V2X6B8", "twitter": "None", "instagram": "None", "facebook": "None", "youtube": "None", "website": "None", "summary": "None", "logo": "None", "latitude": 49.2261646588955, "longitude": -122.60128045891287}, "107852964RR0001": {"name": "PORT COQUITLAM SENIOR CITIZENS HOUSING SOCIETY", "designationCode": "C", "categoryCode": "01", "address": "2111 HAWTHORNE AVE", "city": "PORT COQUITLAM", "province": "BC", "country": "CA", "postalCode": "V3C1W3", "twitter": "None", "instagram": "None", "facebook": "None", "youtube": "None", "website": "None", "summary": "None", "logo": "None", "latitude": 49.25706676199798, "longitude": -122.7756845980613}, "119288918RR0254": {"name": "PORT CREDIT CONGREGATION OF JEHOVAH'S WITNESSES", "designationCode": "C", "categoryCode": "61", "address": "1381 LAKESHORE RD W", "city": "MISSISSAUGA", "province": "ON", "country": "CA", "postalCode": "L5H4G4", "twitter": "None", "instagram": "None", "facebook": "None", "youtube": "None", "website": "None", "summary": "None", "logo": "None", "latitude": 43.52592783210214, "longitude": -79.61372472179559}, "898954771RR0001": {"name": "PORT DE GRAVE PENINSULA HERITAGE SOCIETY, INC", "designationCode": "C", "categoryCode": "52", "address": "P O BOX 26", "city": "PORT DE GRAVE", "province": "NL", "country": "CA", "postalCode": "A0A3J0", "twitter": "None", "instagram": "None", "facebook": "None", "youtube": "None", "website": "None", "summary": "None", "logo": "None", "latitude": 47.57294421642443, "longitude": -53.26582734842345}, "898951504RR0001": {"name": "PORT DOVER / WOODHOUSE & DISTRICT COMMUNITY FOUNDATION", "designationCode": "A", "categoryCode": "05", "address": "19 MARKET STREET WEST         P.O. BOX 239", "city": "PORT DOVER", "province": "ON", "country": "CA", "postalCode": "N0A1N0", "twitter": "None", "instagram": "None", "facebook": "None", "youtube": "None", "website": "None", "summary": "None", "logo": "None", "latitude": 42.78603790812282, "longitude": -80.20317772494428}, "891511040RR0001": {"name": "PORT DOVER CEMETERY COMPANY", "designationCode": "C", "categoryCode": "59", "address": "P.O. BOX 1156", "city": "PORT DOVER", "province": "ON", "country": "CA", "postalCode": "N0A1N0", "twitter": "None", "instagram": "None", "facebook": "None", "youtube": "None", "website": "None", "summary": "None", "logo": "None", "latitude": 42.78459300000006, "longitude": -80.20790899999993}, "893906065RR0001": {"name": "PORT DOVER PASTORAL CHARGE", "designationCode": "C", "categoryCode": "44", "address": "18 CHAPMAN STREET WEST        BOX 814", "city": "PORT DOVER", "province": "ON", "country": "CA", "postalCode": "N0A1N0", "twitter": "None", "instagram": "None", "facebook": "None", "youtube": "None", "website": "None", "summary": "None", "logo": "None", "latitude": 42.78681789953255, "longitude": -80.20536966279063}, "867582835RR0001": {"name": "PORT EDWARD HISTORICAL SOCIETY", "designationCode": "C", "categoryCode": "50", "address": "P.O. BOX 1100                 770 PACIFIC AVENUE", "city": "PORT EDWARD", "province": "BC", "country": "CA", "postalCode": "V0V1G0", "twitter": "None", "instagram": "None", "facebook": "None", "youtube": "None", "website": "None", "summary": "None", "logo": "None", "latitude": 54.2209368734204, "longitude": -130.28899510730545}, "131778367RR0001": {"name": "PORT ELGIN MISSIONARY CHURCH", "designationCode": "C", "categoryCode": "39", "address": "PO BOX 1630                   650 GREEN STREET", "city": "PORT ELGIN", "province": "ON", "country": "CA", "postalCode": "N0H2C0", "twitter": "None", "instagram": "None", "facebook": "None", "youtube": "None", "website": "None", "summary": "None", "logo": "None", "latitude": 44.43594260364145, "longitude": -81.38669276216157}, "107853160RR0001": {"name": "PORT ELGIN PASTORAL CHARGE", "designationCode": "C", "categoryCode": "44", "address": "PO BOX 486", "city": "PORT ELGIN", "province": "ON", "country": "CA", "postalCode": "N0H2C0", "twitter": "None", "instagram": "None", "facebook": "None", "youtube": "None", "website": "None", "summary": "None", "logo": "None", "latitude": 44.43698400000005, "longitude": -81.38664349999993}, "870182920RR0001": {"name": "PORT ELGIN PUBLIC LIBRARY BOARD", "designationCode": "C", "categoryCode": "50", "address": "1 STATION STREET", "city": "PORT ELGIN", "province": "NB", "country": "CA", "postalCode": "E4M1C6", "twitter": "None", "instagram": "None", "facebook": "None", "youtube": "None", "website": "None", "summary": "None", "logo": "None", "latitude": 46.052521688223, "longitude": -64.08507260894713}, "119288918RR1238": {"name": "PORT ELGIN, ONTARIO CONGREGATION OF JEHOVAH'S WITNESSES", "designationCode": "C", "categoryCode": "61", "address": "PO BOX 93                     188 1ST AVE S", "city": "CHESLEY", "province": "ON", "country": "CA", "postalCode": "N0G1L0", "twitter": "None", "instagram": "None", "facebook": "None", "youtube": "None", "website": "None", "summary": "None", "logo": "None", "latitude": 44.29536103027365, "longitude": -81.09451291936537}, "895094720RR0001": {"name": "PORT GEORGE DISTRICT LIGHTHOUSE SOCIETY", "designationCode": "C", "categoryCode": "53", "address": "P.O. BOX 786", "city": "MIDDLETON", "province": "NS", "country": "CA", "postalCode": "B0S1P0", "twitter": "None", "instagram": "None", "facebook": "None", "youtube": "None", "website": "None", "summary": "None", "logo": "None", "latitude": 45.01449600000005, "longitude": -65.06449099999993}, "119096717RR0001": {"name": "PORT GREVILLE UNITED BAPTIST CHURCH", "designationCode": "C", "categoryCode": "31", "address": "RR#3", "city": "PARRSBORO", "province": "NS", "country": "CA", "postalCode": "B0M1S0", "twitter": "None", "instagram": "None", "facebook": "None", "youtube": "None", "website": "None", "summary": "None", "logo": "None", "latitude": 45.385971000000055, "longitude": -64.25530099999993}, "867896706RR0001": {"name": "PORT HARDY BAPTIST CHURCH", "designationCode": "C", "categoryCode": "31", "address": "P.O. BOX 2040", "city": "PORT HARDY", "province": "BC", "country": "CA", "postalCode": "V0N2P0", "twitter": "None", "instagram": "None", "facebook": "None", "youtube": "None", "website": "None", "summary": "None", "logo": "None", "latitude": 50.72153001889881, "longitude": -127.5011199316182}, "129950804RR0033": {"name": "PORT HARDY CATHOLIC CHURCH", "designationCode": "C", "categoryCode": "38", "address": "BOX 174", "city": "PORT HARDY", "province": "BC", "country": "CA", "postalCode": "V0N2P0", "twitter": "None", "instagram": "None", "facebook": "None", "youtube": "None", "website": "None", "summary": "None", "logo": "None", "latitude": 50.72153001889881, "longitude": -127.5011199316182}, "118953272RR0001": {"name": "PORT HARDY CHRISTIAN FELLOWSHIP", "designationCode": "C", "categoryCode": "36", "address": "7050 RUPERT ST                BOX 1708", "city": "PORT HARDY", "province": "BC", "country": "CA", "postalCode": "V0N2P0", "twitter": "None", "instagram": "None", "facebook": "None", "youtube": "None", "website": "None", "summary": "None", "logo": "None", "latitude": 50.72011510020766, "longitude": -127.49631270102182}, "868846585RR0001": {"name": "PORT HARDY HARVEST FOOD BANK", "designationCode": "C", "categoryCode": "09", "address": "P.O.BOX 849                   7120 MARKET ST", "city": "PORT HARDY", "province": "BC", "country": "CA", "postalCode": "V0N2P0", "twitter": "None", "instagram": "None", "facebook": "None", "youtube": "None", "website": "None", "summary": "None", "logo": "None", "latitude": 50.72125500000001, "longitude": -127.49229393052079}, "107853251RR0001": {"name": "PORT HARDY HERITAGE SOCIETY", "designationCode": "C", "categoryCode": "50", "address": "PO 2126", "city": "PORT HARDY", "province": "BC", "country": "CA", "postalCode": "V0N2P0", "twitter": "None", "instagram": "None", "facebook": "None", "youtube": "None", "website": "None", "summary": "None", "logo": "None", "latitude": 50.72153001889881, "longitude": -127.5011199316182}, "892694969RR0001": {"name": "PORT HARDY HOSPITAL AUXILIARY SOCIETY", "designationCode": "A", "categoryCode": "13", "address": "PO BOX 2424", "city": "PORT HARDY", "province": "BC", "country": "CA", "postalCode": "V0N2P0", "twitter": "None", "instagram": "None", "facebook": "None", "youtube": "None", "website": "None", "summary": "None", "logo": "None", "latitude": 50.72153001889881, "longitude": -127.5011199316182}, "118818491RR0086": {"name": "PORT HARDY SEVENTH-DAY ADVENTIST CHURCH", "designationCode": "C", "categoryCode": "41", "address": "PO 1000", "city": "ABBOTSFORD", "province": "BC", "country": "CA", "postalCode": "V2S4P5", "twitter": "None", "instagram": "None", "facebook": "None", "youtube": "None", "website": "None", "summary": "None", "logo": "None", "latitude": 49.03851300000005, "longitude": -122.29441549999993}, "107853293RR0001": {"name": "PORT HASTINGS HISTORICAL SOCIETY", "designationCode": "C", "categoryCode": "50", "address": "24 HWY 19", "city": "PORT HASTINGS", "province": "NS", "country": "CA", "postalCode": "B9A1M1", "twitter": "None", "instagram": "None", "facebook": "None", "youtube": "None", "website": "None", "summary": "None", "logo": "None", "latitude": 45.64790420213208, "longitude": -61.405505187693265}, "890027196RR0001": {"name": "PORT HAWKESBURY FOOD BANK SOCIETY", "designationCode": "C", "categoryCode": "09", "address": "514A GRANVILLE ST", "city": "PORT HAWKESBURY", "province": "NS", "country": "CA", "postalCode": "B9A2M9", "twitter": "None", "instagram": "None", "facebook": "None", "youtube": "None", "website": "None", "summary": "None", "logo": "None"}, "119096824RR0001": {"name": "PORT HAWKESBURY UNITED BAPTIST CHURCH", "designationCode": "C", "categoryCode": "31", "address": "50 EMBREE ISLAND ROAD", "city": "PORT HAWKESBURY", "province": "NS", "country": "CA", "postalCode": "B9A2A4", "twitter": "None", "instagram": "None", "facebook": "None", "youtube": "None", "website": "None", "summary": "None", "logo": "None", "latitude": 45.62491935749312, "longitude": -61.36903559253294}, "140316639RR0001": {"name": "PORT HILFORD UNITED BAPTIST CHURCH", "designationCode": "C", "categoryCode": "31", "address": "RR 2", "city": "SHERBROOKE", "province": "NS", "country": "CA", "postalCode": "B0J3C0", "twitter": "None", "instagram": "None", "facebook": "None", "youtube": "None", "website": "None", "summary": "None", "logo": "None", "latitude": 44.62486683013651, "longitude": -64.54661386209058}, "889494993RR0001": {"name": "PORT HOOD UNITED CHURCH", "designationCode": "C", "categoryCode": "44", "address": "239 MAIN STREET               P.O. BOX 137", "city": "PORT HOOD", "province": "NS", "country": "CA", "postalCode": "B0E2W0", "twitter": "None", "instagram": "None", "facebook": "None", "youtube": "None", "website": "None", "summary": "None", "logo": "None", "latitude": 46.01697456284278, "longitude": -61.53186117170609}, "131903056RR0001": {"name": "PORT HOPE AND DISTRICT HISTORICAL SOCIETY", "designationCode": "C", "categoryCode": "52", "address": "P.O. BOX 116", "city": "PORT HOPE", "province": "ON", "country": "CA", "postalCode": "L1A3V9", "twitter": "None", "instagram": "None", "facebook": "None", "youtube": "None", "website": "None", "summary": "None", "logo": "None", "latitude": 43.95010200000006, "longitude": -78.29160199999993}, "837898675RR0001": {"name": "PORT HOPE ARCHIVES", "designationCode": "C", "categoryCode": "50", "address": "17 MILL STREET NORTH", "city": "PORT HOPE", "province": "ON", "country": "CA", "postalCode": "L1A2T1", "twitter": "None", "instagram": "None", "facebook": "None", "youtube": "None", "website": "None", "summary": "None", "logo": "None", "latitude": 43.951407914795986, "longitude": -78.29181843031922}, "132787482RR0001": {"name": "PORT HOPE CHRISTIAN ASSEMBLY", "designationCode": "C", "categoryCode": "39", "address": "182 CAVAN STREET", "city": "PORT HOPE", "province": "ON", "country": "CA", "postalCode": "L1A3C2", "twitter": "None", "instagram": "None", "facebook": "None", "youtube": "None", "website": "None", "summary": "None", "logo": "None", "latitude": 43.959168000000005, "longitude": -78.29670019320194}, "107853392RR0001": {"name": "PORT HOPE CO-OPERATIVE NURSERY SCHOOL INC.", "designationCode": "C", "categoryCode": "20", "address": "40 WARD ST", "city": "PORT HOPE", "province": "ON", "country": "CA", "postalCode": "L1A1L5", "twitter": "None", "instagram": "None", "facebook": "None", "youtube": "None", "website": "None", "summary": "None", "logo": "None", "latitude": 43.95484336776493, "longitude": -78.28994056996922}, "118911213RR0001": {"name": "PORT HOPE FREE PRESBYTERIAN CHURCH", "designationCode": "C", "categoryCode": "31", "address": "184 TORONTO RD", "city": "PORT HOPE", "province": "ON", "country": "CA", "postalCode": "L1A3V5", "twitter": "None", "instagram": "None", "facebook": "None", "youtube": "None", "website": "None", "summary": "None", "logo": "None", "latitude": 43.96196556754598, "longitude": -78.32561063258086}, "119096915RR0001": {"name": "PORT HOPE FRIENDS OF MUSIC", "designationCode": "C", "categoryCode": "22", "address": "P.O. BOX 526", "city": "PORT HOPE", "province": "ON", "country": "CA", "postalCode": "L1A3Z4", "twitter": "None", "instagram": "None", "facebook": "None", "youtube": "None", "website": "None", "summary": "None", "logo": "None", "latitude": 43.95010200000006, "longitude": -78.29160199999993}, "864287917RR0001": {"name": "PORT HOPE JAZZ INC.", "designationCode": "C", "categoryCode": "22", "address": "3988 FROST AVENUE, RR#1", "city": "CAMPBELLCROFT", "province": "ON", "country": "CA", "postalCode": "L0A1B0", "twitter": "None", "instagram": "None", "facebook": "None", "youtube": "None", "website": "None", "summary": "None", "logo": "None", "latitude": 44.059580952635805, "longitude": -78.39971572497998}, "119288918RR0277": {"name": "PORT HOPE ONTARIO CONGREGATION OF JEHOVAH'S WITNESSES", "designationCode": "C", "categoryCode": "61", "address": "18 CROSSLEY DR.", "city": "PORT HOPE", "province": "ON", "country": "CA", "postalCode": "L1A3T4", "twitter": "None", "instagram": "None", "facebook": "None", "youtube": "None", "website": "None", "summary": "None", "logo": "None", "latitude": 43.96794243161731, "longitude": -78.29990263933287}, "119096931RR0001": {"name": "PORT HOPE PUBLIC LIBRARY BOARD", "designationCode": "C", "categoryCode": "50", "address": "31 QUEEN ST", "city": "PORT HOPE", "province": "ON", "country": "CA", "postalCode": "L1A2Y8", "twitter": "None", "instagram": "None", "facebook": "None", "youtube": "None", "website": "None", "summary": "None", "logo": "None", "latitude": 43.95006346794392, "longitude": -78.29289230639402}, "107853434RR0001": {"name": "PORT HOPE UNITED CHURCH", "designationCode": "C", "categoryCode": "44", "address": "34 SOUTH ST.", "city": "PORT HOPE", "province": "ON", "country": "CA", "postalCode": "L1A1R8", "twitter": "None", "instagram": "None", "facebook": "None", "youtube": "None", "website": "None", "summary": "None", "logo": "None", "latitude": 43.9534594205088, "longitude": -78.29734277852153}, "119096964RR0001": {"name": "PORT HOWE GOSPEL HALL", "designationCode": "C", "categoryCode": "39", "address": "PO BOX 247", "city": "PUGWASH", "province": "NS", "country": "CA", "postalCode": "B0K1L0", "twitter": "None", "instagram": "None", "facebook": "None", "youtube": "None", "website": "None", "summary": "None", "logo": "None", "latitude": 45.80128373751312, "longitude": -63.63643739508734}, "868874413RR0001": {"name": "PORT HURON MISSION - SARNIA RESTORATION BRANCH", "designationCode": "C", "categoryCode": "39", "address": "5812 5TH CONC N               RR 4", "city": "AMHERSTBURG", "province": "ON", "country": "CA", "postalCode": "N9V2Y9", "twitter": "None", "instagram": "None", "facebook": "None", "youtube": "None", "website": "None", "summary": "None", "logo": "None", "latitude": 42.16908363723534, "longitude": -83.0348578650987}, "890165848RR0001": {"name": "PORT JOLI BASIN CONSERVATION SOCIETY", "designationCode": "C", "categoryCode": "59", "address": "8169 HWY 331", "city": "CHERRY HILL", "province": "NS", "country": "CA", "postalCode": "B0J2H0", "twitter": "None", "instagram": "None", "facebook": "None", "youtube": "None", "website": "None", "summary": "None", "logo": "None", "latitude": 44.15405122912013, "longitude": -64.51005203314043}, "119096972RR0001": {"name": "PORT KELLS ARTS CLUB", "designationCode": "C", "categoryCode": "22", "address": "13787 63A AVE", "city": "SURREY", "province": "BC", "country": "CA", "postalCode": "V3X1E6", "twitter": "None", "instagram": "None", "facebook": "None", "youtube": "None", "website": "None", "summary": "None", "logo": "None", "latitude": 49.1177124893242, "longitude": -122.84024302553522}, "119096998RR0001": {"name": "PORT KELLS CONGREGATIONAL CHURCH", "designationCode": "C", "categoryCode": "39", "address": "19131-88 AVENUE", "city": "SURREY", "province": "BC", "country": "CA", "postalCode": "V4N5T2", "twitter": "None", "instagram": "None", "facebook": "None", "youtube": "None", "website": "None", "summary": "None", "logo": "None", "latitude": 49.162854456575616, "longitude": -122.692374}, "131691974RR0001": {"name": "PORT LA TOUR UNITED BAPTIST CHURCH", "designationCode": "C", "categoryCode": "31", "address": "SITE 1, 1B, COMP. 2", "city": "PORT LA TOUR", "province": "NS", "country": "CA", "postalCode": "B0W2T0", "twitter": "None", "instagram": "None", "facebook": "None", "youtube": "None", "website": "None", "summary": "None", "logo": "None", "latitude": 43.50300000000006, "longitude": -65.47831549999994}, "119097004RR0001": {"name": "PORT LAMBTON UNITED CHURCH", "designationCode": "C", "categoryCode": "44", "address": "P.O. BOX 411", "city": "PORT LAMBTON", "province": "ON", "country": "CA", "postalCode": "N0P2B0", "twitter": "None", "instagram": "None", "facebook": "None", "youtube": "None", "website": "None", "summary": "None", "logo": "None", "latitude": 42.65674000000007, "longitude": -82.50609999999995}}