{"143815157RR0001": {"name": "CANADA AIDE INTERNATIONALE AU DEVELOPPEMENT EQUITABLE", "designationCode": "C", "categoryCode": "09", "address": "205-265 BOUL RENE-LEVESQUE O", "city": "QUEBEC", "province": "QC", "country": "CA", "postalCode": "G1R2A7", "twitter": "None", "instagram": "None", "facebook": "None", "youtube": "None", "website": "None", "summary": "None", "logo": "None", "latitude": 46.80373466495236, "longitude": -71.22759510960057}, "106836745RR0001": {"name": "CANADA ATLANTIC DISTRICT CHURCH OF THE NAZARENE", "designationCode": "C", "categoryCode": "39", "address": "23 FIELDCREST", "city": "MONCTON", "province": "NB", "country": "CA", "postalCode": "E1G1T1", "twitter": "None", "instagram": "None", "facebook": "None", "youtube": "None", "website": "None", "summary": "None", "logo": "None", "latitude": 46.12048177826174, "longitude": -64.84236539644546}, "133017319RR0001": {"name": "CANADA AWAKENING MINISTRIES INC.", "designationCode": "C", "categoryCode": "47", "address": "PO BOX 343", "city": "NIVERVILLE", "province": "MB", "country": "CA", "postalCode": "R0A1E0", "twitter": "None", "instagram": "None", "facebook": "None", "youtube": "None", "website": "None", "summary": "None", "logo": "None", "latitude": 49.60599000000006, "longitude": -97.04598199999994}, "118828243RR0001": {"name": "CANADA CENTRAL DISTRICT NAZARENE WORLD MISSION SOCIETY", "designationCode": "C", "categoryCode": "47", "address": "78 RIVERVIEW BEACH ROAD", "city": "PEFFERLAW", "province": "ON", "country": "CA", "postalCode": "L0E1N0", "twitter": "None", "instagram": "None", "facebook": "None", "youtube": "None", "website": "None", "summary": "None", "logo": "None", "latitude": 44.33811180653825, "longitude": -79.20714249117052}, "140976168RR0001": {"name": "CANADA CHINESE CHRISTIAN YOUTH WINTER CONFERENCE MINISTRIES", "designationCode": "C", "categoryCode": "47", "address": "6508-31 AVENUE", "city": "EDMONTON", "province": "AB", "country": "CA", "postalCode": "T6L6P7", "twitter": "None", "instagram": "None", "facebook": "None", "youtube": "None", "website": "None", "summary": "None", "logo": "None", "latitude": 53.46227543551243, "longitude": -113.43349498141833}, "882184377RR0001": {"name": "CANADA CHINESE COMPUTER ASSOCIATION CHARITABLE FOUNDATION", "designationCode": "B", "categoryCode": "25", "address": "PO BOX 56551                  TOWN SQUARE POST OFFICE", "city": "MARKHAM", "province": "ON", "country": "CA", "postalCode": "L3R0M6", "twitter": "None", "instagram": "None", "facebook": "None", "youtube": "None", "website": "None", "summary": "None", "logo": "None", "latitude": 43.85650200000005, "longitude": -79.33982299999994}, "874141427RR0001": {"name": "CANADA CHRISTIAN ACADEMY BRAMPTON INC", "designationCode": "B", "categoryCode": "20", "address": "22 ABBEY ROAD", "city": "BRAMPTON", "province": "ON", "country": "CA", "postalCode": "L6W2T8", "twitter": "None", "instagram": "None", "facebook": "None", "youtube": "None", "website": "None", "summary": "None", "logo": "None", "latitude": 43.68050959446618, "longitude": -79.74129855291677}, "869541540RR0001": {"name": "CANADA CHRISTIAN COLLEGE & SCHOOL OF GRADUATE THEOLOGICAL STUDIES", "designationCode": "C", "categoryCode": "20", "address": "50 GERVAIS DRIVE", "city": "TORONTO", "province": "ON", "country": "CA", "postalCode": "M3C1Z3", "twitter": "None", "instagram": "None", "facebook": "None", "youtube": "None", "website": "None", "summary": "None", "logo": "None", "latitude": 43.72524896808814, "longitude": -79.33757831660755}, "118830124RR0001": {"name": "CANADA COME UP HIGHER MINISTRIES", "designationCode": "C", "categoryCode": "47", "address": "1886 SHORE CRESCENT", "city": "ABBOTSFORD", "province": "BC", "country": "CA", "postalCode": "V2S6B5", "twitter": "None", "instagram": "None", "facebook": "None", "youtube": "None", "website": "None", "summary": "None", "logo": "None", "latitude": 49.03579607216227, "longitude": -122.28547279742031}, "108074527RR0001": {"name": "CANADA COUNCIL FOR THE ARTS CONSEIL DES ARTS DU CANADA", "designationCode": "C", "categoryCode": "22", "address": "PO BOX 1047 STN B", "city": "OTTAWA", "province": "ON", "country": "CA", "postalCode": "K1P5V8", "twitter": "None", "instagram": "None", "facebook": "None", "youtube": "None", "website": "None", "summary": "None", "logo": "None", "latitude": 45.42177300000006, "longitude": -75.69115999999994}, "130675135RR0001": {"name": "CANADA DANCE FESTIVAL SOCIETY (NATIONAL CAPITAL REGION)", "designationCode": "C", "categoryCode": "22", "address": "P.O. BOX 1376, STATION B", "city": "OTTAWA", "province": "ON", "country": "CA", "postalCode": "K1P5R4", "twitter": "None", "instagram": "None", "facebook": "None", "youtube": "None", "website": "None", "summary": "None", "logo": "None", "latitude": 45.42177300000006, "longitude": -75.69115999999994}, "849607726RR0001": {"name": "CANADA ENM MINISTRY", "designationCode": "C", "categoryCode": "39", "address": "201 - 3701 EAST HASTINGS ST.", "city": "BURNABY", "province": "BC", "country": "CA", "postalCode": "V5C2H6", "twitter": "None", "instagram": "None", "facebook": "None", "youtube": "None", "website": "None", "summary": "None", "logo": "None", "latitude": 49.281120000000016, "longitude": -123.02315325000001}, "833062144RR0001": {"name": "CANADA GIVES", "designationCode": "A", "categoryCode": "03", "address": "PO BOX 1099,7876 COUNTY RD 9", "city": "CREEMORE", "province": "ON", "country": "CA", "postalCode": "L0M1G0", "twitter": "None", "instagram": "None", "facebook": "None", "youtube": "None", "website": "None", "summary": "None", "logo": "None", "latitude": 44.32677422820974, "longitude": -80.12610470254599}, "894659408RR0001": {"name": "CANADA HINDU HERITAGE CENTRE", "designationCode": "C", "categoryCode": "20", "address": "270 EXPORT BLVD.", "city": "MISSISSAUGA", "province": "ON", "country": "CA", "postalCode": "L5S1Y9", "twitter": "None", "instagram": "None", "facebook": "None", "youtube": "None", "website": "None", "summary": "None", "logo": "None", "latitude": 43.652025780397466, "longitude": -79.70262207080688}, "134475300RR0001": {"name": "CANADA HINDU ORGANIZATION INCORPORATED", "designationCode": "C", "categoryCode": "48", "address": "2 RICHLAND CRES", "city": "BRAMPTON", "province": "ON", "country": "CA", "postalCode": "L6P1M7", "twitter": "None", "instagram": "None", "facebook": "None", "youtube": "None", "website": "None", "summary": "None", "logo": "None", "latitude": 43.77367118901834, "longitude": -79.7289539340988}, "893959049RR0001": {"name": "CANADA HINDU SATSANGH ORGANIZATION", "designationCode": "C", "categoryCode": "48", "address": "215 EXPORT BOULEVARD", "city": "MISSISSAUGA", "province": "ON", "country": "CA", "postalCode": "L5S1Y4", "twitter": "None", "instagram": "None", "facebook": "None", "youtube": "None", "website": "None", "summary": "None", "logo": "None", "latitude": 43.65069916795518, "longitude": -79.70421340639919}, "887344398RR0001": {"name": "CANADA ICE DANCE THEATRE ASSOCIATION", "designationCode": "C", "categoryCode": "22", "address": "201-750 DENMAN STREET", "city": "VANCOUVER", "province": "BC", "country": "CA", "postalCode": "V6G2L5", "twitter": "None", "instagram": "None", "facebook": "None", "youtube": "None", "website": "None", "summary": "None", "logo": "None", "latitude": 49.29193981375162, "longitude": -123.13470306797866}, "892215369RR0001": {"name": "CANADA ICELAND FOUNDATION INC.", "designationCode": "C", "categoryCode": "21", "address": "135 IRVING PLACE", "city": "WINNIPEG", "province": "MB", "country": "CA", "postalCode": "R2G0K8", "twitter": "None", "instagram": "None", "facebook": "None", "youtube": "None", "website": "None", "summary": "None", "logo": "None", "latitude": 49.94348804440535, "longitude": -97.0930681893937}, "888058864RR0001": {"name": "CANADA INDIA VILLAGE AID ASSOCIATION", "designationCode": "C", "categoryCode": "19", "address": "900-1450 CREEKSIDE DRIVE", "city": "VANCOUVER", "province": "BC", "country": "CA", "postalCode": "V6J5B3", "twitter": "None", "instagram": "None", "facebook": "None", "youtube": "None", "website": "None", "summary": "None", "logo": "None", "latitude": 49.2730658598304, "longitude": -123.14067372574898}, "890866122RR0001": {"name": "CANADA INSTITUTE OF LINGUISTICS", "designationCode": "C", "categoryCode": "20", "address": "7600 GLOVER RD", "city": "LANGLEY", "province": "BC", "country": "CA", "postalCode": "V2Y1Y1", "twitter": "None", "instagram": "None", "facebook": "None", "youtube": "None", "website": "None", "summary": "None", "logo": "None", "latitude": 49.14035608924, "longitude": -122.60750361270851}, "106837347RR0001": {"name": "CANADA ISRAEL CULTURAL FOUNDATION", "designationCode": "C", "categoryCode": "22", "address": "4700 BATHURST ST", "city": "NORTH YORK", "province": "ON", "country": "CA", "postalCode": "M2R1W8", "twitter": "None", "instagram": "None", "facebook": "None", "youtube": "None", "website": "None", "summary": "None", "logo": "None", "latitude": 43.76608854870453, "longitude": -79.44108619265369}, "118828391RR0001": {"name": "CANADA ISRAEL ENDOWMENT FOUNDATION", "designationCode": "B", "categoryCode": "23", "address": "4700 BATHURST STREET 2ND FLOOR", "city": "TORONTO", "province": "ON", "country": "CA", "postalCode": "M2R1W8", "twitter": "None", "instagram": "None", "facebook": "None", "youtube": "None", "website": "None", "summary": "None", "logo": "None", "latitude": 43.76610752316931, "longitude": -79.44109023651077}, "834124125RR0001": {"name": "CANADA JESUS FIRST CHURCH", "designationCode": "C", "categoryCode": "37", "address": "26 HAMER BLVD", "city": "ETOBICOKE", "province": "ON", "country": "CA", "postalCode": "M9R4A7", "twitter": "None", "instagram": "None", "facebook": "None", "youtube": "None", "website": "None", "summary": "None", "logo": "None", "latitude": 43.700783110767894, "longitude": -79.55559058563671}, "893363168RR0001": {"name": "CANADA KANTHASWAMY TEMPLE SOCIETY (SCARBOROUGH)", "designationCode": "C", "categoryCode": "39", "address": "733 BIRCHMOUNT ROAD", "city": "TORONTO", "province": "ON", "country": "CA", "postalCode": "M1K1R5", "twitter": "None", "instagram": "None", "facebook": "None", "youtube": "None", "website": "None", "summary": "None", "logo": "None", "latitude": 43.72422698003335, "longitude": -79.27549975388128}, "886743814RR0001": {"name": "CANADA MISSION METHODIST CHURCH", "designationCode": "C", "categoryCode": "39", "address": "209 COLUMBIA ST E", "city": "NEW WESTMINSTER", "province": "BC", "country": "CA", "postalCode": "V3L3W2", "twitter": "None", "instagram": "None", "facebook": "None", "youtube": "None", "website": "None", "summary": "None", "logo": "None", "latitude": 49.22349299999999, "longitude": -122.89296353055555}, "859619165RR0001": {"name": "CANADA NEPAL MEDICAL SOCIETY", "designationCode": "C", "categoryCode": "21", "address": "24 VICTOR BLVD", "city": "ST CATHARINES", "province": "ON", "country": "CA", "postalCode": "L2T2B3", "twitter": "None", "instagram": "None", "facebook": "None", "youtube": "None", "website": "None", "summary": "None", "logo": "None", "latitude": 43.13128279098634, "longitude": -79.23591790576495}, "118828540RR0001": {"name": "CANADA PLACE CHILD CARE SOCIETY", "designationCode": "C", "categoryCode": "20", "address": "BOX 230                       9700 JASPER AVE", "city": "EDMONTON", "province": "AB", "country": "CA", "postalCode": "T5J4C3", "twitter": "None", "instagram": "None", "facebook": "None", "youtube": "None", "website": "None", "summary": "None", "logo": "None", "latitude": 53.542239930202015, "longitude": -113.48554434966589}, "887943645RR0001": {"name": "CANADA POST CORPORATION EMPLOYEES CHARITY TRUST FUND", "designationCode": "B", "categoryCode": "75", "address": "N440 - 2701 RIVERSIDE DR", "city": "OTTAWA", "province": "ON", "country": "CA", "postalCode": "K1A0B1", "twitter": "None", "instagram": "None", "facebook": "None", "youtube": "None", "website": "None", "summary": "None", "logo": "None", "latitude": 45.37559890262731, "longitude": -75.69111178811777}, "873601462RR0001": {"name": "CANADA PURE LAND LEARNING ASSOCIATION (EDMONTON)", "designationCode": "C", "categoryCode": "35", "address": "9328 - 111 AVENUE", "city": "EDMONTON", "province": "AB", "country": "CA", "postalCode": "T5G0A3", "twitter": "None", "instagram": "None", "facebook": "None", "youtube": "None", "website": "None", "summary": "None", "logo": "None", "latitude": 53.56045892205809, "longitude": -113.48467268363703}, "118828565RR0001": {"name": "CANADA SAFETY COUNCIL/CONSEIL CANADIEN DE LA S\u00c9CURIT\u00c9", "designationCode": "C", "categoryCode": "59", "address": "1020 THOMAS SPRATT PLACE", "city": "OTTAWA", "province": "ON", "country": "CA", "postalCode": "K1G5L5", "twitter": "None", "instagram": "None", "facebook": "None", "youtube": "None", "website": "None", "summary": "None", "logo": "None", "latitude": 45.381601699117255, "longitude": -75.61783173740574}, "888694049RR0001": {"name": "CANADA SAFEWAY LIMITED EMPLOYEES FAIR SHARE FUND", "designationCode": "C", "categoryCode": "75", "address": "1020 64TH AVE NE", "city": "CALGARY", "province": "AB", "country": "CA", "postalCode": "T2E7V8", "twitter": "None", "instagram": "None", "facebook": "None", "youtube": "None", "website": "None", "summary": "None", "logo": "None", "latitude": 51.11063047489747, "longitude": -114.03903141618096}, "843992926RR0001": {"name": "CANADA SAIVITE COUNCIL FOR SPIRITUAL SUPPORT IN HEALTHCARE", "designationCode": "C", "categoryCode": "47", "address": "10 MCMORROW COURT", "city": "SCARBOROUGH", "province": "ON", "country": "CA", "postalCode": "M1E5H9", "twitter": "None", "instagram": "None", "facebook": "None", "youtube": "None", "website": "None", "summary": "None", "logo": "None", "latitude": 43.77303076519133, "longitude": -79.16318255900495}, "821123619RR0001": {"name": "CANADA SCIENCE AND TECHNOLOGY MUSEUM CORPORATION FOUNDATION", "designationCode": "A", "categoryCode": "53", "address": "2421 LANCASTER ROAD", "city": "OTTAWA", "province": "ON", "country": "CA", "postalCode": "K1G5A3", "twitter": "None", "instagram": "None", "facebook": "None", "youtube": "None", "website": "None", "summary": "None", "logo": "None", "latitude": 45.40210501309907, "longitude": -75.6174612129088}, "119058949RR0001": {"name": "CANADA SHIN YAT TONG MORAL SOCIETY", "designationCode": "C", "categoryCode": "39", "address": "4118 CAMBIE STREET", "city": "VANCOUVER", "province": "BC", "country": "CA", "postalCode": "V5Z2Y1", "twitter": "None", "instagram": "None", "facebook": "None", "youtube": "None", "website": "None", "summary": "None", "logo": "None", "latitude": 49.248713378296486, "longitude": -123.115218227538}, "870350428RR0001": {"name": "CANADA SOO SUN HAE/MEDITATION ASSOCIATION", "designationCode": "C", "categoryCode": "35", "address": "121 DEVONSLEIGH BLVD", "city": "RICHMOND HILL", "province": "ON", "country": "CA", "postalCode": "L4S1G2", "twitter": "None", "instagram": "None", "facebook": "None", "youtube": "None", "website": "None", "summary": "None", "logo": "None", "latitude": 43.904865889232106, "longitude": -79.43532530070986}, "814950416RR0001": {"name": "CANADA SOS: STUDENTS OFFERING SUPPORT", "designationCode": "C", "categoryCode": "20", "address": "167 - 215 SPADINA AVE", "city": "TORONTO", "province": "ON", "country": "CA", "postalCode": "M5T2C7", "twitter": "None", "instagram": "None", "facebook": "None", "youtube": "None", "website": "None", "summary": "None", "logo": "None", "latitude": 43.65063316348313, "longitude": -79.39697013165816}, "857417331RR0001": {"name": "CANADA SOUTH LAND TRUST", "designationCode": "C", "categoryCode": "52", "address": "2405 PRINCESS STREET", "city": "WINDSOR", "province": "ON", "country": "CA", "postalCode": "N8T1V2", "twitter": "None", "instagram": "None", "facebook": "None", "youtube": "None", "website": "None", "summary": "None", "logo": "None", "latitude": 42.30668594226445, "longitude": -82.96421157273919}, "124768789RR0001": {"name": "CANADA SPORTS FRIENDSHIP EXCHANGE PROGRAMS/LES PROGRAMMES D'ECHANGE D'AMITIE DU SPORT DU CANADA", "designationCode": "C", "categoryCode": "29", "address": "5555 WESTMINSTER              SUITE 209", "city": "MONTREAL", "province": "QC", "country": "CA", "postalCode": "H4W2J2", "twitter": "None", "instagram": "None", "facebook": "None", "youtube": "None", "website": "None", "summary": "None", "logo": "None", "latitude": 45.45992646517395, "longitude": -73.66331351151253}, "861720092RR0001": {"name": "CANADA SRI LANKA LIFE DEVELOPMENT CENTRE", "designationCode": "C", "categoryCode": "09", "address": "800 OLDE BASE LINE RD", "city": "TERRA COTTA", "province": "ON", "country": "CA", "postalCode": "L7C0H9", "twitter": "None", "instagram": "None", "facebook": "None", "youtube": "None", "website": "None", "summary": "None", "logo": "None", "latitude": 43.757329024264884, "longitude": -79.96318230342064}, "891385841RR0001": {"name": "CANADA TRUST CHARITABLE FOUNDATION", "designationCode": "B", "categoryCode": "25", "address": "PO BOX 10085", "city": "VANCOUVER", "province": "BC", "country": "CA", "postalCode": "V7Y1B6", "twitter": "None", "instagram": "None", "facebook": "None", "youtube": "None", "website": "None", "summary": "None", "logo": "None", "latitude": 49.26037200000006, "longitude": -123.11336149999994}, "860025055RR0001": {"name": "CANADA UKRAINE AGRARIAN DEVELOPMENT INC.", "designationCode": "C", "categoryCode": "59", "address": "3833 MONTAGUE STREET", "city": "REGINA", "province": "SK", "country": "CA", "postalCode": "S4S3J6", "twitter": "None", "instagram": "None", "facebook": "None", "youtube": "None", "website": "None", "summary": "None", "logo": "None", "latitude": 50.41809874854292, "longitude": -104.62962740143713}, "118828698RR0001": {"name": "CANADA WEST FOUNDATION", "designationCode": "C", "categoryCode": "59", "address": "110 11 AVE SE", "city": "CALGARY", "province": "AB", "country": "CA", "postalCode": "T2G0X5", "twitter": "None", "instagram": "None", "facebook": "None", "youtube": "None", "website": "None", "summary": "None", "logo": "None", "latitude": 51.04237049321933, "longitude": -114.06279155245542}, "892758137RR0001": {"name": "CANADA WEST MILITARY MUSEUMS", "designationCode": "B", "categoryCode": "50", "address": "11111- 82 AVENUE              SUITE 101", "city": "EDMONTON", "province": "AB", "country": "CA", "postalCode": "T6G0T3", "twitter": "None", "instagram": "None", "facebook": "None", "youtube": "None", "website": "None", "summary": "None", "logo": "None", "latitude": 53.51803047071387, "longitude": -113.5185710695356}, "862889755RR0001": {"name": "CANADA-AFRICA COMMUNITY HEALTH ALLIANCE/ALLIANCE DE SANTE COMMUNAUTAIRE CANADA-AFRIQUE", "designationCode": "C", "categoryCode": "19", "address": "317 - 2310 ST. LAURENT BLVD", "city": "OTTAWA", "province": "ON", "country": "CA", "postalCode": "K1G5H9", "twitter": "None", "instagram": "None", "facebook": "None", "youtube": "None", "website": "None", "summary": "None", "logo": "None", "latitude": 45.384574691672746, "longitude": -75.61863969513519}, "817874548RR0001": {"name": "CANADA-BOLIVIA CHILDREN'S SOCIETY", "designationCode": "C", "categoryCode": "09", "address": "1923 47TH AVE S.W.", "city": "CALGARY", "province": "AB", "country": "CA", "postalCode": "T2T2S5", "twitter": "None", "instagram": "None", "facebook": "None", "youtube": "None", "website": "None", "summary": "None", "logo": "None", "latitude": 51.011485513994046, "longitude": -114.10478991618096}, "106836786RR0001": {"name": "CANADA-CHINA CHILD HEALTH FOUNDATION", "designationCode": "A", "categoryCode": "19", "address": "501-1367 WEST BROADWAY", "city": "VANCOUVER", "province": "BC", "country": "CA", "postalCode": "V6H4A7", "twitter": "None", "instagram": "None", "facebook": "None", "youtube": "None", "website": "None", "summary": "None", "logo": "None", "latitude": 49.26361253179162, "longitude": -123.13483875}, "130046972RR0001": {"name": "CANADA-CHINA EDUCATIONAL AND CULTURAL EXCHANGE FOUNDATION", "designationCode": "C", "categoryCode": "22", "address": "2596 KENNA COURT", "city": "MISSISSAUGA", "province": "ON", "country": "CA", "postalCode": "L5K2K6", "twitter": "None", "instagram": "None", "facebook": "None", "youtube": "None", "website": "None", "summary": "None", "logo": "None", "latitude": 43.52516919481808, "longitude": -79.65422155242676}, "861131670RR0001": {"name": "CANADA-COMITANCILLO ALLIANCE FOR RURAL HEALTH", "designationCode": "C", "categoryCode": "09", "address": "15 WATERSIDE AVENUE", "city": "CAMBRIDGE", "province": "ON", "country": "CA", "postalCode": "N1R1E8", "twitter": "None", "instagram": "None", "facebook": "None", "youtube": "None", "website": "None", "summary": "None", "logo": "None", "latitude": 43.37327728172419, "longitude": -80.32048484416292}, "882952518RR0001": {"name": "CANADA-ETHIOPIA COALITION FOR AIDS PREVENTION & EDUCATION", "designationCode": "C", "categoryCode": "11", "address": "418-145 CLARENCE STREET", "city": "OTTAWA", "province": "ON", "country": "CA", "postalCode": "K1N1B7", "twitter": "None", "instagram": "None", "facebook": "None", "youtube": "None", "website": "None", "summary": "None", "logo": "None", "latitude": 45.42993842189378, "longitude": -75.69102200640529}, "829421148RR0001": {"name": "CANADA-FRANCE CHARITABLE FOUNDATION-LA FONDATION DE BIENFAISANCE CANADA-FRANCE", "designationCode": "C", "categoryCode": "29", "address": "225 METCALFE STREET           SUITE 407", "city": "OTTAWA", "province": "ON", "country": "CA", "postalCode": "K2P1P9", "twitter": "None", "instagram": "None", "facebook": "None", "youtube": "None", "website": "None", "summary": "None", "logo": "None", "latitude": 45.41741522121867, "longitude": -75.69264661570223}, "833718877RR0001": {"name": "CANADA-HUNGARY EDUCATIONAL FOUNDATION / FONDATION EDUCATIVE CANADA-HONGRIE", "designationCode": "C", "categoryCode": "29", "address": "104-111 ECHO DRIVE", "city": "OTTAWA", "province": "ON", "country": "CA", "postalCode": "K1S5K8", "twitter": "None", "instagram": "None", "facebook": "None", "youtube": "None", "website": "None", "summary": "None", "logo": "None", "latitude": 45.415727613364965, "longitude": -75.68110157141247}, "124244773RR0001": {"name": "CANADA-ISRAEL CHILDREN'S CENTRES", "designationCode": "C", "categoryCode": "21", "address": "102-19 LESMILL RD", "city": "TORONTO", "province": "ON", "country": "CA", "postalCode": "M3B2T3", "twitter": "None", "instagram": "None", "facebook": "None", "youtube": "None", "website": "None", "summary": "None", "logo": "None", "latitude": 43.75614036248479, "longitude": -79.35259752813229}, "776521122RR0001": {"name": "CANADA-MATHARE EDUCATION TRUST (CMETRUST)", "designationCode": "C", "categoryCode": "21", "address": "623 EUCLID AVE", "city": "TORONTO", "province": "ON", "country": "CA", "postalCode": "M6G2T6", "twitter": "None", "instagram": "None", "facebook": "None", "youtube": "None", "website": "None", "summary": "None", "logo": "None", "latitude": 43.66210339661835, "longitude": -79.41392034704846}, "811131853RR0001": {"name": "CANADA-ON-CAMPUS", "designationCode": "C", "categoryCode": "21", "address": "14 CARBERRY CRESCENT", "city": "AJAX", "province": "ON", "country": "CA", "postalCode": "L1Z1S1", "twitter": "None", "instagram": "None", "facebook": "None", "youtube": "None", "website": "None", "summary": "None", "logo": "None", "latitude": 43.88482418595992, "longitude": -79.01242756561274}, "898992151RR0001": {"name": "CANADA-UKRAINE FOUNDATION", "designationCode": "C", "categoryCode": "59", "address": "300 - 145 EVANS AVE", "city": "TORONTO", "province": "ON", "country": "CA", "postalCode": "M8Z5X8", "twitter": "None", "instagram": "None", "facebook": "None", "youtube": "None", "website": "None", "summary": "None", "logo": "None", "latitude": 43.61887343542647, "longitude": -79.50980318870123}, "118828599RR0001": {"name": "CANADA'S AVIATION HALL OF FAME", "designationCode": "C", "categoryCode": "50", "address": "PO BOX 6090", "city": "WETASKIWIN", "province": "AB", "country": "CA", "postalCode": "T9A2E8", "twitter": "None", "instagram": "None", "facebook": "None", "youtube": "None", "website": "None", "summary": "None", "logo": "None", "latitude": 52.96987500000006, "longitude": -113.37725149999994}, "832742142RR0001": {"name": "CANADA'S HAND TO ETHIOPIA INC.", "designationCode": "C", "categoryCode": "11", "address": "201-238 WILLOW ROAD", "city": "GUELPH", "province": "ON", "country": "CA", "postalCode": "N1H8H1", "twitter": "None", "instagram": "None", "facebook": "None", "youtube": "None", "website": "None", "summary": "None", "logo": "None", "latitude": 43.540920767932626, "longitude": -80.27746451382114}, "108089673RR0001": {"name": "CANADA'S NATIONAL BALLET SCHOOL, L'\u00c9COLE NATIONALE DE BALLETDU CANADA", "designationCode": "C", "categoryCode": "22", "address": "400 JARVIS STREET", "city": "TORONTO", "province": "ON", "country": "CA", "postalCode": "M4Y2G6", "twitter": "None", "instagram": "None", "facebook": "None", "youtube": "None", "website": "None", "summary": "None", "logo": "None", "latitude": 43.66364551956262, "longitude": -79.37726614573818}, "138681408RR0001": {"name": "CANADA'S NATIONAL HISTORY SOCIETY", "designationCode": "C", "categoryCode": "21", "address": "MAIN FLOOR, BRYCE HALL        515 PORTAGE AVENUE", "city": "WINNIPEG", "province": "MB", "country": "CA", "postalCode": "R3B2E9", "twitter": "None", "instagram": "None", "facebook": "None", "youtube": "None", "website": "None", "summary": "None", "logo": "None", "latitude": 49.89031476164195, "longitude": -97.15288240290808}, "118828615RR0001": {"name": "CANADA'S NATIONAL UKRAINIAN FESTIVAL, INC.", "designationCode": "C", "categoryCode": "22", "address": "PO BOX 368                    17 3RD AVENUE NE", "city": "DAUPHIN", "province": "MB", "country": "CA", "postalCode": "R7N2V2", "twitter": "None", "instagram": "None", "facebook": "None", "youtube": "None", "website": "None", "summary": "None", "logo": "None", "latitude": 51.150555640285184, "longitude": -100.0467446317155}, "118828631RR0001": {"name": "CANADA'S SPORTS HALL OF FAME", "designationCode": "C", "categoryCode": "50", "address": "169 CANADA OLYMPIC RD SW", "city": "CALGARY", "province": "AB", "country": "CA", "postalCode": "T3B6B7", "twitter": "None", "instagram": "None", "facebook": "None", "youtube": "None", "website": "None", "summary": "None", "logo": "None", "latitude": 51.0828893125188, "longitude": -114.22053070335427}, "827912544RR0001": {"name": "CANADA'S TELECOMMUNICATIONS HALL OF FAME FOUNDATION / FONDATION DU TEMPLE DE LA RENOMEE DESTELECOMMUNICATIONS DU CANADA", "designationCode": "B", "categoryCode": "03", "address": "17 MASON TERRACE", "city": "OTTAWA", "province": "ON", "country": "CA", "postalCode": "K1S0K8", "twitter": "None", "instagram": "None", "facebook": "None", "youtube": "None", "website": "None", "summary": "None", "logo": "None", "latitude": 45.402249341392974, "longitude": -75.67817222843203}, "811705672RR0001": {"name": "CANADA'S TELECOMMUNICATIONS HALL OF FAME/ TEMPLE DE LA RENOMMEE DES TELECOMMUNICATIONS DU CANADA", "designationCode": "C", "categoryCode": "50", "address": "17 MASON TERRACE", "city": "OTTAWA", "province": "ON", "country": "CA", "postalCode": "K1S0K8", "twitter": "None", "instagram": "None", "facebook": "None", "youtube": "None", "website": "None", "summary": "None", "logo": "None", "latitude": 45.402249341392974, "longitude": -75.67817222843203}, "889896924RR0001": {"name": "CANADA'S WALK OF FAME - ALL\u00c9E DES C\u00c9L\u00c9BRIT\u00c9S CANADIENNES", "designationCode": "C", "categoryCode": "50", "address": "1002 - 317 ADELAIDE ST W", "city": "TORONTO", "province": "ON", "country": "CA", "postalCode": "M5V1P9", "twitter": "None", "instagram": "None", "facebook": "None", "youtube": "None", "website": "None", "summary": "None", "logo": "None", "latitude": 43.64739183484345, "longitude": -79.39232678919734}, "896568417RR0001": {"name": "CANADAHELPS CANADON", "designationCode": "A", "categoryCode": "99", "address": "355 ADELAIDE ST W             GROUND FLOOR", "city": "TORONTO", "province": "ON", "country": "CA", "postalCode": "M5V1S2", "twitter": "None", "instagram": "None", "facebook": "None", "youtube": "None", "website": "None", "summary": "None", "logo": "None", "latitude": 43.646915809308226, "longitude": -79.39457687301636}, "864981055RR0001": {"name": "CANADARES SOCIETY FOR STREET CHILDREN IN TANZANIA", "designationCode": "C", "categoryCode": "01", "address": "1605 MISSION ROAD", "city": "SECHELT", "province": "BC", "country": "CA", "postalCode": "V0N3A1", "twitter": "None", "instagram": "None", "facebook": "None", "youtube": "None", "website": "None", "summary": "None", "logo": "None", "latitude": 49.440123387731546, "longitude": -123.72117421824623}, "885242412RR0001": {"name": "CANADIA DELL'ARTE THEATRE", "designationCode": "C", "categoryCode": "22", "address": "PO BOX 403", "city": "FLESHERTON", "province": "ON", "country": "CA", "postalCode": "N0C1E0", "twitter": "None", "instagram": "None", "facebook": "None", "youtube": "None", "website": "None", "summary": "None", "logo": "None", "latitude": 44.30319000000006, "longitude": -80.51740549999994}, "860063288RR0001": {"name": "CANADIAN (ELDERLY, DISABLE AND ORPHAN) CARE INC.", "designationCode": "C", "categoryCode": "49", "address": "24 STITT STREET", "city": "STITTSVILLE", "province": "ON", "country": "CA", "postalCode": "K2S0R5", "twitter": "None", "instagram": "None", "facebook": "None", "youtube": "None", "website": "None", "summary": "None", "logo": "None", "latitude": 45.2567867102544, "longitude": -75.92960325088018}, "893452920RR0001": {"name": "CANADIAN \"BRIDGES FOR PEACE\" ASSOCIATION INC.", "designationCode": "C", "categoryCode": "39", "address": "BOX 21001 RPO CHARLESWOOD", "city": "WINNIPEG", "province": "MB", "country": "CA", "postalCode": "R3R3R2", "twitter": "None", "instagram": "None", "facebook": "None", "youtube": "None", "website": "None", "summary": "None", "logo": "None", "latitude": 49.851865352724616, "longitude": -97.30757236054384}, "888780178RR0001": {"name": "CANADIAN ABORIGINAL AIDS NETWORK", "designationCode": "C", "categoryCode": "11", "address": "6520 SALISH DRIVE", "city": "VANCOUVER", "province": "BC", "country": "CA", "postalCode": "V6N2C7", "twitter": "None", "instagram": "None", "facebook": "None", "youtube": "None", "website": "None", "summary": "None", "logo": "None", "latitude": 49.227389452398626, "longitude": -123.19706821411995}, "891036493RR0001": {"name": "CANADIAN ACADEMY OF ENDODONTICS ENDOWMENT FUND", "designationCode": "A", "categoryCode": "23", "address": "702 - 55 CITY CENTRE DR", "city": "MISSISSAUGA", "province": "ON", "country": "CA", "postalCode": "L5B1M3", "twitter": "None", "instagram": "None", "facebook": "None", "youtube": "None", "website": "None", "summary": "None", "logo": "None", "latitude": 43.59359437996995, "longitude": -79.63882394927626}, "893128561RR0001": {"name": "CANADIAN ACADEMY OF GERIATRIC PSYCHIATRY / L'ACADEMIE CANADIENNE DE PSYCHIATRIE GERIATRIQUE", "designationCode": "C", "categoryCode": "20", "address": "20 CROWN STEELE DRIVE         SUITE 6", "city": "MARKHAM", "province": "ON", "country": "CA", "postalCode": "L3R9X9", "twitter": "None", "instagram": "None", "facebook": "None", "youtube": "None", "website": "None", "summary": "None", "logo": "None", "latitude": 43.83918666443543, "longitude": -79.32514310482394}, "854791837RR0001": {"name": "CANADIAN ACADEMY OF HEALTH SCIENCES/ ACAD\u00c9MIE CANADIENNE DES SCIENCES DE LA SANT\u00c9", "designationCode": "C", "categoryCode": "19", "address": "1403-180 ELGIN ST", "city": "OTTAWA", "province": "ON", "country": "CA", "postalCode": "K2P2K3", "twitter": "None", "instagram": "None", "facebook": "None", "youtube": "None", "website": "None", "summary": "None", "logo": "None", "latitude": 45.41721007516714, "longitude": -75.68981744564597}, "118830793RR0001": {"name": "CANADIAN ACCREDITED INDEPENDENT SCHOOLS ECOLES INDEPENDANTES CANADIENNES ACCR\u00c9DIT\u00c9ES", "designationCode": "C", "categoryCode": "21", "address": "264 WELLAND AVE               2ND FLOOR, UNIT P", "city": "ST CATHARINES", "province": "ON", "country": "CA", "postalCode": "L2R2P8", "twitter": "None", "instagram": "None", "facebook": "None", "youtube": "None", "website": "None", "summary": "None", "logo": "None", "latitude": 43.16818740267788, "longitude": -79.23342049122877}, "130689060RR0001": {"name": "CANADIAN ACOUSTICAL ASSOCIATION / ASSOCIATION CANADIENNE D' ACOUSTIQUE", "designationCode": "C", "categoryCode": "22", "address": "411 CONFEDERATION PARKWAY     UNIT 19", "city": "CONCORD", "province": "ON", "country": "CA", "postalCode": "L4K0A8", "twitter": "None", "instagram": "None", "facebook": "None", "youtube": "None", "website": "None", "summary": "None", "logo": "None", "latitude": 43.833302917825755, "longitude": -79.49184882809143}, "891995045RR0001": {"name": "CANADIAN ADULT CONGENITAL HEART NETWORK", "designationCode": "C", "categoryCode": "11", "address": "100 2233 ARGENTIA ROAD", "city": "MISSISSAUGA", "province": "ON", "country": "CA", "postalCode": "L5N2X7", "twitter": "None", "instagram": "None", "facebook": "None", "youtube": "None", "website": "None", "summary": "None", "logo": "None", "latitude": 43.59725695813348, "longitude": -79.74591232082075}, "809666944RR0001": {"name": "CANADIAN AFFORDABLE SENIORS' LIVING SOCIETY", "designationCode": "C", "categoryCode": "09", "address": "697 GRAND BEACH BAY", "city": "CHESTERMERE", "province": "AB", "country": "CA", "postalCode": "T1X1H9", "twitter": "None", "instagram": "None", "facebook": "None", "youtube": "None", "website": "None", "summary": "None", "logo": "None", "latitude": 51.031657318367905, "longitude": -113.82527736150384}, "875617862RR0002": {"name": "CANADIAN AGRICULTURAL ECONOMICS & FARM MANAGEMENT FOUNDATION", "designationCode": "C", "categoryCode": "21", "address": "320 - 176 GLOUCESTER ST", "city": "OTTAWA", "province": "ON", "country": "CA", "postalCode": "K2P0A6", "twitter": "None", "instagram": "None", "facebook": "None", "youtube": "None", "website": "None", "summary": "None", "logo": "None", "latitude": 45.41805064028518, "longitude": -75.69826147195461}, "891430829RR0001": {"name": "CANADIAN AID FOR CHERNOBYL", "designationCode": "C", "categoryCode": "02", "address": "PO BOX 244", "city": "BROCKVILLE", "province": "ON", "country": "CA", "postalCode": "K6V5V5", "twitter": "None", "instagram": "None", "facebook": "None", "youtube": "None", "website": "None", "summary": "None", "logo": "None", "latitude": 44.59037100000006, "longitude": -75.68301049999994}, "859070906RR0001": {"name": "CANADIAN AID FOR EDUCATION (C.A.F.E.)", "designationCode": "C", "categoryCode": "09", "address": "926 BYRON STREET NORTH", "city": "WHITBY", "province": "ON", "country": "CA", "postalCode": "L1N4P1", "twitter": "None", "instagram": "None", "facebook": "None", "youtube": "None", "website": "None", "summary": "None", "logo": "None", "latitude": 43.89376902386179, "longitude": -78.94952482157055}, "863948212RR0001": {"name": "CANADIAN AID FOR SOUTHERN SUDAN", "designationCode": "C", "categoryCode": "02", "address": "91 HIGHLAND WOODS COURT", "city": "LONDON", "province": "ON", "country": "CA", "postalCode": "N6C5X2", "twitter": "None", "instagram": "None", "facebook": "None", "youtube": "None", "website": "None", "summary": "None", "logo": "None", "latitude": 42.95505084485543, "longitude": -81.25152796347184}, "120863311RR0001": {"name": "CANADIAN AIDS SOCIETY/LA SOCIETE CANADIENNE DU SIDA", "designationCode": "C", "categoryCode": "11", "address": "190 O'CONNER STREET           SUITE 100", "city": "OTTAWA", "province": "ON", "country": "CA", "postalCode": "K2P2R3", "twitter": "None", "instagram": "None", "facebook": "None", "youtube": "None", "website": "None", "summary": "None", "logo": "None", "latitude": 45.41819030388386, "longitude": -75.69599596324069}, "897572152RR0001": {"name": "CANADIAN ALLERGY, ASTHMA, AND IMMUNOLOGY FOUNDATION", "designationCode": "A", "categoryCode": "13", "address": "P.O. BOX 51045", "city": "ORLEANS", "province": "ON", "country": "CA", "postalCode": "K1E3N4", "twitter": "None", "instagram": "None", "facebook": "None", "youtube": "None", "website": "None", "summary": "None", "logo": "None", "latitude": 45.48089400000005, "longitude": -75.50417599999993}, "842868408RR0001": {"name": "CANADIAN ALTERNATIVE INVESTMENT FOUNDATION", "designationCode": "C", "categoryCode": "59", "address": "585 DUNDAS STREET EAST,       SUITE 300", "city": "TORONTO", "province": "ON", "country": "CA", "postalCode": "M5A2B7", "twitter": "None", "instagram": "None", "facebook": "None", "youtube": "None", "website": "None", "summary": "None", "logo": "None", "latitude": 43.66027180930821, "longitude": -79.36201567984308}, "890561798RR0001": {"name": "CANADIAN ALUMNI ASSOCIATION OF SLOBODKER YESHIVA", "designationCode": "C", "categoryCode": "23", "address": "2080 RUE GOYER", "city": "MONTREAL", "province": "QC", "country": "CA", "postalCode": "H3S1H1", "twitter": "None", "instagram": "None", "facebook": "None", "youtube": "None", "website": "None", "summary": "None", "logo": "None", "latitude": 45.51464737800805, "longitude": -73.62586934843344}, "863056669RR0001": {"name": "CANADIAN AMATEUR AND EDUCATIONAL THEATRE ASSOCIATION/ASSOCIATION CANADIENNE DU THEATRE AMATEUR ET SCOLAIRE", "designationCode": "C", "categoryCode": "81", "address": "407 - 1500 PENDRELL ST", "city": "VANCOUVER", "province": "BC", "country": "CA", "postalCode": "V6G3A5", "twitter": "None", "instagram": "None", "facebook": "None", "youtube": "None", "website": "None", "summary": "None", "logo": "None", "latitude": 49.28549751122408, "longitude": -123.13700926966338}, "888455847RR0001": {"name": "CANADIAN ANGELMAN SYNDROME SOCIETY", "designationCode": "C", "categoryCode": "11", "address": "210105 PRIDDIS VALLEY RD W", "city": "FOOTHILLS", "province": "AB", "country": "CA", "postalCode": "T0L1W4", "twitter": "None", "instagram": "None", "facebook": "None", "youtube": "None", "website": "None", "summary": "None", "logo": "None", "latitude": 50.83970973008887, "longitude": -114.32510876991114}, "877946657RR0001": {"name": "CANADIAN ANGLICAN CURSILLO SECRETARIAT", "designationCode": "C", "categoryCode": "49", "address": "302-79 COLLINS GROVE", "city": "DARTMOUTH", "province": "NS", "country": "CA", "postalCode": "B2W6B9", "twitter": "None", "instagram": "None", "facebook": "None", "youtube": "None", "website": "None", "summary": "None", "logo": "None", "latitude": 44.67092105490455, "longitude": -63.51123788505337}, "886997998RR0001": {"name": "CANADIAN ANGUS FOUNDATION INC", "designationCode": "C", "categoryCode": "59", "address": "292140 WAGON WHEEL BLVD", "city": "ROCKY VIEW COUNTY", "province": "AB", "country": "CA", "postalCode": "T4A0E2", "twitter": "None", "instagram": "None", "facebook": "None", "youtube": "None", "website": "None", "summary": "None", "logo": "None", "latitude": 51.210496502163465, "longitude": -113.9694435}, "825672140RR0001": {"name": "CANADIAN ANIMAL ASSISTANCE TEAM (CAAT)", "designationCode": "C", "categoryCode": "02", "address": "893 EXPO BOULEVARD", "city": "VANCOUVER", "province": "BC", "country": "CA", "postalCode": "V5J1C4", "twitter": "None", "instagram": "None", "facebook": "None", "youtube": "None", "website": "None", "summary": "None", "logo": "None", "latitude": 49.276197186942426, "longitude": -123.11426229708782}, "891350274RR0001": {"name": "CANADIAN ANIMAL RESCUE & EXTENDED SHELTER SOCIETY", "designationCode": "C", "categoryCode": "54", "address": "20479 67 B AVE", "city": "LANGLEY", "province": "BC", "country": "CA", "postalCode": "V2Y3C9", "twitter": "None", "instagram": "None", "facebook": "None", "youtube": "None", "website": "None", "summary": "None", "logo": "None", "latitude": 49.12534251875454, "longitude": -122.65416080682671}, "887380863RR0001": {"name": "CANADIAN ANTHROPOLOGY SOCIETY / SOCIETE D'ANTHROPOLOGIE CANADA", "designationCode": "C", "categoryCode": "21", "address": "301-125 RUE JEAN-DE LA LONDE", "city": "BAIE-D'URFE", "province": "QC", "country": "CA", "postalCode": "H9X3T8", "twitter": "None", "instagram": "None", "facebook": "None", "youtube": "None", "website": "None", "summary": "None", "logo": "None", "latitude": 45.41573400000006, "longitude": -73.92269599999993}, "857030340RR0001": {"name": "CANADIAN ANTI-SEMITISM EDUCATION FOUNDATION", "designationCode": "C", "categoryCode": "59", "address": "2801 JOHN STREET", "city": "MARKHAM", "province": "ON", "country": "CA", "postalCode": "L3R2Y8", "twitter": "None", "instagram": "None", "facebook": "None", "youtube": "None", "website": "None", "summary": "None", "logo": "None", "latitude": 43.8252031184722, "longitude": -79.35412945617158}, "873663850RR0001": {"name": "CANADIAN APOSTOLIC MINISTRIES", "designationCode": "C", "categoryCode": "39", "address": "5865B COOPERS AVENUE", "city": "MISSISSAUGA", "province": "ON", "country": "CA", "postalCode": "L4Z1R9", "twitter": "None", "instagram": "None", "facebook": "None", "youtube": "None", "website": "None", "summary": "None", "logo": "None", "latitude": 43.63439923721061, "longitude": -79.66233362268788}, "849531488RR0001": {"name": "CANADIAN ARAB INSTITUTE/INSTITUT CANADO-ARABE", "designationCode": "C", "categoryCode": "59", "address": "209 - 555 BURNHAMTHORPE RD", "city": "ETOBICOKE", "province": "ON", "country": "CA", "postalCode": "M9C2Y3", "twitter": "None", "instagram": "None", "facebook": "None", "youtube": "None", "website": "None", "summary": "None", "logo": "None", "latitude": 43.64443307412416, "longitude": -79.56788856731484}, "106842362RR0001": {"name": "CANADIAN ARCTIC RESOURCES COMMITTEE INC.", "designationCode": "C", "categoryCode": "21", "address": "BOX 371 STATION A", "city": "OTTAWA", "province": "ON", "country": "CA", "postalCode": "K1N8V4", "twitter": "None", "instagram": "None", "facebook": "None", "youtube": "None", "website": "None", "summary": "None", "logo": "None", "latitude": 45.42177300000006, "longitude": -75.69115999999994}, "106842388RR0001": {"name": "CANADIAN ARTISTS REPRESENTATION - LE FRONT DES ARTISTES CANADIENS", "designationCode": "C", "categoryCode": "81", "address": "2 DALY AVE                    SUITE 250", "city": "OTTAWA", "province": "ON", "country": "CA", "postalCode": "K1N6E2", "twitter": "None", "instagram": "None", "facebook": "None", "youtube": "None", "website": "None", "summary": "None", "logo": "None", "latitude": 45.42564301552326, "longitude": -75.68902925893026}, "122349186RR0001": {"name": "CANADIAN ARTS PRESENTING ASSOCIATION", "designationCode": "C", "categoryCode": "81", "address": "2 - 161 MAYPOINT RD", "city": "CHARLOTTETOWN", "province": "PE", "country": "CA", "postalCode": "C1E1X6", "twitter": "None", "instagram": "None", "facebook": "None", "youtube": "None", "website": "None", "summary": "None", "logo": "None", "latitude": 46.261020824311856, "longitude": -63.168960900801956}, "871868501RR0001": {"name": "CANADIAN ARTS RESOURCES FOUNDATION FOR ONTARIO", "designationCode": "C", "categoryCode": "22", "address": "414 - 401 RICHMOND ST W", "city": "TORONTO", "province": "ON", "country": "CA", "postalCode": "M5V3A8", "twitter": "None", "instagram": "None", "facebook": "None", "youtube": "None", "website": "None", "summary": "None", "logo": "None", "latitude": 43.64792255983254, "longitude": -79.39538964100468}, "106869183RR0001": {"name": "CANADIAN ASSOCIATES OF THE BEN GURION UNIVERSITY OF THE NEGEV INC.", "designationCode": "A", "categoryCode": "21", "address": "506-1000 FINCH AVENUE WEST", "city": "DOWNSVIEW", "province": "ON", "country": "CA", "postalCode": "M3J2V5", "twitter": "None", "instagram": "None", "facebook": "None", "youtube": "None", "website": "None", "summary": "None", "logo": "None", "latitude": 43.76856115520191, "longitude": -79.46834677979093}}