{"824371074RR0001": {"name": "UNITY CHURCH OF EDMONTON", "designationCode": "C", "categoryCode": "39", "address": "11715E 108 AVE NW", "city": "EDMONTON", "province": "AB", "country": "CA", "postalCode": "T5H1B8", "twitter": "None", "instagram": "None", "facebook": "None", "youtube": "None", "website": "None", "summary": "None", "logo": "None", "latitude": 53.553258313055714, "longitude": -113.52396982491574}, "851806778RR0001": {"name": "UNITY CHURCH OF LONDON", "designationCode": "C", "categoryCode": "39", "address": "501 NELSON ST", "city": "LONDON", "province": "ON", "country": "CA", "postalCode": "N6B1A8", "twitter": "None", "instagram": "None", "facebook": "None", "youtube": "None", "website": "None", "summary": "None", "logo": "None", "latitude": 42.976578060765306, "longitude": -81.23120442685678}, "131434698RR0001": {"name": "UNITY CHURCH OF MISSISSAUGA", "designationCode": "C", "categoryCode": "39", "address": "3075 RIDGEWAY DRIVE           UNITS 6-8-10", "city": "MISSISSAUGA", "province": "ON", "country": "CA", "postalCode": "L5L5M6", "twitter": "None", "instagram": "None", "facebook": "None", "youtube": "None", "website": "None", "summary": "None", "logo": "None", "latitude": 43.51852353101691, "longitude": -79.68993363918864}, "889059192RR0001": {"name": "UNITY CHURCH OF NANAIMO", "designationCode": "C", "categoryCode": "39", "address": "2325 EAST WELLINGTON RD", "city": "NANAIMO", "province": "BC", "country": "CA", "postalCode": "V9R6V7", "twitter": "None", "instagram": "None", "facebook": "None", "youtube": "None", "website": "None", "summary": "None", "logo": "None", "latitude": 49.18007061532458, "longitude": -124.00585786815769}, "119278646RR0001": {"name": "UNITY CHURCH OF OTTAWA", "designationCode": "C", "categoryCode": "39", "address": "P.O. BOX 21587                3080 CARLING AVENUE", "city": "OTTAWA", "province": "ON", "country": "CA", "postalCode": "K2B0A3", "twitter": "None", "instagram": "None", "facebook": "None", "youtube": "None", "website": "None", "summary": "None", "logo": "None", "latitude": 45.35448145699931, "longitude": -75.80607913930572}, "108160490RR0001": {"name": "UNITY CHURCH OF TRUTH", "designationCode": "C", "categoryCode": "39", "address": "20070 - 4865 LESLIE ST", "city": "NORTH YORK", "province": "ON", "country": "CA", "postalCode": "M2J2K8", "twitter": "None", "instagram": "None", "facebook": "None", "youtube": "None", "website": "None", "summary": "None", "logo": "None", "latitude": 43.77846300000006, "longitude": -79.36529749999994}, "122644164RR0001": {"name": "UNITY CHURCH OF VICTORIA", "designationCode": "C", "categoryCode": "39", "address": "838 PANDORA AVE", "city": "VICTORIA", "province": "BC", "country": "CA", "postalCode": "V8W1P4", "twitter": "None", "instagram": "None", "facebook": "None", "youtube": "None", "website": "None", "summary": "None", "logo": "None", "latitude": 48.42762448600598, "longitude": -123.36020836066713}, "108160508RR0001": {"name": "UNITY CHURCH OF WINDSOR", "designationCode": "C", "categoryCode": "39", "address": "3640 WELLS STREET", "city": "WINDSOR", "province": "ON", "country": "CA", "postalCode": "N9C1T9", "twitter": "None", "instagram": "None", "facebook": "None", "youtube": "None", "website": "None", "summary": "None", "logo": "None", "latitude": 42.28923970803271, "longitude": -83.07303192301895}, "119278695RR0001": {"name": "UNITY COMMUNITY SERVICES SOCIETY", "designationCode": "C", "categoryCode": "09", "address": "BOX 1356", "city": "UNITY", "province": "SK", "country": "CA", "postalCode": "S0K4L0", "twitter": "None", "instagram": "None", "facebook": "None", "youtube": "None", "website": "None", "summary": "None", "logo": "None", "latitude": 52.437110000000075, "longitude": -109.14557999999994}, "856010707RR0001": {"name": "UNITY FOR AUTISM", "designationCode": "A", "categoryCode": "03", "address": "SPH202 - 112 GEORGE ST", "city": "TORONTO", "province": "ON", "country": "CA", "postalCode": "M5A2M5", "twitter": "None", "instagram": "None", "facebook": "None", "youtube": "None", "website": "None", "summary": "None", "logo": "None", "latitude": 43.65209400000006, "longitude": -79.37135449999994}, "119278778RR0001": {"name": "UNITY HEALTH CARE FOUNDATION INC", "designationCode": "A", "categoryCode": "13", "address": "BOX 719", "city": "UNITY", "province": "SK", "country": "CA", "postalCode": "S0K4L0", "twitter": "None", "instagram": "None", "facebook": "None", "youtube": "None", "website": "None", "summary": "None", "logo": "None", "latitude": 52.437110000000075, "longitude": -109.14557999999994}, "108160540RR0001": {"name": "UNITY HOUSE SOCIETY", "designationCode": "C", "categoryCode": "11", "address": "PO BOX 503", "city": "EAST BAY", "province": "NS", "country": "CA", "postalCode": "B1J2E2", "twitter": "None", "instagram": "None", "facebook": "None", "youtube": "None", "website": "None", "summary": "None", "logo": "None", "latitude": 45.910377265528055, "longitude": -60.53546479296051}, "108160557RR0001": {"name": "UNITY IN ACTION", "designationCode": "C", "categoryCode": "39", "address": "1630 EDINBURGH STREET", "city": "NEW WESTMINSTER", "province": "BC", "country": "CA", "postalCode": "V3M2W8", "twitter": "None", "instagram": "None", "facebook": "None", "youtube": "None", "website": "None", "summary": "None", "logo": "None", "latitude": 49.207369034810554, "longitude": -122.9419765956121}, "140454067RR0001": {"name": "UNITY LUTHERAN CHURCH, MEDICINE HAT, AB", "designationCode": "C", "categoryCode": "32", "address": "8 PALLISER PLACE NE", "city": "MEDICINE HAT", "province": "AB", "country": "CA", "postalCode": "T1C1X1", "twitter": "None", "instagram": "None", "facebook": "None", "youtube": "None", "website": "None", "summary": "None", "logo": "None", "latitude": 50.055686497085816, "longitude": -110.65914425881469}, "868472093RR0001": {"name": "UNITY OF THE VALLEY CHURCH", "designationCode": "C", "categoryCode": "39", "address": "BOX 375, 800 15355 24TH AVE   VILLAGE CENTRE", "city": "SURREY", "province": "BC", "country": "CA", "postalCode": "V4A2H9", "twitter": "None", "instagram": "None", "facebook": "None", "youtube": "None", "website": "None", "summary": "None", "logo": "None", "latitude": 49.045670474897484, "longitude": -122.79749302553523}, "859628851RR0001": {"name": "UNITY PROJECT FOR RELIEF OF HOMELESSNESS IN LONDON", "designationCode": "C", "categoryCode": "01", "address": "717 DUNDAS ST", "city": "LONDON", "province": "ON", "country": "CA", "postalCode": "N5W2Z5", "twitter": "None", "instagram": "None", "facebook": "None", "youtube": "None", "website": "None", "summary": "None", "logo": "None", "latitude": 42.989876124503574, "longitude": -81.22771020335827}, "127514206RR0001": {"name": "UNITY UNITED CHURCH", "designationCode": "C", "categoryCode": "44", "address": "4967 VASEY ROAD               RR 1", "city": "MIDLAND", "province": "ON", "country": "CA", "postalCode": "L4R4K3", "twitter": "None", "instagram": "None", "facebook": "None", "youtube": "None", "website": "None", "summary": "None", "logo": "None", "latitude": 44.67017969467384, "longitude": -79.75747274213761}, "108152513RR0001": {"name": "UNITY-MERIDIAN PASTORAL CHARGE", "designationCode": "C", "categoryCode": "44", "address": "PO BOX 206", "city": "MACKLIN", "province": "SK", "country": "CA", "postalCode": "S0L2C0", "twitter": "None", "instagram": "None", "facebook": "None", "youtube": "None", "website": "None", "summary": "None", "logo": "None", "latitude": 52.33280000000008, "longitude": -109.93590999999998}, "899813646RR0001": {"name": "UNIVERS CULTUREL DE SAINT-SULPICE", "designationCode": "C", "categoryCode": "50", "address": "116 RUE NOTRE-DAME OUEST", "city": "MONTREAL", "province": "QC", "country": "CA", "postalCode": "H2Y1T2", "twitter": "None", "instagram": "None", "facebook": "None", "youtube": "None", "website": "None", "summary": "None", "logo": "None", "latitude": 45.50420998831457, "longitude": -73.55711405182119}, "107593188RR0001": {"name": "UNIVERS JEUNESSE ARGENTEUIL", "designationCode": "C", "categoryCode": "09", "address": "70 RUE HAMFORD BOX 533", "city": "LACHUTE", "province": "QC", "country": "CA", "postalCode": "J8H3Y1", "twitter": "None", "instagram": "None", "facebook": "None", "youtube": "None", "website": "None", "summary": "None", "logo": "None", "latitude": 45.65594482015693, "longitude": -74.35140944638981}, "108160714RR0001": {"name": "UNIVERSAL BUDDHIST TEMPLE", "designationCode": "C", "categoryCode": "35", "address": "525 EAST 49TH AVE.", "city": "VANCOUVER", "province": "BC", "country": "CA", "postalCode": "V5W2H1", "twitter": "None", "instagram": "None", "facebook": "None", "youtube": "None", "website": "None", "summary": "None", "logo": "None", "latitude": 49.225551504327846, "longitude": -123.09365280391252}, "105456347RR0001": {"name": "UNIVERSAL DAY CARE CENTRE INC.", "designationCode": "C", "categoryCode": "01", "address": "20 DONNELLY STREET", "city": "WINNIPEG", "province": "MB", "country": "CA", "postalCode": "R3T0S4", "twitter": "None", "instagram": "None", "facebook": "None", "youtube": "None", "website": "None", "summary": "None", "logo": "None", "latitude": 49.83620897558995, "longitude": -97.15967432468722}, "886873835RR0001": {"name": "UNIVERSAL GOSPEL CHOIR", "designationCode": "C", "categoryCode": "22", "address": "1001 - 701 VICTORIA PK W", "city": "NORTH VANCOUVER", "province": "BC", "country": "CA", "postalCode": "V7M2L2", "twitter": "None", "instagram": "None", "facebook": "None", "youtube": "None", "website": "None", "summary": "None", "logo": "None", "latitude": 49.32107700000006, "longitude": -123.08318899999993}, "889555801RR0001": {"name": "UNIVERSAL ONENESS UNITED FAITH CANADA", "designationCode": "C", "categoryCode": "39", "address": "50 GRACEY BLVD", "city": "ETOBICOKE", "province": "ON", "country": "CA", "postalCode": "M9R2A3", "twitter": "None", "instagram": "None", "facebook": "None", "youtube": "None", "website": "None", "summary": "None", "logo": "None", "latitude": 43.68240125618896, "longitude": -79.55815770788847}, "858812845RR0001": {"name": "UNIVERSAL OUTREACH FOUNDATION", "designationCode": "B", "categoryCode": "03", "address": "APT. 601                      2108 ARGYLE AVE", "city": "WEST VANCOUVER", "province": "BC", "country": "CA", "postalCode": "V7V1A4", "twitter": "None", "instagram": "None", "facebook": "None", "youtube": "None", "website": "None", "summary": "None", "logo": "None", "latitude": 49.327896532315904, "longitude": -123.16851331112589}, "809354277RR0001": {"name": "UNIVERSAL OUTREACH MINISTRIES INC.", "designationCode": "C", "categoryCode": "01", "address": "915 KROSNO BLVD", "city": "PICKERING", "province": "ON", "country": "CA", "postalCode": "L1W1H5", "twitter": "None", "instagram": "None", "facebook": "None", "youtube": "None", "website": "None", "summary": "None", "logo": "None", "latitude": 43.829056769923206, "longitude": -79.08007917664042}, "108160904RR0001": {"name": "UNIVERSAL REHABILITATION SERVICE AGENCY", "designationCode": "C", "categoryCode": "09", "address": "808 MANNING ROAD N.E.", "city": "CALGARY", "province": "AB", "country": "CA", "postalCode": "T2E7N8", "twitter": "None", "instagram": "None", "facebook": "None", "youtube": "None", "website": "None", "summary": "None", "logo": "None", "latitude": 51.05824720705174, "longitude": -114.01909871175495}, "841628142RR0001": {"name": "UNIVERSAL YOUTH FOUNDATION", "designationCode": "C", "categoryCode": "20", "address": "301-2800 HIGHWAY 7", "city": "CONCORD", "province": "ON", "country": "CA", "postalCode": "L4K1W8", "twitter": "None", "instagram": "None", "facebook": "None", "youtube": "None", "website": "None", "summary": "None", "logo": "None", "latitude": 43.7956240659852, "longitude": -79.51847681413379}, "108160813RR0001": {"name": "UNIVERSALIST UNITARIAN CHURCH OF HALIFAX", "designationCode": "C", "categoryCode": "39", "address": "5500 INGLIS ST", "city": "HALIFAX", "province": "NS", "country": "CA", "postalCode": "B3H1J8", "twitter": "None", "instagram": "None", "facebook": "None", "youtube": "None", "website": "None", "summary": "None", "logo": "None", "latitude": 44.63508906076531, "longitude": -63.57316350776161}, "108160995RR0001": {"name": "UNIVERSITE DE MONTREAL", "designationCode": "C", "categoryCode": "20", "address": "CP 6204 SUCC CENTRE VILLE", "city": "MONTREAL", "province": "QC", "country": "CA", "postalCode": "H3C3T4", "twitter": "None", "instagram": "None", "facebook": "None", "youtube": "None", "website": "None", "summary": "None", "logo": "None", "latitude": 45.50013000000007, "longitude": -73.57315999999997}, "108161076RR0001": {"name": "UNIVERSITE DE SHERBROOKE", "designationCode": "C", "categoryCode": "20", "address": "2500 BOUL DE L'UNIVERSITE", "city": "SHERBROOKE", "province": "QC", "country": "CA", "postalCode": "J1K2R1", "twitter": "None", "instagram": "None", "facebook": "None", "youtube": "None", "website": "None", "summary": "None", "logo": "None", "latitude": 45.381356656245536, "longitude": -71.93111333807403}, "122018203RR0001": {"name": "UNIVERSITE DU QUEBEC", "designationCode": "C", "categoryCode": "20", "address": "475 RUE DU PARVIS", "city": "QUEBEC", "province": "QC", "country": "CA", "postalCode": "G1K9H7", "twitter": "None", "instagram": "None", "facebook": "None", "youtube": "None", "website": "None", "summary": "None", "logo": "None", "latitude": 46.81325202221699, "longitude": -71.22253542238472}, "108161126RR0001": {"name": "UNIVERSITE DU QUEBEC A CHICOUTIMI", "designationCode": "C", "categoryCode": "20", "address": "555 BOUL DE L'UNIVERSITE", "city": "CHICOUTIMI", "province": "QC", "country": "CA", "postalCode": "G7H2B1", "twitter": "None", "instagram": "None", "facebook": "None", "youtube": "None", "website": "None", "summary": "None", "logo": "None", "latitude": 48.418932335580934, "longitude": -71.05692294168692}, "108161159RR0001": {"name": "UNIVERSITE DU QUEBEC A MONTREAL", "designationCode": "C", "categoryCode": "20", "address": "CP 6194, SUCC.CENTRE VILLE", "city": "MONTREAL", "province": "QC", "country": "CA", "postalCode": "H3C4R4", "twitter": "None", "instagram": "None", "facebook": "None", "youtube": "None", "website": "None", "summary": "None", "logo": "None", "latitude": 45.50013000000007, "longitude": -73.57315999999997}, "119278919RR0001": {"name": "UNIVERSITE DU QUEBEC A RIMOUSKI", "designationCode": "C", "categoryCode": "20", "address": "310 ALLEE DES URSULINES", "city": "RIMOUSKI", "province": "QC", "country": "CA", "postalCode": "G5L3A1", "twitter": "None", "instagram": "None", "facebook": "None", "youtube": "None", "website": "None", "summary": "None", "logo": "None", "latitude": 48.453471278133506, "longitude": -68.51340667047032}, "119278927RR0001": {"name": "UNIVERSITE DU QUEBEC A TROIS-RIVIERES", "designationCode": "C", "categoryCode": "20", "address": "B.P. 500", "city": "TROIS-RIVIERES", "province": "QC", "country": "CA", "postalCode": "G9A5H7", "twitter": "None", "instagram": "None", "facebook": "None", "youtube": "None", "website": "None", "summary": "None", "logo": "None", "latitude": 46.34016900000006, "longitude": -72.54503449999993}, "108161191RR0001": {"name": "UNIVERSITE DU QUEBEC EN ABITIBI-TEMISCAMINGUE", "designationCode": "C", "categoryCode": "20", "address": "445, BOUL. DE L'UNIVERSITE", "city": "ROUYN-NORANDA", "province": "QC", "country": "CA", "postalCode": "J9X5E4", "twitter": "None", "instagram": "None", "facebook": "None", "youtube": "None", "website": "None", "summary": "None", "logo": "None", "latitude": 48.2303947559606, "longitude": -79.00969620414955}, "119278893RR0001": {"name": "UNIVERSITE DU QUEBEC EN OUTAOUAIS", "designationCode": "C", "categoryCode": "20", "address": "283 BOUL. ALEXANDRE-TACHE     CASE POSTALE 1250 SUCC B", "city": "GATINEAU", "province": "QC", "country": "CA", "postalCode": "J8X3X7", "twitter": "None", "instagram": "None", "facebook": "None", "youtube": "None", "website": "None", "summary": "None", "logo": "None", "latitude": 45.42279754731954, "longitude": -75.73900770843673}, "891224545RR0001": {"name": "UNIVERSITE DU TROISI\u00c8ME \u00c2GE DU NORD-OUEST INC", "designationCode": "C", "categoryCode": "09", "address": "165, BOULEVARD HEBERT", "city": "EDMUNDSTON", "province": "NB", "country": "CA", "postalCode": "E3V2S8", "twitter": "None", "instagram": "None", "facebook": "None", "youtube": "None", "website": "None", "summary": "None", "logo": "None", "latitude": 47.373065875270306, "longitude": -68.31615032676886}, "888936994RR0001": {"name": "UNIVERSITE DU TROISIEME AGE DU SUD-EST INC.", "designationCode": "C", "categoryCode": "09", "address": "PCE 145, EDIFICE P.A. LANDRY  CENTRE UNIVERSITAIRE DE MONCTO", "city": "MONCTON", "province": "NB", "country": "CA", "postalCode": "E1A3E9", "twitter": "None", "instagram": "None", "facebook": "None", "youtube": "None", "website": "None", "summary": "None", "logo": "None", "latitude": 46.104513000000054, "longitude": -64.78188649999993}, "119278950RR0001": {"name": "UNIVERSITE LAVAL", "designationCode": "C", "categoryCode": "20", "address": "2345 ALLEE DES BIBLIOTHEQUES  UNITE 3560", "city": "QUEBEC", "province": "QC", "country": "CA", "postalCode": "G1V0A6", "twitter": "None", "instagram": "None", "facebook": "None", "youtube": "None", "website": "None", "summary": "None", "logo": "None", "latitude": 46.78069033969087, "longitude": -71.27436869522211}, "108161282RR0001": {"name": "UNIVERSITE SAINT-PAUL - SAINT PAUL UNIVERSITY", "designationCode": "C", "categoryCode": "20", "address": "223 MAIN ST                   SUITE 267", "city": "OTTAWA", "province": "ON", "country": "CA", "postalCode": "K1S1C4", "twitter": "None", "instagram": "None", "facebook": "None", "youtube": "None", "website": "None", "summary": "None", "logo": "None", "latitude": 45.408374558716496, "longitude": -75.67756136006155}, "108161415RR0001": {"name": "UNIVERSITY AND COMMUNITY EARLY LEARNING SOCIETY", "designationCode": "C", "categoryCode": "01", "address": "8720 118 STREET", "city": "EDMONTON", "province": "AB", "country": "CA", "postalCode": "T6G1T5", "twitter": "None", "instagram": "None", "facebook": "None", "youtube": "None", "website": "None", "summary": "None", "logo": "None", "latitude": 53.52400800000001, "longitude": -113.5343467515144}, "878554427RR0001": {"name": "UNIVERSITY BIBLE FELLOWSHIP CANADA", "designationCode": "C", "categoryCode": "47", "address": "101-720, SPADINA AVENUE", "city": "TORONTO", "province": "ON", "country": "CA", "postalCode": "M5S2T9", "twitter": "None", "instagram": "None", "facebook": "None", "youtube": "None", "website": "None", "summary": "None", "logo": "None", "latitude": 43.665348604766635, "longitude": -79.40317238804866}, "801169905RR0001": {"name": "UNIVERSITY BIBLE FELLOWSHIP CHURCH", "designationCode": "C", "categoryCode": "39", "address": "308 - 344 BLOOR ST W", "city": "TORONTO", "province": "ON", "country": "CA", "postalCode": "M5S3A7", "twitter": "None", "instagram": "None", "facebook": "None", "youtube": "None", "website": "None", "summary": "None", "logo": "None", "latitude": 43.667372648743196, "longitude": -79.40049643191246}, "848546446RR0001": {"name": "UNIVERSITY BIBLE FELLOWSHIP OF HAMILTON", "designationCode": "C", "categoryCode": "49", "address": "785 KING STREET WEST", "city": "HAMILTON", "province": "ON", "country": "CA", "postalCode": "L8S1K2", "twitter": "None", "instagram": "None", "facebook": "None", "youtube": "None", "website": "None", "summary": "None", "logo": "None", "latitude": 43.2622130935139, "longitude": -79.89720759867843}, "108161332RR0001": {"name": "UNIVERSITY CHAPEL", "designationCode": "C", "categoryCode": "39", "address": "5375 UNIVERSITY BLVD", "city": "VANCOUVER", "province": "BC", "country": "CA", "postalCode": "V6T1K3", "twitter": "None", "instagram": "None", "facebook": "None", "youtube": "None", "website": "None", "summary": "None", "logo": "None", "latitude": 49.265739834363224, "longitude": -123.23537632010354}, "887375194RR0001": {"name": "UNIVERSITY CHILD CARE CENTRE SOCIETY", "designationCode": "C", "categoryCode": "01", "address": "450 CAMPUS PLACE NW", "city": "CALGARY", "province": "AB", "country": "CA", "postalCode": "T2N1N4", "twitter": "None", "instagram": "None", "facebook": "None", "youtube": "None", "website": "None", "summary": "None", "logo": "None", "latitude": 51.07885486639918, "longitude": -114.12444651796405}, "132469909RR0001": {"name": "UNIVERSITY CHRISTIAN CHURCH", "designationCode": "C", "categoryCode": "39", "address": "104-1240 KENSINGTON ROAD NW   SUITE 339", "city": "CALGARY", "province": "AB", "country": "CA", "postalCode": "T2N3P7", "twitter": "None", "instagram": "None", "facebook": "None", "youtube": "None", "website": "None", "summary": "None", "logo": "None", "latitude": 51.05251799999999, "longitude": -114.091137}, "122444086RR0001": {"name": "UNIVERSITY COLLEGE OF THE NORTH", "designationCode": "C", "categoryCode": "20", "address": "PO BOX 3000", "city": "THE PAS", "province": "MB", "country": "CA", "postalCode": "R9A1M7", "twitter": "None", "instagram": "None", "facebook": "None", "youtube": "None", "website": "None", "summary": "None", "logo": "None", "latitude": 53.81342700000006, "longitude": -101.25038149999993}, "118985787RR0001": {"name": "UNIVERSITY COMMUNITY CHURCH", "designationCode": "C", "categoryCode": "37", "address": "2320 WYANDOTTE ST W", "city": "WINDSOR", "province": "ON", "country": "CA", "postalCode": "N9B1K4", "twitter": "None", "instagram": "None", "facebook": "None", "youtube": "None", "website": "None", "summary": "None", "logo": "None", "latitude": 42.30521880434522, "longitude": -83.0626813857983}, "119288918RR0279": {"name": "UNIVERSITY CONGREGATION OF JEHOVAH'S WITNESSES, GUELPH, ONTARIO", "designationCode": "C", "categoryCode": "61", "address": "11 TORCH LANE", "city": "GUELPH", "province": "ON", "country": "CA", "postalCode": "N1G1V5", "twitter": "None", "instagram": "None", "facebook": "None", "youtube": "None", "website": "None", "summary": "None", "logo": "None", "latitude": 43.515810165993294, "longitude": -80.24409196728007}, "119288918RR0144": {"name": "UNIVERSITY CONGREGATION OF JEHOVAH'S WITNESSES, TORONTO, ONTARIO", "designationCode": "C", "categoryCode": "61", "address": "959 COLLEGE ST", "city": "TORONTO", "province": "ON", "country": "CA", "postalCode": "M6H1A6", "twitter": "None", "instagram": "None", "facebook": "None", "youtube": "None", "website": "None", "summary": "None", "logo": "None", "latitude": 43.653475834843434, "longitude": -79.42689562155927}, "108161449RR0001": {"name": "UNIVERSITY DRIVE ALLIANCE CHURCH OF THE CHRISTIAN AND MISSIONARY ALLIANCE IN CANADA", "designationCode": "C", "categoryCode": "39", "address": "55 COLUMBIA BLVD W", "city": "LETHBRIDGE", "province": "AB", "country": "CA", "postalCode": "T1K4B7", "twitter": "None", "instagram": "None", "facebook": "None", "youtube": "None", "website": "None", "summary": "None", "logo": "None", "latitude": 49.677019205147175, "longitude": -112.87226681660755}, "119259505RR0001": {"name": "UNIVERSITY HEALTH NETWORK", "designationCode": "C", "categoryCode": "10", "address": "190 ELIZAEBTH ST, 1ST FLOOR   R. FRASER ELLIOTT BLDG, 1S-414", "city": "TORONTO", "province": "ON", "country": "CA", "postalCode": "M5G2C4", "twitter": "None", "instagram": "None", "facebook": "None", "youtube": "None", "website": "None", "summary": "None", "logo": "None", "latitude": 43.65961800000005, "longitude": -79.38709999999993}, "889656146RR0001": {"name": "UNIVERSITY HILL PRE-SCHOOL ASSOCIATION", "designationCode": "C", "categoryCode": "20", "address": "5210 UNIVERSITY BLVD", "city": "VANCOUVER", "province": "BC", "country": "CA", "postalCode": "V6T2H5", "twitter": "None", "instagram": "None", "facebook": "None", "youtube": "None", "website": "None", "summary": "None", "logo": "None", "latitude": 49.26347272410848, "longitude": -123.2312984511322}, "119279099RR0001": {"name": "UNIVERSITY HILL UNITED CHURCH,", "designationCode": "C", "categoryCode": "44", "address": "5920 IANO DRIVE", "city": "VANCOUVER", "province": "BC", "country": "CA", "postalCode": "V6T1J6", "twitter": "None", "instagram": "None", "facebook": "None", "youtube": "None", "website": "None", "summary": "None", "logo": "None", "latitude": 49.27193700000005, "longitude": -123.24878449999994}, "119279107RR0001": {"name": "UNIVERSITY HOSPITAL AUXILIARY", "designationCode": "C", "categoryCode": "19", "address": "103 HOSPITAL DRIVE BOX 80", "city": "SASKATOON", "province": "SK", "country": "CA", "postalCode": "S7N0W8", "twitter": "None", "instagram": "None", "facebook": "None", "youtube": "None", "website": "None", "summary": "None", "logo": "None", "latitude": 52.13004270348365, "longitude": -106.64217694051077}, "889003240RR0001": {"name": "UNIVERSITY HOSPITAL FOUNDATION", "designationCode": "A", "categoryCode": "13", "address": "CSB 9-130 8440-112 STREET", "city": "EDMONTON", "province": "AB", "country": "CA", "postalCode": "T6G2B7", "twitter": "None", "instagram": "None", "facebook": "None", "youtube": "None", "website": "None", "summary": "None", "logo": "None", "latitude": 53.52044477343915, "longitude": -113.52090546919865}, "820218147RR0001": {"name": "UNIVERSITY HOSPITALS KINGSTON FOUNDATION", "designationCode": "A", "categoryCode": "03", "address": "4-55 RIDEAU ST", "city": "KINGSTON", "province": "ON", "country": "CA", "postalCode": "K7K2Z8", "twitter": "None", "instagram": "None", "facebook": "None", "youtube": "None", "website": "None", "summary": "None", "logo": "None", "latitude": 44.23511745045877, "longitude": -76.48256372297902}, "108161621RR0001": {"name": "UNIVERSITY INTERNAL MEDICINE RESEARCH FOUNDATION", "designationCode": "B", "categoryCode": "11", "address": "ROOM 487, BETHUNE BUILDING    1278 TOWER ROAD", "city": "HALIFAX", "province": "NS", "country": "CA", "postalCode": "B3H2Y9", "twitter": "None", "instagram": "None", "facebook": "None", "youtube": "None", "website": "None", "summary": "None", "logo": "None", "latitude": 44.637687595058516, "longitude": -63.578960701343014}, "804034544RR0001": {"name": "UNIVERSITY MANDARIN BIBLE STUDY FELLOWSHIP", "designationCode": "C", "categoryCode": "49", "address": "3254 10TH AVE W", "city": "VANCOUVER", "province": "BC", "country": "CA", "postalCode": "V6K2L2", "twitter": "None", "instagram": "None", "facebook": "None", "youtube": "None", "website": "None", "summary": "None", "logo": "None", "latitude": 49.2633195212074, "longitude": -123.17698213780366}, "119279206RR0001": {"name": "UNIVERSITY OF ALBERTA HOSPITAL STAFF CHARITIES FUND", "designationCode": "B", "categoryCode": "75", "address": "COLLEGE PLAZA                 2100 8215-112TH STREET", "city": "EDMONTON", "province": "AB", "country": "CA", "postalCode": "T6G2C8", "twitter": "None", "instagram": "None", "facebook": "None", "youtube": "None", "website": "None", "summary": "None", "logo": "None", "latitude": 53.51848903324723, "longitude": -113.52069448930389}, "129934212RR0001": {"name": "UNIVERSITY OF CALGARY CATHOLIC COMMUNITY", "designationCode": "C", "categoryCode": "38", "address": "373 MACEWAN STUDENT CENTRE    2500 UNIVERSITY DRIVE NW", "city": "CALGARY", "province": "AB", "country": "CA", "postalCode": "T2N1N4", "twitter": "None", "instagram": "None", "facebook": "None", "youtube": "None", "website": "None", "summary": "None", "logo": "None", "latitude": 51.074918604189705, "longitude": -114.1284997045416}, "108161829RR0001": {"name": "UNIVERSITY OF GUELPH", "designationCode": "C", "categoryCode": "20", "address": "GORDON STREET", "city": "GUELPH", "province": "ON", "country": "CA", "postalCode": "N1G2W1", "twitter": "None", "instagram": "None", "facebook": "None", "youtube": "None", "website": "None", "summary": "None", "logo": "None", "latitude": 43.52732547294052, "longitude": -80.22590121341959}, "889308599RR0001": {"name": "UNIVERSITY OF GUELPH - EMPLOYEES' CHARITY TRUST,", "designationCode": "C", "categoryCode": "75", "address": "GORDON STREET", "city": "GUELPH", "province": "ON", "country": "CA", "postalCode": "N1G2W1", "twitter": "None", "instagram": "None", "facebook": "None", "youtube": "None", "website": "None", "summary": "None", "logo": "None", "latitude": 43.52732547294052, "longitude": -80.22590121341959}, "121726863RR0001": {"name": "UNIVERSITY OF KING'S COLLEGE", "designationCode": "C", "categoryCode": "20", "address": "6350 COBURG RD", "city": "HALIFAX", "province": "NS", "country": "CA", "postalCode": "B3H2A1", "twitter": "None", "instagram": "None", "facebook": "None", "youtube": "None", "website": "None", "summary": "None", "logo": "None", "latitude": 44.637974885913884, "longitude": -63.59520670246411}, "867875395RR0001": {"name": "UNIVERSITY OF MANITOBA STUDENTS' UNION ENDOWMENT FUND INC", "designationCode": "C", "categoryCode": "23", "address": "101 UNIVERSITY CENTRE         UNIVERSITY OF MANITOBA", "city": "WINNIPEG", "province": "MB", "country": "CA", "postalCode": "R3T2N2", "twitter": "None", "instagram": "None", "facebook": "None", "youtube": "None", "website": "None", "summary": "None", "logo": "None", "latitude": 49.809599923394394, "longitude": -97.13332993277201}, "121627350RR0001": {"name": "UNIVERSITY OF NORTHERN BRITISH COLUMBIA", "designationCode": "C", "categoryCode": "20", "address": "3333 UNIVERSITY WAY", "city": "PRINCE GEORGE", "province": "BC", "country": "CA", "postalCode": "V2N4Z9", "twitter": "None", "instagram": "None", "facebook": "None", "youtube": "None", "website": "None", "summary": "None", "logo": "None", "latitude": 53.889230765857214, "longitude": -122.80870748317521}, "859248049RR0001": {"name": "UNIVERSITY OF ONTARIO INSTITUTE OF TECHNOLOGY", "designationCode": "C", "categoryCode": "20", "address": "2000 SIMCOE ST N", "city": "OSHAWA", "province": "ON", "country": "CA", "postalCode": "L1H7K4", "twitter": "None", "instagram": "None", "facebook": "None", "youtube": "None", "website": "None", "summary": "None", "logo": "None", "latitude": 43.94631946150995, "longitude": -78.89387017020555}, "140813452RR0001": {"name": "UNIVERSITY OF OTTAWA HEART INSTITUTE FOUNDATION FONDATION DE L'INSTITUT DE CARDIOLOGIE DE L'UNIVERSITE D'OTTAWA", "designationCode": "A", "categoryCode": "13", "address": "40 RUSKIN ST                  ROOM H 2405", "city": "OTTAWA", "province": "ON", "country": "CA", "postalCode": "K1Y4W7", "twitter": "None", "instagram": "None", "facebook": "None", "youtube": "None", "website": "None", "summary": "None", "logo": "None", "latitude": 45.393975317224154, "longitude": -75.72246593163077}, "866925241RR0001": {"name": "UNIVERSITY OF OTTAWA HEART INSTITUTE/L'INSTITUT DE CARDIOLOGIE DE L'UNIVERSITE D'OTTAWA", "designationCode": "C", "categoryCode": "11", "address": "40 RUSKIN ST                  ROOM H 2405", "city": "OTTAWA", "province": "ON", "country": "CA", "postalCode": "K1Y4W7", "twitter": "None", "instagram": "None", "facebook": "None", "youtube": "None", "website": "None", "summary": "None", "logo": "None", "latitude": 45.393975317224154, "longitude": -75.72246593163077}, "892482712RR0001": {"name": "UNIVERSITY OF OTTAWA INSTITUTE OF MENTAL HEALTH RESEARCH/ INSTITUT DE RECHERCHE EN SANT\u00c9 MENTALE DE L'UNIVERSIT\u00c9 D'OTTAWA", "designationCode": "C", "categoryCode": "11", "address": "1145 CARLING AVENUE", "city": "OTTAWA", "province": "ON", "country": "CA", "postalCode": "K1Z7K4", "twitter": "None", "instagram": "None", "facebook": "None", "youtube": "None", "website": "None", "summary": "None", "logo": "None", "latitude": 45.38798532927393, "longitude": -75.72995527791501}, "108162108RR0001": {"name": "UNIVERSITY OF PRINCE EDWARD ISLAND", "designationCode": "C", "categoryCode": "20", "address": "550 UNIVERSITY AVE", "city": "CHARLOTTETOWN", "province": "PE", "country": "CA", "postalCode": "C1A4P3", "twitter": "None", "instagram": "None", "facebook": "None", "youtube": "None", "website": "None", "summary": "None", "logo": "None", "latitude": 46.25683389592588, "longitude": -63.141931589070495}, "108162124RR0001": {"name": "UNIVERSITY OF REGINA", "designationCode": "C", "categoryCode": "20", "address": "3737 WASCANA PARKWAY", "city": "REGINA", "province": "SK", "country": "CA", "postalCode": "S4S0A2", "twitter": "None", "instagram": "None", "facebook": "None", "youtube": "None", "website": "None", "summary": "None", "logo": "None", "latitude": 50.419713656966486, "longitude": -104.59361063742868}, "898437025RR0001": {"name": "UNIVERSITY OF REGINA ALUMNI FOUNDATION INC.", "designationCode": "C", "categoryCode": "21", "address": "UNIVERSITY OF REGINA          3737 WASCANA PARKWAY", "city": "REGINA", "province": "SK", "country": "CA", "postalCode": "S4S0A2", "twitter": "None", "instagram": "None", "facebook": "None", "youtube": "None", "website": "None", "summary": "None", "logo": "None", "latitude": 50.419710000000066, "longitude": -104.59363999999994}, "119279271RR0001": {"name": "UNIVERSITY OF REGINA GROUP FOR REFUGEES", "designationCode": "C", "categoryCode": "99", "address": "FAC. OF ADMIN UNIV OF REGINA", "city": "REGINA", "province": "SK", "country": "CA", "postalCode": "S4S0A2", "twitter": "None", "instagram": "None", "facebook": "None", "youtube": "None", "website": "None", "summary": "None", "logo": "None", "latitude": 50.419710000000066, "longitude": -104.59363999999994}, "119279313RR0001": {"name": "UNIVERSITY OF SASKATCHEWAN,", "designationCode": "C", "categoryCode": "20", "address": "230 - 54 INNOVATION BLVD", "city": "SASKATOON", "province": "SK", "country": "CA", "postalCode": "S7N2V3", "twitter": "None", "instagram": "None", "facebook": "None", "youtube": "None", "website": "None", "summary": "None", "logo": "None", "latitude": 52.14015555575439, "longitude": -106.62665550801543}, "119279297RR0001": {"name": "UNIVERSITY OF SASKATCHEWAN, (EMPLOYEES CHARITABLE DONATIONS PLAN)", "designationCode": "B", "categoryCode": "75", "address": "230 - 54 INNOVATION BLVD", "city": "SASKATOON", "province": "SK", "country": "CA", "postalCode": "S7N2V3", "twitter": "None", "instagram": "None", "facebook": "None", "youtube": "None", "website": "None", "summary": "None", "logo": "None", "latitude": 52.14015555575439, "longitude": -106.62665550801543}, "119279321RR0001": {"name": "UNIVERSITY OF ST MICHAEL'S COLLEGE", "designationCode": "C", "categoryCode": "20", "address": "81 ST. MARY STREET", "city": "TORONTO", "province": "ON", "country": "CA", "postalCode": "M5S1J4", "twitter": "None", "instagram": "None", "facebook": "None", "youtube": "None", "website": "None", "summary": "None", "logo": "None", "latitude": 43.66710080094103, "longitude": -79.38988605118602}, "107876476RR0068": {"name": "UNIVERSITY OF SUDBURY PARISH", "designationCode": "C", "categoryCode": "38", "address": "C/O UNIVERSITY OF SUDBURY", "city": "SUDBURY", "province": "ON", "country": "CA", "postalCode": "P3E2C6", "twitter": "None", "instagram": "None", "facebook": "None", "youtube": "None", "website": "None", "summary": "None", "logo": "None", "latitude": 46.470890000000054, "longitude": -80.97224999999997}, "129451324RR0001": {"name": "UNIVERSITY OF TARTU FUND", "designationCode": "C", "categoryCode": "21", "address": "76 BABY POINT ROAD", "city": "TORONTO", "province": "ON", "country": "CA", "postalCode": "M6S2G3", "twitter": "None", "instagram": "None", "facebook": "None", "youtube": "None", "website": "None", "summary": "None", "logo": "None", "latitude": 43.65641321622702, "longitude": -79.49569559132085}, "107403701RR0001": {"name": "UNIVERSITY OF THE FRASER VALLEY", "designationCode": "C", "categoryCode": "20", "address": "33844 KING ROAD", "city": "ABBOTSFORD", "province": "BC", "country": "CA", "postalCode": "V2S7M8", "twitter": "None", "instagram": "None", "facebook": "None", "youtube": "None", "website": "None", "summary": "None", "logo": "None", "latitude": 49.031351488458824, "longitude": -122.28550230391252}, "876919416RR0001": {"name": "UNIVERSITY OF THE FRASER VALLEY FOUNDATION", "designationCode": "A", "categoryCode": "23", "address": "33844 KING ROAD", "city": "ABBOTSFORD", "province": "BC", "country": "CA", "postalCode": "V2S7M8", "twitter": "None", "instagram": "None", "facebook": "None", "youtube": "None", "website": "None", "summary": "None", "logo": "None", "latitude": 49.031351488458824, "longitude": -122.28550230391252}, "105459325RR0001": {"name": "UNIVERSITY OF TORONTO COMMUNITY RADIO INC.", "designationCode": "C", "categoryCode": "21", "address": "89.5 TOWER ROAD", "city": "TORONTO", "province": "ON", "country": "CA", "postalCode": "M5S0A2", "twitter": "None", "instagram": "None", "facebook": "None", "youtube": "None", "website": "None", "summary": "None", "logo": "None", "latitude": 43.663777915396054, "longitude": -79.39527114235871}, "866956204RR0001": {"name": "UNIVERSITY OF TORONTO SCHOOLS", "designationCode": "C", "categoryCode": "20", "address": "371 BLOOR STREET WEST         ROOM 124", "city": "TORONTO", "province": "ON", "country": "CA", "postalCode": "M5S2R7", "twitter": "None", "instagram": "None", "facebook": "None", "youtube": "None", "website": "None", "summary": "None", "logo": "None", "latitude": 43.666892845375024, "longitude": -79.4025973874431}, "108162470RR0001": {"name": "UNIVERSITY OF VICTORIA", "designationCode": "C", "categoryCode": "20", "address": "P.O. BOX 3040", "city": "VICTORIA", "province": "BC", "country": "CA", "postalCode": "V8W3N7", "twitter": "None", "instagram": "None", "facebook": "None", "youtube": "None", "website": "None", "summary": "None", "logo": "None", "latitude": 48.42854700000005, "longitude": -123.36445249999994}, "123060022RR0001": {"name": "UNIVERSITY OF VICTORIA FOUNDATION", "designationCode": "C", "categoryCode": "20", "address": "P.O. BOX 3040", "city": "VICTORIA", "province": "BC", "country": "CA", "postalCode": "V8W3N7", "twitter": "None", "instagram": "None", "facebook": "None", "youtube": "None", "website": "None", "summary": "None", "logo": "None", "latitude": 48.42854700000005, "longitude": -123.36445249999994}, "119260685RR0001": {"name": "UNIVERSITY OF WATERLOO", "designationCode": "C", "categoryCode": "20", "address": "200 UNIVERSITY AVE W", "city": "WATERLOO", "province": "ON", "country": "CA", "postalCode": "N2L3G1", "twitter": "None", "instagram": "None", "facebook": "None", "youtube": "None", "website": "None", "summary": "None", "logo": "None", "latitude": 43.46886706897043, "longitude": -80.53917525095933}, "889374864RR0001": {"name": "UNIVERSITY OF WINDSOR EMPLOYEES CHARITY TRUST", "designationCode": "B", "categoryCode": "75", "address": "401 SUNSET AVE", "city": "WINDSOR", "province": "ON", "country": "CA", "postalCode": "N9B3P4", "twitter": "None", "instagram": "None", "facebook": "None", "youtube": "None", "website": "None", "summary": "None", "logo": "None", "latitude": 42.30617165200125, "longitude": -83.06564136488882}, "108162645RR0001": {"name": "UNIVERSITY OF WINNIPEG", "designationCode": "C", "categoryCode": "20", "address": "515 PORTAGE AVE", "city": "WINNIPEG", "province": "MB", "country": "CA", "postalCode": "R3B2E9", "twitter": "None", "instagram": "None", "facebook": "None", "youtube": "None", "website": "None", "summary": "None", "logo": "None", "latitude": 49.89031476164195, "longitude": -97.15288240290808}, "845571074RR0001": {"name": "UNIVERSITY OF WINNIPEG COMMUNITY RENEWAL CORPORATION", "designationCode": "C", "categoryCode": "21", "address": "515 PORTAGE AVENUE", "city": "WINNIPEG", "province": "MB", "country": "CA", "postalCode": "R3B2E9", "twitter": "None", "instagram": "None", "facebook": "None", "youtube": "None", "website": "None", "summary": "None", "logo": "None", "latitude": 49.89031476164195, "longitude": -97.15288240290808}, "119279404RR0001": {"name": "UNIVERSITY PRESBYTERIAN CHURCH", "designationCode": "C", "categoryCode": "37", "address": "1830 FINCH AVENUE WEST", "city": "DOWNSVIEW", "province": "ON", "country": "CA", "postalCode": "M3N1M8", "twitter": "None", "instagram": "None", "facebook": "None", "youtube": "None", "website": "None", "summary": "None", "logo": "None", "latitude": 43.75818017626506, "longitude": -79.51303905718729}, "119279412RR0001": {"name": "UNIVERSITY SETTLEMENT", "designationCode": "C", "categoryCode": "09", "address": "23 GRANGE RD", "city": "TORONTO", "province": "ON", "country": "CA", "postalCode": "M5T1C3", "twitter": "None", "instagram": "None", "facebook": "None", "youtube": "None", "website": "None", "summary": "None", "logo": "None", "latitude": 43.65219192587585, "longitude": -79.39141772078597}, "887979441RR0001": {"name": "UNIVERSITY WOMEN'S CLUB OF NORTH YORK SCHOLARSHIP FUND", "designationCode": "A", "categoryCode": "25", "address": "803 - 10 KENNETH AVE", "city": "NORTH YORK", "province": "ON", "country": "CA", "postalCode": "M2N6K6", "twitter": "None", "instagram": "None", "facebook": "None", "youtube": "None", "website": "None", "summary": "None", "logo": "None", "latitude": 43.76411618705645, "longitude": -79.40541115629841}, "890197445RR0001": {"name": "UNIVERSITY WOMEN'S CLUB OF OAKVILLE SCHOLARSHIP FUND", "designationCode": "C", "categoryCode": "21", "address": "109 THOMAS STREET             P.O. BOX 69600", "city": "OAKVILLE", "province": "ON", "country": "CA", "postalCode": "L6J7R4", "twitter": "None", "instagram": "None", "facebook": "None", "youtube": "None", "website": "None", "summary": "None", "logo": "None", "latitude": 43.44513056869984, "longitude": -79.66950799832655}, "887399590RR0001": {"name": "UNIVERSITY WOMENS CLUB OF VANCOUVER TRUST FUND FOR EDUCATION", "designationCode": "C", "categoryCode": "21", "address": "1489 MCRAE AVE", "city": "VANCOUVER", "province": "BC", "country": "CA", "postalCode": "V6H1V1", "twitter": "None", "instagram": "None", "facebook": "None", "youtube": "None", "website": "None", "summary": "None", "logo": "None", "latitude": 49.25716110296276, "longitude": -123.13794237308112}, "806081790RR0001": {"name": "UNIVERSITY WOMENS CLUB OF WINNIPEG SCHOLARSHIP FUND", "designationCode": "C", "categoryCode": "21", "address": "54 WEST GATE", "city": "WINNIPEG", "province": "MB", "country": "CA", "postalCode": "R3C2E1", "twitter": "None", "instagram": "None", "facebook": "None", "youtube": "None", "website": "None", "summary": "None", "logo": "None", "latitude": 49.87752370356065, "longitude": -97.15868799422893}, "868914177RR0001": {"name": "UNIVERT LAVAL", "designationCode": "C", "categoryCode": "55", "address": "PAVILLON POLLACK BUREAU 2235  UNIVERSIT\u00c9 LAVAL", "city": "QU\u00c9BEC", "province": "QC", "country": "CA", "postalCode": "G1V0A6", "twitter": "None", "instagram": "None", "facebook": "None", "youtube": "None", "website": "None", "summary": "None", "logo": "None", "latitude": 46.779840000000036, "longitude": -71.26949999999994}, "119279560RR0001": {"name": "UNIVILLAGE PRESCHOOL AND INFANT CENTRE INC.", "designationCode": "C", "categoryCode": "01", "address": "100-99 DALHOUSIE DR.", "city": "WINNIPEG", "province": "MB", "country": "CA", "postalCode": "R3T3M2", "twitter": "None", "instagram": "None", "facebook": "None", "youtube": "None", "website": "None", "summary": "None", "logo": "None", "latitude": 49.79663550000001, "longitude": -97.15271174999998}}