{"889436572RR0001": {"name": "YONGE STREET MONTHLY MEETING", "designationCode": "C", "categoryCode": "39", "address": "17030 YONGE ST", "city": "NEWMARKET", "province": "ON", "country": "CA", "postalCode": "L3Y8V3", "twitter": "None", "instagram": "None", "facebook": "None", "youtube": "None", "website": "None", "summary": "None", "logo": "None", "latitude": 44.04306897639802, "longitude": -79.47757859556177}, "119306173RR0001": {"name": "YONGE-ROSEDALE CHARITABLE FOUNDATION", "designationCode": "C", "categoryCode": "09", "address": "877 YONGE STREET", "city": "TORONTO", "province": "ON", "country": "CA", "postalCode": "M4W3M2", "twitter": "None", "instagram": "None", "facebook": "None", "youtube": "None", "website": "None", "summary": "None", "logo": "None", "latitude": 43.6741696408621, "longitude": -79.38836055796669}, "108226606RR0001": {"name": "YOR-SUP-NET SUPPORT SERVICE NETWORK", "designationCode": "C", "categoryCode": "09", "address": "3-240 EDWARD ST", "city": "AURORA", "province": "ON", "country": "CA", "postalCode": "L4G3S9", "twitter": "None", "instagram": "None", "facebook": "None", "youtube": "None", "website": "None", "summary": "None", "logo": "None", "latitude": 43.987334191845626, "longitude": -79.4616266347739}, "119306520RR0001": {"name": "YORK - SUNBURY SEARCH AND RESCUE INC.", "designationCode": "C", "categoryCode": "59", "address": "247-527 DUNDONALD ST", "city": "FREDERICTON", "province": "NB", "country": "CA", "postalCode": "E3B1X5", "twitter": "None", "instagram": "None", "facebook": "None", "youtube": "None", "website": "None", "summary": "None", "logo": "None", "latitude": 45.955269550193584, "longitude": -66.65196507963448}, "108104753RR0001": {"name": "YORK CATHOLIC DISTRICT SCHOOL BOARD", "designationCode": "C", "categoryCode": "20", "address": "320 BLOOMINGTON RD W", "city": "AURORA", "province": "ON", "country": "CA", "postalCode": "L4G0M1", "twitter": "None", "instagram": "None", "facebook": "None", "youtube": "None", "website": "None", "summary": "None", "logo": "None"}, "137738233RR0001": {"name": "YORK CHURCH OF GOD", "designationCode": "C", "categoryCode": "39", "address": "325 WESTON ROAD UNIT 3A", "city": "TORONTO", "province": "ON", "country": "CA", "postalCode": "M6N4Z9", "twitter": "None", "instagram": "None", "facebook": "None", "youtube": "None", "website": "None", "summary": "None", "logo": "None", "latitude": 43.678558987823635, "longitude": -79.47356202922882}, "119306272RR0001": {"name": "YORK COVEHEAD PASTORAL CHARGE", "designationCode": "C", "categoryCode": "44", "address": "PO BOX 2679 STN CENTRAL", "city": "CHARLOTTETOWN", "province": "PE", "country": "CA", "postalCode": "C1A8C3", "twitter": "None", "instagram": "None", "facebook": "None", "youtube": "None", "website": "None", "summary": "None", "logo": "None", "latitude": 46.23659700000006, "longitude": -63.12815449999994}, "892488248RR0001": {"name": "YORK HOUSE SCHOOL FOUNDATION", "designationCode": "C", "categoryCode": "21", "address": "4176 ALEXANDER STREET", "city": "VANCOUVER", "province": "BC", "country": "CA", "postalCode": "V6J2V6", "twitter": "None", "instagram": "None", "facebook": "None", "youtube": "None", "website": "None", "summary": "None", "logo": "None", "latitude": 49.248863769634745, "longitude": -123.14144808759954}, "119306348RR0001": {"name": "YORK HOUSE SCHOOL SOCIETY", "designationCode": "C", "categoryCode": "20", "address": "4176 ALEXANDRA ST", "city": "VANCOUVER", "province": "BC", "country": "CA", "postalCode": "V6J2V6", "twitter": "None", "instagram": "None", "facebook": "None", "youtube": "None", "website": "None", "summary": "None", "logo": "None", "latitude": 49.248863769634745, "longitude": -123.14144808759954}, "868147893RR0001": {"name": "YORK LIONS STEEL BAND", "designationCode": "C", "categoryCode": "22", "address": "140 CORDELLA AVENUE", "city": "TORONTO", "province": "ON", "country": "CA", "postalCode": "M6N2J9", "twitter": "None", "instagram": "None", "facebook": "None", "youtube": "None", "website": "None", "summary": "None", "logo": "None", "latitude": 43.6792811579432, "longitude": -79.48636614821967}, "105771703RR0001": {"name": "YORK MANOR INC.", "designationCode": "C", "categoryCode": "01", "address": "100 SUNSET DR", "city": "FREDERICTON", "province": "NB", "country": "CA", "postalCode": "E3A1A3", "twitter": "None", "instagram": "None", "facebook": "None", "youtube": "None", "website": "None", "summary": "None", "logo": "None", "latitude": 45.977942620030056, "longitude": -66.68640484554791}, "108226192RR0001": {"name": "YORK MEMORIAL PRESBYTERIAN CHURCH", "designationCode": "C", "categoryCode": "37", "address": "1695 KEELE ST", "city": "TORONTO", "province": "ON", "country": "CA", "postalCode": "M6M3W7", "twitter": "None", "instagram": "None", "facebook": "None", "youtube": "None", "website": "None", "summary": "None", "logo": "None", "latitude": 43.68539305995726, "longitude": -79.47295778057034}, "137747267RR0001": {"name": "YORK NORTH FAMILY RESOURCE PROGRAMMES", "designationCode": "C", "categoryCode": "20", "address": "53 MAIN STREET", "city": "MOUNT ALBERT", "province": "ON", "country": "CA", "postalCode": "L0G1M0", "twitter": "None", "instagram": "None", "facebook": "None", "youtube": "None", "website": "None", "summary": "None", "logo": "None", "latitude": 44.13545995083415, "longitude": -79.31058473561673}, "119306439RR0001": {"name": "YORK PINES PASTORAL CHARGE,", "designationCode": "C", "categoryCode": "44", "address": "3150 LLOYDTOWN AURORA ROAD", "city": "KING", "province": "ON", "country": "CA", "postalCode": "L7B0G3", "twitter": "None", "instagram": "None", "facebook": "None", "youtube": "None", "website": "None", "summary": "None", "logo": "None", "latitude": 44.00414303589299, "longitude": -79.57843045092011}, "119306447RR0001": {"name": "YORK PIONEER AND HISTORICAL SOCIETY,", "designationCode": "C", "categoryCode": "52", "address": "PO BOX 45026                  2482 YONGE ST", "city": "TORONTO", "province": "ON", "country": "CA", "postalCode": "M4P3E3", "twitter": "None", "instagram": "None", "facebook": "None", "youtube": "None", "website": "None", "summary": "None", "logo": "None", "latitude": 43.71162704440534, "longitude": -79.39943792910715}, "108226291RR0001": {"name": "YORK PROFESSIONAL CARE & EDUCATION INC.", "designationCode": "C", "categoryCode": "01", "address": "15203 YONGE STREET", "city": "AURORA", "province": "ON", "country": "CA", "postalCode": "L4G1L8", "twitter": "None", "instagram": "None", "facebook": "None", "youtube": "None", "website": "None", "summary": "None", "logo": "None", "latitude": 43.998647793784976, "longitude": -79.46727681513659}, "898678602RR0001": {"name": "YORK REGION ARTS COUNCIL", "designationCode": "C", "categoryCode": "22", "address": "14845-6 YONGE STREET          STE 306", "city": "AURORA", "province": "ON", "country": "CA", "postalCode": "L4G6H8", "twitter": "None", "instagram": "None", "facebook": "None", "youtube": "None", "website": "None", "summary": "None", "logo": "None", "latitude": 43.99231271655434, "longitude": -79.46578332792448}, "868066515RR0001": {"name": "YORK REGION CRITICAL INCIDENT STRESS MANAGEMENT TEAM", "designationCode": "C", "categoryCode": "09", "address": "271 SHAW BLVD", "city": "RICHMOND HILL", "province": "ON", "country": "CA", "postalCode": "L4C5T9", "twitter": "None", "instagram": "None", "facebook": "None", "youtube": "None", "website": "None", "summary": "None", "logo": "None", "latitude": 43.85191136222499, "longitude": -79.45853469623171}, "119306462RR0001": {"name": "YORK REGION DISTRICT SCHOOL BOARD", "designationCode": "C", "categoryCode": "29", "address": "60 WELLINGTON ST W PO BOX 40", "city": "AURORA", "province": "ON", "country": "CA", "postalCode": "L4G3H2", "twitter": "None", "instagram": "None", "facebook": "None", "youtube": "None", "website": "None", "summary": "None", "logo": "None", "latitude": 43.99866123180758, "longitude": -79.47215858370346}, "870447315RR0001": {"name": "YORK REGION FOOD NETWORK", "designationCode": "C", "categoryCode": "09", "address": "350 INDUSTRIAL PARKWAY S.", "city": "AURORA", "province": "ON", "country": "CA", "postalCode": "L4G3V7", "twitter": "None", "instagram": "None", "facebook": "None", "youtube": "None", "website": "None", "summary": "None", "logo": "None", "latitude": 43.98553370304105, "longitude": -79.45460716521387}, "889295267RR0001": {"name": "YORK REGION ISLAMIC CENTRE", "designationCode": "C", "categoryCode": "60", "address": "21 FELAN CRES", "city": "REXDALE", "province": "ON", "country": "CA", "postalCode": "M9V3A2", "twitter": "None", "instagram": "None", "facebook": "None", "youtube": "None", "website": "None", "summary": "None", "logo": "None", "latitude": 43.73652609244604, "longitude": -79.57603726562401}, "133235903RR0001": {"name": "YORK REGION ROSE OF SHARON SERVICES FOR YOUNG MOTHERS", "designationCode": "C", "categoryCode": "09", "address": "361 EAGLE STREET", "city": "NEWMARKET", "province": "ON", "country": "CA", "postalCode": "L3Y1K5", "twitter": "None", "instagram": "None", "facebook": "None", "youtube": "None", "website": "None", "summary": "None", "logo": "None", "latitude": 44.04914615404807, "longitude": -79.4615197209302}, "886072990RR0001": {"name": "YORK REGION 4-H ASSOCIATION", "designationCode": "C", "categoryCode": "29", "address": "20453 MCCOWAN RD., RR#1", "city": "MT. ALBERT", "province": "ON", "country": "CA", "postalCode": "L0G1M0", "twitter": "None", "instagram": "None", "facebook": "None", "youtube": "None", "website": "None", "summary": "None", "logo": "None", "latitude": 44.158973022926304, "longitude": -79.35219495213147}, "119306470RR0001": {"name": "YORK RITE SOVEREIGN COLLEGE CHARITABLE FOUNDATION OF CANADA THE", "designationCode": "A", "categoryCode": "63", "address": "5130 ELLIOTT SIDEROAD", "city": "MIDLAND", "province": "ON", "country": "CA", "postalCode": "L4R4K3", "twitter": "None", "instagram": "None", "facebook": "None", "youtube": "None", "website": "None", "summary": "None", "logo": "None", "latitude": 44.71187028758121, "longitude": -79.811943189047}, "119306488RR0001": {"name": "YORK RIVER HEIGHTS SENIOR CITIZENS COMPLEX CORPORATION", "designationCode": "C", "categoryCode": "09", "address": "303 HASTINGS ST N             PO 100 RR2", "city": "BANCROFT", "province": "ON", "country": "CA", "postalCode": "K0L1C0", "twitter": "None", "instagram": "None", "facebook": "None", "youtube": "None", "website": "None", "summary": "None", "logo": "None", "latitude": 45.08033636692821, "longitude": -77.85913613197621}, "888941440RR0001": {"name": "YORK ST. PETER'S EVANGELISTIC ORGANIZATION", "designationCode": "C", "categoryCode": "47", "address": "5694 HIGHWAY #7               MARTINGROVE P.O. BOX 77077", "city": "WOODBRIDGE", "province": "ON", "country": "CA", "postalCode": "L4L9S3", "twitter": "None", "instagram": "None", "facebook": "None", "youtube": "None", "website": "None", "summary": "None", "logo": "None", "latitude": 43.77541212892393, "longitude": -79.61172493265231}, "108226564RR0001": {"name": "YORK STREET CHILDREN'S CENTRE INC.", "designationCode": "C", "categoryCode": "01", "address": "40 YORK ST", "city": "SACKVILLE", "province": "NB", "country": "CA", "postalCode": "E4L4R4", "twitter": "None", "instagram": "None", "facebook": "None", "youtube": "None", "website": "None", "summary": "None", "logo": "None", "latitude": 45.89833774712927, "longitude": -64.37079972191115}, "119306538RR0001": {"name": "YORK SYMPHONY ORCHESTRA INC.", "designationCode": "C", "categoryCode": "22", "address": "P.O. BOX 355                  RPO WEST BEAVER CREEK", "city": "RICHMOND HILL", "province": "ON", "country": "CA", "postalCode": "L4B4R6", "twitter": "None", "instagram": "None", "facebook": "None", "youtube": "None", "website": "None", "summary": "None", "logo": "None", "latitude": 43.8513110722551, "longitude": -79.39261929294445}, "888686060RR0001": {"name": "YORK TOWNSHIP TRI-HARDS", "designationCode": "C", "categoryCode": "56", "address": "21 ASHWOOD CRESCENT", "city": "TORONTO", "province": "ON", "country": "CA", "postalCode": "M9A1Z2", "twitter": "None", "instagram": "None", "facebook": "None", "youtube": "None", "website": "None", "summary": "None", "logo": "None", "latitude": 43.66962631943576, "longitude": -79.54575439979234}, "119306728RR0001": {"name": "YORK UNITED CHURCH", "designationCode": "C", "categoryCode": "44", "address": "35 MERRITT ST", "city": "YORK", "province": "ON", "country": "CA", "postalCode": "N0A1R0", "twitter": "None", "instagram": "None", "facebook": "None", "youtube": "None", "website": "None", "summary": "None", "logo": "None", "latitude": 43.02169828642738, "longitude": -79.88940421827583}, "863831616RR0001": {"name": "YORK UNIVERSITY FOUNDATION-FONDATION DE L'UNIVERSITE YORK", "designationCode": "A", "categoryCode": "23", "address": "4700 KEELE ST                 WEST OFFICE BUILDING", "city": "TORONTO", "province": "ON", "country": "CA", "postalCode": "M3J1P3", "twitter": "None", "instagram": "None", "facebook": "None", "youtube": "None", "website": "None", "summary": "None", "logo": "None", "latitude": 43.77448979818479, "longitude": -79.4939737399481}, "119306736RR0001": {"name": "YORK UNIVERSITY,", "designationCode": "C", "categoryCode": "20", "address": "4700 KEELE ST", "city": "NORTH YORK", "province": "ON", "country": "CA", "postalCode": "M3J1P3", "twitter": "None", "instagram": "None", "facebook": "None", "youtube": "None", "website": "None", "summary": "None", "logo": "None", "latitude": 43.77448979818479, "longitude": -79.4939737399481}, "119306777RR0001": {"name": "YORK WEST ACTIVE LIVING CENTRE", "designationCode": "C", "categoryCode": "09", "address": "1901 A WESTON ROAD", "city": "WESTON", "province": "ON", "country": "CA", "postalCode": "M9N3P5", "twitter": "None", "instagram": "None", "facebook": "None", "youtube": "None", "website": "None", "summary": "None", "logo": "None", "latitude": 43.70019580492214, "longitude": -79.51624506644946}, "886074798RR0001": {"name": "YORK-DURHAM HERITAGE RAILWAY ASSOCIATION", "designationCode": "C", "categoryCode": "52", "address": "P.O. BOX 462", "city": "STOUFFVILLE", "province": "ON", "country": "CA", "postalCode": "L4A7Z7", "twitter": "None", "instagram": "None", "facebook": "None", "youtube": "None", "website": "None", "summary": "None", "logo": "None", "latitude": 43.97107200000005, "longitude": -79.24805449999994}, "119306298RR0001": {"name": "YORK-FAIRBANK CENTRE FOR SENIORS OF THE CITY OF YORK", "designationCode": "C", "categoryCode": "56", "address": "2213 DUFFERIN STREET", "city": "TORONTO", "province": "ON", "country": "CA", "postalCode": "M6E3S2", "twitter": "None", "instagram": "None", "facebook": "None", "youtube": "None", "website": "None", "summary": "None", "logo": "None", "latitude": 43.69119764086208, "longitude": -79.4483604669343}, "119288918RR0071": {"name": "YORKDALE CONGREGATION OF JEHOVAH'S WITNESSES, TORONTO, ONTARIO", "designationCode": "C", "categoryCode": "61", "address": "2200 AVENUE RD. #504", "city": "TORONTO", "province": "ON", "country": "CA", "postalCode": "M5M4B9", "twitter": "None", "instagram": "None", "facebook": "None", "youtube": "None", "website": "None", "summary": "None", "logo": "None", "latitude": 43.740090386635046, "longitude": -79.42308047899509}, "119306389RR0001": {"name": "YORKMINSTER PARK BAPTIST CHURCH,", "designationCode": "C", "categoryCode": "31", "address": "1585 YONGE ST", "city": "TORONTO", "province": "ON", "country": "CA", "postalCode": "M4T1Z9", "twitter": "None", "instagram": "None", "facebook": "None", "youtube": "None", "website": "None", "summary": "None", "logo": "None", "latitude": 43.69044499362336, "longitude": -79.39494619781917}, "119306397RR0001": {"name": "YORKMINSTER PARK MEALS ON WHEELS", "designationCode": "C", "categoryCode": "09", "address": "1585 YONGE ST", "city": "TORONTO", "province": "ON", "country": "CA", "postalCode": "M4T1Z9", "twitter": "None", "instagram": "None", "facebook": "None", "youtube": "None", "website": "None", "summary": "None", "logo": "None", "latitude": 43.69044499362336, "longitude": -79.39494619781917}, "854336476RR0001": {"name": "YORKSHIRE STREET GOSPEL HALL", "designationCode": "C", "categoryCode": "39", "address": "27 SANDPIPER DRIVE", "city": "GUELPH", "province": "ON", "country": "CA", "postalCode": "N1C1C9", "twitter": "None", "instagram": "None", "facebook": "None", "youtube": "None", "website": "None", "summary": "None", "logo": "None"}, "118864206RR0001": {"name": "YORKTON ALLIANCE CHURCH", "designationCode": "C", "categoryCode": "39", "address": "186 ALLANBROOKE DR", "city": "YORKTON", "province": "SK", "country": "CA", "postalCode": "S3N3G5", "twitter": "None", "instagram": "None", "facebook": "None", "youtube": "None", "website": "None", "summary": "None", "logo": "None", "latitude": 51.197147329447745, "longitude": -102.48637680128678}, "119306561RR0001": {"name": "YORKTON AND DISTRICT UNITED WAY", "designationCode": "A", "categoryCode": "05", "address": "A-180 BROADWAY STREET WEST", "city": "YORKTON", "province": "SK", "country": "CA", "postalCode": "S3N0M6", "twitter": "None", "instagram": "None", "facebook": "None", "youtube": "None", "website": "None", "summary": "None", "logo": "None", "latitude": 51.210162, "longitude": -102.47860082939913}, "108226648RR0001": {"name": "YORKTON ARTS COUNCIL INC.", "designationCode": "C", "categoryCode": "22", "address": "49 SMITH ST EAST", "city": "YORKTON", "province": "SK", "country": "CA", "postalCode": "S3N0H4", "twitter": "None", "instagram": "None", "facebook": "None", "youtube": "None", "website": "None", "summary": "None", "logo": "None", "latitude": 51.212162503750925, "longitude": -102.4594197485429}, "870673415RR0001": {"name": "YORKTON CHRISTIAN FELLOWSHIP INC.", "designationCode": "C", "categoryCode": "39", "address": "1 - 526 CIRCLEBROOKE DR", "city": "YORKTON", "province": "SK", "country": "CA", "postalCode": "S3N2T4", "twitter": "None", "instagram": "None", "facebook": "None", "youtube": "None", "website": "None", "summary": "None", "logo": "None", "latitude": 51.19870979877664, "longitude": -102.48955774297433}, "133854430RR0001": {"name": "YORKTON FAITH MINISTRIES, WORLD OUTREACH CENTRE INC", "designationCode": "C", "categoryCode": "39", "address": "PO BOX 1853 STN DEL.CENTRE", "city": "YORKTON", "province": "SK", "country": "CA", "postalCode": "S3N3R2", "twitter": "None", "instagram": "None", "facebook": "None", "youtube": "None", "website": "None", "summary": "None", "logo": "None", "latitude": 51.20403900000005, "longitude": -102.44985199999994}, "119306645RR0001": {"name": "YORKTON MUSIC FESTIVAL ASSOCIATION,", "designationCode": "C", "categoryCode": "22", "address": "76 REDWOOD WALKER", "city": "YORKTON", "province": "SK", "country": "CA", "postalCode": "S3N2X7", "twitter": "None", "instagram": "None", "facebook": "None", "youtube": "None", "website": "None", "summary": "None", "logo": "None", "latitude": 51.19614053318127, "longitude": -102.49063110935425}, "887190197RR0001": {"name": "YORKTON PUBLIC LIBRARY", "designationCode": "C", "categoryCode": "50", "address": "93 BROADWAY STREET WEST", "city": "YORKTON", "province": "SK", "country": "CA", "postalCode": "S3N0L9", "twitter": "None", "instagram": "None", "facebook": "None", "youtube": "None", "website": "None", "summary": "None", "logo": "None", "latitude": 51.21019448932419, "longitude": -102.4691715}, "119030666RR0039": {"name": "YORKTON SEVENTH-DAY ADVENTIST CHURCH", "designationCode": "C", "categoryCode": "41", "address": "DA CHURCH 1004 VICTORIA AVE", "city": "SASKATOON", "province": "SK", "country": "CA", "postalCode": "S7N0Z8", "twitter": "None", "instagram": "None", "facebook": "None", "youtube": "None", "website": "None", "summary": "None", "logo": "None", "latitude": 52.115409, "longitude": -106.66240826773014}, "122789282RR0001": {"name": "YORKTON SHORT FILM & VIDEO FESTIVAL INC", "designationCode": "C", "categoryCode": "22", "address": "49 SMITH STREET EAST", "city": "YORKTON", "province": "SK", "country": "CA", "postalCode": "S3N0H4", "twitter": "None", "instagram": "None", "facebook": "None", "youtube": "None", "website": "None", "summary": "None", "logo": "None", "latitude": 51.212162503750925, "longitude": -102.4594197485429}, "132189358RR0001": {"name": "YORKTON SOCIETY FOR THE PREVENTION OF CRUELTY TO ANIMALS INC", "designationCode": "C", "categoryCode": "54", "address": "79 7TH AVE SOUTH", "city": "YORKTON", "province": "SK", "country": "CA", "postalCode": "S3N3V1", "twitter": "None", "instagram": "None", "facebook": "None", "youtube": "None", "website": "None", "summary": "None", "logo": "None", "latitude": 51.20727987206408, "longitude": -102.4530767423974}, "108226945RR0001": {"name": "YORKTON WOMEN IN NEED INC.", "designationCode": "C", "categoryCode": "01", "address": "BOX 1828", "city": "YORKTON", "province": "SK", "country": "CA", "postalCode": "S3N3R2", "twitter": "None", "instagram": "None", "facebook": "None", "youtube": "None", "website": "None", "summary": "None", "logo": "None", "latitude": 51.20403900000005, "longitude": -102.44985199999994}, "136729597RR0001": {"name": "YORKTOWN CHILD AND FAMILY CENTRE", "designationCode": "C", "categoryCode": "09", "address": "2010 EGLINTON AVE W           SUITE 300", "city": "TORONTO", "province": "ON", "country": "CA", "postalCode": "M6E2K3", "twitter": "None", "instagram": "None", "facebook": "None", "youtube": "None", "website": "None", "summary": "None", "logo": "None", "latitude": 43.69495892977098, "longitude": -79.45556364418032}, "891894586RR0001": {"name": "YORKTOWN SHELTER FOR WOMEN", "designationCode": "C", "categoryCode": "01", "address": "2010 EGLINTON AVE W           SUITE 300", "city": "TORONTO", "province": "ON", "country": "CA", "postalCode": "M6E2K3", "twitter": "None", "instagram": "None", "facebook": "None", "youtube": "None", "website": "None", "summary": "None", "logo": "None", "latitude": 43.69495892977098, "longitude": -79.45556364418032}, "119288918RR0540": {"name": "YORKVIEW CONGREGATION OF JEHOVAH'S WITNESSES, TORONTO, ONTARIO", "designationCode": "C", "categoryCode": "61", "address": "1211-335 DRIFTWOOD AVE.", "city": "TORONTO", "province": "ON", "country": "CA", "postalCode": "M3N2P3", "twitter": "None", "instagram": "None", "facebook": "None", "youtube": "None", "website": "None", "summary": "None", "logo": "None", "latitude": 43.76647862727209, "longitude": -79.5117953276014}, "108227083RR0001": {"name": "YORKVIEW HEIGHTS BAPTIST CHURCH", "designationCode": "C", "categoryCode": "31", "address": "98 FINCH AVE W", "city": "WILLOWDALE", "province": "ON", "country": "CA", "postalCode": "M2R2H7", "twitter": "None", "instagram": "None", "facebook": "None", "youtube": "None", "website": "None", "summary": "None", "logo": "None", "latitude": 43.77656284513332, "longitude": -79.43034847092376}, "890874035RR0001": {"name": "YORUBA COMMUNITY ASSOCIATION", "designationCode": "C", "categoryCode": "59", "address": "40 ALANA DR", "city": "SPRINGWATER", "province": "ON", "country": "CA", "postalCode": "L9X0S1", "twitter": "None", "instagram": "None", "facebook": "None", "youtube": "None", "website": "None", "summary": "None", "logo": "None", "latitude": 44.38294740714994, "longitude": -79.76701317170608}, "886861681RR0001": {"name": "YOUBOU COMMUNITY CHURCH", "designationCode": "C", "categoryCode": "59", "address": "10648 YOUBOU RD", "city": "YOUBOU", "province": "BC", "country": "CA", "postalCode": "V0R3E1", "twitter": "None", "instagram": "None", "facebook": "None", "youtube": "None", "website": "None", "summary": "None", "logo": "None", "latitude": 48.87519939515826, "longitude": -124.21490933209787}, "119306793RR0001": {"name": "YOUNG ACADIAN SINGERS INC-JEUNES CHANTEURS D'ACADIE INC", "designationCode": "C", "categoryCode": "22", "address": "62, CH. AUR\u00c8LE-POIRIER", "city": "SHEDIAC RIVER", "province": "NB", "country": "CA", "postalCode": "E4R1B3", "twitter": "None", "instagram": "None", "facebook": "None", "youtube": "None", "website": "None", "summary": "None", "logo": "None", "latitude": 46.26486686745337, "longitude": -64.59809020239992}, "865086631RR0001": {"name": "YOUNG ADULT CANCER CANADA INC.", "designationCode": "C", "categoryCode": "11", "address": "18 ARGYLE STREET              SUITE 201", "city": "ST. JOHN'S", "province": "NL", "country": "CA", "postalCode": "A1A1V3", "twitter": "None", "instagram": "None", "facebook": "None", "youtube": "None", "website": "None", "summary": "None", "logo": "None", "latitude": 47.581545257573936, "longitude": -52.71152545005473}, "882090988RR0001": {"name": "YOUNG CANADIAN MUSICIANS AWARDS", "designationCode": "B", "categoryCode": "22", "address": "22 LINDEN ST", "city": "TORONTO", "province": "ON", "country": "CA", "postalCode": "M4Y1V6", "twitter": "None", "instagram": "None", "facebook": "None", "youtube": "None", "website": "None", "summary": "None", "logo": "None", "latitude": 43.67055312851284, "longitude": -79.37735771371685}, "870554805RR0001": {"name": "YOUNG COMPANY PRODUCTIONS ASSOCIATION", "designationCode": "C", "categoryCode": "22", "address": "5360 GRANVILLE RD", "city": "GRANVILLE FERRY", "province": "NS", "country": "CA", "postalCode": "B0S1K0", "twitter": "None", "instagram": "None", "facebook": "None", "youtube": "None", "website": "None", "summary": "None", "logo": "None", "latitude": 44.750533599774975, "longitude": -65.52355169510652}, "819438540RR0001": {"name": "YOUNG FAMILY MEMORIAL SOCIETY INC.", "designationCode": "C", "categoryCode": "52", "address": "1 CAYUGA ST N                 PO BOX 508", "city": "CAYUGA", "province": "ON", "country": "CA", "postalCode": "N0A1E0", "twitter": "None", "instagram": "None", "facebook": "None", "youtube": "None", "website": "None", "summary": "None", "logo": "None", "latitude": 42.94972275076461, "longitude": -79.8586681988861}, "843623679RR0001": {"name": "YOUNG FOUNDATION", "designationCode": "B", "categoryCode": "03", "address": "1250-1500 WEST GEORGIA STREET BOX 62", "city": "VANCOUVER", "province": "BC", "country": "CA", "postalCode": "V6G2Z6", "twitter": "None", "instagram": "None", "facebook": "None", "youtube": "None", "website": "None", "summary": "None", "logo": "None", "latitude": 49.290187500000016, "longitude": -123.130035}, "119235331RR0001": {"name": "YOUNG GOLDEN AGE CLUB INC.", "designationCode": "C", "categoryCode": "56", "address": "BOX 314", "city": "YOUNG", "province": "SK", "country": "CA", "postalCode": "S0K4Y0", "twitter": "None", "instagram": "None", "facebook": "None", "youtube": "None", "website": "None", "summary": "None", "logo": "None", "latitude": 51.645185999999995, "longitude": -105.01297424999998}, "108227398RR0001": {"name": "YOUNG ISRAEL OF CHOMEDEY", "designationCode": "C", "categoryCode": "42", "address": "4880 BOUL NOTRE-DAME", "city": "LAVAL", "province": "QC", "country": "CA", "postalCode": "H7W1V4", "twitter": "None", "instagram": "None", "facebook": "None", "youtube": "None", "website": "None", "summary": "None", "logo": "None", "latitude": 45.53431869799207, "longitude": -73.77006088464447}, "108227422RR0001": {"name": "YOUNG ISRAEL OF MONTREAL", "designationCode": "C", "categoryCode": "42", "address": "6235 HILLSDALE", "city": "MONTREAL", "province": "QC", "country": "CA", "postalCode": "H3S2M8", "twitter": "None", "instagram": "None", "facebook": "None", "youtube": "None", "website": "None", "summary": "None", "logo": "None", "latitude": 45.51120997336827, "longitude": -73.62464749636466}, "108227406RR0001": {"name": "YOUNG ISRAEL OF OTTAWA", "designationCode": "C", "categoryCode": "42", "address": "627 KIRKWOOD", "city": "OTTAWA", "province": "ON", "country": "CA", "postalCode": "K1Z5X5", "twitter": "None", "instagram": "None", "facebook": "None", "youtube": "None", "website": "None", "summary": "None", "logo": "None", "latitude": 45.38686427644405, "longitude": -75.74164124268586}, "862387552RR0001": {"name": "YOUNG ISRAEL OF RICHMOND", "designationCode": "C", "categoryCode": "39", "address": "PO BOX 96045 RPO IRONWOOD", "city": "RICHMOND", "province": "BC", "country": "CA", "postalCode": "V7A5J4", "twitter": "None", "instagram": "None", "facebook": "None", "youtube": "None", "website": "None", "summary": "None", "logo": "None", "latitude": 49.163343000000054, "longitude": -123.13664449999993}, "119306918RR0001": {"name": "YOUNG LIFE OF CANADA / JEUNE VIE DU CANADA", "designationCode": "C", "categoryCode": "47", "address": "9440-202ND ST., UNIT 120", "city": "LANGLEY", "province": "BC", "country": "CA", "postalCode": "V1M4A6", "twitter": "None", "instagram": "None", "facebook": "None", "youtube": "None", "website": "None", "summary": "None", "logo": "None", "latitude": 49.17340244630382, "longitude": -122.66432171383242}, "870738523RR0001": {"name": "YOUNG LIFE OF CANADA FOUNDATION", "designationCode": "A", "categoryCode": "43", "address": "9440-202ND STREET, UNIT 120", "city": "LANGLEY", "province": "BC", "country": "CA", "postalCode": "V1M4A6", "twitter": "None", "instagram": "None", "facebook": "None", "youtube": "None", "website": "None", "summary": "None", "logo": "None", "latitude": 49.17340244630382, "longitude": -122.66432171383242}, "890948391RR0001": {"name": "YOUNG MEN SIKH ASSOCIATION (YMSA) CHARITY ORGANIZATION", "designationCode": "C", "categoryCode": "03", "address": "1478 EDDIE SHAIN DR", "city": "OAKVILLE", "province": "ON", "country": "CA", "postalCode": "L6J7C4", "twitter": "None", "instagram": "None", "facebook": "None", "youtube": "None", "website": "None", "summary": "None", "logo": "None", "latitude": 43.49913717958327, "longitude": -79.66774797945644}, "119306942RR0001": {"name": "YOUNG MEN'S AND YOUNG WOMEN'S CHRISTIAN ASSOCIATION OF GUELPH,", "designationCode": "C", "categoryCode": "49", "address": "130 WOODLAND GLEN DR", "city": "GUELPH", "province": "ON", "country": "CA", "postalCode": "N1G4M3", "twitter": "None", "instagram": "None", "facebook": "None", "youtube": "None", "website": "None", "summary": "None", "logo": "None", "latitude": 43.506433947284776, "longitude": -80.23739878994807}, "119307106RR0001": {"name": "YOUNG MEN'S CHRISTIAN ASSOCIATION OF BRANDON", "designationCode": "C", "categoryCode": "49", "address": "231-8TH STREET", "city": "BRANDON", "province": "MB", "country": "CA", "postalCode": "R7A3X2", "twitter": "None", "instagram": "None", "facebook": "None", "youtube": "None", "website": "None", "summary": "None", "logo": "None", "latitude": 49.84644604439333, "longitude": -99.9486814340967}, "119307148RR0001": {"name": "YOUNG MEN'S CHRISTIAN ASSOCIATION OF GREATER VANCOUVER,", "designationCode": "C", "categoryCode": "49", "address": "300 - 5055 JOYCE ST", "city": "VANCOUVER", "province": "BC", "country": "CA", "postalCode": "V5R6B2", "twitter": "None", "instagram": "None", "facebook": "None", "youtube": "None", "website": "None", "summary": "None", "logo": "None", "latitude": 49.23880279545841, "longitude": -123.03138653208475}, "108225418RR0001": {"name": "YOUNG MEN'S CHRISTIAN ASSOCIATION OF KINGSTON, ONTARIO", "designationCode": "C", "categoryCode": "49", "address": "100 WRIGHT CRES", "city": "KINGSTON", "province": "ON", "country": "CA", "postalCode": "K7L4T9", "twitter": "None", "instagram": "None", "facebook": "None", "youtube": "None", "website": "None", "summary": "None", "logo": "None", "latitude": 44.23935144993916, "longitude": -76.51682497325268}, "119059210RR0001": {"name": "YOUNG MEN'S CHRISTIAN ASSOCIATION OF NORTH BAY AND DISTRICT", "designationCode": "C", "categoryCode": "49", "address": "140 DURHAM ST", "city": "SUDBURY", "province": "ON", "country": "CA", "postalCode": "P3E3M7", "twitter": "None", "instagram": "None", "facebook": "None", "youtube": "None", "website": "None", "summary": "None", "logo": "None", "latitude": 46.49054589244167, "longitude": -80.99497838465304}, "119307197RR0001": {"name": "YOUNG MEN'S CHRISTIAN ASSOCIATION OF NORTHERN BC", "designationCode": "C", "categoryCode": "49", "address": "2020 MASSEY DRIVE             PO BOX 1808", "city": "PRINCE GEORGE", "province": "BC", "country": "CA", "postalCode": "V2L4V7", "twitter": "None", "instagram": "None", "facebook": "None", "youtube": "None", "website": "None", "summary": "None", "logo": "None", "latitude": 53.904981051590056, "longitude": -122.77295868492165}, "108227505RR0001": {"name": "YOUNG MEN'S CHRISTIAN ASSOCIATION OF YARMOUTH NOVA SCOTIA", "designationCode": "C", "categoryCode": "49", "address": "P.O. BOX 86", "city": "YARMOUTH", "province": "NS", "country": "CA", "postalCode": "B5A4B1", "twitter": "None", "instagram": "None", "facebook": "None", "youtube": "None", "website": "None", "summary": "None", "logo": "None", "latitude": 43.841274000000055, "longitude": -66.11887249999994}, "119307155RR0001": {"name": "YOUNG MEN'S CHRISTIAN ASSOCIATION,", "designationCode": "C", "categoryCode": "49", "address": "2400 13TH AVE", "city": "REGINA", "province": "SK", "country": "CA", "postalCode": "S4P0V9", "twitter": "None", "instagram": "None", "facebook": "None", "youtube": "None", "website": "None", "summary": "None", "logo": "None", "latitude": 50.445562533758185, "longitude": -104.61584088634658}, "119307023RR0001": {"name": "YOUNG MENS CHRISTIAN ASSOCIATION OF MCGILL UNIVERSITY", "designationCode": "C", "categoryCode": "49", "address": "3625 RUE AYLMER", "city": "MONTREAL", "province": "QC", "country": "CA", "postalCode": "H2X2C3", "twitter": "None", "instagram": "None", "facebook": "None", "youtube": "None", "website": "None", "summary": "None", "logo": "None", "latitude": 45.508773089935886, "longitude": -73.5782190725663}, "849611926RR0001": {"name": "YOUNG NATURALISTS' CLUB OF BRITISH COLUMBIA SOCIETY", "designationCode": "C", "categoryCode": "29", "address": "1620 MT. SEYMOUR RD.", "city": "NORTH VANCOUVER", "province": "BC", "country": "CA", "postalCode": "V7G2R9", "twitter": "None", "instagram": "None", "facebook": "None", "youtube": "None", "website": "None", "summary": "None", "logo": "None", "latitude": 49.321756384787285, "longitude": -122.96915443562372}, "899037998RR0001": {"name": "YOUNG PARENTS SUPPORT NETWORK", "designationCode": "C", "categoryCode": "09", "address": "3100 TILLICUM RD", "city": "VICTORIA", "province": "BC", "country": "CA", "postalCode": "V9A6T2", "twitter": "None", "instagram": "None", "facebook": "None", "youtube": "None", "website": "None", "summary": "None", "logo": "None", "latitude": 48.451842575364935, "longitude": -123.39591189275188}, "130315807RR0001": {"name": "YOUNG PATIENTS' FAMILY SUPPORT SERVICES OF SOUTHEASTERN ONTARIO INC", "designationCode": "C", "categoryCode": "01", "address": "118 WILLIAM STREET            PO BOX 2204", "city": "KINGSTON", "province": "ON", "country": "CA", "postalCode": "K7L5J9", "twitter": "None", "instagram": "None", "facebook": "None", "youtube": "None", "website": "None", "summary": "None", "logo": "None", "latitude": 44.22948255063776, "longitude": -76.48664377990652}, "119307247RR0001": {"name": "YOUNG PEOPLE'S CONGREGATION OF SPIRITUAL AND SECULAR KNOWLEDGE (CONGREGATION ZEIRAI DATH W'DAATH OF MONTREAL)", "designationCode": "C", "categoryCode": "42", "address": "4730 VAN HORNE AVE", "city": "MONTREAL", "province": "QC", "country": "CA", "postalCode": "H3W1H7", "twitter": "None", "instagram": "None", "facebook": "None", "youtube": "None", "website": "None", "summary": "None", "logo": "None", "latitude": 45.49463065500034, "longitude": -73.63734631277066}, "119307254RR0001": {"name": "YOUNG PEOPLE'S THEATRE", "designationCode": "C", "categoryCode": "22", "address": "165 FRONT ST E", "city": "TORONTO", "province": "ON", "country": "CA", "postalCode": "M5A3Z4", "twitter": "None", "instagram": "None", "facebook": "None", "youtube": "None", "website": "None", "summary": "None", "logo": "None", "latitude": 43.650124911449105, "longitude": -79.36876369954993}, "869529263RR0001": {"name": "YOUNG PIANISTS IN RECITAL SOCIETY", "designationCode": "C", "categoryCode": "22", "address": "204-3855 HENNING DRIVE", "city": "BURNABY", "province": "BC", "country": "CA", "postalCode": "V5C6N3", "twitter": "None", "instagram": "None", "facebook": "None", "youtube": "None", "website": "None", "summary": "None", "logo": "None", "latitude": 49.264018969932266, "longitude": -123.01966787420373}, "890445042RR0001": {"name": "YOUNG READERS' CHOICE AWARDS SOCIETY OF B C", "designationCode": "C", "categoryCode": "21", "address": "#150 900 HOWE STREET", "city": "VANCOUVER", "province": "BC", "country": "CA", "postalCode": "V6Z2M4", "twitter": "None", "instagram": "None", "facebook": "None", "youtube": "None", "website": "None", "summary": "None", "logo": "None", "latitude": 49.28059170439736, "longitude": -123.12292408531957}, "857071336RR0001": {"name": "YOUNG SINGERS, ONTARIO, CANADA", "designationCode": "C", "categoryCode": "22", "address": "18 SIMONDS DR", "city": "AJAX", "province": "ON", "country": "CA", "postalCode": "L1S4X2", "twitter": "None", "instagram": "None", "facebook": "None", "youtube": "None", "website": "None", "summary": "None", "logo": "None", "latitude": 43.82133860395858, "longitude": -79.03093148069718}, "865653687RR0001": {"name": "YOUNG STRING PERFORMERS' FOUNDATION", "designationCode": "C", "categoryCode": "22", "address": "101-71 SOMERSET ST. WEST", "city": "OTTAWA", "province": "ON", "country": "CA", "postalCode": "K2P2G2", "twitter": "None", "instagram": "None", "facebook": "None", "youtube": "None", "website": "None", "summary": "None", "logo": "None", "latitude": 45.417282214316984, "longitude": -75.69176495203543}, "891398943RR0001": {"name": "YOUNG THEATRE PLAYERS (SIMCOE)", "designationCode": "C", "categoryCode": "22", "address": "87 POND STREET                P.O.BOX 52", "city": "SIMCOE", "province": "ON", "country": "CA", "postalCode": "N3Y4K8", "twitter": "None", "instagram": "None", "facebook": "None", "youtube": "None", "website": "None", "summary": "None", "logo": "None", "latitude": 42.83563355398464, "longitude": -80.30031743323342}, "108227794RR0001": {"name": "YOUNG UNITED CHURCH", "designationCode": "C", "categoryCode": "44", "address": "100-222 FURBY STREET", "city": "WINNIPEG", "province": "MB", "country": "CA", "postalCode": "R3C2A7", "twitter": "None", "instagram": "None", "facebook": "None", "youtube": "None", "website": "None", "summary": "None", "logo": "None", "latitude": 49.88546240383172, "longitude": -97.15789484808673}, "859118127RR0001": {"name": "YOUNG UNITED CHURCH OF CANADA", "designationCode": "C", "categoryCode": "44", "address": "PO BOX 347", "city": "YOUNG", "province": "SK", "country": "CA", "postalCode": "S0K4Y0", "twitter": "None", "instagram": "None", "facebook": "None", "youtube": "None", "website": "None", "summary": "None", "logo": "None", "latitude": 51.645185999999995, "longitude": -105.01297424999998}, "888746641RR0001": {"name": "YOUNG WOMEN'S BRANCH OF THE SONS OF JACOB-CHARITABLE TRUST,", "designationCode": "C", "categoryCode": "05", "address": "133 TORRESDALE AVE APT 1701", "city": "NORTH YORK", "province": "ON", "country": "CA", "postalCode": "M2R3T2", "twitter": "None", "instagram": "None", "facebook": "None", "youtube": "None", "website": "None", "summary": "None", "logo": "None", "latitude": 43.77796613356181, "longitude": -79.4515082981128}, "896331485RR0001": {"name": "YOUNG WOMEN'S CHRISTIAN ASSOCIATION OF BANFF", "designationCode": "C", "categoryCode": "49", "address": "P.O. BOX 520", "city": "BANFF", "province": "AB", "country": "CA", "postalCode": "T1L1A6", "twitter": "None", "instagram": "None", "facebook": "None", "youtube": "None", "website": "None", "summary": "None", "logo": "None", "latitude": 51.17577900000006, "longitude": -115.57274299999993}, "108227927RR0001": {"name": "YOUNG WOMEN'S CHRISTIAN ASSOCIATION OF CALGARY", "designationCode": "C", "categoryCode": "49", "address": "320-5TH AVENUE SE", "city": "CALGARY", "province": "AB", "country": "CA", "postalCode": "T2G0E5", "twitter": "None", "instagram": "None", "facebook": "None", "youtube": "None", "website": "None", "summary": "None", "logo": "None", "latitude": 51.048253507646045, "longitude": -114.05664}, "119307387RR0001": {"name": "YOUNG WOMEN'S CHRISTIAN ASSOCIATION OF CAMBRIDGE", "designationCode": "C", "categoryCode": "49", "address": "55 DICKSON ROAD", "city": "CAMBRIDGE", "province": "ON", "country": "CA", "postalCode": "N1R7A5", "twitter": "None", "instagram": "None", "facebook": "None", "youtube": "None", "website": "None", "summary": "None", "logo": "None", "latitude": 43.359804503462456, "longitude": -80.31234203427779}, "108229865RR0001": {"name": "YOUNG WOMEN'S CHRISTIAN ASSOCIATION OF GREATER TORONTO", "designationCode": "C", "categoryCode": "59", "address": "87 ELM ST", "city": "TORONTO", "province": "ON", "country": "CA", "postalCode": "M5G0A8", "twitter": "None", "instagram": "None", "facebook": "None", "youtube": "None", "website": "None", "summary": "None", "logo": "None", "latitude": 43.656868006376655, "longitude": -79.38611685706044}, "108229881RR0001": {"name": "YOUNG WOMEN'S CHRISTIAN ASSOCIATION OF HALIFAX", "designationCode": "C", "categoryCode": "49", "address": "358 HERRING COVE RD", "city": "HALIFAX", "province": "NS", "country": "CA", "postalCode": "B3R1V8", "twitter": "None", "instagram": "None", "facebook": "None", "youtube": "None", "website": "None", "summary": "None", "logo": "None", "latitude": 44.61209618705646, "longitude": -63.617714299180655}, "131814790RR0001": {"name": "YOUNG WOMEN'S CHRISTIAN ASSOCIATION OF PRINCE ALBERT", "designationCode": "C", "categoryCode": "49", "address": "1895 CENTRAL AVE.  B. WEST", "city": "PRINCE ALBERT", "province": "SK", "country": "CA", "postalCode": "S6V4W8", "twitter": "None", "instagram": "None", "facebook": "None", "youtube": "None", "website": "None", "summary": "None", "logo": "None", "latitude": 53.19611038190317, "longitude": -105.75524745175683}, "108227950RR0001": {"name": "YOUNG WOMEN'S CHRISTIAN ASSOCIATION OF REGINA", "designationCode": "C", "categoryCode": "49", "address": "1940 MCINTYRE STREET", "city": "REGINA", "province": "SK", "country": "CA", "postalCode": "S4P2R3", "twitter": "None", "instagram": "None", "facebook": "None", "youtube": "None", "website": "None", "summary": "None", "logo": "None", "latitude": 50.44800599999999, "longitude": -104.61661314963332}, "119307403RR0001": {"name": "YOUNG WOMEN'S CHRISTIAN ASSOCIATION OF ST THOMAS,", "designationCode": "C", "categoryCode": "49", "address": "16 MARY STREET WEST", "city": "ST THOMAS", "province": "ON", "country": "CA", "postalCode": "N5P2S3", "twitter": "None", "instagram": "None", "facebook": "None", "youtube": "None", "website": "None", "summary": "None", "logo": "None", "latitude": 42.77952399526315, "longitude": -81.1964688507018}}