{"842694929RR0001": {"name": "GORD MARTINEAU FOUNDATION", "designationCode": "C", "categoryCode": "19", "address": "20 CLAIREPORT CRES,           UNIT 9", "city": "ETOBICOKE", "province": "ON", "country": "CA", "postalCode": "M9W6P6", "twitter": "None", "instagram": "None", "facebook": "None", "youtube": "None", "website": "None", "summary": "None", "logo": "None", "latitude": 43.746739575624716, "longitude": -79.63211973027836}, "891636847RR0001": {"name": "GORDON HEYWOOD FOUNDATION INC", "designationCode": "B", "categoryCode": "03", "address": "1200-410 22ND STREET EAST", "city": "SASKATOON", "province": "SK", "country": "CA", "postalCode": "S7K5T6", "twitter": "None", "instagram": "None", "facebook": "None", "youtube": "None", "website": "None", "summary": "None", "logo": "None", "latitude": 52.129097687794655, "longitude": -106.66598560188571}, "118941939RR0001": {"name": "GORDON HOWARD SENIORS CENTRE, INC.", "designationCode": "C", "categoryCode": "09", "address": "384 EVELINE STREET", "city": "SELKIRK", "province": "MB", "country": "CA", "postalCode": "R1A1N3", "twitter": "None", "instagram": "None", "facebook": "None", "youtube": "None", "website": "None", "summary": "None", "logo": "None", "latitude": 50.14360149961821, "longitude": -96.86930431639469}, "849333562RR0001": {"name": "GORDON JEFFERY MUSIC FOUNDATION", "designationCode": "B", "categoryCode": "23", "address": "PO BOX 2121 STATION B", "city": "LONDON", "province": "ON", "country": "CA", "postalCode": "N6A4C5", "twitter": "None", "instagram": "None", "facebook": "None", "youtube": "None", "website": "None", "summary": "None", "logo": "None", "latitude": 42.98689500000006, "longitude": -81.24624349999993}, "118941954RR0001": {"name": "GORDON MEMORIAL UNITED CHURCH", "designationCode": "C", "categoryCode": "44", "address": "401-2ND ST SE", "city": "REDCLIFF", "province": "AB", "country": "CA", "postalCode": "T0J2P2", "twitter": "None", "instagram": "None", "facebook": "None", "youtube": "None", "website": "None", "summary": "None", "logo": "None", "latitude": 50.0716887485429, "longitude": -110.78620923007682}, "118941962RR0001": {"name": "GORDON PRESBYTERIAN CHURCH", "designationCode": "C", "categoryCode": "37", "address": "7457 EDMONDS ST", "city": "BURNABY", "province": "BC", "country": "CA", "postalCode": "V3N1B3", "twitter": "None", "instagram": "None", "facebook": "None", "youtube": "None", "website": "None", "summary": "None", "logo": "None", "latitude": 49.22110295894153, "longitude": -122.94667729075522}, "888572666RR0001": {"name": "GORDON PRESBYTERIAN CHURCH, ST ELMO", "designationCode": "C", "categoryCode": "37", "address": "17768 MACDONALD'S GROVE RD    RR1", "city": "MAXVILLE", "province": "ON", "country": "CA", "postalCode": "K0C1T0", "twitter": "None", "instagram": "None", "facebook": "None", "youtube": "None", "website": "None", "summary": "None", "logo": "None", "latitude": 45.2944055276127, "longitude": -74.90856956258298}, "891290975RR0001": {"name": "GORDON RUMFORD MINISTRIES", "designationCode": "C", "categoryCode": "47", "address": "3125 PINEMEADOW DRIVE         UNIT 32", "city": "BURLINGTON", "province": "ON", "country": "CA", "postalCode": "L7M3T7", "twitter": "None", "instagram": "None", "facebook": "None", "youtube": "None", "website": "None", "summary": "None", "logo": "None", "latitude": 43.36784425702568, "longitude": -79.82630421867985}, "892902164RR0001": {"name": "GORDON RUSSELL'S CRYSTAL KIDS YOUTH CENTRE", "designationCode": "C", "categoryCode": "56", "address": "8718-118 AVENUE", "city": "EDMONTON", "province": "AB", "country": "CA", "postalCode": "T5B0T1", "twitter": "None", "instagram": "None", "facebook": "None", "youtube": "None", "website": "None", "summary": "None", "logo": "None", "latitude": 53.57041446047075, "longitude": -113.475231}, "107441313RR0001": {"name": "GORDON UNITED CHURCH", "designationCode": "C", "categoryCode": "44", "address": "935 GOLDSTREAM AVE.", "city": "VICTORIA", "province": "BC", "country": "CA", "postalCode": "V9B2Y2", "twitter": "None", "instagram": "None", "facebook": "None", "youtube": "None", "website": "None", "summary": "None", "logo": "None", "latitude": 48.45088264051632, "longitude": -123.50698730518194}, "107440844RR0001": {"name": "GORDON-KING MEMORIAL UNITED CHURCH", "designationCode": "C", "categoryCode": "44", "address": "127 COBOURG AVE", "city": "WINNIPEG", "province": "MB", "country": "CA", "postalCode": "R2L0H4", "twitter": "None", "instagram": "None", "facebook": "None", "youtube": "None", "website": "None", "summary": "None", "logo": "None", "latitude": 49.91531492091283, "longitude": -97.11613311850085}, "118942028RR0001": {"name": "GORE BAY GOSPEL HALL", "designationCode": "C", "categoryCode": "39", "address": "91 MCDERMID DRIVE", "city": "PROVIDENCE BAY", "province": "ON", "country": "CA", "postalCode": "P0P1T0", "twitter": "None", "instagram": "None", "facebook": "None", "youtube": "None", "website": "None", "summary": "None", "logo": "None", "latitude": 45.67717805245542, "longitude": -82.26852080953842}, "872717210RR0001": {"name": "GORE BAY MANITOULIN LODGE AUXILIARY INC.", "designationCode": "C", "categoryCode": "09", "address": "3 MAIN STREET", "city": "GORE BAY", "province": "ON", "country": "CA", "postalCode": "P0P1H0", "twitter": "None", "instagram": "None", "facebook": "None", "youtube": "None", "website": "None", "summary": "None", "logo": "None", "latitude": 45.91458788074264, "longitude": -82.46445411925737}, "119288918RR0092": {"name": "GORE BAY, ONTARIO, CONGREGATION OF JEHOVAH'S WITNESSES", "designationCode": "C", "categoryCode": "61", "address": "89 EMERY ROAD R R 1", "city": "GORE BAY", "province": "ON", "country": "CA", "postalCode": "P0P1H0", "twitter": "None", "instagram": "None", "facebook": "None", "youtube": "None", "website": "None", "summary": "None", "logo": "None", "latitude": 45.892265227933784, "longitude": -82.40800984263795}, "880933627RR0001": {"name": "GORE MUTUAL INSURANCE COMPANY FOUNDATION", "designationCode": "B", "categoryCode": "03", "address": "PO BOX 70                     252 DUNDAS ST. N", "city": "CAMBRIDGE", "province": "ON", "country": "CA", "postalCode": "N1R5T3", "twitter": "None", "instagram": "None", "facebook": "None", "youtube": "None", "website": "None", "summary": "None", "logo": "None", "latitude": 43.36383777595406, "longitude": -80.30276600201921}, "889951190RR0001": {"name": "GORGE WATERWAY ACTION SOCIETY", "designationCode": "C", "categoryCode": "52", "address": "101 - 76 GORGE RD W", "city": "VICTORIA", "province": "BC", "country": "CA", "postalCode": "V9A1M1", "twitter": "None", "instagram": "None", "facebook": "None", "youtube": "None", "website": "None", "summary": "None", "logo": "None", "latitude": 48.44514401861033, "longitude": -123.39260434927016}, "118942085RR0001": {"name": "GORMLEY MISSIONARY CHURCH", "designationCode": "C", "categoryCode": "44", "address": "120 GORMLEY ROAD WEST", "city": "RICHMOND HILL", "province": "ON", "country": "CA", "postalCode": "L4E1A2", "twitter": "None", "instagram": "None", "facebook": "None", "youtube": "None", "website": "None", "summary": "None", "logo": "None", "latitude": 43.93691212908977, "longitude": -79.40074885971482}, "107441644RR0001": {"name": "GORRIE - WROXETER PASTORAL CHARGE", "designationCode": "C", "categoryCode": "44", "address": "PO BOX 77", "city": "GORRIE", "province": "ON", "country": "CA", "postalCode": "N0G1X0", "twitter": "None", "instagram": "None", "facebook": "None", "youtube": "None", "website": "None", "summary": "None", "logo": "None", "latitude": 43.8847341644906, "longitude": -81.11296531624073}, "107441628RR0001": {"name": "GORRIE BIBLE FELLOWSHIP", "designationCode": "C", "categoryCode": "39", "address": "44557 ORANGE HILL RD          RR 1", "city": "GORRIE", "province": "ON", "country": "CA", "postalCode": "N0G1X0", "twitter": "None", "instagram": "None", "facebook": "None", "youtube": "None", "website": "None", "summary": "None", "logo": "None", "latitude": 43.89781059334099, "longitude": -81.08630793184844}, "888236262RR0001": {"name": "GOSHEN BAPTIST CHURCH", "designationCode": "C", "categoryCode": "31", "address": "7 CENTENNIAL AVE", "city": "TILLSONBURG", "province": "ON", "country": "CA", "postalCode": "N4G4R5", "twitter": "None", "instagram": "None", "facebook": "None", "youtube": "None", "website": "None", "summary": "None", "logo": "None", "latitude": 42.87650987870052, "longitude": -80.73480661864508}, "888004264RR0001": {"name": "GOSHEN CEMETERY ASSOCIATION", "designationCode": "C", "categoryCode": "59", "address": "148 COPPER LAKE ROAD", "city": "GOSHEN", "province": "NS", "country": "CA", "postalCode": "B0H1M0", "twitter": "None", "instagram": "None", "facebook": "None", "youtube": "None", "website": "None", "summary": "None", "logo": "None", "latitude": 45.38357121899696, "longitude": -61.975349874344026}, "870948866RR0001": {"name": "GOSHEN COMMUNITY AND RECREATION CENTRE", "designationCode": "C", "categoryCode": "55", "address": "20310 EIGHT ISLAND LAKE       RR#1", "city": "GOSHEN", "province": "NS", "country": "CA", "postalCode": "B0H1M0", "twitter": "None", "instagram": "None", "facebook": "None", "youtube": "None", "website": "None", "summary": "None", "logo": "None", "latitude": 45.380472000000054, "longitude": -61.97436799999993}, "118942127RR0001": {"name": "GOSHEN GOSPEL CHURCH", "designationCode": "C", "categoryCode": "47", "address": "#20672 HWY 316, P.O. BOX 70", "city": "GOSHEN", "province": "NS", "country": "CA", "postalCode": "B0H1M0", "twitter": "None", "instagram": "None", "facebook": "None", "youtube": "None", "website": "None", "summary": "None", "logo": "None", "latitude": 45.36999629731308, "longitude": -61.973553021350334}, "118942143RR0001": {"name": "GOSNELL UNITED CHURCH CEMETERY", "designationCode": "C", "categoryCode": "59", "address": "RR#2", "city": "HIGHGATE", "province": "ON", "country": "CA", "postalCode": "N0P1T0", "twitter": "None", "instagram": "None", "facebook": "None", "youtube": "None", "website": "None", "summary": "None", "logo": "None", "latitude": 42.49947000000003, "longitude": -81.81440999999995}, "118942168RR0001": {"name": "GOSPEL ASSEMBLY CHURCH ASSOCIATION", "designationCode": "C", "categoryCode": "39", "address": "1034 HAIG BLVD", "city": "MISSISSAUGA", "province": "ON", "country": "CA", "postalCode": "L5E2M5", "twitter": "None", "instagram": "None", "facebook": "None", "youtube": "None", "website": "None", "summary": "None", "logo": "None", "latitude": 43.58061451705247, "longitude": -79.55673139497358}, "132349796RR0001": {"name": "GOSPEL BAPTIST CHURCH (PORTUGUESE)", "designationCode": "C", "categoryCode": "31", "address": "215 SOUTH STREET", "city": "CAMBRIDGE", "province": "ON", "country": "CA", "postalCode": "N1R2P3", "twitter": "None", "instagram": "None", "facebook": "None", "youtube": "None", "website": "None", "summary": "None", "logo": "None", "latitude": 43.35326876545113, "longitude": -80.29627485039533}, "872353008RR0001": {"name": "GOSPEL BRASS MINISTRIES", "designationCode": "C", "categoryCode": "47", "address": "306-328 ESPLANADE AVE BOX 422", "city": "HARRISON HOT SPRINGS", "province": "BC", "country": "CA", "postalCode": "V0M1K0", "twitter": "None", "instagram": "None", "facebook": "None", "youtube": "None", "website": "None", "summary": "None", "logo": "None", "latitude": 49.30308548124545, "longitude": -121.78208233236194}, "118942184RR0001": {"name": "GOSPEL CENTRE PENTECOSTAL CHURCH (EDMONTON)", "designationCode": "C", "categoryCode": "36", "address": "9445-153 ST", "city": "EDMONTON", "province": "AB", "country": "CA", "postalCode": "T5R1R2", "twitter": "None", "instagram": "None", "facebook": "None", "youtube": "None", "website": "None", "summary": "None", "logo": "None", "latitude": 53.53126074271452, "longitude": -113.58498535841676}, "107441735RR0001": {"name": "GOSPEL CENTRE SUNDRE PENTECOSTAL HOLINESS CHURCH", "designationCode": "C", "categoryCode": "39", "address": "BOX 166", "city": "SUNDRE", "province": "AB", "country": "CA", "postalCode": "T0M1X0", "twitter": "None", "instagram": "None", "facebook": "None", "youtube": "None", "website": "None", "summary": "None", "logo": "None", "latitude": 51.797180000000026, "longitude": -114.64119999999997}, "118942192RR0001": {"name": "GOSPEL CHAPEL", "designationCode": "C", "categoryCode": "39", "address": "P.O. BOX 1292", "city": "LAKEFIELD", "province": "ON", "country": "CA", "postalCode": "K0L2H0", "twitter": "None", "instagram": "None", "facebook": "None", "youtube": "None", "website": "None", "summary": "None", "logo": "None", "latitude": 44.42679000000004, "longitude": -78.26996999999994}, "118942200RR0001": {"name": "GOSPEL CHAPEL", "designationCode": "C", "categoryCode": "39", "address": "BOX 1266", "city": "COCHRANE", "province": "ON", "country": "CA", "postalCode": "P0L1C0", "twitter": "None", "instagram": "None", "facebook": "None", "youtube": "None", "website": "None", "summary": "None", "logo": "None", "latitude": 49.07076000000005, "longitude": -81.00274849999994}, "864429923RR0001": {"name": "GOSPEL CHAPEL", "designationCode": "C", "categoryCode": "34", "address": "PO BOX 2528", "city": "GRAND FORKS", "province": "BC", "country": "CA", "postalCode": "V0H1H0", "twitter": "None", "instagram": "None", "facebook": "None", "youtube": "None", "website": "None", "summary": "None", "logo": "None", "latitude": 49.03245000000004, "longitude": -118.44297999999998}, "118942242RR0001": {"name": "GOSPEL CHAPEL OF YOUNGSTOWN", "designationCode": "C", "categoryCode": "39", "address": "BOX 66", "city": "YOUNGSTOWN", "province": "AB", "country": "CA", "postalCode": "T0J3P0", "twitter": "None", "instagram": "None", "facebook": "None", "youtube": "None", "website": "None", "summary": "None", "logo": "None", "latitude": 51.52899000000008, "longitude": -111.20751999999999}, "887388551RR0001": {"name": "GOSPEL CHURCH IN CHRIST", "designationCode": "C", "categoryCode": "39", "address": "520 MCDONALD ST", "city": "NEW WESTMINSTER", "province": "BC", "country": "CA", "postalCode": "V3L4L6", "twitter": "None", "instagram": "None", "facebook": "None", "youtube": "None", "website": "None", "summary": "None", "logo": "None", "latitude": 49.232436873160594, "longitude": -122.89487066593595}, "873061964RR0001": {"name": "GOSPEL COMMUNICATION CENTRE OF CANADA INC.", "designationCode": "C", "categoryCode": "49", "address": "25 MILLIKEN BLVD UNIT A3", "city": "SCARBOROUGH", "province": "ON", "country": "CA", "postalCode": "M1V5H8", "twitter": "None", "instagram": "None", "facebook": "None", "youtube": "None", "website": "None", "summary": "None", "logo": "None", "latitude": 43.804240040250406, "longitude": -79.29536910433393}, "118942275RR0001": {"name": "GOSPEL ECHOES TEAM ASSOCIATION OF CANADA", "designationCode": "C", "categoryCode": "47", "address": "4082 PERTH LINE 72            PO BOX 130", "city": "MILLBANK", "province": "ON", "country": "CA", "postalCode": "N0K1L0", "twitter": "None", "instagram": "None", "facebook": "None", "youtube": "None", "website": "None", "summary": "None", "logo": "None", "latitude": 43.572563076824, "longitude": -80.83642210469247}, "132215617RR0001": {"name": "GOSPEL ECHOES TEAM ASSOCIATION, CANADA WEST", "designationCode": "C", "categoryCode": "47", "address": "PO BOX 580", "city": "WARMAN", "province": "SK", "country": "CA", "postalCode": "S0K4S0", "twitter": "None", "instagram": "None", "facebook": "None", "youtube": "None", "website": "None", "summary": "None", "logo": "None", "latitude": 52.31985000000006, "longitude": -106.58322349999993}, "886363969RR0001": {"name": "GOSPEL ECHOING MISSIONARY SOCIETY OF CANADA", "designationCode": "C", "categoryCode": "47", "address": "82 CROOKED STICK ROAD", "city": "CONCORD", "province": "ON", "country": "CA", "postalCode": "L4K1P5", "twitter": "None", "instagram": "None", "facebook": "None", "youtube": "None", "website": "None", "summary": "None", "logo": "None", "latitude": 43.79739246681874, "longitude": -79.47888333527612}, "832621148RR0001": {"name": "GOSPEL EXPRESS MINISTRIES OF CANADA", "designationCode": "C", "categoryCode": "47", "address": "BOX 160", "city": "MILLBANK", "province": "ON", "country": "CA", "postalCode": "N0K1L0", "twitter": "None", "instagram": "None", "facebook": "None", "youtube": "None", "website": "None", "summary": "None", "logo": "None", "latitude": 43.569299214715144, "longitude": -80.83519094636895}, "118942283RR0001": {"name": "GOSPEL FELLOWSHIP ASSOCIATION OF CANADA, INC.", "designationCode": "C", "categoryCode": "47", "address": "204-1120 GRANT AVE", "city": "WINNIPEG", "province": "MB", "country": "CA", "postalCode": "R3M2A6", "twitter": "None", "instagram": "None", "facebook": "None", "youtube": "None", "website": "None", "summary": "None", "logo": "None", "latitude": 49.859322551677, "longitude": -97.16445844802621}, "895543221RR0001": {"name": "GOSPEL FELLOWSHIP BAPTIST CHURCH", "designationCode": "C", "categoryCode": "31", "address": "3758 NANAIMO CRESCENT", "city": "ABBOTSFORD", "province": "BC", "country": "CA", "postalCode": "V2T4Z7", "twitter": "None", "instagram": "None", "facebook": "None", "youtube": "None", "website": "None", "summary": "None", "logo": "None", "latitude": 49.07048031838854, "longitude": -122.31665158482043}, "893517284RR0001": {"name": "GOSPEL FELLOWSHIP CHAPEL", "designationCode": "C", "categoryCode": "39", "address": "109 CHESTNUT ST.", "city": "ST THOMAS", "province": "ON", "country": "CA", "postalCode": "N5R2B1", "twitter": "None", "instagram": "None", "facebook": "None", "youtube": "None", "website": "None", "summary": "None", "logo": "None", "latitude": 42.770624498992035, "longitude": -81.18215309249037}, "118942309RR0001": {"name": "GOSPEL FELLOWSHIP CHURCH", "designationCode": "C", "categoryCode": "39", "address": "BOX 457", "city": "IRON BRIDGE", "province": "ON", "country": "CA", "postalCode": "P0R1H0", "twitter": "None", "instagram": "None", "facebook": "None", "youtube": "None", "website": "None", "summary": "None", "logo": "None", "latitude": 46.27863000000008, "longitude": -83.22073999999998}, "118942317RR0001": {"name": "GOSPEL FELLOWSHIP CHURCH", "designationCode": "C", "categoryCode": "34", "address": "860 MAIN ST", "city": "STEINBACH", "province": "MB", "country": "CA", "postalCode": "R5G2H4", "twitter": "None", "instagram": "None", "facebook": "None", "youtube": "None", "website": "None", "summary": "None", "logo": "None", "latitude": 49.51728201602492, "longitude": -96.66294037998614}, "876397910RR0001": {"name": "GOSPEL FOLIO PRESS", "designationCode": "C", "categoryCode": "47", "address": "304 KILLALY ST WEST", "city": "PORT COLBORNE", "province": "ON", "country": "CA", "postalCode": "L3K6A6", "twitter": "None", "instagram": "None", "facebook": "None", "youtube": "None", "website": "None", "summary": "None", "logo": "None", "latitude": 42.891541886323346, "longitude": -79.26365543959652}, "835302167RR0001": {"name": "GOSPEL FOR SAMARIA", "designationCode": "C", "categoryCode": "47", "address": "BOX 12655", "city": "LLOYDMINSTER", "province": "AB", "country": "CA", "postalCode": "T9V0Y4", "twitter": "None", "instagram": "None", "facebook": "None", "youtube": "None", "website": "None", "summary": "None", "logo": "None", "latitude": 53.27803500000006, "longitude": -110.00671099999994}, "118942374RR0001": {"name": "GOSPEL HALL", "designationCode": "C", "categoryCode": "39", "address": "218 BLEAMS RD", "city": "KITCHENER", "province": "ON", "country": "CA", "postalCode": "N2C2K6", "twitter": "None", "instagram": "None", "facebook": "None", "youtube": "None", "website": "None", "summary": "None", "logo": "None", "latitude": 43.41120000141364, "longitude": -80.45696792091283}, "118942382RR0001": {"name": "GOSPEL HALL", "designationCode": "C", "categoryCode": "39", "address": "230 GLEN AVE", "city": "SAULT STE AVE", "province": "ON", "country": "CA", "postalCode": "P6A5E2", "twitter": "None", "instagram": "None", "facebook": "None", "youtube": "None", "website": "None", "summary": "None", "logo": "None", "latitude": 46.50997306243874, "longitude": -84.26734851330154}, "122938533RR0001": {"name": "GOSPEL HALL (KINGSTON) INCORPORATED", "designationCode": "C", "categoryCode": "39", "address": "2392 COLE HILLROAD", "city": "GLENBURNIE", "province": "ON", "country": "CA", "postalCode": "K0H1S0", "twitter": "None", "instagram": "None", "facebook": "None", "youtube": "None", "website": "None", "summary": "None", "logo": "None", "latitude": 44.30218200000006, "longitude": -76.45644799999994}, "132702689RR0001": {"name": "GOSPEL HALL ASSEMBLY", "designationCode": "C", "categoryCode": "39", "address": "101 PINE ST", "city": "THUNDER BAY", "province": "ON", "country": "CA", "postalCode": "P7A5X4", "twitter": "None", "instagram": "None", "facebook": "None", "youtube": "None", "website": "None", "summary": "None", "logo": "None"}, "118942416RR0001": {"name": "GOSPEL HERALD FOUNDATION", "designationCode": "C", "categoryCode": "49", "address": "5 LANKIN BLVD", "city": "TORONTO", "province": "ON", "country": "CA", "postalCode": "M4J4W7", "twitter": "None", "instagram": "None", "facebook": "None", "youtube": "None", "website": "None", "summary": "None", "logo": "None", "latitude": 43.692353538721214, "longitude": -79.32835892365414}, "862421740RR0001": {"name": "GOSPEL LIGHT APOSTOLIC CHURCH OF CANADA", "designationCode": "C", "categoryCode": "39", "address": "117 COGHILL DR", "city": "CONCORD", "province": "ON", "country": "CA", "postalCode": "L4K1M6", "twitter": "None", "instagram": "None", "facebook": "None", "youtube": "None", "website": "None", "summary": "None", "logo": "None", "latitude": 43.79040536222501, "longitude": -79.4804859476888}, "888367430RR0001": {"name": "GOSPEL LIGHT BAPTIST CHURCH", "designationCode": "C", "categoryCode": "31", "address": "1266 OLD SAMBRO ROAD", "city": "HARRIETSFIELD", "province": "NS", "country": "CA", "postalCode": "B3V1A1", "twitter": "None", "instagram": "None", "facebook": "None", "youtube": "None", "website": "None", "summary": "None", "logo": "None", "latitude": 44.564656306682494, "longitude": -63.63720860822908}, "882731607RR0001": {"name": "GOSPEL LIGHT BAPTIST CHURCH OF RICHMOND HILL, ONTARIO", "designationCode": "C", "categoryCode": "31", "address": "10 AMARYLLIS AVE", "city": "RICHMOND HILL", "province": "ON", "country": "CA", "postalCode": "L4E3T6", "twitter": "None", "instagram": "None", "facebook": "None", "youtube": "None", "website": "None", "summary": "None", "logo": "None", "latitude": 43.95288204858896, "longitude": -79.48167765113386}, "893178970RR0001": {"name": "GOSPEL LIGHT BIBLE CAMP", "designationCode": "C", "categoryCode": "56", "address": "PO BOX 1027", "city": "BOISSEVAIN", "province": "MB", "country": "CA", "postalCode": "R0K0E0", "twitter": "None", "instagram": "None", "facebook": "None", "youtube": "None", "website": "None", "summary": "None", "logo": "None", "latitude": 49.23156000000006, "longitude": -100.05945999999994}, "118942457RR0001": {"name": "GOSPEL LIGHT CHAPEL", "designationCode": "C", "categoryCode": "36", "address": "BOX 350", "city": "NEW DENVER", "province": "BC", "country": "CA", "postalCode": "V0G1S0", "twitter": "None", "instagram": "None", "facebook": "None", "youtube": "None", "website": "None", "summary": "None", "logo": "None", "latitude": 49.99242000000004, "longitude": -117.37212999999997}, "118942465RR0001": {"name": "GOSPEL LIGHT CHURCH OF THE CHRISTIAN AND MISSIONARY ALLIANCE", "designationCode": "C", "categoryCode": "34", "address": "BOX 460", "city": "DEBOLT", "province": "AB", "country": "CA", "postalCode": "T0H1B0", "twitter": "None", "instagram": "None", "facebook": "None", "youtube": "None", "website": "None", "summary": "None", "logo": "None", "latitude": 55.21796000000006, "longitude": -118.02602999999999}, "107833394RR0031": {"name": "GOSPEL LIGHT PENTECOSTAL TABERNACLE", "designationCode": "C", "categoryCode": "36", "address": "", "city": "COBB'S ARM", "province": "NL", "country": "CA", "postalCode": "A0G2R0", "twitter": "None", "instagram": "None", "facebook": "None", "youtube": "None", "website": "None", "summary": "None", "logo": "None", "latitude": 49.18741800000005, "longitude": -54.38943799999993}, "118942507RR0001": {"name": "GOSPEL LIGHTHOUSE", "designationCode": "B", "categoryCode": "39", "address": "58 WEST RD", "city": "KINDERSLEY", "province": "SK", "country": "CA", "postalCode": "S0L1S1", "twitter": "None", "instagram": "None", "facebook": "None", "youtube": "None", "website": "None", "summary": "None", "logo": "None", "latitude": 51.46425600304185, "longitude": -109.13721307392791}, "872711965RR0001": {"name": "GOSPEL LIGHTHOUSE INC.", "designationCode": "C", "categoryCode": "39", "address": "BOX 342", "city": "LUNDAR", "province": "MB", "country": "CA", "postalCode": "R0C1Y0", "twitter": "None", "instagram": "None", "facebook": "None", "youtube": "None", "website": "None", "summary": "None", "logo": "None", "latitude": 50.697610000000054, "longitude": -98.03051999999997}, "107441891RR0001": {"name": "GOSPEL MENNONITE CHURCH", "designationCode": "C", "categoryCode": "34", "address": "232 NASSAU ST N", "city": "WINNIPEG", "province": "MB", "country": "CA", "postalCode": "R3L2H8", "twitter": "None", "instagram": "None", "facebook": "None", "youtube": "None", "website": "None", "summary": "None", "logo": "None", "latitude": 49.87377519568346, "longitude": -97.14613337422846}, "118942572RR0001": {"name": "GOSPEL MISSION", "designationCode": "C", "categoryCode": "39", "address": "PO BOX 98802, THE W P.O.", "city": "VANCOUVER", "province": "BC", "country": "CA", "postalCode": "V6B0M4", "twitter": "None", "instagram": "None", "facebook": "None", "youtube": "None", "website": "None", "summary": "None", "logo": "None", "latitude": 49.28024400000005, "longitude": -123.11294749999993}, "859528317RR0001": {"name": "GOSPEL MISSION CHURCH OF WINKLER INC.", "designationCode": "C", "categoryCode": "39", "address": "855 15TH ST", "city": "WINKLER", "province": "MB", "country": "CA", "postalCode": "R6W0H5", "twitter": "None", "instagram": "None", "facebook": "None", "youtube": "None", "website": "None", "summary": "None", "logo": "None"}, "118942580RR0001": {"name": "GOSPEL MISSION OF FALUN", "designationCode": "C", "categoryCode": "39", "address": "RR1", "city": "FALUN", "province": "AB", "country": "CA", "postalCode": "T0C1H0", "twitter": "None", "instagram": "None", "facebook": "None", "youtube": "None", "website": "None", "summary": "None", "logo": "None", "latitude": 52.95981000000006, "longitude": -113.83280999999994}, "107441917RR0001": {"name": "GOSPEL MISSION OF SOUTH AMERICA OF ONTARIO", "designationCode": "C", "categoryCode": "47", "address": "P.O. BOX 150", "city": "ST. CHARLES", "province": "ON", "country": "CA", "postalCode": "P0M2W0", "twitter": "None", "instagram": "None", "facebook": "None", "youtube": "None", "website": "None", "summary": "None", "logo": "None", "latitude": 45.97477331758616, "longitude": -81.5092556288211}, "118942556RR0001": {"name": "GOSPEL MISSIONARY ENTERPRISES INC.", "designationCode": "C", "categoryCode": "47", "address": "48-8TH STREET N.W.", "city": "PORTAGE LA PRAIRIE", "province": "MB", "country": "CA", "postalCode": "R1N2M3", "twitter": "None", "instagram": "None", "facebook": "None", "youtube": "None", "website": "None", "summary": "None", "logo": "None", "latitude": 49.97356173546123, "longitude": -98.27878761645621}, "866552714RR0001": {"name": "GOSPEL OF LOVE CHURCH", "designationCode": "C", "categoryCode": "39", "address": "1183 DAVENPORT RD", "city": "TORONTO", "province": "ON", "country": "CA", "postalCode": "M6H2G7", "twitter": "None", "instagram": "None", "facebook": "None", "youtube": "None", "website": "None", "summary": "None", "logo": "None", "latitude": 43.67437764888353, "longitude": -79.43365982347514}, "832615876RR0001": {"name": "GOSPEL OPERATION INTERNATIONAL FOR CHINESE CHRISTIANS CANADA INC.", "designationCode": "C", "categoryCode": "47", "address": "63 SILVER STAR BLVD           UNIT C17", "city": "TORONTO", "province": "ON", "country": "CA", "postalCode": "M1V5E5", "twitter": "None", "instagram": "None", "facebook": "None", "youtube": "None", "website": "None", "summary": "None", "logo": "None", "latitude": 43.806541220122156, "longitude": -79.29099602873787}, "892808965RR0001": {"name": "GOSPEL OUTREACH BAPTIST CHURCH", "designationCode": "C", "categoryCode": "47", "address": "PO BOX 93102, 1450 HEADON ROAD", "city": "BURLINGTON", "province": "ON", "country": "CA", "postalCode": "L7M4A3", "twitter": "None", "instagram": "None", "facebook": "None", "youtube": "None", "website": "None", "summary": "None", "logo": "None", "latitude": 43.373694794593035, "longitude": -79.8093847315191}, "894374198RR0001": {"name": "GOSPEL OUTREACH CANADA", "designationCode": "C", "categoryCode": "47", "address": "P.O. BOX 27061", "city": "KELOWNA", "province": "BC", "country": "CA", "postalCode": "V1X7L7", "twitter": "None", "instagram": "None", "facebook": "None", "youtube": "None", "website": "None", "summary": "None", "logo": "None", "latitude": 50.00633700000006, "longitude": -119.21151049999993}, "118942606RR0001": {"name": "GOSPEL OUTREACH OF THUNDER BAY", "designationCode": "C", "categoryCode": "39", "address": "PO BOX 10106", "city": "THUNDER BAY", "province": "ON", "country": "CA", "postalCode": "P7B6T6", "twitter": "None", "instagram": "None", "facebook": "None", "youtube": "None", "website": "None", "summary": "None", "logo": "None", "latitude": 48.38168400000005, "longitude": -89.24550199999993}, "118942614RR0001": {"name": "GOSPEL PERPETUATING FOUNDATION", "designationCode": "C", "categoryCode": "49", "address": "380 - 2025 42ND AVE W", "city": "VANCOUVER", "province": "BC", "country": "CA", "postalCode": "V6M2B5", "twitter": "None", "instagram": "None", "facebook": "None", "youtube": "None", "website": "None", "summary": "None", "logo": "None", "latitude": 49.23357351154118, "longitude": -123.15270133236194}, "891507147RR0001": {"name": "GOSPEL RIDERS MOTORCYCLE MINISTRIES", "designationCode": "C", "categoryCode": "47", "address": "2327 COMO LAKE AVE.", "city": "COQUITLAM", "province": "BC", "country": "CA", "postalCode": "V3J3R7", "twitter": "None", "instagram": "None", "facebook": "None", "youtube": "None", "website": "None", "summary": "None", "logo": "None", "latitude": 49.2632514676841, "longitude": -122.82788199708581}, "102156916RR0001": {"name": "GOSPEL TEXT PUBLISHERS", "designationCode": "C", "categoryCode": "47", "address": "64 LINWOOD STREET", "city": "LONDON", "province": "ON", "country": "CA", "postalCode": "N5Y1W2", "twitter": "None", "instagram": "None", "facebook": "None", "youtube": "None", "website": "None", "summary": "None", "logo": "None", "latitude": 43.00612937552653, "longitude": -81.22487280763477}, "107441958RR0001": {"name": "GOSPEL TRACT AND BIBLE SOCIETY", "designationCode": "C", "categoryCode": "47", "address": "PO BOX 2051", "city": "PINCHER CREEK", "province": "AB", "country": "CA", "postalCode": "T0K1W0", "twitter": "None", "instagram": "None", "facebook": "None", "youtube": "None", "website": "None", "summary": "None", "logo": "None", "latitude": 49.48739000000006, "longitude": -113.9366800732874}, "128514783RR0001": {"name": "GOSPEL TROUBADOURS PRISON FELLOWSHIP", "designationCode": "C", "categoryCode": "49", "address": "BOX 314", "city": "LINDEN", "province": "AB", "country": "CA", "postalCode": "T0M1J0", "twitter": "None", "instagram": "None", "facebook": "None", "youtube": "None", "website": "None", "summary": "None", "logo": "None", "latitude": 51.59595000000007, "longitude": -113.49754999999999}, "119272615RR0001": {"name": "GOSPEL TRUST CANADA", "designationCode": "C", "categoryCode": "47", "address": "3 HILL TOP TRAIL", "city": "STOUFFVILLE", "province": "ON", "country": "CA", "postalCode": "L4A3G7", "twitter": "None", "instagram": "None", "facebook": "None", "youtube": "None", "website": "None", "summary": "None", "logo": "None", "latitude": 44.00203228258957, "longitude": -79.24017871741044}, "118942739RR0001": {"name": "GOULAIS FIRE AND RESCUE VOLUNTEERS", "designationCode": "C", "categoryCode": "59", "address": "240 OLD HIGHWAY 17", "city": "GOULAIS RIVER", "province": "ON", "country": "CA", "postalCode": "P0S1E0", "twitter": "None", "instagram": "None", "facebook": "None", "youtube": "None", "website": "None", "summary": "None", "logo": "None", "latitude": 46.77737925420314, "longitude": -84.35695922618278}, "118942747RR0001": {"name": "GOULAIS RIVER UNITED CHURCH", "designationCode": "C", "categoryCode": "44", "address": "RR#2 GOULAIS BAY ROAD", "city": "GOULAIS RIVER", "province": "ON", "country": "CA", "postalCode": "P0S1E0", "twitter": "None", "instagram": "None", "facebook": "None", "youtube": "None", "website": "None", "summary": "None", "logo": "None", "latitude": 46.62232411555641, "longitude": -84.35232026397192}, "123728024RR0001": {"name": "GOULBOURN TOWNSHIP HISTORICAL SOCIETY", "designationCode": "C", "categoryCode": "50", "address": "2060 HUNTLEY RD               PO BOX 621", "city": "STITTSVILLE", "province": "ON", "country": "CA", "postalCode": "K2S1A7", "twitter": "None", "instagram": "None", "facebook": "None", "youtube": "None", "website": "None", "summary": "None", "logo": "None", "latitude": 45.234553495412364, "longitude": -75.90559914253552}, "898756655RR0001": {"name": "GOULDS ARENA ASSOCIATION INC.", "designationCode": "C", "categoryCode": "56", "address": "P. O. BOX 370", "city": "GOULDS", "province": "NL", "country": "CA", "postalCode": "A1S1G2", "twitter": "None", "instagram": "None", "facebook": "None", "youtube": "None", "website": "None", "summary": "None", "logo": "None", "latitude": 47.45377500000005, "longitude": -52.77189049999993}, "842230963RR0001": {"name": "GOURMET EVENTS (OTTAWA) INC.", "designationCode": "A", "categoryCode": "03", "address": "94 GLENVIEW AVENUE", "city": "OTTAWA", "province": "ON", "country": "CA", "postalCode": "K1S1M3", "twitter": "None", "instagram": "None", "facebook": "None", "youtube": "None", "website": "None", "summary": "None", "logo": "None", "latitude": 45.39994566749384, "longitude": -75.6749559735994}, "892774985RR0001": {"name": "GOVAN & DISTRICT SENIORS ASSOCIATION BRANCH #110 INC", "designationCode": "C", "categoryCode": "09", "address": "BOX 154", "city": "GOVAN", "province": "SK", "country": "CA", "postalCode": "S0G1Z0", "twitter": "None", "instagram": "None", "facebook": "None", "youtube": "None", "website": "None", "summary": "None", "logo": "None", "latitude": 51.30007000000006, "longitude": -105.00114999999994}, "892991167RR0001": {"name": "GOVAN AND DISTRICT DONORS CHOICE", "designationCode": "A", "categoryCode": "05", "address": "BOX 207", "city": "GOVAN", "province": "SK", "country": "CA", "postalCode": "S0G1Z0", "twitter": "None", "instagram": "None", "facebook": "None", "youtube": "None", "website": "None", "summary": "None", "logo": "None", "latitude": 51.30007000000006, "longitude": -105.00114999999994}, "118942804RR0001": {"name": "GOVAN UNITED CHURCH", "designationCode": "C", "categoryCode": "44", "address": "P.O. BOX 128", "city": "GOVAN", "province": "SK", "country": "CA", "postalCode": "S0G1Z0", "twitter": "None", "instagram": "None", "facebook": "None", "youtube": "None", "website": "None", "summary": "None", "logo": "None", "latitude": 51.30007000000006, "longitude": -105.00114999999994}, "131317646RR0001": {"name": "GOVERNMENT HOUSE HISTORICAL SOCIETY INC", "designationCode": "C", "categoryCode": "50", "address": "4607 DEWDNEY AVENUE", "city": "REGINA", "province": "SK", "country": "CA", "postalCode": "S4P3V7", "twitter": "None", "instagram": "None", "facebook": "None", "youtube": "None", "website": "None", "summary": "None", "logo": "None", "latitude": 50.45514950173169, "longitude": -104.64787155107045}, "118942820RR0001": {"name": "GOVERNMENT OF PRINCE EDWARD ISLAND EMPLOYEES CHARITY TRUST", "designationCode": "B", "categoryCode": "75", "address": "BOX 2000                      MARIA GREEN PAYROLL OFFICE", "city": "CHARLOTTETOWN", "province": "PE", "country": "CA", "postalCode": "C1A7N8", "twitter": "None", "instagram": "None", "facebook": "None", "youtube": "None", "website": "None", "summary": "None", "logo": "None", "latitude": 46.23670842884346, "longitude": -63.13778685450371}, "108083270RR0001": {"name": "GOVERNORS OF ST. FRANCIS XAVIER UNIVERSITY", "designationCode": "C", "categoryCode": "20", "address": "PO BOX 5000", "city": "ANTIGONISH", "province": "NS", "country": "CA", "postalCode": "B2G2W5", "twitter": "None", "instagram": "None", "facebook": "None", "youtube": "None", "website": "None", "summary": "None", "logo": "None", "latitude": 45.62219400000005, "longitude": -61.99427149999994}, "141000554RR0001": {"name": "GOW-GANDA AND AREA MUSEUM", "designationCode": "C", "categoryCode": "50", "address": "71 WOODLAND GLEN DR", "city": "GUELPH", "province": "ON", "country": "CA", "postalCode": "N1G3S3", "twitter": "None", "instagram": "None", "facebook": "None", "youtube": "None", "website": "None", "summary": "None", "logo": "None", "latitude": 43.50716702743981, "longitude": -80.24065323270253}, "129777652RR0001": {"name": "GOWARD HOUSE SOCIETY", "designationCode": "C", "categoryCode": "56", "address": "2495 ARBUTUS ROAD", "city": "VICTORIA", "province": "BC", "country": "CA", "postalCode": "V8N1V9", "twitter": "None", "instagram": "None", "facebook": "None", "youtube": "None", "website": "None", "summary": "None", "logo": "None", "latitude": 48.466775914607766, "longitude": -123.29624094444934}, "868385261RR0001": {"name": "GOWER STREET PASTORAL CHARGE", "designationCode": "C", "categoryCode": "44", "address": "99 QUEEN'S ROAD", "city": "ST JOHN'S", "province": "NL", "country": "CA", "postalCode": "A1C6M6", "twitter": "None", "instagram": "None", "facebook": "None", "youtube": "None", "website": "None", "summary": "None", "logo": "None", "latitude": 47.56525162308848, "longitude": -52.709606703416405}, "888500865RR0001": {"name": "GOWGANDA FIRE PROTECTION TEAM", "designationCode": "C", "categoryCode": "59", "address": "72 FIRST AVE.                 BOX 63", "city": "GOWGANDA", "province": "ON", "country": "CA", "postalCode": "P0J1J0", "twitter": "None", "instagram": "None", "facebook": "None", "youtube": "None", "website": "None", "summary": "None", "logo": "None", "latitude": 42.771078471550595, "longitude": -81.17576407891427}, "118944602RR0001": {"name": "GRACE (FELLOWSHIP) BAPTIST CHURCH", "designationCode": "C", "categoryCode": "31", "address": "BOX 1540", "city": "HOPE", "province": "BC", "country": "CA", "postalCode": "V0X1L0", "twitter": "None", "instagram": "None", "facebook": "None", "youtube": "None", "website": "None", "summary": "None", "logo": "None", "latitude": 49.37911800000006, "longitude": -121.44296149999994}, "891146748RR0001": {"name": "GRACE & TRUTH CHRISTIAN ASSEMBLY", "designationCode": "C", "categoryCode": "39", "address": "5 MCINTOSH DRIVE              SUITE 208", "city": "MARKHAM", "province": "ON", "country": "CA", "postalCode": "L3R8C7", "twitter": "None", "instagram": "None", "facebook": "None", "youtube": "None", "website": "None", "summary": "None", "logo": "None", "latitude": 43.854106969156, "longitude": -79.35844436759201}, "854620002RR0001": {"name": "GRACE AND LOVE CHURCH", "designationCode": "C", "categoryCode": "39", "address": "103 - 200 FINCH AVE W", "city": "NORTH YORK", "province": "ON", "country": "CA", "postalCode": "M2R3W4", "twitter": "None", "instagram": "None", "facebook": "None", "youtube": "None", "website": "None", "summary": "None", "logo": "None", "latitude": 43.77606300000001, "longitude": -79.4322}, "891293789RR0001": {"name": "GRACE AND MERCY MISSIONARY OUTREACH MINISTRIES", "designationCode": "C", "categoryCode": "39", "address": "1221 BIRCHMOUNT ROAD", "city": "SCARBOROUGH", "province": "ON", "country": "CA", "postalCode": "M1P2C9", "twitter": "None", "instagram": "None", "facebook": "None", "youtube": "None", "website": "None", "summary": "None", "logo": "None", "latitude": 43.74482928005075, "longitude": -79.28371014998004}, "118942945RR0001": {"name": "GRACE AND TRUTH CHAPEL", "designationCode": "C", "categoryCode": "39", "address": "3909 RODD PLACE", "city": "WINDSOR", "province": "ON", "country": "CA", "postalCode": "N9G1Z1", "twitter": "None", "instagram": "None", "facebook": "None", "youtube": "None", "website": "None", "summary": "None", "logo": "None", "latitude": 42.25433767831387, "longitude": -83.0122393748627}, "118942952RR0001": {"name": "GRACE AND TRUTH RETIREMENT HOMES OF CANADA", "designationCode": "C", "categoryCode": "01", "address": "4320 LINCOLN AVENUE SOUTH", "city": "BEAMSVILLE", "province": "ON", "country": "CA", "postalCode": "L0R1B2", "twitter": "None", "instagram": "None", "facebook": "None", "youtube": "None", "website": "None", "summary": "None", "logo": "None", "latitude": 43.16598880099832, "longitude": -79.48688067311973}, "106713753RR0008": {"name": "GRACE ANGLICAN CHURCH", "designationCode": "C", "categoryCode": "30", "address": "2640 GOHEEN ST", "city": "PRINCE GEORGE", "province": "BC", "country": "CA", "postalCode": "V2N4V2", "twitter": "None", "instagram": "None", "facebook": "None", "youtube": "None", "website": "None", "summary": "None", "logo": "None", "latitude": 53.89529287898898, "longitude": -122.79424651477343}, "108099771RR0108": {"name": "GRACE ANGLICAN CHURCH", "designationCode": "C", "categoryCode": "30", "address": "157 MILL ST N                 BOX727", "city": "WATERDOWN", "province": "ON", "country": "CA", "postalCode": "L0R2H0", "twitter": "None", "instagram": "None", "facebook": "None", "youtube": "None", "website": "None", "summary": "None", "logo": "None", "latitude": 43.337499077124924, "longitude": -79.89623073340738}}