{"897787552RR0001": {"name": "La soci\u00e9t\u00e9 pr\u00e9maternelle La bo\u00eete \u00e0 surprises", "designationCode": "C", "categoryCode": "01", "address": "46, PROM HERITAGE", "city": "ST. ALBERT", "province": "AB", "country": "CA", "postalCode": "T8N7J5", "twitter": "None", "instagram": "None", "facebook": "None", "youtube": "None", "website": "None", "summary": "None", "logo": "None", "latitude": 53.612751510675814, "longitude": -113.6407887614404}, "102983566RR0001": {"name": "La soci\u00e9t\u00e9 Bouddhique les \u00e9rables", "designationCode": "C", "categoryCode": "35", "address": "2435 AUGUSTE", "city": "DRUMMONDVILLE", "province": "QC", "country": "CA", "postalCode": "J2C5K3", "twitter": "None", "instagram": "None", "facebook": "None", "youtube": "None", "website": "None", "summary": "None", "logo": "None", "latitude": 45.86777351566747, "longitude": -72.51920153647085}, "828219360RR0001": {"name": "La soci\u00e9t\u00e9 Sackcloth and Ashes Ministry Inc.", "designationCode": "C", "categoryCode": "39", "address": "1554 LISBON ST", "city": "ORLEANS", "province": "ON", "country": "CA", "postalCode": "K4A4B9", "twitter": "None", "instagram": "None", "facebook": "None", "youtube": "None", "website": "None", "summary": "None", "logo": "None", "latitude": 45.47637889618568, "longitude": -75.46927472395997}, "843576067RR0001": {"name": "La villa des retrait\u00e9s", "designationCode": "C", "categoryCode": "09", "address": "1300 RUE AMIOT", "city": "BAIE-COMEAU", "province": "QC", "country": "CA", "postalCode": "G5C1C5", "twitter": "None", "instagram": "None", "facebook": "None", "youtube": "None", "website": "None", "summary": "None", "logo": "None", "latitude": 49.20270000000005, "longitude": -68.25562999999994}, "838882579RR0001": {"name": "La voix de l'immigrant (LVI) / The Immigrant Voice (TIV)", "designationCode": "C", "categoryCode": "59", "address": "213 - 180 BOUL DU MONT-BLEU", "city": "GATINEAU", "province": "QC", "country": "CA", "postalCode": "J8Z3J5", "twitter": "None", "instagram": "None", "facebook": "None", "youtube": "None", "website": "None", "summary": "None", "logo": "None", "latitude": 45.46100249047804, "longitude": -75.76368227130817}, "830586889RR0001": {"name": "La Beaut\u00e9 du Sacr\u00e9", "designationCode": "C", "categoryCode": "22", "address": "168 RUE EDOUARD-CURODEAU", "city": "LEVIS", "province": "QC", "country": "CA", "postalCode": "G6W7L1", "twitter": "None", "instagram": "None", "facebook": "None", "youtube": "None", "website": "None", "summary": "None", "logo": "None", "latitude": 46.73484605551384, "longitude": -71.27328655776421}, "839832516RR0001": {"name": "La Boussole: Centre de ressources \u00e0 la famille", "designationCode": "C", "categoryCode": "09", "address": "3 - 297 RUE PRINCIPALE", "city": "SAINT-AMABLE", "province": "QC", "country": "CA", "postalCode": "J0L1N0", "twitter": "None", "instagram": "None", "facebook": "None", "youtube": "None", "website": "None", "summary": "None", "logo": "None", "latitude": 45.63802203638394, "longitude": -73.31401504654013}, "772813127RR0001": {"name": "La Cantine pour tous", "designationCode": "C", "categoryCode": "09", "address": "5090 RUE DUDEMAINE", "city": "MONTREAL", "province": "QC", "country": "CA", "postalCode": "H4J1N6", "twitter": "None", "instagram": "None", "facebook": "None", "youtube": "None", "website": "None", "summary": "None", "logo": "None", "latitude": 45.52812493614762, "longitude": -73.70119307796199}, "837778687RR0001": {"name": "La Caravane de Phoebus", "designationCode": "C", "categoryCode": "22", "address": "5241 5E AVENUE", "city": "MONTREAL", "province": "QC", "country": "CA", "postalCode": "H1Y2S6", "twitter": "None", "instagram": "None", "facebook": "None", "youtube": "None", "website": "None", "summary": "None", "logo": "None", "latitude": 45.54706892812618, "longitude": -73.57360508436729}, "128174067RR0001": {"name": "La Cath\u00e9drale Orthodoxe Russe Saint-Nicolas du Dioc\u00e8se de Montr\u00e9al et du Canada", "designationCode": "C", "categoryCode": "39", "address": "422 BOUL SAINT-JOSEPH OUEST", "city": "OUTREMONT", "province": "QC", "country": "CA", "postalCode": "H2V2P5", "twitter": "None", "instagram": "None", "facebook": "None", "youtube": "None", "website": "None", "summary": "None", "logo": "None", "latitude": 45.517532396329884, "longitude": -73.59564724297432}, "851092916RR0001": {"name": "La Chorale du Tricentenaire", "designationCode": "C", "categoryCode": "22", "address": "4084 KENNEDY DR E", "city": "WINDSOR", "province": "ON", "country": "CA", "postalCode": "N9G1X8", "twitter": "None", "instagram": "None", "facebook": "None", "youtube": "None", "website": "None", "summary": "None", "logo": "None", "latitude": 42.25191247544573, "longitude": -83.00127427849286}, "894643899RR0001": {"name": "La Cl\u00e9 des Champs, R\u00e9seau d'entraide pour personnes souffrant de troubles anxieux", "designationCode": "C", "categoryCode": "09", "address": "2226 BOUL. HENRI BOURASSA E   BUREAU 100", "city": "MONTREAL", "province": "QC", "country": "CA", "postalCode": "H2B1T3", "twitter": "None", "instagram": "None", "facebook": "None", "youtube": "None", "website": "None", "summary": "None", "logo": "None", "latitude": 45.575189434906854, "longitude": -73.65552586231189}, "119008787RR0003": {"name": "La Clairi\u00e8re, \u00c9glise chr\u00e9tienne de Saint-J\u00e9r\u00f4me", "designationCode": "C", "categoryCode": "34", "address": "380, RUE LABELLE CP 523", "city": "SAINT-J\u00c9R\u00d4ME", "province": "QC", "country": "CA", "postalCode": "J7Z5L3", "twitter": "None", "instagram": "None", "facebook": "None", "youtube": "None", "website": "None", "summary": "None", "logo": "None", "latitude": 45.77813234055624, "longitude": -74.0039700969181}, "836425090RR0001": {"name": "La Clef de la Galerie", "designationCode": "C", "categoryCode": "09", "address": "204 DE LA FABRIQUE", "city": "FORTIERVILLE", "province": "QC", "country": "CA", "postalCode": "G0S1J0", "twitter": "None", "instagram": "None", "facebook": "None", "youtube": "None", "website": "None", "summary": "None", "logo": "None", "latitude": 46.48600038272997, "longitude": -72.03253902661672}, "807053749RR0001": {"name": "La Compagnie dramatique du Qu\u00e9bec", "designationCode": "C", "categoryCode": "22", "address": "540 RUE SAINT-GABRIEL", "city": "QUEBEC", "province": "QC", "country": "CA", "postalCode": "G1R1W3", "twitter": "None", "instagram": "None", "facebook": "None", "youtube": "None", "website": "None", "summary": "None", "logo": "None", "latitude": 46.80938638135491, "longitude": -71.22028376839398}, "818158388RR0001": {"name": "La Comtemplaxion", "designationCode": "B", "categoryCode": "09", "address": "2360 AV MARIETTE", "city": "MONTREAL", "province": "QC", "country": "CA", "postalCode": "H4B2E6", "twitter": "None", "instagram": "None", "facebook": "None", "youtube": "None", "website": "None", "summary": "None", "logo": "None"}, "132410671RR0480": {"name": "La Conf\u00e9rence Saint-Richard, Gatineau Qu\u00e9bec de La Soci\u00e9t\u00e9 de Saint-Vincent de Paul", "designationCode": "C", "categoryCode": "09", "address": "445, BOULEVARD ST-REN\u00c9 OUEST", "city": "GATINEAU", "province": "QC", "country": "CA", "postalCode": "J8P2W5", "twitter": "None", "instagram": "None", "facebook": "None", "youtube": "None", "website": "None", "summary": "None", "logo": "None", "latitude": 45.49110042050881, "longitude": -75.66783536234055}, "118872316RR0001": {"name": "La Congr\u00e9gation de la Mission (Montr\u00e9al)", "designationCode": "B", "categoryCode": "47", "address": "2525, RUE ST-GERMAIN", "city": "MONTR\u00c9AL", "province": "QC", "country": "CA", "postalCode": "H1W2V2", "twitter": "None", "instagram": "None", "facebook": "None", "youtube": "None", "website": "None", "summary": "None", "logo": "None", "latitude": 45.54385292091282, "longitude": -73.55405453329685}, "775911928RR0001": {"name": "La Corporation de la maison Merry", "designationCode": "C", "categoryCode": "52", "address": "708 RUE PRINCIPALE O", "city": "MAGOG", "province": "QC", "country": "CA", "postalCode": "J1X2B3", "twitter": "None", "instagram": "None", "facebook": "None", "youtube": "None", "website": "None", "summary": "None", "logo": "None", "latitude": 45.26675619897303, "longitude": -72.1559397505048}, "107706632RR0001": {"name": "La Corporation de la Communaut\u00e9 Catholique Chinoise de Montr\u00e9al / The Corporation of the Chinese Catholic Community of Montreal", "designationCode": "C", "categoryCode": "38", "address": "979 RUE COTE", "city": "MONTREAL", "province": "QC", "country": "CA", "postalCode": "H2Z1L1", "twitter": "None", "instagram": "None", "facebook": "None", "youtube": "None", "website": "None", "summary": "None", "logo": "None", "latitude": 45.50594230143104, "longitude": -73.56060011114326}, "132254509RR0002": {"name": "La Corporation de la Maison des Jeunes de Trois-Pistoles Inc.", "designationCode": "C", "categoryCode": "09", "address": "15 RUE NOTRE-DAME E", "city": "TROIS-PISTOLES", "province": "QC", "country": "CA", "postalCode": "G0L4K0", "twitter": "None", "instagram": "None", "facebook": "None", "youtube": "None", "website": "None", "summary": "None", "logo": "None", "latitude": 48.12569411157596, "longitude": -69.17449370053087}, "854250586RR0001": {"name": "La Corporation de solidarit\u00e9 en s\u00e9curit\u00e9 alimentaire de Lotbini\u00e8re", "designationCode": "C", "categoryCode": "09", "address": "A - 188 BOUL LAURIER", "city": "LAURIER-STATION", "province": "QC", "country": "CA", "postalCode": "G0S1N0", "twitter": "None", "instagram": "None", "facebook": "None", "youtube": "None", "website": "None", "summary": "None", "logo": "None", "latitude": 46.543210908874954, "longitude": -71.62518635423444}, "849461223RR0001": {"name": "La Corporation des a\u00een\u00e9s de Lyster", "designationCode": "C", "categoryCode": "09", "address": "2765, RUE DES BOULEAUX", "city": "LYSTER", "province": "QC", "country": "CA", "postalCode": "G0S1V0", "twitter": "None", "instagram": "None", "facebook": "None", "youtube": "None", "website": "None", "summary": "None", "logo": "None", "latitude": 46.3723124454671, "longitude": -71.60444330365272}, "811186071RR0001": {"name": "La Corporation du Vieux-Palais et de la Maison Hector-Authier", "designationCode": "C", "categoryCode": "50", "address": "101 3E AVENUE E", "city": "AMOS", "province": "QC", "country": "CA", "postalCode": "J9T1E5", "twitter": "None", "instagram": "None", "facebook": "None", "youtube": "None", "website": "None", "summary": "None", "logo": "None", "latitude": 48.57409052654482, "longitude": -78.11298008381902}, "830854725RR0001": {"name": "La Cosecha Del Nuevo Pacto Apostolic Ministry Society", "designationCode": "C", "categoryCode": "39", "address": "10321 YOUNG ROAD", "city": "CHILLIWACK", "province": "BC", "country": "CA", "postalCode": "V2P8C4", "twitter": "None", "instagram": "None", "facebook": "None", "youtube": "None", "website": "None", "summary": "None", "logo": "None", "latitude": 49.189354658895496, "longitude": -121.95247402334218}, "802710103RR0001": {"name": "La Fabrique de la desserte de Notre-Dame-de-la-Merci d'Huberdeau", "designationCode": "C", "categoryCode": "38", "address": "198 PRINCIPALE", "city": "HUBERDEAU", "province": "QC", "country": "CA", "postalCode": "J0T1G0", "twitter": "None", "instagram": "None", "facebook": "None", "youtube": "None", "website": "None", "summary": "None", "logo": "None", "latitude": 45.976536409919916, "longitude": -74.63329236588993}, "807537980RR0001": {"name": "La Fabrique de la desserte de Saint-Justin", "designationCode": "C", "categoryCode": "38", "address": "541 RUE DUCHESNAY", "city": "SAINT-JUSTIN", "province": "QC", "country": "CA", "postalCode": "J0K2V0", "twitter": "None", "instagram": "None", "facebook": "None", "youtube": "None", "website": "None", "summary": "None", "logo": "None", "latitude": 46.252460192307915, "longitude": -73.08701772791242}, "118909449RR0001": {"name": "La Fabrique de la paroisse de l'Assomption-de-la-Vierge-Marie", "designationCode": "C", "categoryCode": "38", "address": "21 RUE PRINCIPALE", "city": "LA VISITATION-DE-YAMASKA", "province": "QC", "country": "CA", "postalCode": "J0G1C0", "twitter": "None", "instagram": "None", "facebook": "None", "youtube": "None", "website": "None", "summary": "None", "logo": "None", "latitude": 46.13080687922013, "longitude": -72.60147110271689}, "107358269RR0001": {"name": "La Fabrique de la paroisse de la Visitation de Gracefield", "designationCode": "C", "categoryCode": "38", "address": "14 RUE PRINCIPALE             CP 40", "city": "GRACEFIELD", "province": "QC", "country": "CA", "postalCode": "J0X1W0", "twitter": "None", "instagram": "None", "facebook": "None", "youtube": "None", "website": "None", "summary": "None", "logo": "None", "latitude": 46.0924212156501, "longitude": -76.0523116027474}, "107357931RR0001": {"name": "La Fabrique de la paroisse de la Visitation-de-Notre-Dame", "designationCode": "C", "categoryCode": "38", "address": "179, DE L'EGLISE", "city": "CHATEAU-RICHER CTE MONTMORE", "province": "QC", "country": "CA", "postalCode": "G0A1N0", "twitter": "None", "instagram": "None", "facebook": "None", "youtube": "None", "website": "None", "summary": "None", "logo": "None", "latitude": 46.97002913073453, "longitude": -71.01827873922342}, "129881116RR0001": {"name": "La Fabrique de la paroisse de Bienheureuse-Marie-L\u00e9onie-Paradis de Sherbrooke", "designationCode": "C", "categoryCode": "38", "address": "1085 RUE AD\u00c9LARD-COLLETTE", "city": "SHERBROOKE", "province": "QC", "country": "CA", "postalCode": "J1H4V2", "twitter": "None", "instagram": "None", "facebook": "None", "youtube": "None", "website": "None", "summary": "None", "logo": "None", "latitude": 45.390210757977975, "longitude": -71.88942863783232}, "118909498RR0001": {"name": "La Fabrique de la paroisse de Bienheureux-Fran\u00e7ois-de-Laval", "designationCode": "C", "categoryCode": "38", "address": "100 RUE SAINT-JEAN-BAPTISTE S", "city": "PRINCEVILLE", "province": "QC", "country": "CA", "postalCode": "G6L5A5", "twitter": "None", "instagram": "None", "facebook": "None", "youtube": "None", "website": "None", "summary": "None", "logo": "None", "latitude": 46.171641952507564, "longitude": -71.87420161982759}, "107587263RR0001": {"name": "La Fabrique de la paroisse de Bon Pasteur", "designationCode": "C", "categoryCode": "38", "address": "580 RUE ST-PIERRE", "city": "DRUMMONDVILLE", "province": "QC", "country": "CA", "postalCode": "J2C3W5", "twitter": "None", "instagram": "None", "facebook": "None", "youtube": "None", "website": "None", "summary": "None", "logo": "None", "latitude": 45.88188145291161, "longitude": -72.5046614803514}, "821453156RR0001": {"name": "La Fabrique de la paroisse de Notre-Dame du Liban", "designationCode": "C", "categoryCode": "38", "address": "46, AVENUE DU CROCHET", "city": "LAVAL", "province": "QC", "country": "CA", "postalCode": "H7N3Z4", "twitter": "None", "instagram": "None", "facebook": "None", "youtube": "None", "website": "None", "summary": "None", "logo": "None", "latitude": 45.5524526164234, "longitude": -73.70128427381833}, "118991074RR0001": {"name": "La Fabrique de la paroisse de Notre-Dame-de-la-Rive", "designationCode": "C", "categoryCode": "38", "address": "580 BOUL. ST-FRANCOIS", "city": "LAC-DES-\u00c9CORCES", "province": "QC", "country": "CA", "postalCode": "J0W1H0", "twitter": "None", "instagram": "None", "facebook": "None", "youtube": "None", "website": "None", "summary": "None", "logo": "None", "latitude": 46.55656796753988, "longitude": -75.36437634497098}, "107358038RR0001": {"name": "La Fabrique de la paroisse de Notre-Dame-de-Beauport", "designationCode": "C", "categoryCode": "38", "address": "3325 RUE LOYOLA", "city": "QUEBEC", "province": "QC", "country": "CA", "postalCode": "G1E2S1", "twitter": "None", "instagram": "None", "facebook": "None", "youtube": "None", "website": "None", "summary": "None", "logo": "None", "latitude": 46.8527265023946, "longitude": -71.20897142648141}, "872908413RR0001": {"name": "La Fabrique de la paroisse de Notre-Dame-des-Murailles", "designationCode": "C", "categoryCode": "38", "address": "40, CHEMIN DE LA MER OUEST", "city": "SAINT-FABIEN", "province": "QC", "country": "CA", "postalCode": "G0L2Z0", "twitter": "None", "instagram": "None", "facebook": "None", "youtube": "None", "website": "None", "summary": "None", "logo": "None", "latitude": 48.31499239264608, "longitude": -68.87330293997206}, "843367426RR0001": {"name": "La Fabrique de la paroisse de Notre-Dame-du-Mont-Carmel", "designationCode": "C", "categoryCode": "38", "address": "366, RUE PRINCIPALE           C.P. 29", "city": "EASTMAN", "province": "QC", "country": "CA", "postalCode": "J0E1P0", "twitter": "None", "instagram": "None", "facebook": "None", "youtube": "None", "website": "None", "summary": "None", "logo": "None", "latitude": 45.3018508859139, "longitude": -72.31794918096827}, "889193249RR0001": {"name": "La Fabrique de la paroisse de Notre-Dame-du-Saint-Rosaire", "designationCode": "C", "categoryCode": "38", "address": "8200 SAINT-HUBERT", "city": "MONTR\u00c9AL", "province": "QC", "country": "CA", "postalCode": "H2P1Z2", "twitter": "None", "instagram": "None", "facebook": "None", "youtube": "None", "website": "None", "summary": "None", "logo": "None", "latitude": 45.546960166224416, "longitude": -73.62812086415823}, "107367237RR0001": {"name": "La Fabrique de la paroisse de Saint-\u00c9phrem", "designationCode": "C", "categoryCode": "38", "address": "1817 RANG 1", "city": "VAL PARADIS", "province": "QC", "country": "CA", "postalCode": "J0Z3S0", "twitter": "None", "instagram": "None", "facebook": "None", "youtube": "None", "website": "None", "summary": "None", "logo": "None", "latitude": 49.153785000000056, "longitude": -79.29017449999994}, "888793791RR0001": {"name": "La Fabrique de la paroisse de Saint-Antoine-de-Padoue", "designationCode": "C", "categoryCode": "38", "address": "5 CHEMIN ST-JOSEPH", "city": "VAL-DES-MONTS", "province": "QC", "country": "CA", "postalCode": "J8N7E8", "twitter": "None", "instagram": "None", "facebook": "None", "youtube": "None", "website": "None", "summary": "None", "logo": "None", "latitude": 45.600197424403945, "longitude": -75.61744077976228}, "107359044RR0001": {"name": "La Fabrique de la paroisse de Saint-Cl\u00e9ophas", "designationCode": "C", "categoryCode": "38", "address": "352 RUE PRINCIPALE", "city": "SAINT-CLEOPHAS", "province": "QC", "country": "CA", "postalCode": "G0J3N0", "twitter": "None", "instagram": "None", "facebook": "None", "youtube": "None", "website": "None", "summary": "None", "logo": "None", "latitude": 48.49253223400062, "longitude": -67.74294059010876}, "132208703RR0001": {"name": "La Fabrique de la paroisse de Saint-Fran\u00e7ois-d'Assise", "designationCode": "C", "categoryCode": "38", "address": "1 PLACE DE L'EGLISE", "city": "BAIE-SAINT-PAUL", "province": "QC", "country": "CA", "postalCode": "G3Z1S9", "twitter": "None", "instagram": "None", "facebook": "None", "youtube": "None", "website": "None", "summary": "None", "logo": "None", "latitude": 47.440613607565254, "longitude": -70.50661742310587}, "129812921RR0001": {"name": "La Fabrique de la paroisse de Saint-Fran\u00e7ois-de-Laval d'EastAngus", "designationCode": "C", "categoryCode": "38", "address": "166  RUE ST JEAN EST", "city": "EAST ANGUS", "province": "QC", "country": "CA", "postalCode": "J0B1R0", "twitter": "None", "instagram": "None", "facebook": "None", "youtube": "None", "website": "None", "summary": "None", "logo": "None", "latitude": 45.48320278588729, "longitude": -71.65639873255964}, "751003120RR0001": {"name": "La Fabrique de la paroisse de Saint-Fran\u00e7ois-Xavier", "designationCode": "C", "categoryCode": "38", "address": "440 RUE NOTRE-DAME", "city": "SAINT-FRANCOIS-DU-LAC", "province": "QC", "country": "CA", "postalCode": "J0G1M0", "twitter": "None", "instagram": "None", "facebook": "None", "youtube": "None", "website": "None", "summary": "None", "logo": "None", "latitude": 46.06664881124144, "longitude": -72.82639269098024}, "130360886RR0001": {"name": "La Fabrique de la paroisse de Saint-Francois-de-Sales", "designationCode": "C", "categoryCode": "38", "address": "799 JACQUES-CARTIER", "city": "GATINEAU", "province": "QC", "country": "CA", "postalCode": "J8T2W1", "twitter": "None", "instagram": "None", "facebook": "None", "youtube": "None", "website": "None", "summary": "None", "logo": "None", "latitude": 45.457043349211915, "longitude": -75.69909588787579}, "812921765RR0001": {"name": "La Fabrique de la paroisse de Saint-Jean l'Ap\u00f4tre", "designationCode": "C", "categoryCode": "39", "address": "10755 AV SAINT-CHARLES", "city": "MONTREAL", "province": "QC", "country": "CA", "postalCode": "H2C2M1", "twitter": "None", "instagram": "None", "facebook": "None", "youtube": "None", "website": "None", "summary": "None", "logo": "None", "latitude": 45.55997696087477, "longitude": -73.66694302608349}, "821430758RR0001": {"name": "La Fabrique de la paroisse de Saint-Jean XXIII", "designationCode": "C", "categoryCode": "38", "address": "4850, RUE QUEVILLON", "city": "SAINT-HUBERT", "province": "QC", "country": "CA", "postalCode": "J3Y2V4", "twitter": "None", "instagram": "None", "facebook": "None", "youtube": "None", "website": "None", "summary": "None", "logo": "None", "latitude": 45.469270581193314, "longitude": -73.41400005150314}, "107368565RR0001": {"name": "La Fabrique de la paroisse de Saint-Jean-l'\u00c9vang\u00e9liste", "designationCode": "C", "categoryCode": "38", "address": "1012 DE L'EGLISE", "city": "SAINT-JEAN-CRYSOSTOME", "province": "QC", "country": "CA", "postalCode": "G6Z3H4", "twitter": "None", "instagram": "None", "facebook": "None", "youtube": "None", "website": "None", "summary": "None", "logo": "None", "latitude": 46.71868200000006, "longitude": -71.19758149999993}, "107367302RR0001": {"name": "La Fabrique de la paroisse de Saint-Jean-Paul-II", "designationCode": "C", "categoryCode": "38", "address": "280 RTE MARIE-VICTORIN", "city": "SAINT-PIERRE-LES-BECQUETS", "province": "QC", "country": "CA", "postalCode": "G0X2Z0", "twitter": "None", "instagram": "None", "facebook": "None", "youtube": "None", "website": "None", "summary": "None", "logo": "None", "latitude": 46.5047451418144, "longitude": -72.20489718347842}, "107587214RR0001": {"name": "La Fabrique de la paroisse de Saint-Joseph", "designationCode": "C", "categoryCode": "38", "address": "100, RUE LANGLOIS", "city": "GRANBY", "province": "QC", "country": "CA", "postalCode": "J2G6J7", "twitter": "None", "instagram": "None", "facebook": "None", "youtube": "None", "website": "None", "summary": "None", "logo": "None", "latitude": 45.41402817291818, "longitude": -72.74087842928003}, "118998830RR0001": {"name": "La Fabrique de la paroisse de Saint-Modeste", "designationCode": "C", "categoryCode": "38", "address": "340 RUE PRINCIPALE", "city": "ST-MODESTE", "province": "QC", "country": "CA", "postalCode": "G0L3W0", "twitter": "None", "instagram": "None", "facebook": "None", "youtube": "None", "website": "None", "summary": "None", "logo": "None", "latitude": 47.83262512584391, "longitude": -69.4032828379294}, "107369852RR0001": {"name": "La Fabrique de la paroisse de Saint-Patrice", "designationCode": "C", "categoryCode": "38", "address": "121 RUE LAFONTAINE", "city": "RIVIERE-DU-LOUP", "province": "QC", "country": "CA", "postalCode": "G5R3A3", "twitter": "None", "instagram": "None", "facebook": "None", "youtube": "None", "website": "None", "summary": "None", "logo": "None", "latitude": 47.83671611865566, "longitude": -69.53794491268654}, "107366866RR0001": {"name": "La Fabrique de la paroisse de Saint-Paul de Sherbrooke", "designationCode": "C", "categoryCode": "38", "address": "7205 CHEMIN DE SAINT-\u00c9LIE", "city": "SHERBROOKE", "province": "QC", "country": "CA", "postalCode": "J1R0K5", "twitter": "None", "instagram": "None", "facebook": "None", "youtube": "None", "website": "None", "summary": "None", "logo": "None", "latitude": 45.395648165647515, "longitude": -72.03984486216767}, "107370306RR0001": {"name": "La Fabrique de la paroisse de Saint-Pie X", "designationCode": "C", "categoryCode": "38", "address": "494, RUE SAINT-PIE X", "city": "PASP\u00c9BIAC", "province": "QC", "country": "CA", "postalCode": "G0C2S0", "twitter": "None", "instagram": "None", "facebook": "None", "youtube": "None", "website": "None", "summary": "None", "logo": "None", "latitude": 48.0574076858157, "longitude": -65.25869025327476}, "129796355RR0001": {"name": "La Fabrique de la paroisse de Saint-Romuald", "designationCode": "C", "categoryCode": "38", "address": "500, RUE SAINT-HILAIRE", "city": "FARNHAM", "province": "QC", "country": "CA", "postalCode": "J2N2T1", "twitter": "None", "instagram": "None", "facebook": "None", "youtube": "None", "website": "None", "summary": "None", "logo": "None", "latitude": 45.28671180708652, "longitude": -72.97381255415753}, "118994250RR0001": {"name": "La Fabrique de la paroisse de Saint-Viateur", "designationCode": "C", "categoryCode": "38", "address": "183, AVENUE BLOOMFIELD", "city": "OUTREMONT", "province": "QC", "country": "CA", "postalCode": "H2V3R5", "twitter": "None", "instagram": "None", "facebook": "None", "youtube": "None", "website": "None", "summary": "None", "logo": "None", "latitude": 45.51676320318527, "longitude": -73.59931895501772}, "118998244RR0001": {"name": "La Fabrique de la paroisse de Sainte-Croix de Dunham", "designationCode": "C", "categoryCode": "38", "address": "3930 PRINCIPALE", "city": "DUNHAM", "province": "QC", "country": "CA", "postalCode": "J0E1M0", "twitter": "None", "instagram": "None", "facebook": "None", "youtube": "None", "website": "None", "summary": "None", "logo": "None", "latitude": 45.126179947544586, "longitude": -72.80081088207605}, "129836060RR0001": {"name": "La Fabrique de la paroisse de Sainte-Famille-de-Bordeaux-Cartierville", "designationCode": "C", "categoryCode": "38", "address": "12325 RUE DE SERRES", "city": "MONTREAL", "province": "QC", "country": "CA", "postalCode": "H4J2H1", "twitter": "None", "instagram": "None", "facebook": "None", "youtube": "None", "website": "None", "summary": "None", "logo": "None", "latitude": 45.53337543381035, "longitude": -73.71921893421437}, "132201278RR0001": {"name": "La Fabrique de la paroisse de Sainte-Famille-des-Lacs", "designationCode": "C", "categoryCode": "38", "address": "1926 RTE 125 NORD", "city": "NOTRE DAME DE LA MERCI", "province": "QC", "country": "CA", "postalCode": "J0T2A0", "twitter": "None", "instagram": "None", "facebook": "None", "youtube": "None", "website": "None", "summary": "None", "logo": "None", "latitude": 46.22569769344367, "longitude": -74.05748481200983}, "107364051RR0001": {"name": "La Fabrique de la paroisse de Sainte-Trinit\u00e9", "designationCode": "C", "categoryCode": "38", "address": "354 RUE PRINCIPALE", "city": "BROWNSBURG CHATHAM", "province": "QC", "country": "CA", "postalCode": "J8G2V7", "twitter": "None", "instagram": "None", "facebook": "None", "youtube": "None", "website": "None", "summary": "None", "logo": "None", "latitude": 45.677985336689765, "longitude": -74.41279691450752}, "118909050RR0001": {"name": "La Fabrique de la paroisse du Coeur-Immacul\u00e9-de-Marie", "designationCode": "C", "categoryCode": "38", "address": "251 RUE THIBAULT", "city": "MATANE", "province": "QC", "country": "CA", "postalCode": "G4W2W4", "twitter": "None", "instagram": "None", "facebook": "None", "youtube": "None", "website": "None", "summary": "None", "logo": "None", "latitude": 48.8467966389002, "longitude": -67.52291681883018}, "107368318RR0001": {"name": "La Fabrique de la paroisse Coeur-Immacul\u00e9-de-Marie", "designationCode": "C", "categoryCode": "38", "address": "425, RUE CHASSE", "city": "ASBESTOS", "province": "QC", "country": "CA", "postalCode": "J1T2B6", "twitter": "None", "instagram": "None", "facebook": "None", "youtube": "None", "website": "None", "summary": "None", "logo": "None", "latitude": 45.769928539038325, "longitude": -71.9323512512842}, "118993740RR0001": {"name": "La Fabrique de la paroisse Notre-Dame-de-l'Alliance", "designationCode": "C", "categoryCode": "38", "address": "6900 16I\u00c8ME AVENUE", "city": "MONTR\u00c9AL", "province": "QC", "country": "CA", "postalCode": "H1X2T4", "twitter": "None", "instagram": "None", "facebook": "None", "youtube": "None", "website": "None", "summary": "None", "logo": "None", "latitude": 45.560506140689206, "longitude": -73.59028822205539}, "810636654RR0001": {"name": "La Fabrique de la paroisse Notre-Dame-de-l'Unit\u00e9", "designationCode": "C", "categoryCode": "38", "address": "6747 ROUTE LOUIS S ST-LAURENT", "city": "COMPTON", "province": "QC", "country": "CA", "postalCode": "J0B1L0", "twitter": "None", "instagram": "None", "facebook": "None", "youtube": "None", "website": "None", "summary": "None", "logo": "None", "latitude": 45.24287477887448, "longitude": -71.82761904550405}, "118905405RR0001": {"name": "La Fabrique de la paroisse Notre-Dame-de-Portneuf", "designationCode": "C", "categoryCode": "38", "address": "207 1E AVENUE", "city": "PORTNEUF", "province": "QC", "country": "CA", "postalCode": "G0A2Y0", "twitter": "None", "instagram": "None", "facebook": "None", "youtube": "None", "website": "None", "summary": "None", "logo": "None", "latitude": 46.69364229695896, "longitude": -71.8851296602518}, "826674053RR0001": {"name": "La Fabrique de la paroisse Notre-Dame-des-Pays-d'en-Haut", "designationCode": "C", "categoryCode": "38", "address": "166, RUE LESAGE", "city": "STE-AD\u00c8LE", "province": "QC", "country": "CA", "postalCode": "J8B2R4", "twitter": "None", "instagram": "None", "facebook": "None", "youtube": "None", "website": "None", "summary": "None", "logo": "None", "latitude": 45.94773721784315, "longitude": -74.13789640697705}, "107366882RR0001": {"name": "La Fabrique de la paroisse Saint-Andr\u00e9-Bessette", "designationCode": "C", "categoryCode": "38", "address": "300 AV. CHAMPLAIN", "city": "DISRAELI", "province": "QC", "country": "CA", "postalCode": "G0N1E0", "twitter": "None", "instagram": "None", "facebook": "None", "youtube": "None", "website": "None", "summary": "None", "logo": "None", "latitude": 45.89902238138359, "longitude": -71.35661272961545}, "815185376RR0001": {"name": "La Fabrique de la paroisse Saint-Antoine", "designationCode": "C", "categoryCode": "38", "address": "705 BOULEVARD DES LAURENTIDES", "city": "SAINT-J\u00c9R\u00d4ME", "province": "QC", "country": "CA", "postalCode": "J7Z4M6", "twitter": "None", "instagram": "None", "facebook": "None", "youtube": "None", "website": "None", "summary": "None", "logo": "None", "latitude": 45.76008520125203, "longitude": -73.98862762430058}, "870803863RR0001": {"name": "La Fabrique de la paroisse Saint-Fran\u00e7ois-de-Laval", "designationCode": "C", "categoryCode": "46", "address": "1895 CH DE LA CANARDI\u00c8RE", "city": "QUEBEC", "province": "QC", "country": "CA", "postalCode": "G1J2E5", "twitter": "None", "instagram": "None", "facebook": "None", "youtube": "None", "website": "None", "summary": "None", "logo": "None", "latitude": 46.83911331917597, "longitude": -71.22148625258227}, "814339636RR0001": {"name": "La Fabrique de la paroisse Sainte-Sophie", "designationCode": "C", "categoryCode": "38", "address": "485 RUE MASSON", "city": "SAINTE-SOPHIE", "province": "QC", "country": "CA", "postalCode": "J5J1R1", "twitter": "None", "instagram": "None", "facebook": "None", "youtube": "None", "website": "None", "summary": "None", "logo": "None", "latitude": 45.81774589116535, "longitude": -73.8980947531592}, "118992155RR0001": {"name": "La Fabrique de la paroisse Sainte-Trinit\u00e9", "designationCode": "C", "categoryCode": "38", "address": "14 RUE MAPLE", "city": "STANSTEAD", "province": "QC", "country": "CA", "postalCode": "J0B3E0", "twitter": "None", "instagram": "None", "facebook": "None", "youtube": "None", "website": "None", "summary": "None", "logo": "None", "latitude": 45.019539669455746, "longitude": -72.09498316665712}, "129921276RR0001": {"name": "La Fabrique de la paroisse Saints-Ap\u00f4tres", "designationCode": "C", "categoryCode": "38", "address": "295 RUE SAINT-JACQUES N", "city": "COATICOOK", "province": "QC", "country": "CA", "postalCode": "J1A2R2", "twitter": "None", "instagram": "None", "facebook": "None", "youtube": "None", "website": "None", "summary": "None", "logo": "None", "latitude": 45.13691700177339, "longitude": -71.79682293845302}, "129998449RR0001": {"name": "La Fabrique de la Paroisse de Notre-Dame-de-la-Li\u00e8vre", "designationCode": "C", "categoryCode": "38", "address": "244, 12E AVENUE", "city": "FERME NEUVE", "province": "QC", "country": "CA", "postalCode": "J0W1C0", "twitter": "None", "instagram": "None", "facebook": "None", "youtube": "None", "website": "None", "summary": "None", "logo": "None", "latitude": 46.70071300582839, "longitude": -75.44938054053887}, "107362394RR0001": {"name": "La Fabrique de la Paroisse de Saint-Joseph", "designationCode": "C", "categoryCode": "38", "address": "16 YORK", "city": "HUNTINGDON", "province": "QC", "country": "CA", "postalCode": "J0S1H0", "twitter": "None", "instagram": "None", "facebook": "None", "youtube": "None", "website": "None", "summary": "None", "logo": "None", "latitude": 45.09235954763667, "longitude": -74.17175752738156}, "119186195RR0001": {"name": "La Fabrique de la Paroisse de Saint-Malachie / The Fabrique of the Parish of St-Malachy", "designationCode": "C", "categoryCode": "38", "address": "3889, ROUTE 315", "city": "MAYO", "province": "QC", "country": "CA", "postalCode": "J8L3Z8", "twitter": "None", "instagram": "None", "facebook": "None", "youtube": "None", "website": "None", "summary": "None", "logo": "None", "latitude": 45.663174750719726, "longitude": -75.34641307478407}, "107364275RR0001": {"name": "La Fabrique de la Paroisse de Saint-Nicolas-de-L\u00e9vis", "designationCode": "C", "categoryCode": "38", "address": "100, RUE AURELIO-BOUCHER", "city": "LEVIS", "province": "QC", "country": "CA", "postalCode": "G6K1E3", "twitter": "None", "instagram": "None", "facebook": "None", "youtube": "None", "website": "None", "summary": "None", "logo": "None", "latitude": 46.69819028253223, "longitude": -71.28265033585303}, "118995497RR0001": {"name": "La Fabrique de la Paroisse de Sainte-Genevieve", "designationCode": "C", "categoryCode": "38", "address": "51 RUE PRINCIPALE C.P.6", "city": "STE GENEVIEVE DE BATISCAN", "province": "QC", "country": "CA", "postalCode": "G0X2R0", "twitter": "None", "instagram": "None", "facebook": "None", "youtube": "None", "website": "None", "summary": "None", "logo": "None", "latitude": 46.52961093259825, "longitude": -72.33921224421506}, "118992585RR0001": {"name": "La Fabrique de la Paroisse J\u00e9sus-Lumi\u00e8re-du-Monde", "designationCode": "C", "categoryCode": "38", "address": "12450 RUE GASCON", "city": "PIERREFONDS", "province": "QC", "country": "CA", "postalCode": "H8Z1S2", "twitter": "None", "instagram": "None", "facebook": "None", "youtube": "None", "website": "None", "summary": "None", "logo": "None", "latitude": 45.5072255350572, "longitude": -73.83321136219632}, "131809048RR0001": {"name": "La Fabrique de la Paroisse Saint-Francois-d'assise", "designationCode": "C", "categoryCode": "38", "address": "219, RUE BROCK", "city": "DRUMMONDVILLE", "province": "QC", "country": "CA", "postalCode": "J2C1M2", "twitter": "None", "instagram": "None", "facebook": "None", "youtube": "None", "website": "None", "summary": "None", "logo": "None", "latitude": 45.88415741297831, "longitude": -72.4882574901609}, "107362915RR0001": {"name": "La Fabrique de la Paroisse Saint-Laurent", "designationCode": "C", "categoryCode": "38", "address": "225 AVENUE DE LA FABRIQUE     C.P. 95", "city": "SAINT-ANICET", "province": "QC", "country": "CA", "postalCode": "J0S1M0", "twitter": "None", "instagram": "None", "facebook": "None", "youtube": "None", "website": "None", "summary": "None", "logo": "None", "latitude": 45.140901316694475, "longitude": -74.36183992711658}, "107587677RR0001": {"name": "La Fabrique de la Paroisse Saint-Luc", "designationCode": "C", "categoryCode": "38", "address": "34 RUE ST-LOUIS", "city": "ST-CYRILLE", "province": "QC", "country": "CA", "postalCode": "J1Z1S1", "twitter": "None", "instagram": "None", "facebook": "None", "youtube": "None", "website": "None", "summary": "None", "logo": "None", "latitude": 45.93298978740834, "longitude": -72.42471719871321}, "107358541RR0001": {"name": "La Fabrique de la Paroisse Saint-Pierre-de-Belles-Montagnes", "designationCode": "C", "categoryCode": "38", "address": "960 RUE NOTRE-DAME", "city": "SAINT-ALPHONSE", "province": "QC", "country": "CA", "postalCode": "J0K1W0", "twitter": "None", "instagram": "None", "facebook": "None", "youtube": "None", "website": "None", "summary": "None", "logo": "None", "latitude": 46.18662268581571, "longitude": -73.69119341015104}, "817111933RR0001": {"name": "La Fabrique de la Paroisse Sainte-Famille", "designationCode": "C", "categoryCode": "38", "address": "1966,RUE OZANNE", "city": "JONQUIERE", "province": "QC", "country": "CA", "postalCode": "G7X5A9", "twitter": "None", "instagram": "None", "facebook": "None", "youtube": "None", "website": "None", "summary": "None", "logo": "None", "latitude": 48.42506477852154, "longitude": -71.23806940608208}, "810921577RR0001": {"name": "La Fiducie Serge Larocque/The Serge Larocque Trust", "designationCode": "B", "categoryCode": "25", "address": "537, RUE BESSERER", "city": "OTTAWA", "province": "ON", "country": "CA", "postalCode": "K1N6C6", "twitter": "None", "instagram": "None", "facebook": "None", "youtube": "None", "website": "None", "summary": "None", "logo": "None", "latitude": 45.43241539246341, "longitude": -75.67505161186442}, "889026605RR0001": {"name": "La Fondation \u00c9cole Val Marie inc.", "designationCode": "C", "categoryCode": "23", "address": "88, CHEMIN DU PASSAGE", "city": "TROIS-RIVI\u00c8RES", "province": "QC", "country": "CA", "postalCode": "G8T2M3", "twitter": "None", "instagram": "None", "facebook": "None", "youtube": "None", "website": "None", "summary": "None", "logo": "None", "latitude": 46.36971534332622, "longitude": -72.54045657438397}, "837657022RR0001": {"name": "La Fondation au diapason soins palliatifs-Au Diapason Palliative Care Foundation", "designationCode": "A", "categoryCode": "13", "address": "50, RUE DU DIAPASON", "city": "BROMONT", "province": "QC", "country": "CA", "postalCode": "J2L0G1", "twitter": "None", "instagram": "None", "facebook": "None", "youtube": "None", "website": "None", "summary": "None", "logo": "None", "latitude": 45.30292628620022, "longitude": -72.70088400789119}, "855101184RR0001": {"name": "La Fondation de l'\u00e9cole Gadbois", "designationCode": "C", "categoryCode": "21", "address": "8305, RUE SAINT-ANDR\u00c9", "city": "MONTR\u00c9AL", "province": "QC", "country": "CA", "postalCode": "H2P1Y7", "twitter": "None", "instagram": "None", "facebook": "None", "youtube": "None", "website": "None", "summary": "None", "logo": "None", "latitude": 45.547860906486115, "longitude": -73.62872234733692}, "845717396RR0001": {"name": "La Fondation de l'\u00c9cole secondaire Donnacona inc.", "designationCode": "C", "categoryCode": "21", "address": "320, RUE DE L'\u00c9GLISE", "city": "DONNACONA", "province": "QC", "country": "CA", "postalCode": "G3M2A2", "twitter": "None", "instagram": "None", "facebook": "None", "youtube": "None", "website": "None", "summary": "None", "logo": "None", "latitude": 46.68011942030155, "longitude": -71.7300274773067}, "893190967RR0001": {"name": "La Fondation de l'ing\u00e9nierie (C.C.I.)", "designationCode": "C", "categoryCode": "21", "address": "210 BOUL CREMAZIE O", "city": "MONTREAL", "province": "QC", "country": "CA", "postalCode": "H2P1C6", "twitter": "None", "instagram": "None", "facebook": "None", "youtube": "None", "website": "None", "summary": "None", "logo": "None", "latitude": 45.53849865748186, "longitude": -73.64324330313406}, "810841635RR0001": {"name": "La Fondation de l'H\u00f4pital de Smooth Rock Falls Hospital Foundation", "designationCode": "A", "categoryCode": "13", "address": "107 KELLY ROAD                POST OFFICE BOX 219", "city": "SMOOTH ROCK FALLS", "province": "ON", "country": "CA", "postalCode": "P0L2B0", "twitter": "None", "instagram": "None", "facebook": "None", "youtube": "None", "website": "None", "summary": "None", "logo": "None", "latitude": 49.27438135831331, "longitude": -81.61214429387313}, "890753346RR0001": {"name": "La Fondation de l'Inis", "designationCode": "A", "categoryCode": "23", "address": "301 MAISONNEUVE EST", "city": "MONTREAL", "province": "QC", "country": "CA", "postalCode": "H2X1K1", "twitter": "None", "instagram": "None", "facebook": "None", "youtube": "None", "website": "None", "summary": "None", "logo": "None", "latitude": 45.51358146878063, "longitude": -73.56269752290949}, "119000537RR0001": {"name": "La Fondation de l'Universit\u00e9 Laval", "designationCode": "A", "categoryCode": "23", "address": "2325, RUE DE L'UNIVERSIT\u00c9     LOCAL 3402", "city": "QU\u00c9BEC", "province": "QC", "country": "CA", "postalCode": "G1V0A6", "twitter": "None", "instagram": "None", "facebook": "None", "youtube": "None", "website": "None", "summary": "None", "logo": "None", "latitude": 46.77925220480141, "longitude": -71.27057862153062}, "804185700RR0001": {"name": "La Fondation de la maison familiale rurale du Granit", "designationCode": "C", "categoryCode": "21", "address": "105 RUE DU COUVENT", "city": "ST-ROMAIN", "province": "QC", "country": "CA", "postalCode": "G0Y1L0", "twitter": "None", "instagram": "None", "facebook": "None", "youtube": "None", "website": "None", "summary": "None", "logo": "None", "latitude": 45.78494016322332, "longitude": -71.09206791116064}, "828423830RR0001": {"name": "La Fondation de la Cr\u00e9ativit\u00e9 Artistique du Canada / Creative Arts Foundation of Canada", "designationCode": "C", "categoryCode": "22", "address": "352-4950, RUE QUEEN MARY", "city": "MONTR\u00c9AL", "province": "QC", "country": "CA", "postalCode": "H3W1X3", "twitter": "None", "instagram": "None", "facebook": "None", "youtube": "None", "website": "None", "summary": "None", "logo": "None", "latitude": 45.48642532693759, "longitude": -73.62672638118202}, "876016536RR0001": {"name": "La Fondation de la Maison Qu\u00e9b\u00e9coise du Th\u00e9\u00e2tre pour l'Enfance et la Jeunesse inc.", "designationCode": "A", "categoryCode": "03", "address": "245 ONTARIO EST", "city": "MONTREAL", "province": "QC", "country": "CA", "postalCode": "H2X3Y6", "twitter": "None", "instagram": "None", "facebook": "None", "youtube": "None", "website": "None", "summary": "None", "logo": "None", "latitude": 45.51430967167743, "longitude": -73.56577688934674}, "857214084RR0001": {"name": "La Fondation de la Soci\u00e9t\u00e9 d'adoption Enfants du monde / Children of the World Adoption Society Foundation", "designationCode": "A", "categoryCode": "03", "address": "815 RUE LIPPMANN", "city": "LAVAL", "province": "QC", "country": "CA", "postalCode": "H7S1G3", "twitter": "None", "instagram": "None", "facebook": "None", "youtube": "None", "website": "None", "summary": "None", "logo": "None", "latitude": 45.579511361099804, "longitude": -73.72321723731883}, "783388093RR0001": {"name": "La Fondation des Centres de Sant\u00e9 de Chibougamau-Chapais", "designationCode": "A", "categoryCode": "13", "address": "51 3E RUE", "city": "CHIBOUGAMAU", "province": "QC", "country": "CA", "postalCode": "G8P1N1", "twitter": "None", "instagram": "None", "facebook": "None", "youtube": "None", "website": "None", "summary": "None", "logo": "None", "latitude": 49.91519118347842, "longitude": -74.34850719929013}, "845240399RR0001": {"name": "La Fondation des Saints-Anges en musique de Lachine", "designationCode": "A", "categoryCode": "43", "address": "1400, BOULEVARD ST-JOSEPH", "city": "LACHINE", "province": "QC", "country": "CA", "postalCode": "H8S2M8", "twitter": "None", "instagram": "None", "facebook": "None", "youtube": "None", "website": "None", "summary": "None", "logo": "None", "latitude": 45.431816489324184, "longitude": -73.67655082944775}, "810048892RR0001": {"name": "La Fondation du c\u00e9gep de l'Abitibi-T\u00e9miscamingue", "designationCode": "C", "categoryCode": "23", "address": "425, BOULEVARD DU COLL\u00c8GE", "city": "ROUYN-NORANDA", "province": "QC", "country": "CA", "postalCode": "J9X5E5", "twitter": "None", "instagram": "None", "facebook": "None", "youtube": "None", "website": "None", "summary": "None", "logo": "None", "latitude": 48.22798334817296, "longitude": -79.00729320412923}}