{"889905196RR0001": {"name": "FONDATION MARC BOURGIE", "designationCode": "B", "categoryCode": "23", "address": "CP 300 SUCC WESTMOUNT", "city": "MONTREAL", "province": "QC", "country": "CA", "postalCode": "H3Z2T2", "twitter": "None", "instagram": "None", "facebook": "None", "youtube": "None", "website": "None", "summary": "None", "logo": "None", "latitude": 45.48496200000005, "longitude": -73.59658099999993}, "138451380RR0001": {"name": "FONDATION MARC CHOUINARD", "designationCode": "B", "categoryCode": "03", "address": "226 RUE LA FAYETTE", "city": "PONT-VIAU", "province": "QC", "country": "CA", "postalCode": "H7G1M2", "twitter": "None", "instagram": "None", "facebook": "None", "youtube": "None", "website": "None", "summary": "None", "logo": "None", "latitude": 45.571160587021694, "longitude": -73.6774759318771}, "874645617RR0001": {"name": "FONDATION MARC-ANDRE JACQUES", "designationCode": "A", "categoryCode": "03", "address": "272 PRINCIPALE", "city": "EAST BROUGHTON", "province": "QC", "country": "CA", "postalCode": "G0N1G0", "twitter": "None", "instagram": "None", "facebook": "None", "youtube": "None", "website": "None", "summary": "None", "logo": "None", "latitude": 46.21627085703178, "longitude": -71.07470602215969}, "890656754RR0001": {"name": "FONDATION MARC-LAFLAMME - LE PRELUDE", "designationCode": "C", "categoryCode": "21", "address": "555 19E AV", "city": "POINTE-AUX-TREMBLES", "province": "QC", "country": "CA", "postalCode": "H1B3E3", "twitter": "None", "instagram": "None", "facebook": "None", "youtube": "None", "website": "None", "summary": "None", "logo": "None", "latitude": 45.645690372756576, "longitude": -73.49051670690753}, "887954642RR0001": {"name": "FONDATION MARCEL DESLAURIERS", "designationCode": "B", "categoryCode": "03", "address": "2551, AVENUE CAP-AU-DIABLE", "city": "SILLERY", "province": "QC", "country": "CA", "postalCode": "G1T2V5", "twitter": "None", "instagram": "None", "facebook": "None", "youtube": "None", "website": "None", "summary": "None", "logo": "None", "latitude": 46.763905348866125, "longitude": -71.26627014308379}, "864629886RR0001": {"name": "FONDATION MARCEL ET ROLANDE GOSSELIN", "designationCode": "B", "categoryCode": "05", "address": "2653 DES HARFANGS", "city": "SAINT-LAURENT", "province": "QC", "country": "CA", "postalCode": "H4R2W3", "twitter": "None", "instagram": "None", "facebook": "None", "youtube": "None", "website": "None", "summary": "None", "logo": "None"}, "118924042RR0001": {"name": "FONDATION MARCEL-BEAUDET", "designationCode": "C", "categoryCode": "21", "address": "4115 RUE SAINT-JACQUES", "city": "MONTREAL", "province": "QC", "country": "CA", "postalCode": "H4C1J3", "twitter": "None", "instagram": "None", "facebook": "None", "youtube": "None", "website": "None", "summary": "None", "logo": "None", "latitude": 45.47721069282659, "longitude": -73.58702256041859}, "139191530RR0001": {"name": "FONDATION MARCEL-VAILLANCOURT POUR L'ENFANCE LAVALLOISE", "designationCode": "A", "categoryCode": "03", "address": "308 BOUL. CARTIER OUEST", "city": "LAVAL", "province": "QC", "country": "CA", "postalCode": "H7N2J2", "twitter": "None", "instagram": "None", "facebook": "None", "youtube": "None", "website": "None", "summary": "None", "logo": "None", "latitude": 45.5563346193241, "longitude": -73.69948047432479}, "896136165RR0001": {"name": "FONDATION MARCELLE-FERRON", "designationCode": "C", "categoryCode": "09", "address": "8600, BOUL. MARIE-VICTORIN", "city": "BROSSARD", "province": "QC", "country": "CA", "postalCode": "J4X1A1", "twitter": "None", "instagram": "None", "facebook": "None", "youtube": "None", "website": "None", "summary": "None", "logo": "None", "latitude": 45.44534545441122, "longitude": -73.49445034096027}, "893102178RR0001": {"name": "FONDATION MARECAGES MEMPHREMAGOG/MEMPHREMAGOG WETLAND FOUNDATION", "designationCode": "B", "categoryCode": "52", "address": "98 CH SOUTHIERE", "city": "MAGOG", "province": "QC", "country": "CA", "postalCode": "J1X0P1", "twitter": "None", "instagram": "None", "facebook": "None", "youtube": "None", "website": "None", "summary": "None", "logo": "None", "latitude": 45.276386310455344, "longitude": -72.18306629243186}, "774006118RR0001": {"name": "FONDATION MARIA HOUDE GALIBOIS", "designationCode": "B", "categoryCode": "05", "address": "900 - 2828 BOUL LAURIER", "city": "QUEBEC", "province": "QC", "country": "CA", "postalCode": "G1V0B9", "twitter": "None", "instagram": "None", "facebook": "None", "youtube": "None", "website": "None", "summary": "None", "logo": "None", "latitude": 46.76745081020227, "longitude": -71.28815594454348}, "808148340RR0001": {"name": "FONDATION MARIE REINE DE LA PAIX", "designationCode": "C", "categoryCode": "09", "address": "2900 GUY HOFFMAN", "city": "VILLE ST. LAURENT", "province": "QC", "country": "CA", "postalCode": "H4R2R1", "twitter": "None", "instagram": "None", "facebook": "None", "youtube": "None", "website": "None", "summary": "None", "logo": "None", "latitude": 45.50608302386179, "longitude": -73.73516268402669}, "882220965RR0001": {"name": "FONDATION MARIE-\u00c8VE SAULNIER", "designationCode": "C", "categoryCode": "11", "address": "3925 BOUL. GRANDE-ALL\u00c9E       SUITE 102", "city": "ST-HUBERT", "province": "QC", "country": "CA", "postalCode": "J4T2V8", "twitter": "None", "instagram": "None", "facebook": "None", "youtube": "None", "website": "None", "summary": "None", "logo": "None", "latitude": 45.489552913151215, "longitude": -73.46537699039206}, "124472150RR0001": {"name": "FONDATION MARIE-JEUNESSE INC.", "designationCode": "A", "categoryCode": "43", "address": "1021 RUE DU CONSEIL", "city": "SHERBROOKE", "province": "QC", "country": "CA", "postalCode": "J1G1M2", "twitter": "None", "instagram": "None", "facebook": "None", "youtube": "None", "website": "None", "summary": "None", "logo": "None", "latitude": 45.40384493964161, "longitude": -71.86679647202344}, "891045288RR0001": {"name": "FONDATION MARIE-LOUISE CLARAC", "designationCode": "A", "categoryCode": "23", "address": "3530 BOUL. GOUIN EST", "city": "MONTREAL", "province": "QC", "country": "CA", "postalCode": "H1H1B7", "twitter": "None", "instagram": "None", "facebook": "None", "youtube": "None", "website": "None", "summary": "None", "logo": "None", "latitude": 45.591237086012065, "longitude": -73.64970919366422}, "118924091RR0001": {"name": "FONDATION MARIE-VINCENT", "designationCode": "A", "categoryCode": "01", "address": "4689B AV. PAPINEAU            3E \u00c9TAGE", "city": "MONTR\u00c9AL", "province": "QC", "country": "CA", "postalCode": "H2H1V4", "twitter": "None", "instagram": "None", "facebook": "None", "youtube": "None", "website": "None", "summary": "None", "logo": "None", "latitude": 45.533974898664795, "longitude": -73.57673513822341}, "865967970RR0001": {"name": "FONDATION MARIJO", "designationCode": "C", "categoryCode": "09", "address": "302 - 1717 BOUL LEBEL", "city": "CHAMBLY", "province": "QC", "country": "CA", "postalCode": "J3L0S3", "twitter": "None", "instagram": "None", "facebook": "None", "youtube": "None", "website": "None", "summary": "None", "logo": "None", "latitude": 45.44019362366542, "longitude": -73.31565662213619}, "817495070RR0001": {"name": "FONDATION MARTIN MATTE", "designationCode": "C", "categoryCode": "09", "address": "3095 AUTOROUTE LAVAL OUEST", "city": "LAVAL", "province": "QC", "country": "CA", "postalCode": "H7P4W5", "twitter": "None", "instagram": "None", "facebook": "None", "youtube": "None", "website": "None", "summary": "None", "logo": "None"}, "101836377RR0001": {"name": "FONDATION MARTINEAU-DRAPEAU", "designationCode": "B", "categoryCode": "21", "address": "3150 RUE SHERBROOKE E", "city": "MONTREAL", "province": "QC", "country": "CA", "postalCode": "H1W1B7", "twitter": "None", "instagram": "None", "facebook": "None", "youtube": "None", "website": "None", "summary": "None", "logo": "None", "latitude": 45.54325139993659, "longitude": -73.5574106288882}, "886105659RR0001": {"name": "FONDATION MARYMOUNT/MARYMOUNT FOUNDATION", "designationCode": "C", "categoryCode": "21", "address": "5100 COTE ST. LUC ROAD", "city": "MONTREAL", "province": "QC", "country": "CA", "postalCode": "H3W2G9", "twitter": "None", "instagram": "None", "facebook": "None", "youtube": "None", "website": "None", "summary": "None", "logo": "None", "latitude": 45.48252033441076, "longitude": -73.62054422101711}, "803302470RR0001": {"name": "FONDATION MATHIEU LAFOND", "designationCode": "A", "categoryCode": "03", "address": "58 RUE DES JARDINS-DE-L'AURORE", "city": "LAVALTRIE", "province": "QC", "country": "CA", "postalCode": "J5T1A9", "twitter": "None", "instagram": "None", "facebook": "None", "youtube": "None", "website": "None", "summary": "None", "logo": "None", "latitude": 45.89276868414225, "longitude": -73.26867920491696}, "891370660RR0001": {"name": "FONDATION MAURICE TANGUAY INC.", "designationCode": "A", "categoryCode": "03", "address": "4815, BOUL DE L'ORMI\u00c8RE       BUREAU 280", "city": "QUEBEC", "province": "QC", "country": "CA", "postalCode": "G1P1K6", "twitter": "None", "instagram": "None", "facebook": "None", "youtube": "None", "website": "None", "summary": "None", "logo": "None", "latitude": 46.81753618854549, "longitude": -71.33032481010486}, "891107799RR0001": {"name": "FONDATION MAURICE-LAMARCHE, S J", "designationCode": "C", "categoryCode": "09", "address": "1930 RUE DE CHAMPLAIN", "city": "MONTREAL", "province": "QC", "country": "CA", "postalCode": "H2L2S8", "twitter": "None", "instagram": "None", "facebook": "None", "youtube": "None", "website": "None", "summary": "None", "logo": "None", "latitude": 45.52464187342041, "longitude": -73.5591233802584}, "874932122RR0001": {"name": "FONDATION MAXIME D POMERLEAU", "designationCode": "C", "categoryCode": "15", "address": "C.P. 1272", "city": "JONQUIERE", "province": "QC", "country": "CA", "postalCode": "G7S4K8", "twitter": "None", "instagram": "None", "facebook": "None", "youtube": "None", "website": "None", "summary": "None", "logo": "None", "latitude": 48.41346300000005, "longitude": -71.25355249999993}, "861464428RR0001": {"name": "FONDATION MAXIME ROCHER PERRAULT", "designationCode": "B", "categoryCode": "03", "address": "220 CHEMIN COTE STE CATHERINE", "city": "OUTREMONT", "province": "QC", "country": "CA", "postalCode": "H2V2A8", "twitter": "None", "instagram": "None", "facebook": "None", "youtube": "None", "website": "None", "summary": "None", "logo": "None", "latitude": 45.51605756116935, "longitude": -73.59852902830518}, "836803346RR0001": {"name": "FONDATION MAXIME-LETENDRE", "designationCode": "C", "categoryCode": "11", "address": "1515, BOULEVARD CHOMEDEY", "city": "LAVAL", "province": "QC", "country": "CA", "postalCode": "H7V3Y7", "twitter": "None", "instagram": "None", "facebook": "None", "youtube": "None", "website": "None", "summary": "None", "logo": "None", "latitude": 45.552111735789616, "longitude": -73.74652312320406}, "136776721RR0001": {"name": "FONDATION MCABBIE", "designationCode": "B", "categoryCode": "23", "address": "95, AVENUE DE LA GIRONDE", "city": "SAINT-LAMBERT", "province": "QC", "country": "CA", "postalCode": "J4S1X3", "twitter": "None", "instagram": "None", "facebook": "None", "youtube": "None", "website": "None", "summary": "None", "logo": "None", "latitude": 45.4786594565756, "longitude": -73.49464341618096}, "872967757RR0001": {"name": "FONDATION MEDAILLE MIRACULEUSE MONTREAL", "designationCode": "B", "categoryCode": "45", "address": "6511 RUE SAINT-DENIS", "city": "MONTREAL", "province": "QC", "country": "CA", "postalCode": "H2S2S1", "twitter": "None", "instagram": "None", "facebook": "None", "youtube": "None", "website": "None", "summary": "None", "logo": "None", "latitude": 45.53417322540227, "longitude": -73.6053316004388}, "118924133RR0001": {"name": "FONDATION MEDICALE AGAPE", "designationCode": "C", "categoryCode": "09", "address": "245, RUE MULLIN", "city": "GRANBY", "province": "QC", "country": "CA", "postalCode": "J2G4N3", "twitter": "None", "instagram": "None", "facebook": "None", "youtube": "None", "website": "None", "summary": "None", "logo": "None", "latitude": 45.40828847876396, "longitude": -72.71461627849287}, "874949316RR0001": {"name": "FONDATION MELISSA ET SES AMI(E)S INC.", "designationCode": "C", "categoryCode": "11", "address": "219, RUE HENRI", "city": "MEMRAMCOOK", "province": "NB", "country": "CA", "postalCode": "E4K2H3", "twitter": "None", "instagram": "None", "facebook": "None", "youtube": "None", "website": "None", "summary": "None", "logo": "None", "latitude": 45.97273036329285, "longitude": -64.57217146782833}, "884276718RR0001": {"name": "FONDATION MEMOIRE DU COEUR", "designationCode": "B", "categoryCode": "03", "address": "68 RUE BOISE DU PARC", "city": "PINCOURT", "province": "QC", "country": "CA", "postalCode": "J7W9B7", "twitter": "None", "instagram": "None", "facebook": "None", "youtube": "None", "website": "None", "summary": "None", "logo": "None", "latitude": 45.369460392463424, "longitude": -73.9883443348721}, "118924182RR0001": {"name": "FONDATION MGR. ARTHUR DESCHENES", "designationCode": "B", "categoryCode": "05", "address": "100 BERLOZ APT 702", "city": "VERDUN", "province": "QC", "country": "CA", "postalCode": "H3E1N4", "twitter": "None", "instagram": "None", "facebook": "None", "youtube": "None", "website": "None", "summary": "None", "logo": "None", "latitude": 45.464098466790084, "longitude": -73.54111582662047}, "118924208RR0001": {"name": "FONDATION MGR. JOSEPH CHEVALIER", "designationCode": "B", "categoryCode": "09", "address": "4 VENCE", "city": "GATINEAU", "province": "QC", "country": "CA", "postalCode": "J8T5Z3", "twitter": "None", "instagram": "None", "facebook": "None", "youtube": "None", "website": "None", "summary": "None", "logo": "None", "latitude": 45.49061491589251, "longitude": -75.73501536620704}, "868695024RR0001": {"name": "FONDATION MICHAUD", "designationCode": "B", "categoryCode": "03", "address": "410 - 1455 RUE SHERBROOKE O", "city": "MONTREAL", "province": "QC", "country": "CA", "postalCode": "H3G1L2", "twitter": "None", "instagram": "None", "facebook": "None", "youtube": "None", "website": "None", "summary": "None", "logo": "None", "latitude": 45.49849279679926, "longitude": -73.57986198775457}, "858843998RR0001": {"name": "FONDATION MICHEL PETIT", "designationCode": "C", "categoryCode": "11", "address": "188, RUE MONTCALM             BUREAU 300", "city": "GATINEAU", "province": "QC", "country": "CA", "postalCode": "J8Y3B5", "twitter": "None", "instagram": "None", "facebook": "None", "youtube": "None", "website": "None", "summary": "None", "logo": "None", "latitude": 45.429930874891355, "longitude": -75.72806444500576}, "892872961RR0001": {"name": "FONDATION MINORIT\u00c9 INVISIBLE", "designationCode": "A", "categoryCode": "03", "address": "6462 BOUL SAINT-LAURENT", "city": "MONTREAL", "province": "QC", "country": "CA", "postalCode": "H2S3C4", "twitter": "None", "instagram": "None", "facebook": "None", "youtube": "None", "website": "None", "summary": "None", "logo": "None", "latitude": 45.530390840671814, "longitude": -73.6089420266604}, "118924232RR0001": {"name": "FONDATION MIRA INC.", "designationCode": "C", "categoryCode": "09", "address": "1820 RANG NORD OUEST", "city": "STE-MADELEINE", "province": "QC", "country": "CA", "postalCode": "J0H1S0", "twitter": "None", "instagram": "None", "facebook": "None", "youtube": "None", "website": "None", "summary": "None", "logo": "None", "latitude": 45.58645578824505, "longitude": -73.11101870558079}, "118925148RR0001": {"name": "FONDATION MIRELLA & LINO SAPUTO", "designationCode": "B", "categoryCode": "03", "address": "200 - 8000 BOUL LANGELIER", "city": "SAINT-LEONARD", "province": "QC", "country": "CA", "postalCode": "H1P3K2", "twitter": "None", "instagram": "None", "facebook": "None", "youtube": "None", "website": "None", "summary": "None", "logo": "None", "latitude": 45.59449782177304, "longitude": -73.58091260384299}, "872466958RR0001": {"name": "FONDATION MIRYAM BERDUGO COHEN", "designationCode": "B", "categoryCode": "03", "address": "5598 RUE EDGEMORE", "city": "C\u00d4TE-ST-LUC", "province": "QC", "country": "CA", "postalCode": "H4W1V5", "twitter": "None", "instagram": "None", "facebook": "None", "youtube": "None", "website": "None", "summary": "None", "logo": "None", "latitude": 45.46777384817366, "longitude": -73.6588468936755}, "856249776RR0001": {"name": "FONDATION MISE SUR TOI INC.", "designationCode": "C", "categoryCode": "59", "address": "606 RUE CATHCART, BUREAU 1000", "city": "MONTR\u00c9AL", "province": "QC", "country": "CA", "postalCode": "H3B1K9", "twitter": "None", "instagram": "None", "facebook": "None", "youtube": "None", "website": "None", "summary": "None", "logo": "None", "latitude": 45.50352944489019, "longitude": -73.56822896984849}, "874092026RR0001": {"name": "FONDATION MISERERE 2000", "designationCode": "A", "categoryCode": "03", "address": "30, CHEMIN DES ANCOLIES", "city": "SAINTE-ANNE-DES-LACS", "province": "QC", "country": "CA", "postalCode": "J0R1B0", "twitter": "None", "instagram": "None", "facebook": "None", "youtube": "None", "website": "None", "summary": "None", "logo": "None", "latitude": 45.880965057363014, "longitude": -74.10573882791101}, "875293201RR0001": {"name": "FONDATION MISSION PROSP\u00c9RIT\u00c9 / MISSION PROSPERITY FOUNDATION / FUNDACION MISION PROSPERIDAD", "designationCode": "A", "categoryCode": "03", "address": "4 - 678 RUE BRODEUR", "city": "LONGUEUIL", "province": "QC", "country": "CA", "postalCode": "J4J2S8", "twitter": "None", "instagram": "None", "facebook": "None", "youtube": "None", "website": "None", "summary": "None", "logo": "None", "latitude": 45.53574256036127, "longitude": -73.47155854896431}, "890783178RR0001": {"name": "FONDATION MISSIONS MARISTES", "designationCode": "C", "categoryCode": "49", "address": "751, CHEMIN DES PATRIOTES EST", "city": "SAINT-JEAN-SUR-RICHELIEU", "province": "QC", "country": "CA", "postalCode": "J2X4J3", "twitter": "None", "instagram": "None", "facebook": "None", "youtube": "None", "website": "None", "summary": "None", "logo": "None", "latitude": 45.380582927549284, "longitude": -73.24656745856616}, "887783207RR0001": {"name": "FONDATION MONIQUE ET BERNARD CASAVANT", "designationCode": "B", "categoryCode": "03", "address": "2540 BOUL. DANIEL JOHNSON     BUREAU 1000", "city": "LAVAL", "province": "QC", "country": "CA", "postalCode": "H7T2S3", "twitter": "None", "instagram": "None", "facebook": "None", "youtube": "None", "website": "None", "summary": "None", "logo": "None", "latitude": 45.567061785446434, "longitude": -73.75546153915388}, "870845161RR0001": {"name": "FONDATION MONIQUE ET ROBERT PARIZEAU", "designationCode": "B", "categoryCode": "05", "address": "319-2333, RUE SHERBROOK OUEST", "city": "MONTREAL", "province": "QC", "country": "CA", "postalCode": "H3H2T6", "twitter": "None", "instagram": "None", "facebook": "None", "youtube": "None", "website": "None", "summary": "None", "logo": "None", "latitude": 45.49156757428074, "longitude": -73.58761754857731}, "893078576RR0001": {"name": "FONDATION MONPETIT INC", "designationCode": "A", "categoryCode": "13", "address": "15 CHARRIERE RD", "city": "STE ANNE", "province": "MB", "country": "CA", "postalCode": "R5H1C9", "twitter": "None", "instagram": "None", "facebook": "None", "youtube": "None", "website": "None", "summary": "None", "logo": "None", "latitude": 49.664898376999744, "longitude": -96.64090910540266}, "135285658RR0001": {"name": "FONDATION MONTESSORI DE QU\u00c9BEC", "designationCode": "C", "categoryCode": "20", "address": "1265, AVENUE DU BUISSON", "city": "SILLERY", "province": "QC", "country": "CA", "postalCode": "G1T2C4", "twitter": "None", "instagram": "None", "facebook": "None", "youtube": "None", "website": "None", "summary": "None", "logo": "None", "latitude": 46.77983483622841, "longitude": -71.25673118047733}, "144250248RR0001": {"name": "FONDATION MOSD/MOSD FOUNDATION", "designationCode": "A", "categoryCode": "03", "address": "4670 RUE SAINTE-CATHERINE O", "city": "WESTMOUNT", "province": "QC", "country": "CA", "postalCode": "H3Z1S5", "twitter": "None", "instagram": "None", "facebook": "None", "youtube": "None", "website": "None", "summary": "None", "logo": "None", "latitude": 45.47872023729016, "longitude": -73.5960816115473}, "118924331RR0001": {"name": "FONDATION MOUNT SINAI HOSPITAL MOUNT SINAI HOSPITAL FOUNDATION", "designationCode": "B", "categoryCode": "13", "address": "5690 BLVD CAVENDISH", "city": "COTE ST LUC", "province": "QC", "country": "CA", "postalCode": "H4W2S7", "twitter": "None", "instagram": "None", "facebook": "None", "youtube": "None", "website": "None", "summary": "None", "logo": "None", "latitude": 45.474192484563666, "longitude": -73.65769088926076}, "851820142RR0001": {"name": "FONDATION MURCAR FOUNDATION INC.", "designationCode": "C", "categoryCode": "09", "address": "155 CARLISLE RD", "city": "DOUGLAS", "province": "NB", "country": "CA", "postalCode": "E3G7M7", "twitter": "None", "instagram": "None", "facebook": "None", "youtube": "None", "website": "None", "summary": "None", "logo": "None", "latitude": 45.9890709314047, "longitude": -66.75995959030453}, "888573334RR0001": {"name": "FONDATION MUS\u00c9E MILITAIRE BAIE DES CHALEURS/BAY CHALEUR MILITARY MUSEUM", "designationCode": "A", "categoryCode": "53", "address": "351 A PERRON BLVD WEST", "city": "NEW RICHMOND", "province": "QC", "country": "CA", "postalCode": "G0C2B0", "twitter": "None", "instagram": "None", "facebook": "None", "youtube": "None", "website": "None", "summary": "None", "logo": "None"}, "891092645RR0001": {"name": "FONDATION MUSIQUE DE L'\u00c9COLE SECONDAIRE SAINT-LUC", "designationCode": "C", "categoryCode": "23", "address": "6300 CHEMIN DE LA COTE-ST-LUC", "city": "MONTREAL", "province": "QC", "country": "CA", "postalCode": "H3X2H4", "twitter": "None", "instagram": "None", "facebook": "None", "youtube": "None", "website": "None", "summary": "None", "logo": "None", "latitude": 45.474250069334985, "longitude": -73.64347997746587}, "139596076RR0001": {"name": "FONDATION MUSIQUE EN T\u00caTE", "designationCode": "C", "categoryCode": "22", "address": "1860, 1 ERE RUE", "city": "ST ROMUALD", "province": "QC", "country": "CA", "postalCode": "G6W5M6", "twitter": "None", "instagram": "None", "facebook": "None", "youtube": "None", "website": "None", "summary": "None", "logo": "None", "latitude": 46.746352702760014, "longitude": -71.22254196900202}, "890605991RR0001": {"name": "FONDATION MYRA-FARHI (CENTRE DE READAPTATION LA RESSOURSE)", "designationCode": "C", "categoryCode": "09", "address": "135, BOUL. ST-RAYMOND", "city": "GATINEAU", "province": "QC", "country": "CA", "postalCode": "J8Y6X7", "twitter": "None", "instagram": "None", "facebook": "None", "youtube": "None", "website": "None", "summary": "None", "logo": "None", "latitude": 45.44645802216142, "longitude": -75.7462813174073}, "875359424RR0001": {"name": "FONDATION NESSIM KNAFO", "designationCode": "B", "categoryCode": "03", "address": "28, RUE FALLBROOK", "city": "HAMPSTEAD", "province": "QC", "country": "CA", "postalCode": "H3X3X4", "twitter": "None", "instagram": "None", "facebook": "None", "youtube": "None", "website": "None", "summary": "None", "logo": "None", "latitude": 45.479766478756424, "longitude": -73.64998858933807}, "861319812RR0001": {"name": "FONDATION NICOLE-SAINT-LOUIS", "designationCode": "B", "categoryCode": "23", "address": "381 RUE D'AMOUR", "city": "LASALLE", "province": "QC", "country": "CA", "postalCode": "H8R3E8", "twitter": "None", "instagram": "None", "facebook": "None", "youtube": "None", "website": "None", "summary": "None", "logo": "None", "latitude": 45.430767398551595, "longitude": -73.64315824352258}, "854273232RR0001": {"name": "FONDATION NO\u00cbL AU PRINTEMPS", "designationCode": "C", "categoryCode": "15", "address": "978 RUE VALIQUETTE", "city": "SAINTE-ADELE", "province": "QC", "country": "CA", "postalCode": "J8B2M3", "twitter": "None", "instagram": "None", "facebook": "None", "youtube": "None", "website": "None", "summary": "None", "logo": "None", "latitude": 45.95002243046346, "longitude": -74.13428405900495}, "119056562RR0001": {"name": "FONDATION NOQ", "designationCode": "C", "categoryCode": "47", "address": "CP 33039 CSP THIBEAU", "city": "TROIS-RIVIERES", "province": "QC", "country": "CA", "postalCode": "G8T9T8", "twitter": "None", "instagram": "None", "facebook": "None", "youtube": "None", "website": "None", "summary": "None", "logo": "None", "latitude": 46.37919070182273, "longitude": -72.54201770265124}, "894942952RR0001": {"name": "FONDATION NORDIQUES", "designationCode": "C", "categoryCode": "53", "address": "710-900 BOUL RENE-LEVESQUE E", "city": "QUEBEC", "province": "QC", "country": "CA", "postalCode": "G1R2B5", "twitter": "None", "instagram": "None", "facebook": "None", "youtube": "None", "website": "None", "summary": "None", "logo": "None", "latitude": 46.80963334139298, "longitude": -71.21594556370816}, "890982051RR0001": {"name": "FONDATION NORMAN FORTIER", "designationCode": "B", "categoryCode": "15", "address": "7000 BOUL LOUIS-H-LAFONTAINE", "city": "ANJOU", "province": "QC", "country": "CA", "postalCode": "H1M2X3", "twitter": "None", "instagram": "None", "facebook": "None", "youtube": "None", "website": "None", "summary": "None", "logo": "None", "latitude": 45.59980670131029, "longitude": -73.55570256096685}, "890251465RR0001": {"name": "FONDATION NORMAND CLARK", "designationCode": "C", "categoryCode": "09", "address": "227 RANG LEPAGE", "city": "STE-ANNE-DES-PLAINES", "province": "QC", "country": "CA", "postalCode": "J0N1H0", "twitter": "None", "instagram": "None", "facebook": "None", "youtube": "None", "website": "None", "summary": "None", "logo": "None", "latitude": 45.731795427145244, "longitude": -73.81877131779098}, "848074597RR0001": {"name": "FONDATION NOROU DARAYNI", "designationCode": "C", "categoryCode": "60", "address": "4255, AVENUE DE COURTRAI      1ER ETAGE", "city": "MONTREAL", "province": "QC", "country": "CA", "postalCode": "H3S1B8", "twitter": "None", "instagram": "None", "facebook": "None", "youtube": "None", "website": "None", "summary": "None", "logo": "None", "latitude": 45.50032447850415, "longitude": -73.64296566114585}, "853788131RR0001": {"name": "FONDATION NOTRE-DAME DE ROC-AMADOUR", "designationCode": "C", "categoryCode": "50", "address": "3055 2E AV", "city": "QUEBEC", "province": "QC", "country": "CA", "postalCode": "G1L3G1", "twitter": "None", "instagram": "None", "facebook": "None", "youtube": "None", "website": "None", "summary": "None", "logo": "None", "latitude": 46.83967693669587, "longitude": -71.2431754373301}, "889932604RR0001": {"name": "FONDATION NOTRE-DAME DE SAINT-LEONARD INC.", "designationCode": "A", "categoryCode": "09", "address": "604, RUE PRINCIPALE", "city": "SAINT-LEONARD", "province": "NB", "country": "CA", "postalCode": "E7E2H5", "twitter": "None", "instagram": "None", "facebook": "None", "youtube": "None", "website": "None", "summary": "None", "logo": "None", "latitude": 47.16787962992135, "longitude": -67.92708184251073}, "860476811RR0001": {"name": "FONDATION NOUVEL ESSOR", "designationCode": "C", "categoryCode": "09", "address": "191 RUE LANGEVIN", "city": "SAINTE-JUSTINE", "province": "QC", "country": "CA", "postalCode": "G0R1Y0", "twitter": "None", "instagram": "None", "facebook": "None", "youtube": "None", "website": "None", "summary": "None", "logo": "None", "latitude": 46.409050897570644, "longitude": -70.34756712917667}, "877266908RR0001": {"name": "FONDATION OBJECTIF 2000 INC.", "designationCode": "C", "categoryCode": "21", "address": "715 PRIESTMAN STREET", "city": "FREDERICTON", "province": "NB", "country": "CA", "postalCode": "E3B5W7", "twitter": "None", "instagram": "None", "facebook": "None", "youtube": "None", "website": "None", "summary": "None", "logo": "None", "latitude": 45.93991948349581, "longitude": -66.65361315791455}, "886561430RR0001": {"name": "FONDATION OLIVIER BEAUDOIN", "designationCode": "C", "categoryCode": "21", "address": "20 RUE MGR SCHEFFER", "city": "LOURDES DE BLANC-SABLON", "province": "QC", "country": "CA", "postalCode": "G0G1W0", "twitter": "None", "instagram": "None", "facebook": "None", "youtube": "None", "website": "None", "summary": "None", "logo": "None", "latitude": 51.41469010678679, "longitude": -57.187980905851866}, "138775382RR0001": {"name": "FONDATION OLO", "designationCode": "C", "categoryCode": "09", "address": "230-550 RUE SHERBROOKE OUEST  TOUR EST", "city": "MONTR\u00c9AL", "province": "QC", "country": "CA", "postalCode": "H3A1B9", "twitter": "None", "instagram": "None", "facebook": "None", "youtube": "None", "website": "None", "summary": "None", "logo": "None", "latitude": 45.505940940879476, "longitude": -73.57271328890887}, "891710428RR0001": {"name": "FONDATION OPHTALMOLOGIE, RECHERCHE ET D\u00c9VELOPPEMENT (FONDATION OPHTALMOLOGIE R & D)", "designationCode": "C", "categoryCode": "11", "address": "2709 RUE MORGAN", "city": "QUEBEC", "province": "QC", "country": "CA", "postalCode": "G1W4R9", "twitter": "None", "instagram": "None", "facebook": "None", "youtube": "None", "website": "None", "summary": "None", "logo": "None", "latitude": 46.765690658347225, "longitude": -71.27973298557328}, "893186379RR0001": {"name": "FONDATION OPTI-VIE INC", "designationCode": "C", "categoryCode": "09", "address": "5100 RUE BOSSUET", "city": "MONTREAL", "province": "QC", "country": "CA", "postalCode": "H1M2M4", "twitter": "None", "instagram": "None", "facebook": "None", "youtube": "None", "website": "None", "summary": "None", "logo": "None", "latitude": 45.57773620618638, "longitude": -73.55158138539427}, "130784259RR0001": {"name": "FONDATION OPTIMISTE STE-TH\u00c9R\u00c8SE INC.", "designationCode": "C", "categoryCode": "09", "address": "100, BOUL. DUCHARME, LOCAL 105", "city": "STE-TH\u00c9R\u00c8SE", "province": "QC", "country": "CA", "postalCode": "J7E4R6", "twitter": "None", "instagram": "None", "facebook": "None", "youtube": "None", "website": "None", "summary": "None", "logo": "None", "latitude": 45.64383304861761, "longitude": -73.84623876262292}, "828395749RR0001": {"name": "FONDATION ORCHESTRE SYMPHONIQUE DE LONGUEUIL", "designationCode": "C", "categoryCode": "23", "address": "156 BOUL CHURCHILL", "city": "GREENFIELD PARK", "province": "QC", "country": "CA", "postalCode": "J4V2M3", "twitter": "None", "instagram": "None", "facebook": "None", "youtube": "None", "website": "None", "summary": "None", "logo": "None", "latitude": 45.491839499884435, "longitude": -73.48700773108642}, "859067902RR0001": {"name": "FONDATION ORDINA-COEUR", "designationCode": "C", "categoryCode": "19", "address": "500 RUE FILION", "city": "SAINT-JEROME", "province": "QC", "country": "CA", "postalCode": "J7Z1H9", "twitter": "None", "instagram": "None", "facebook": "None", "youtube": "None", "website": "None", "summary": "None", "logo": "None", "latitude": 45.7876015794912, "longitude": -73.99780966457965}, "890848146RR0001": {"name": "FONDATION P\u00c8RE LINDSAY", "designationCode": "A", "categoryCode": "23", "address": "501-10 RUE DES JARDINS MERICI", "city": "QUEBEC", "province": "QC", "country": "CA", "postalCode": "G1S4T1", "twitter": "None", "instagram": "None", "facebook": "None", "youtube": "None", "website": "None", "summary": "None", "logo": "None", "latitude": 46.793991741589345, "longitude": -71.2341385594959}, "876969874RR0001": {"name": "FONDATION PAIN ET ESPOIR", "designationCode": "C", "categoryCode": "11", "address": "6430 RUE DU GEAI-BLEU", "city": "LAVAL", "province": "QC", "country": "CA", "postalCode": "H7L3V3", "twitter": "None", "instagram": "None", "facebook": "None", "youtube": "None", "website": "None", "summary": "None", "logo": "None", "latitude": 45.59285103857696, "longitude": -73.77845503370088}, "131634594RR0001": {"name": "FONDATION PALLI-AMI", "designationCode": "C", "categoryCode": "19", "address": "CASE POSTALE 531              SUCCURSALE C", "city": "MONTREAL", "province": "QC", "country": "CA", "postalCode": "H2L4K4", "twitter": "None", "instagram": "None", "facebook": "None", "youtube": "None", "website": "None", "summary": "None", "logo": "None", "latitude": 45.51239400000006, "longitude": -73.55469049999994}, "131900359RR0001": {"name": "FONDATION PALMYRA INC", "designationCode": "A", "categoryCode": "03", "address": "201A RUE HERIOT", "city": "DRUMMONDVILLE", "province": "QC", "country": "CA", "postalCode": "J2C1J9", "twitter": "None", "instagram": "None", "facebook": "None", "youtube": "None", "website": "None", "summary": "None", "logo": "None", "latitude": 45.885547220785504, "longitude": -72.48970946703096}, "118920495RR0001": {"name": "FONDATION PARENT-GARNEAU", "designationCode": "C", "categoryCode": "25", "address": "210-801, GRANDE ALL\u00c9E OUEST", "city": "QU\u00c9BEC", "province": "QC", "country": "CA", "postalCode": "G1S1C1", "twitter": "None", "instagram": "None", "facebook": "None", "youtube": "None", "website": "None", "summary": "None", "logo": "None"}, "885797332RR0001": {"name": "FONDATION PARENTS SANS FRONTI\u00c8RES", "designationCode": "C", "categoryCode": "11", "address": "3, RUE DES GOELETTES", "city": "VARENNES", "province": "QC", "country": "CA", "postalCode": "J3X2A2", "twitter": "None", "instagram": "None", "facebook": "None", "youtube": "None", "website": "None", "summary": "None", "logo": "None", "latitude": 45.66870053318129, "longitude": -73.438803}, "889715363RR0001": {"name": "FONDATION PAROISSIALE DE LANDRIENNE", "designationCode": "A", "categoryCode": "03", "address": "166 1 IERE RUE OUEST", "city": "LANDRIENNE", "province": "QC", "country": "CA", "postalCode": "J0Y1C0", "twitter": "None", "instagram": "None", "facebook": "None", "youtube": "None", "website": "None", "summary": "None", "logo": "None", "latitude": 48.54642748514058, "longitude": -77.95421999999999}, "118924406RR0001": {"name": "FONDATION PARTAGE CHR\u00c9TIEN", "designationCode": "A", "categoryCode": "49", "address": "262 RUE RACINE PORTE 5", "city": "QU\u00c9BEC", "province": "QC", "country": "CA", "postalCode": "G2B1E6", "twitter": "None", "instagram": "None", "facebook": "None", "youtube": "None", "website": "None", "summary": "None", "logo": "None", "latitude": 46.85190800750181, "longitude": -71.35935922773955}, "865924633RR0001": {"name": "FONDATION PASSAGE", "designationCode": "B", "categoryCode": "03", "address": "1035, AVE LAURIER O.,3E \u00c9TAGE", "city": "OUTREMONT", "province": "QC", "country": "CA", "postalCode": "H2V2L1", "twitter": "None", "instagram": "None", "facebook": "None", "youtube": "None", "website": "None", "summary": "None", "logo": "None", "latitude": 45.51822093173286, "longitude": -73.59711513033051}, "884916313RR0001": {"name": "FONDATION PASTORALE DE DRUMMONDVILLE", "designationCode": "C", "categoryCode": "49", "address": "580 RUE SAINT-PIERRE", "city": "DRUMMONDVILLE", "province": "QC", "country": "CA", "postalCode": "J2C3W5", "twitter": "None", "instagram": "None", "facebook": "None", "youtube": "None", "website": "None", "summary": "None", "logo": "None", "latitude": 45.88188145291161, "longitude": -72.5046614803514}, "846414274RR0001": {"name": "FONDATION PASTORALE DU DIOC\u00c8SE DE NICOLET INC.", "designationCode": "A", "categoryCode": "43", "address": "49, RUE MONSEIGNEUR-BRUNAULT", "city": "NICOLET", "province": "QC", "country": "CA", "postalCode": "J3T1X7", "twitter": "None", "instagram": "None", "facebook": "None", "youtube": "None", "website": "None", "summary": "None", "logo": "None", "latitude": 46.231826101044376, "longitude": -72.61666041935496}, "831492673RR0001": {"name": "FONDATION PASTORALE PENTECOTE", "designationCode": "A", "categoryCode": "43", "address": "21, NOTRE-DAME, APP. 3307", "city": "L\u00c9VIS", "province": "QC", "country": "CA", "postalCode": "G6V4A5", "twitter": "None", "instagram": "None", "facebook": "None", "youtube": "None", "website": "None", "summary": "None", "logo": "None", "latitude": 46.81110189012614, "longitude": -71.18077611258556}, "867320541RR0001": {"name": "FONDATION PATRICK GENDRON", "designationCode": "B", "categoryCode": "03", "address": "131 RUE PLANTE", "city": "ST-GABRIEL-DE-BRANDON", "province": "QC", "country": "CA", "postalCode": "J0K2N0", "twitter": "None", "instagram": "None", "facebook": "None", "youtube": "None", "website": "None", "summary": "None", "logo": "None", "latitude": 46.294770362484805, "longitude": -73.39216460309319}, "868911504RR0001": {"name": "FONDATION PATRO DE LEVIS", "designationCode": "A", "categoryCode": "03", "address": "6150 RUE ST-GEORGES", "city": "LEVIS", "province": "QC", "country": "CA", "postalCode": "G6V4J8", "twitter": "None", "instagram": "None", "facebook": "None", "youtube": "None", "website": "None", "summary": "None", "logo": "None", "latitude": 46.80785820483004, "longitude": -71.17824999708581}, "118924026RR0001": {"name": "FONDATION PATRO LE PREVOST INC.", "designationCode": "A", "categoryCode": "53", "address": "7355, CHRISTOPHE-COLOMB", "city": "MONTREAL", "province": "QC", "country": "CA", "postalCode": "H2R2S5", "twitter": "None", "instagram": "None", "facebook": "None", "youtube": "None", "website": "None", "summary": "None", "logo": "None", "latitude": 45.543334250937505, "longitude": -73.61387196125015}, "131714594RR0001": {"name": "FONDATION PAUL GIROUX", "designationCode": "A", "categoryCode": "13", "address": "888 3 IEME AVENUE             5E ETAGE", "city": "VAL-D'OR", "province": "QC", "country": "CA", "postalCode": "J9P5E6", "twitter": "None", "instagram": "None", "facebook": "None", "youtube": "None", "website": "None", "summary": "None", "logo": "None", "latitude": 48.10333200000005, "longitude": -77.78935699999994}, "892350042RR0001": {"name": "FONDATION PAUL LEBOEUF", "designationCode": "A", "categoryCode": "03", "address": "2464 BOUL PERROT", "city": "NOTRE-DAME-DE-L'ILE-PERROT", "province": "QC", "country": "CA", "postalCode": "J7V8P4", "twitter": "None", "instagram": "None", "facebook": "None", "youtube": "None", "website": "None", "summary": "None", "logo": "None", "latitude": 45.35721783037138, "longitude": -73.92057772872049}, "860826833RR0001": {"name": "FONDATION PAUL PINEAULT POUR SOULAGER L'ALZHEIMER", "designationCode": "A", "categoryCode": "03", "address": "114 AVENUE SAINT-JEROME", "city": "MATANE", "province": "QC", "country": "CA", "postalCode": "G4W3A2", "twitter": "None", "instagram": "None", "facebook": "None", "youtube": "None", "website": "None", "summary": "None", "logo": "None", "latitude": 48.84067022592188, "longitude": -67.53306194696765}, "121002992RR0001": {"name": "FONDATION PAUL TEX LECOR DE L'ECOLE DES HAUTS-BOIS", "designationCode": "C", "categoryCode": "21", "address": "99, RUE NAPOLEON", "city": "MASCOUCHE", "province": "QC", "country": "CA", "postalCode": "J7L3B3", "twitter": "None", "instagram": "None", "facebook": "None", "youtube": "None", "website": "None", "summary": "None", "logo": "None", "latitude": 45.73555551838107, "longitude": -73.67339544700549}, "118924422RR0001": {"name": "FONDATION PAUL-A. FOURNIER", "designationCode": "B", "categoryCode": "03", "address": "5610 TISSERAND", "city": "BROSSARD", "province": "QC", "country": "CA", "postalCode": "J4W3G4", "twitter": "None", "instagram": "None", "facebook": "None", "youtube": "None", "website": "None", "summary": "None", "logo": "None", "latitude": 45.46047596863639, "longitude": -73.48873237757535}, "890439441RR0001": {"name": "FONDATION PAULA O'CONNELL INC", "designationCode": "C", "categoryCode": "09", "address": "220 BOUL. ST-PIERRE EST", "city": "CARAQUET", "province": "NB", "country": "CA", "postalCode": "E1W1B1", "twitter": "None", "instagram": "None", "facebook": "None", "youtube": "None", "website": "None", "summary": "None", "logo": "None", "latitude": 47.79584658670457, "longitude": -64.90932041975898}, "118924463RR0001": {"name": "FONDATION PAX VOBIS-PAX VOBIS FOUNDATION", "designationCode": "C", "categoryCode": "49", "address": "1 RUE BOLAND", "city": "GATINEAU", "province": "QC", "country": "CA", "postalCode": "J8Y1E1", "twitter": "None", "instagram": "None", "facebook": "None", "youtube": "None", "website": "None", "summary": "None", "logo": "None", "latitude": 45.4578944995673, "longitude": -75.75800352844941}, "891079048RR0001": {"name": "FONDATION PEARSON POUR L'\u00c9DUCATION / PEARSON EDUCATIONAL FOUNDATION", "designationCode": "C", "categoryCode": "23", "address": "1925 BROOKDALE AVENUE", "city": "DORVAL", "province": "QC", "country": "CA", "postalCode": "H9P2Y7", "twitter": "None", "instagram": "None", "facebook": "None", "youtube": "None", "website": "None", "summary": "None", "logo": "None", "latitude": 45.45142352380355, "longitude": -73.77169300429917}, "141560722RR0001": {"name": "FONDATION PERE JEAN-PAUL REGIMBAL", "designationCode": "C", "categoryCode": "47", "address": "465 STANLEY", "city": "ROXTON POND", "province": "QC", "country": "CA", "postalCode": "J0E1Z0", "twitter": "None", "instagram": "None", "facebook": "None", "youtube": "None", "website": "None", "summary": "None", "logo": "None", "latitude": 45.478928828206996, "longitude": -72.66416062265579}, "889245445RR0001": {"name": "FONDATION PERE JOSAPHAT JEAN INC /FATHER JOSAPHAT JEAN FOUNDATION INC", "designationCode": "C", "categoryCode": "03", "address": "6185 10E AV", "city": "MONTREAL", "province": "QC", "country": "CA", "postalCode": "H1Y2H5", "twitter": "None", "instagram": "None", "facebook": "None", "youtube": "None", "website": "None", "summary": "None", "logo": "None", "latitude": 45.55289597198327, "longitude": -73.58199634303774}, "101836526RR0001": {"name": "FONDATION PHILIPPE CHABOT INC.", "designationCode": "A", "categoryCode": "13", "address": "37 ST-JEAN-BAPTISTE SUD", "city": "VILLE-MARIE", "province": "QC", "country": "CA", "postalCode": "J9V2A9", "twitter": "None", "instagram": "None", "facebook": "None", "youtube": "None", "website": "None", "summary": "None", "logo": "None", "latitude": 47.326765419672085, "longitude": -79.43854378983251}, "848862678RR0001": {"name": "FONDATION PIERRE DESMARAIS BELV\u00c9D\u00c8RE", "designationCode": "B", "categoryCode": "03", "address": "1, AVENUE MCGILL              APPARTEMENT 705", "city": "MONTREAL", "province": "QC", "country": "CA", "postalCode": "H2Y4A3", "twitter": "None", "instagram": "None", "facebook": "None", "youtube": "None", "website": "None", "summary": "None", "logo": "None", "latitude": 45.49903880824035, "longitude": -73.55368382610087}}