{"890482193RR0001": {"name": "OUR LADY OF THE WHITESHELL CHAPEL", "designationCode": "C", "categoryCode": "38", "address": "204 LAWNDALE AVE", "city": "WINNIPEG", "province": "MB", "country": "CA", "postalCode": "R2H1T5", "twitter": "None", "instagram": "None", "facebook": "None", "youtube": "None", "website": "None", "summary": "None", "logo": "None", "latitude": 49.878385208436725, "longitude": -97.12836760863311}, "107910671RR0001": {"name": "OUR LADY OF VICTORIES PARISH", "designationCode": "C", "categoryCode": "38", "address": "PO BOX 1480", "city": "ESTERHAZY", "province": "SK", "country": "CA", "postalCode": "S0A0X0", "twitter": "None", "instagram": "None", "facebook": "None", "youtube": "None", "website": "None", "summary": "None", "logo": "None", "latitude": 50.65157000000005, "longitude": -102.05784999999997}, "888110996RR0001": {"name": "OUR LADY OF VICTORY", "designationCode": "B", "categoryCode": "38", "address": "1715 DUNDAS STREET EAST", "city": "LONDON", "province": "ON", "country": "CA", "postalCode": "N5W3E1", "twitter": "None", "instagram": "None", "facebook": "None", "youtube": "None", "website": "None", "summary": "None", "logo": "None", "latitude": 43.00178803523009, "longitude": -81.18627674323412}, "119109817RR0102": {"name": "OUR LADY OF VICTORY CATHOLIC POLISH COMMUNITY", "designationCode": "C", "categoryCode": "38", "address": "490 ST CLAIR ST", "city": "CHATHAM", "province": "ON", "country": "CA", "postalCode": "N7L3K8", "twitter": "None", "instagram": "None", "facebook": "None", "youtube": "None", "website": "None", "summary": "None", "logo": "None", "latitude": 42.4187924113622, "longitude": -82.20466103369994}, "107808172RR0001": {"name": "OUR LADY OF VICTORY CHURCH", "designationCode": "C", "categoryCode": "38", "address": "254 ARNOLD AVE", "city": "WINNIPEG", "province": "MB", "country": "CA", "postalCode": "R3L0W5", "twitter": "None", "instagram": "None", "facebook": "None", "youtube": "None", "website": "None", "summary": "None", "logo": "None", "latitude": 49.86606014458435, "longitude": -97.13423151635996}, "118841055RR0012": {"name": "OUR LADY OF VICTORY MISSION", "designationCode": "C", "categoryCode": "38", "address": "1607 BIRCH STREET", "city": "WHITEHORSE", "province": "YT", "country": "CA", "postalCode": "Y1A3X1", "twitter": "None", "instagram": "None", "facebook": "None", "youtube": "None", "website": "None", "summary": "None", "logo": "None", "latitude": 60.76915819288484, "longitude": -135.14871423596253}, "895476166RR0001": {"name": "OUR LADY OF VICTORY PARISH", "designationCode": "C", "categoryCode": "38", "address": "490 CHARLES STREET", "city": "GATINEAU", "province": "QC", "country": "CA", "postalCode": "J8L2K5", "twitter": "None", "instagram": "None", "facebook": "None", "youtube": "None", "website": "None", "summary": "None", "logo": "None", "latitude": 45.58805469830917, "longitude": -75.41557393057903}, "119110450RR0127": {"name": "OUR LADY OF VIETNAM", "designationCode": "C", "categoryCode": "38", "address": "1393 CANNON ST E", "city": "HAMILTON", "province": "ON", "country": "CA", "postalCode": "L8H1W2", "twitter": "None", "instagram": "None", "facebook": "None", "youtube": "None", "website": "None", "summary": "None", "logo": "None", "latitude": 43.24549511408613, "longitude": -79.80833787010218}, "107909939RR0074": {"name": "OUR LADY QUEEN OF PEACE CHURCH", "designationCode": "C", "categoryCode": "38", "address": "2111 UXBRIDGE DR N W", "city": "CALGARY", "province": "AB", "country": "CA", "postalCode": "T2N3Z3", "twitter": "None", "instagram": "None", "facebook": "None", "youtube": "None", "website": "None", "summary": "None", "logo": "None", "latitude": 51.07120529058232, "longitude": -114.1309839229903}, "813569340RR0001": {"name": "OUR LADY QUEEN OF PEACE FOUNDATION (CANADA) INC.", "designationCode": "B", "categoryCode": "09", "address": "2300  605 5 AVENUE S.W.", "city": "CALGARY", "province": "AB", "country": "CA", "postalCode": "T2P3H5", "twitter": "None", "instagram": "None", "facebook": "None", "youtube": "None", "website": "None", "summary": "None", "logo": "None", "latitude": 51.04866451399403, "longitude": -114.0745444730798}, "131106098RR0003": {"name": "OUR LADY QUEEN OF PEACE PARISH", "designationCode": "C", "categoryCode": "38", "address": "P.O. BOX 770 STN B", "city": "HAPPY VALLEY-GOOSE BAY", "province": "NL", "country": "CA", "postalCode": "A0P1E0", "twitter": "None", "instagram": "None", "facebook": "None", "youtube": "None", "website": "None", "summary": "None", "logo": "None", "latitude": 53.29581900000005, "longitude": -60.29593999999993}, "864324041RR0001": {"name": "OUR LADY QUEEN OF PEACE RANCH (NORTHERN ALBERTA) LTD.", "designationCode": "B", "categoryCode": "01", "address": "2300, 605-5TH AVENUE SW", "city": "CALGARY", "province": "AB", "country": "CA", "postalCode": "T2P3H5", "twitter": "None", "instagram": "None", "facebook": "None", "youtube": "None", "website": "None", "summary": "None", "logo": "None", "latitude": 51.049102357620384, "longitude": -114.08736691042554}, "136829512RR0001": {"name": "OUR LADY QUEEN OF PEACE RANCH (SOUTHERN ALBERTA) LTD.", "designationCode": "B", "categoryCode": "09", "address": "2300-605-5TH AVENUE SW", "city": "CALGARY", "province": "AB", "country": "CA", "postalCode": "T2P3H5", "twitter": "None", "instagram": "None", "facebook": "None", "youtube": "None", "website": "None", "summary": "None", "logo": "None", "latitude": 51.049102357620384, "longitude": -114.08736691042554}, "129950804RR0012": {"name": "OUR LADY QUEEN OF THE WORLD AND ST FRANCIS XAVIER PARISH", "designationCode": "C", "categoryCode": "38", "address": "BOX 370", "city": "MILL BAY", "province": "BC", "country": "CA", "postalCode": "V0R2P0", "twitter": "None", "instagram": "None", "facebook": "None", "youtube": "None", "website": "None", "summary": "None", "logo": "None", "latitude": 48.626880094716206, "longitude": -123.52824718342146}, "887208122RR0001": {"name": "OUR LADY SEAT OF WISDOM ACADEMY FOR STUDIES IN CHRISTIAN CULTURE", "designationCode": "C", "categoryCode": "20", "address": "18 KAROL WOJTYLA SQUARE       PO BOX 249", "city": "BARRY'S BAY", "province": "ON", "country": "CA", "postalCode": "K0J1B0", "twitter": "None", "instagram": "None", "facebook": "None", "youtube": "None", "website": "None", "summary": "None", "logo": "None", "latitude": 45.48239863615888, "longitude": -77.68068832168612}, "107910176RR0003": {"name": "OUR LADY STAR OF THE SEA", "designationCode": "C", "categoryCode": "38", "address": "P.O. BOX 1363", "city": "ST. JOHN'S", "province": "NL", "country": "CA", "postalCode": "A1C5N5", "twitter": "None", "instagram": "None", "facebook": "None", "youtube": "None", "website": "None", "summary": "None", "logo": "None", "latitude": 47.56082100000006, "longitude": -52.71219349999993}, "119109817RR0061": {"name": "OUR LADY, QUEEN OF MARTYRS PARISH, ONTARIO", "designationCode": "C", "categoryCode": "38", "address": "110 ADAMS AVE", "city": "DELHI", "province": "ON", "country": "CA", "postalCode": "N4B1P7", "twitter": "None", "instagram": "None", "facebook": "None", "youtube": "None", "website": "None", "summary": "None", "logo": "None", "latitude": 42.853536671100514, "longitude": -80.48896900943505}, "119074094RR0001": {"name": "OUR LADY'S MISSIONARIES", "designationCode": "C", "categoryCode": "46", "address": "2 LEANDER COURT", "city": "TORONTO", "province": "ON", "country": "CA", "postalCode": "M4B2W1", "twitter": "None", "instagram": "None", "facebook": "None", "youtube": "None", "website": "None", "summary": "None", "logo": "None", "latitude": 43.703677070200364, "longitude": -79.30818614611356}, "130599442RR0024": {"name": "OUR MOTHER OF PERPETUAL HELP CHURCH", "designationCode": "C", "categoryCode": "38", "address": "BOX 818-81 MAPLE ST", "city": "NEW LISKEARD", "province": "ON", "country": "CA", "postalCode": "P0J1P0", "twitter": "None", "instagram": "None", "facebook": "None", "youtube": "None", "website": "None", "summary": "None", "logo": "None", "latitude": 47.50599107429317, "longitude": -79.67976917811305}, "890645476RR0001": {"name": "OUR NEIGHBOURHOOD LIVING SOCIETY", "designationCode": "C", "categoryCode": "01", "address": "210-15 DARTMOUTH RD", "city": "BEDFORD", "province": "NS", "country": "CA", "postalCode": "B4A3X6", "twitter": "None", "instagram": "None", "facebook": "None", "youtube": "None", "website": "None", "summary": "None", "logo": "None", "latitude": 44.72832081872548, "longitude": -63.65035986451118}, "895574549RR0001": {"name": "OUR PARENTS' HOME", "designationCode": "C", "categoryCode": "01", "address": "400-10508 82ND AVE", "city": "EDMONTON", "province": "AB", "country": "CA", "postalCode": "T6E2A4", "twitter": "None", "instagram": "None", "facebook": "None", "youtube": "None", "website": "None", "summary": "None", "logo": "None", "latitude": 53.518105486005965, "longitude": -113.50096102553522}, "119074136RR0001": {"name": "OUR PLACE (PEEL)", "designationCode": "C", "categoryCode": "01", "address": "206 - 5170 DIXIE RD", "city": "MISSISSAUGA", "province": "ON", "country": "CA", "postalCode": "L4W1E3", "twitter": "None", "instagram": "None", "facebook": "None", "youtube": "None", "website": "None", "summary": "None", "logo": "None", "latitude": 43.63910564415167, "longitude": -79.62556922361325}, "893337360RR0001": {"name": "OUR PLACE COMMUNITY OF HOPE CENTRE (METROPOLITAN TORONTO)", "designationCode": "C", "categoryCode": "09", "address": "1183 DAVENPORT RD", "city": "TORONTO", "province": "ON", "country": "CA", "postalCode": "M6H2G7", "twitter": "None", "instagram": "None", "facebook": "None", "youtube": "None", "website": "None", "summary": "None", "logo": "None", "latitude": 43.67437764888353, "longitude": -79.43365982347514}, "827098344RR0001": {"name": "OUR PLACE SOCIETY", "designationCode": "C", "categoryCode": "09", "address": "919 PANDORA AVE", "city": "VICTORIA", "province": "BC", "country": "CA", "postalCode": "V8V3P4", "twitter": "None", "instagram": "None", "facebook": "None", "youtube": "None", "website": "None", "summary": "None", "logo": "None", "latitude": 48.42725162334829, "longitude": -123.35773619914589}, "119074110RR0001": {"name": "OUR PLACE/CHEZ NOUS DROP IN CENTER, INC.", "designationCode": "C", "categoryCode": "01", "address": "676 MAIN ST", "city": "WINNIPEG", "province": "MB", "country": "CA", "postalCode": "R3B1E4", "twitter": "None", "instagram": "None", "facebook": "None", "youtube": "None", "website": "None", "summary": "None", "logo": "None", "latitude": 49.90409144991052, "longitude": -97.13491419764534}, "107808297RR0001": {"name": "OUR REDEEMER EVANGELICAL LUTHERAN CHURCH", "designationCode": "C", "categoryCode": "32", "address": "1370 CHURCH ST", "city": "PENTICTON", "province": "BC", "country": "CA", "postalCode": "V2A4R8", "twitter": "None", "instagram": "None", "facebook": "None", "youtube": "None", "website": "None", "summary": "None", "logo": "None", "latitude": 49.48555754593457, "longitude": -119.57486712294426}, "119074169RR0001": {"name": "OUR REDEEMER LUTHERAN CHURCH", "designationCode": "C", "categoryCode": "32", "address": "131 GORMAN STREET", "city": "GATINEAU", "province": "QC", "country": "CA", "postalCode": "J8L1A2", "twitter": "None", "instagram": "None", "facebook": "None", "youtube": "None", "website": "None", "summary": "None", "logo": "None", "latitude": 45.598611351116496, "longitude": -75.41650533833455}, "119074177RR0001": {"name": "OUR REDEEMER'S LUTHERAN CHURCH", "designationCode": "C", "categoryCode": "32", "address": "BOX 700", "city": "WATROUS", "province": "SK", "country": "CA", "postalCode": "S0K4T0", "twitter": "None", "instagram": "None", "facebook": "None", "youtube": "None", "website": "None", "summary": "None", "logo": "None", "latitude": 51.719579978192066, "longitude": -105.4459035}, "107808313RR0001": {"name": "OUR SAVIOR LUTHERAN CHURCH", "designationCode": "C", "categoryCode": "32", "address": "BOX 179", "city": "HAY LAKES", "province": "AB", "country": "CA", "postalCode": "T0B1W0", "twitter": "None", "instagram": "None", "facebook": "None", "youtube": "None", "website": "None", "summary": "None", "logo": "None", "latitude": 53.30343927264969, "longitude": -113.17427122370117}, "119074193RR0001": {"name": "OUR SAVIOR LUTHERAN CHURCH", "designationCode": "C", "categoryCode": "32", "address": "PO BOX 506", "city": "OUTLOOK", "province": "SK", "country": "CA", "postalCode": "S0L2N0", "twitter": "None", "instagram": "None", "facebook": "None", "youtube": "None", "website": "None", "summary": "None", "logo": "None", "latitude": 51.5306764246367, "longitude": -107.23731016398128}, "892635772RR0001": {"name": "OUR SAVIOR LUTHERAN CHURCH", "designationCode": "C", "categoryCode": "32", "address": "795 ISLAND HWY W", "city": "PARKSVILLE", "province": "BC", "country": "CA", "postalCode": "V9P1B9", "twitter": "None", "instagram": "None", "facebook": "None", "youtube": "None", "website": "None", "summary": "None", "logo": "None", "latitude": 49.33051228348886, "longitude": -124.34345291156068}, "119074185RR0001": {"name": "OUR SAVIOR LUTHERAN CHURCH OF RICHMOND", "designationCode": "C", "categoryCode": "32", "address": "6340 #4 ROAD", "city": "RICHMOND", "province": "BC", "country": "CA", "postalCode": "V6Y2S9", "twitter": "None", "instagram": "None", "facebook": "None", "youtube": "None", "website": "None", "summary": "None", "logo": "None", "latitude": 49.16671114071786, "longitude": -123.11399997435014}, "119074243RR0001": {"name": "OUR SAVIOR'S COMMUNITY LUTHERAN CHURCH", "designationCode": "C", "categoryCode": "32", "address": "PO BOX 160", "city": "HUSSAR", "province": "AB", "country": "CA", "postalCode": "T0J1S0", "twitter": "None", "instagram": "None", "facebook": "None", "youtube": "None", "website": "None", "summary": "None", "logo": "None", "latitude": 51.05012000000005, "longitude": -112.68516999999997}, "131815326RR0001": {"name": "OUR SAVIOR'S LUTHERAN CHURCH OF REGINA", "designationCode": "C", "categoryCode": "32", "address": "190 MASSEY ROAD", "city": "REGINA", "province": "SK", "country": "CA", "postalCode": "S4S4N5", "twitter": "None", "instagram": "None", "facebook": "None", "youtube": "None", "website": "None", "summary": "None", "logo": "None", "latitude": 50.40830016737827, "longitude": -104.60918371181226}, "131710931RR0001": {"name": "OUR SAVIOR'S LUTHERAN CHURCH,", "designationCode": "C", "categoryCode": "32", "address": "3590 DUFFERIN AVE", "city": "PRINCE GEORGE", "province": "BC", "country": "CA", "postalCode": "V2N1E9", "twitter": "None", "instagram": "None", "facebook": "None", "youtube": "None", "website": "None", "summary": "None", "logo": "None", "latitude": 53.89583164183297, "longitude": -122.78875470216899}, "890505779RR0001": {"name": "OUR SAVIOR'S LUTHERAN CHURCH,", "designationCode": "C", "categoryCode": "32", "address": "BOX 404", "city": "PROVOST", "province": "AB", "country": "CA", "postalCode": "T0B3S0", "twitter": "None", "instagram": "None", "facebook": "None", "youtube": "None", "website": "None", "summary": "None", "logo": "None", "latitude": 52.82485171250891, "longitude": -110.88936481833932}, "107808362RR0001": {"name": "OUR SAVIOUR LUTHERAN CHURCH", "designationCode": "C", "categoryCode": "32", "address": "2705 ISLINGTON AVE", "city": "ETOBICOKE", "province": "ON", "country": "CA", "postalCode": "M9V2X7", "twitter": "None", "instagram": "None", "facebook": "None", "youtube": "None", "website": "None", "summary": "None", "logo": "None", "latitude": 43.74108005135892, "longitude": -79.56704070474407}, "119074300RR0001": {"name": "OUR SAVIOUR LUTHERAN CHURCH", "designationCode": "C", "categoryCode": "32", "address": "715 ROOSEVELT AVE", "city": "OTTAWA", "province": "ON", "country": "CA", "postalCode": "K2A2A8", "twitter": "None", "instagram": "None", "facebook": "None", "youtube": "None", "website": "None", "summary": "None", "logo": "None", "latitude": 45.380821105487776, "longitude": -75.75069404114538}, "123579591RR0001": {"name": "OUR SAVIOUR LUTHERAN CHURCH", "designationCode": "C", "categoryCode": "32", "address": "7081 MCLEOD ROADS", "city": "NIAGARA FALLS", "province": "ON", "country": "CA", "postalCode": "L2G3H1", "twitter": "None", "instagram": "None", "facebook": "None", "youtube": "None", "website": "None", "summary": "None", "logo": "None", "latitude": 43.0704815115412, "longitude": -79.1137832216227}, "132738352RR0001": {"name": "OUR SAVIOUR LUTHERAN CHURCH", "designationCode": "C", "categoryCode": "32", "address": "BOX 2                         SITE 318, RR 3", "city": "DRYDEN", "province": "ON", "country": "CA", "postalCode": "P8N3G2", "twitter": "None", "instagram": "None", "facebook": "None", "youtube": "None", "website": "None", "summary": "None", "logo": "None", "latitude": 49.77985200000006, "longitude": -92.83282999999993}, "136105145RR0001": {"name": "OUR SAVIOUR LUTHERAN CHURCH", "designationCode": "C", "categoryCode": "32", "address": "PO BOX 1519", "city": "FORT QU'APPELLE", "province": "SK", "country": "CA", "postalCode": "S0G1S0", "twitter": "None", "instagram": "None", "facebook": "None", "youtube": "None", "website": "None", "summary": "None", "logo": "None", "latitude": 50.76964000000004, "longitude": -103.79339999999996}, "129645446RR0001": {"name": "OUR SAVIOUR LUTHERAN CHURCH,", "designationCode": "C", "categoryCode": "32", "address": "18345 62B AVE NW", "city": "EDMONTON", "province": "AB", "country": "CA", "postalCode": "T5T3J9", "twitter": "None", "instagram": "None", "facebook": "None", "youtube": "None", "website": "None", "summary": "None", "logo": "None", "latitude": 53.49660659723616, "longitude": -113.6393045609382}, "132954769RR0001": {"name": "OUR SAVIOUR LUTHERAN CHURCH,", "designationCode": "C", "categoryCode": "32", "address": "445 MCNAUGHTON AVE W", "city": "CHATHAM", "province": "ON", "country": "CA", "postalCode": "N7L4K3", "twitter": "None", "instagram": "None", "facebook": "None", "youtube": "None", "website": "None", "summary": "None", "logo": "None", "latitude": 42.40426151959127, "longitude": -82.21563881934885}, "133594010RR0001": {"name": "OUR SAVIOUR LUTHERAN CHURCH,", "designationCode": "C", "categoryCode": "32", "address": "1449 BRYDGES ST", "city": "LONDON", "province": "ON", "country": "CA", "postalCode": "N5W2W1", "twitter": "None", "instagram": "None", "facebook": "None", "youtube": "None", "website": "None", "summary": "None", "logo": "None", "latitude": 42.992039757401045, "longitude": -81.19165620757136}, "107808396RR0001": {"name": "OUR SAVIOUR'S LUTHERAN CHURCH OF THUNDER BAY", "designationCode": "C", "categoryCode": "32", "address": "10 FARRAND STREET", "city": "THUNDER BAY", "province": "ON", "country": "CA", "postalCode": "P7A3H5", "twitter": "None", "instagram": "None", "facebook": "None", "youtube": "None", "website": "None", "summary": "None", "logo": "None", "latitude": 48.44416070304106, "longitude": -89.21870403583566}, "889202461RR0001": {"name": "OUR SHEPHERD LUTHERAN CHURCH", "designationCode": "C", "categoryCode": "32", "address": "140 CH DE LA SAVANE", "city": "VAL-DES-MONTS", "province": "QC", "country": "CA", "postalCode": "J8N3B5", "twitter": "None", "instagram": "None", "facebook": "None", "youtube": "None", "website": "None", "summary": "None", "logo": "None", "latitude": 45.80193933999204, "longitude": -75.6724991611175}, "861294015RR0001": {"name": "OUR YOUTH AT WORK ASSOCIATION", "designationCode": "B", "categoryCode": "59", "address": "PO BOX 523 STN MAIN", "city": "PARIS", "province": "ON", "country": "CA", "postalCode": "N3L3T6", "twitter": "None", "instagram": "None", "facebook": "None", "youtube": "None", "website": "None", "summary": "None", "logo": "None", "latitude": 43.18805877327488, "longitude": -80.37826650812369}, "135446037RR0001": {"name": "OUT IN HARMONY CHOIR SOCIETY", "designationCode": "C", "categoryCode": "22", "address": "442-1027 DAVIE ST", "city": "VANCOUVER", "province": "BC", "country": "CA", "postalCode": "V6E4L2", "twitter": "None", "instagram": "None", "facebook": "None", "youtube": "None", "website": "None", "summary": "None", "logo": "None", "latitude": 49.279484103489025, "longitude": -123.12969406972691}, "863470555RR0001": {"name": "OUT OF THE COLD FOUNDATION", "designationCode": "C", "categoryCode": "09", "address": "2 CLARENDON AVENUE, SUITE 101A", "city": "TORONTO", "province": "ON", "country": "CA", "postalCode": "M4V1H9", "twitter": "None", "instagram": "None", "facebook": "None", "youtube": "None", "website": "None", "summary": "None", "logo": "None", "latitude": 43.68332514351649, "longitude": -79.40064867084071}, "119074409RR0001": {"name": "OUTDOOR RECREATION COUNCIL OF BRITISH COLUMBIA", "designationCode": "C", "categoryCode": "56", "address": "1101 - 207 HASTINGS ST W", "city": "VANCOUVER", "province": "BC", "country": "CA", "postalCode": "V6B1H7", "twitter": "None", "instagram": "None", "facebook": "None", "youtube": "None", "website": "None", "summary": "None", "logo": "None", "latitude": 49.282745342777936, "longitude": -123.10981369856898}, "119074417RR0001": {"name": "OUTDOOR RECREATION FOUNDATION OF BRITISH COLUMBIA", "designationCode": "A", "categoryCode": "56", "address": "1101 - 207 HASTINGS ST W", "city": "VANCOUVER", "province": "BC", "country": "CA", "postalCode": "V6B1H7", "twitter": "None", "instagram": "None", "facebook": "None", "youtube": "None", "website": "None", "summary": "None", "logo": "None", "latitude": 49.282745342777936, "longitude": -123.10981369856898}, "893184960RR0001": {"name": "OUTLOOK & DISTRICT HEALTH FOUNDATION INC", "designationCode": "A", "categoryCode": "15", "address": "POST OFFICE BOX 427", "city": "OUTLOOK", "province": "SK", "country": "CA", "postalCode": "S0L2N0", "twitter": "None", "instagram": "None", "facebook": "None", "youtube": "None", "website": "None", "summary": "None", "logo": "None", "latitude": 51.5306764246367, "longitude": -107.23731016398128}, "119074458RR0001": {"name": "OUTLOOK ALLIANCE CHURCH", "designationCode": "C", "categoryCode": "39", "address": "BOX 447", "city": "OUTLOOK", "province": "SK", "country": "CA", "postalCode": "S0L2N0", "twitter": "None", "instagram": "None", "facebook": "None", "youtube": "None", "website": "None", "summary": "None", "logo": "None", "latitude": 51.5306764246367, "longitude": -107.23731016398128}, "119074466RR0001": {"name": "OUTLOOK AND DISTRICT ARTS COUNCIL, INC.", "designationCode": "C", "categoryCode": "22", "address": "BOX 1677", "city": "OUTLOOK", "province": "SK", "country": "CA", "postalCode": "S0L2N0", "twitter": "None", "instagram": "None", "facebook": "None", "youtube": "None", "website": "None", "summary": "None", "logo": "None", "latitude": 51.5306764246367, "longitude": -107.23731016398128}, "119249449RR0001": {"name": "OUTLOOK AND DISTRICT FOOD BANK INC.", "designationCode": "C", "categoryCode": "09", "address": "P.O. BOX 1467", "city": "OUTLOOK", "province": "SK", "country": "CA", "postalCode": "S0L2N0", "twitter": "None", "instagram": "None", "facebook": "None", "youtube": "None", "website": "None", "summary": "None", "logo": "None", "latitude": 51.5306764246367, "longitude": -107.23731016398128}, "119074474RR0001": {"name": "OUTLOOK AND DISTRICT HERITAGE CENTRE, INC.", "designationCode": "C", "categoryCode": "56", "address": "BOX 1387", "city": "OUTLOOK", "province": "SK", "country": "CA", "postalCode": "S0L2N0", "twitter": "None", "instagram": "None", "facebook": "None", "youtube": "None", "website": "None", "summary": "None", "logo": "None", "latitude": 51.5306764246367, "longitude": -107.23731016398128}, "130093529RR0001": {"name": "OUTLOOK AND DISTRICT HERITAGE MUSEUM AND GALLERY INC.", "designationCode": "C", "categoryCode": "50", "address": "BOX 1095", "city": "OUTLOOK", "province": "SK", "country": "CA", "postalCode": "S0L2N0", "twitter": "None", "instagram": "None", "facebook": "None", "youtube": "None", "website": "None", "summary": "None", "logo": "None", "latitude": 51.5306764246367, "longitude": -107.23731016398128}, "104030036RR0001": {"name": "OUTLOOK CAMPING INC.", "designationCode": "C", "categoryCode": "59", "address": "P.O. BOX 811", "city": "KINGSTON", "province": "ON", "country": "CA", "postalCode": "K7L4X6", "twitter": "None", "instagram": "None", "facebook": "None", "youtube": "None", "website": "None", "summary": "None", "logo": "None", "latitude": 44.23153200000006, "longitude": -76.47933049999993}, "119074532RR0001": {"name": "OUTLOOK DONORS CHOICE", "designationCode": "A", "categoryCode": "05", "address": "BOX 1392", "city": "OUTLOOK", "province": "SK", "country": "CA", "postalCode": "S0L2N0", "twitter": "None", "instagram": "None", "facebook": "None", "youtube": "None", "website": "None", "summary": "None", "logo": "None", "latitude": 51.5306764246367, "longitude": -107.23731016398128}, "887918316RR0001": {"name": "OUTLOOK GOSPEL LIGHTHOUSE INC.", "designationCode": "B", "categoryCode": "39", "address": "POST OFFICE BOX 178", "city": "OUTLOOK", "province": "SK", "country": "CA", "postalCode": "S0L2N0", "twitter": "None", "instagram": "None", "facebook": "None", "youtube": "None", "website": "None", "summary": "None", "logo": "None", "latitude": 51.5306764246367, "longitude": -107.23731016398128}, "131784795RR0001": {"name": "OUTLOOK LAESTADIAN LUTHERAN CHURCH", "designationCode": "C", "categoryCode": "32", "address": "P.O. BOX 429", "city": "OUTLOOK", "province": "SK", "country": "CA", "postalCode": "S0L2N0", "twitter": "None", "instagram": "None", "facebook": "None", "youtube": "None", "website": "None", "summary": "None", "logo": "None", "latitude": 51.5306764246367, "longitude": -107.23731016398128}, "107808669RR0001": {"name": "OUTLOOK PASTORAL CHARGE ST. ANDREW'S UNITED CHURCH", "designationCode": "C", "categoryCode": "44", "address": "BOX 68", "city": "OUTLOOK", "province": "SK", "country": "CA", "postalCode": "S0L2N0", "twitter": "None", "instagram": "None", "facebook": "None", "youtube": "None", "website": "None", "summary": "None", "logo": "None", "latitude": 51.5306764246367, "longitude": -107.23731016398128}, "107503344RR0001": {"name": "OUTLOOK ROMAN CATHOLIC CHURCH", "designationCode": "C", "categoryCode": "38", "address": "BOX 779", "city": "OUTLOOK", "province": "SK", "country": "CA", "postalCode": "S0L2N0", "twitter": "None", "instagram": "None", "facebook": "None", "youtube": "None", "website": "None", "summary": "None", "logo": "None", "latitude": 51.5306764246367, "longitude": -107.23731016398128}, "107808750RR0001": {"name": "OUTREACH CANADA MINISTRIES INC.", "designationCode": "C", "categoryCode": "47", "address": "2-7201 72ND ST", "city": "DELTA", "province": "BC", "country": "CA", "postalCode": "V4G1M5", "twitter": "None", "instagram": "None", "facebook": "None", "youtube": "None", "website": "None", "summary": "None", "logo": "None", "latitude": 49.13336312153434, "longitude": -123.02383642643844}, "119074623RR0001": {"name": "OUTREACH FOR LIFE ASSOCIATION OF EDMONTON", "designationCode": "C", "categoryCode": "01", "address": "11223 100 AVE", "city": "EDMONTON", "province": "AB", "country": "CA", "postalCode": "T5K0J1", "twitter": "None", "instagram": "None", "facebook": "None", "youtube": "None", "website": "None", "summary": "None", "logo": "None", "latitude": 53.538806474032086, "longitude": -113.51526291618097}, "130705106RR0001": {"name": "OUTREACH INTERNATIONAL (CANADA)", "designationCode": "C", "categoryCode": "39", "address": "8083 168A ST", "city": "SURREY", "province": "BC", "country": "CA", "postalCode": "V4N4Y6", "twitter": "None", "instagram": "None", "facebook": "None", "youtube": "None", "website": "None", "summary": "None", "logo": "None", "latitude": 49.14987479211153, "longitude": -122.75479981155857}, "894154673RR0001": {"name": "OUTREACH MINISTRIES OF OSHAWA", "designationCode": "C", "categoryCode": "39", "address": "71 SIMCOE STREET SOUTH", "city": "OSHAWA", "province": "ON", "country": "CA", "postalCode": "L1H4G4", "twitter": "None", "instagram": "None", "facebook": "None", "youtube": "None", "website": "None", "summary": "None", "logo": "None", "latitude": 43.89559012406944, "longitude": -78.8626701115473}, "119074672RR0001": {"name": "OUTREACH PENTECOSTAL CHURCH INC.", "designationCode": "C", "categoryCode": "36", "address": "2129 ROUTE 124", "city": "HATFIELD POINT", "province": "NB", "country": "CA", "postalCode": "E5T2S4", "twitter": "None", "instagram": "None", "facebook": "None", "youtube": "None", "website": "None", "summary": "None", "logo": "None", "latitude": 45.65133344770969, "longitude": -65.86041544085262}, "872941497RR0001": {"name": "OUTREACH ST GEORGE'S KINGSTON", "designationCode": "C", "categoryCode": "09", "address": "ST GEORGE'S CATHEDRAL         P O BOX 475", "city": "KINGSTON", "province": "ON", "country": "CA", "postalCode": "K7L4W5", "twitter": "None", "instagram": "None", "facebook": "None", "youtube": "None", "website": "None", "summary": "None", "logo": "None", "latitude": 44.22891000000004, "longitude": -76.48254999999995}, "849257233RR0001": {"name": "OUTREACH TO AFRICA", "designationCode": "C", "categoryCode": "49", "address": "PO BOX 45666                  SUNNYSIDE MALL", "city": "SURREY", "province": "BC", "country": "CA", "postalCode": "V4A9N3", "twitter": "None", "instagram": "None", "facebook": "None", "youtube": "None", "website": "None", "summary": "None", "logo": "None", "latitude": 49.04577758735484, "longitude": -122.85084454245168}, "135585487RR0001": {"name": "OUTSaskatoon Inc.", "designationCode": "C", "categoryCode": "59", "address": "#201-320 21ST STREET WEST", "city": "SASKATOON", "province": "SK", "country": "CA", "postalCode": "S7M4E6", "twitter": "None", "instagram": "None", "facebook": "None", "youtube": "None", "website": "None", "summary": "None", "logo": "None", "latitude": 52.12777723739988, "longitude": -106.69667068441251}, "892511692RR0001": {"name": "OUTWARD BOUND CANADA", "designationCode": "C", "categoryCode": "23", "address": "201 - 550 BAYVIEW AVE", "city": "TORONTO", "province": "ON", "country": "CA", "postalCode": "M4W3X8", "twitter": "None", "instagram": "None", "facebook": "None", "youtube": "None", "website": "None", "summary": "None", "logo": "None", "latitude": 43.68336293398322, "longitude": -79.3651935301515}, "860777762RR0001": {"name": "OUTWARD BOUND CANADA FOUNDATION / FONDATION OUTWARD BOUND CANADA", "designationCode": "A", "categoryCode": "03", "address": "550 BAYVIEW AVENUE, SUITE 404 CENTRE FOR GREEN CITIES", "city": "TORONTO", "province": "ON", "country": "CA", "postalCode": "M4W3X8", "twitter": "None", "instagram": "None", "facebook": "None", "youtube": "None", "website": "None", "summary": "None", "logo": "None", "latitude": 43.68336293398322, "longitude": -79.3651935301515}, "891778672RR0001": {"name": "OUVRE TON COEUR A L'ESPOIR", "designationCode": "C", "categoryCode": "09", "address": "CP 302", "city": "ST-GEORGES", "province": "QC", "country": "CA", "postalCode": "G5Y5C8", "twitter": "None", "instagram": "None", "facebook": "None", "youtube": "None", "website": "None", "summary": "None", "logo": "None", "latitude": 46.12786800000005, "longitude": -70.64997199999993}, "119074722RR0001": {"name": "OUVROIR MISSIONNAIRE STE-MARIE INC.", "designationCode": "C", "categoryCode": "01", "address": "538, RUE NOTRE-DAME NORD", "city": "VILLE DE SAINTE-MARIE", "province": "QC", "country": "CA", "postalCode": "G6E2K9", "twitter": "None", "instagram": "None", "facebook": "None", "youtube": "None", "website": "None", "summary": "None", "logo": "None", "latitude": 46.442775288389285, "longitude": -71.03061442350989}, "138708730RR0001": {"name": "OUVROIR NOTRE-DAME DES APOTRES", "designationCode": "C", "categoryCode": "09", "address": "12235 ST EVARISTE", "city": "MONTR\u00c9AL", "province": "QC", "country": "CA", "postalCode": "H4J2B8", "twitter": "None", "instagram": "None", "facebook": "None", "youtube": "None", "website": "None", "summary": "None", "logo": "None", "latitude": 45.53450300028845, "longitude": -73.71311578238802}, "888118791RR0001": {"name": "OUVRY CEMETERY", "designationCode": "C", "categoryCode": "30", "address": "RR5 - 6659 MIDDLE LINE", "city": "MERLIN", "province": "ON", "country": "CA", "postalCode": "N0P1W0", "twitter": "None", "instagram": "None", "facebook": "None", "youtube": "None", "website": "None", "summary": "None", "logo": "None", "latitude": 42.27466349016091, "longitude": -82.18153838095088}, "119074896RR0001": {"name": "OVER 55 (LONDON) INC.", "designationCode": "C", "categoryCode": "01", "address": "78 RIVERSIDE DRIVE", "city": "LONDON", "province": "ON", "country": "CA", "postalCode": "N6H1B4", "twitter": "None", "instagram": "None", "facebook": "None", "youtube": "None", "website": "None", "summary": "None", "logo": "None", "latitude": 42.9828094773503, "longitude": -81.26138130544173}, "829794676RR0001": {"name": "OVERCOMERS ASSEMBLY", "designationCode": "C", "categoryCode": "39", "address": "16 WESTMINSTER NORTH          SUITE 206", "city": "MONTREAL WEST", "province": "QC", "country": "CA", "postalCode": "H4X1Z1", "twitter": "None", "instagram": "None", "facebook": "None", "youtube": "None", "website": "None", "summary": "None", "logo": "None", "latitude": 45.45264638882808, "longitude": -73.64487174522468}, "860055284RR0001": {"name": "OVERCOMERS CHRISTIAN FELLOWSHIP (TORONTO)", "designationCode": "C", "categoryCode": "39", "address": "22 - 50 WEYBRIGHT CRT", "city": "SCARBOROUGH", "province": "ON", "country": "CA", "postalCode": "M1S5A8", "twitter": "None", "instagram": "None", "facebook": "None", "youtube": "None", "website": "None", "summary": "None", "logo": "None", "latitude": 43.78187856448758, "longitude": -79.2790045767499}, "844656165RR0001": {"name": "OVERCOMERS INTERNATIONAL WORSHIP MINISTRIES INC.", "designationCode": "C", "categoryCode": "39", "address": "118 VOLTARIE CRES", "city": "MISSISSAUGA", "province": "ON", "country": "CA", "postalCode": "L5A2A4", "twitter": "None", "instagram": "None", "facebook": "None", "youtube": "None", "website": "None", "summary": "None", "logo": "None", "latitude": 43.58745438077799, "longitude": -79.61999465165346}, "887604668RR0001": {"name": "OVERCOMERS OUTREACH CANADA INC", "designationCode": "C", "categoryCode": "49", "address": "PO BOX 1933", "city": "BEAUSEJOUR", "province": "MB", "country": "CA", "postalCode": "R0E0C0", "twitter": "None", "instagram": "None", "facebook": "None", "youtube": "None", "website": "None", "summary": "None", "logo": "None", "latitude": 50.061750000000075, "longitude": -96.50519999999995}, "119074755RR0001": {"name": "OVERCOMING FAITH CENTRE INC.", "designationCode": "C", "categoryCode": "39", "address": "4520 WHEELER RD.", "city": "PRINCE GEORGE", "province": "BC", "country": "CA", "postalCode": "V2N5H7", "twitter": "None", "instagram": "None", "facebook": "None", "youtube": "None", "website": "None", "summary": "None", "logo": "None", "latitude": 53.8731299753015, "longitude": -122.7792570819431}, "860867316RR0001": {"name": "OVERLEA/MARC GARNEAU ALUMNI ASSOCIATION", "designationCode": "C", "categoryCode": "21", "address": "135 OVERLEA BLVD", "city": "NORTH YORK", "province": "ON", "country": "CA", "postalCode": "M3C1B3", "twitter": "None", "instagram": "None", "facebook": "None", "youtube": "None", "website": "None", "summary": "None", "logo": "None", "latitude": 43.70952073405887, "longitude": -79.33555125209226}, "889718649RR0001": {"name": "OVERSEAS CHINESE BIBLE FELLOWSHIP ASSOCIATION", "designationCode": "C", "categoryCode": "39", "address": "5889 FREMLIN ST", "city": "VANCOUVER", "province": "BC", "country": "CA", "postalCode": "V5Z3W6", "twitter": "None", "instagram": "None", "facebook": "None", "youtube": "None", "website": "None", "summary": "None", "logo": "None", "latitude": 49.23219686955392, "longitude": -123.12672395063166}, "119074839RR0001": {"name": "OVERSEAS EVANGELICAL MISSION", "designationCode": "C", "categoryCode": "47", "address": "2078680 CAMBIE ROAD", "city": "RICHMOND", "province": "BC", "country": "CA", "postalCode": "V6X4K1", "twitter": "None", "instagram": "None", "facebook": "None", "youtube": "None", "website": "None", "summary": "None", "logo": "None", "latitude": 49.184585999999996, "longitude": -123.10102522376141}, "107808990RR0001": {"name": "OVERSEAS MISSIONARY FELLOWSHIP", "designationCode": "C", "categoryCode": "47", "address": "5155 SPECTRUM WAY - BLDG. 21", "city": "MISSISSAUGA", "province": "ON", "country": "CA", "postalCode": "L4W5A1", "twitter": "None", "instagram": "None", "facebook": "None", "youtube": "None", "website": "None", "summary": "None", "logo": "None", "latitude": 43.649806471579254, "longitude": -79.60971813765944}, "884218678RR0001": {"name": "OVERSEAS OLD MARGARETIAN ASSOCIATION", "designationCode": "A", "categoryCode": "03", "address": "660 BROWNSEY AVE", "city": "DUNCAN", "province": "BC", "country": "CA", "postalCode": "V9L1C2", "twitter": "None", "instagram": "None", "facebook": "None", "youtube": "None", "website": "None", "summary": "None", "logo": "None", "latitude": 48.78437545263205, "longitude": -123.71873192977789}, "119074854RR0001": {"name": "OVERSEAS RADIO & TELEVISION (CANADA) SOCIETY", "designationCode": "C", "categoryCode": "47", "address": "2493 GALT STREET", "city": "VANCOUVER", "province": "BC", "country": "CA", "postalCode": "V5R2R8", "twitter": "None", "instagram": "None", "facebook": "None", "youtube": "None", "website": "None", "summary": "None", "logo": "None", "latitude": 49.24151935971482, "longitude": -123.0549179733396}, "119074904RR0001": {"name": "OWAISSI ANGLICAN CAMP ASSOCIATION DIOCESE OF KOOTENAY", "designationCode": "C", "categoryCode": "56", "address": "201-380 LEATHEAD RD", "city": "KELOWNA", "province": "BC", "country": "CA", "postalCode": "V1X2H8", "twitter": "None", "instagram": "None", "facebook": "None", "youtube": "None", "website": "None", "summary": "None", "logo": "None", "latitude": 49.89537349711448, "longitude": -119.39283}, "889897880RR0001": {"name": "OWEN COMMUNITY LEARNING CENTRE-NORTH YORK", "designationCode": "C", "categoryCode": "01", "address": "111 OWEN BLVD", "city": "NORTH YORK", "province": "ON", "country": "CA", "postalCode": "M2P1G6", "twitter": "None", "instagram": "None", "facebook": "None", "youtube": "None", "website": "None", "summary": "None", "logo": "None", "latitude": 43.74946583426652, "longitude": -79.39270756659369}, "843146275RR0001": {"name": "OWEN E. MOORE MINISTRIES", "designationCode": "C", "categoryCode": "47", "address": "21771 46 AVE", "city": "LANGLEY", "province": "BC", "country": "CA", "postalCode": "V3A3J5", "twitter": "None", "instagram": "None", "facebook": "None", "youtube": "None", "website": "None", "summary": "None", "logo": "None", "latitude": 49.08583952928613, "longitude": -122.61979252553522}, "137309175RR0001": {"name": "OWEN SOUND CANADIAN REFORMED CHURCH", "designationCode": "C", "categoryCode": "39", "address": "PO BOX 304", "city": "OWEN SOUND", "province": "ON", "country": "CA", "postalCode": "N4K5P5", "twitter": "None", "instagram": "None", "facebook": "None", "youtube": "None", "website": "None", "summary": "None", "logo": "None", "latitude": 44.56423500000005, "longitude": -80.94243049999993}, "139138861RR0017": {"name": "OWEN SOUND CHURCH OF THE CHRISTIAN AND MISSIONARY ALLIANCE CHURCH", "designationCode": "C", "categoryCode": "39", "address": "440 - 7TH AVENUE EAST", "city": "OWEN SOUND", "province": "ON", "country": "CA", "postalCode": "N4K2X3", "twitter": "None", "instagram": "None", "facebook": "None", "youtube": "None", "website": "None", "summary": "None", "logo": "None", "latitude": 44.55800211588223, "longitude": -80.93118481266129}, "119074995RR0001": {"name": "OWEN SOUND FAMILY Y.M.C.A.", "designationCode": "C", "categoryCode": "49", "address": "700 10TH STREET EAST", "city": "OWEN SOUND", "province": "ON", "country": "CA", "postalCode": "N4K0C6", "twitter": "None", "instagram": "None", "facebook": "None", "youtube": "None", "website": "None", "summary": "None", "logo": "None", "latitude": 44.569266959333525, "longitude": -80.93108176025187}, "868850892RR0001": {"name": "OWEN SOUND GOSPEL HALL", "designationCode": "C", "categoryCode": "39", "address": "912 9TH STREET EAST", "city": "OWEN SOUND", "province": "ON", "country": "CA", "postalCode": "N4K2P6", "twitter": "None", "instagram": "None", "facebook": "None", "youtube": "None", "website": "None", "summary": "None", "logo": "None", "latitude": 44.56762974078688, "longitude": -80.92759631610795}, "132403148RR0001": {"name": "OWEN SOUND HIGHLAND DANCERS", "designationCode": "C", "categoryCode": "22", "address": "313 3RD STREET 'A' WEST", "city": "OWEN SOUND", "province": "ON", "country": "CA", "postalCode": "N4K6Y7", "twitter": "None", "instagram": "None", "facebook": "None", "youtube": "None", "website": "None", "summary": "None", "logo": "None", "latitude": 44.55499620086505, "longitude": -80.94606881933747}, "892186842RR0001": {"name": "OWEN SOUND KNIGHTS OF COLUMBUS COUNCIL NO 2092 CHARITABLE TRUST", "designationCode": "A", "categoryCode": "65", "address": "770 6 TH EAST", "city": "OWEN SOUND", "province": "ON", "country": "CA", "postalCode": "N4K1G7", "twitter": "None", "instagram": "None", "facebook": "None", "youtube": "None", "website": "None", "summary": "None", "logo": "None", "latitude": 44.5615813705922, "longitude": -80.9294236600216}, "861527349RR0001": {"name": "OWEN SOUND KOREAN PRESBYTERIAN CHURCH", "designationCode": "C", "categoryCode": "39", "address": "1049 4TH AVENUE WEST", "city": "OWEN SOUND", "province": "ON", "country": "CA", "postalCode": "N4K4W1", "twitter": "None", "instagram": "None", "facebook": "None", "youtube": "None", "website": "None", "summary": "None", "logo": "None", "latitude": 44.56789686328259, "longitude": -80.94962961012695}, "119074953RR0001": {"name": "OWEN SOUND LITTLE THEATRE", "designationCode": "C", "categoryCode": "22", "address": "PO BOX 41", "city": "OWEN SOUND", "province": "ON", "country": "CA", "postalCode": "N4K5P1", "twitter": "None", "instagram": "None", "facebook": "None", "youtube": "None", "website": "None", "summary": "None", "logo": "None", "latitude": 44.56423500000005, "longitude": -80.94243049999993}}