{"137006763RR0001": {"name": "MT CALVARY LUTHERAN CHURCH", "designationCode": "C", "categoryCode": "32", "address": "272 PENNY ROAD", "city": "UPPER NORTHFIELD", "province": "NS", "country": "CA", "postalCode": "B4V5B2", "twitter": "None", "instagram": "None", "facebook": "None", "youtube": "None", "website": "None", "summary": "None", "logo": "None", "latitude": 44.502418058832085, "longitude": -64.6296847354725}, "107745366RR0001": {"name": "MT CALVARY LUTHERAN CHURCH OF MISSION, B.C.", "designationCode": "C", "categoryCode": "32", "address": "PO 20076", "city": "MISSION", "province": "BC", "country": "CA", "postalCode": "V2V7P8", "twitter": "None", "instagram": "None", "facebook": "None", "youtube": "None", "website": "None", "summary": "None", "logo": "None", "latitude": 49.13294100000006, "longitude": -122.32108249999993}, "864801485RR0001": {"name": "MT. BRYDGES COMMUNITY CHRISTIAN CENTRE", "designationCode": "C", "categoryCode": "39", "address": "22243 ALLEN RD                RR1", "city": "MT BRYDGES", "province": "ON", "country": "CA", "postalCode": "N0L1W0", "twitter": "None", "instagram": "None", "facebook": "None", "youtube": "None", "website": "None", "summary": "None", "logo": "None", "latitude": 42.90103293525359, "longitude": -81.46406980492213}, "119288918RR0393": {"name": "MT. LEHMAN CONGREGATION OF JEHOVAH'S WITNESSES, ABBOTSFORD, BRITISH COLUMBIA", "designationCode": "C", "categoryCode": "61", "address": "208-31955 OLD YALE ROAD", "city": "ABBOTSFORD", "province": "BC", "country": "CA", "postalCode": "V2T4N1", "twitter": "None", "instagram": "None", "facebook": "None", "youtube": "None", "website": "None", "summary": "None", "logo": "None", "latitude": 49.05204144730296, "longitude": -122.33894882664214}, "107797383RR0080": {"name": "MT. OLIVE SEVENTH-DAY ADVENTIST CHURCH", "designationCode": "C", "categoryCode": "41", "address": "1030 ALBION RD.", "city": "ETOBICOKE", "province": "ON", "country": "CA", "postalCode": "M9V1A7", "twitter": "None", "instagram": "None", "facebook": "None", "youtube": "None", "website": "None", "summary": "None", "logo": "None", "latitude": 43.736583915661384, "longitude": -79.56383026224847}, "119047876RR0001": {"name": "MT. PLEASANT BAPTIST CHURCH", "designationCode": "C", "categoryCode": "31", "address": "PO BOX 95034 RPO KINGSGATE", "city": "VANCOUVER", "province": "BC", "country": "CA", "postalCode": "V5T4T8", "twitter": "None", "instagram": "None", "facebook": "None", "youtube": "None", "website": "None", "summary": "None", "logo": "None", "latitude": 49.262459988891536, "longitude": -123.09834996162552}, "888199080RR0001": {"name": "MTW MUSICAL THEATREWORKS OF CANADA SOCIETY", "designationCode": "C", "categoryCode": "22", "address": "#301-1066 E. 8TH AVE", "city": "VANCOUVER", "province": "BC", "country": "CA", "postalCode": "V5T1T9", "twitter": "None", "instagram": "None", "facebook": "None", "youtube": "None", "website": "None", "summary": "None", "logo": "None", "latitude": 49.26333548845881, "longitude": -123.08200136081135}, "892059247RR0001": {"name": "MUCH JOY MINISTRIES", "designationCode": "C", "categoryCode": "47", "address": "306-50 SANDYS ST.", "city": "CHATHAM", "province": "ON", "country": "CA", "postalCode": "N7L4Y5", "twitter": "None", "instagram": "None", "facebook": "None", "youtube": "None", "website": "None", "summary": "None", "logo": "None", "latitude": 42.40544582018558, "longitude": -82.19812331773366}, "897153110RR0001": {"name": "MUDHUSKIES ANIMAL SHELTER", "designationCode": "B", "categoryCode": "54", "address": "82 SMITH ROAD                 RR1", "city": "ROSLIN", "province": "ON", "country": "CA", "postalCode": "K0K2Y0", "twitter": "None", "instagram": "None", "facebook": "None", "youtube": "None", "website": "None", "summary": "None", "logo": "None", "latitude": 44.35956689399451, "longitude": -77.29188588594347}, "119048940RR0001": {"name": "MUENSTER AND DISTRICT DONORS CHOICE", "designationCode": "A", "categoryCode": "05", "address": "PO BOX 64", "city": "MUENSTER", "province": "SK", "country": "CA", "postalCode": "S0K2Y0", "twitter": "None", "instagram": "None", "facebook": "None", "youtube": "None", "website": "None", "summary": "None", "logo": "None", "latitude": 51.84849208187196, "longitude": -105.03696795906401}, "866145303RR0001": {"name": "MUGUNGWHA HOMES", "designationCode": "C", "categoryCode": "09", "address": "20 DUKINFIELD CRESCENT", "city": "TORONTO", "province": "ON", "country": "CA", "postalCode": "M3A2S1", "twitter": "None", "instagram": "None", "facebook": "None", "youtube": "None", "website": "None", "summary": "None", "logo": "None", "latitude": 43.76258124173358, "longitude": -79.33416541315121}, "137180527RR0001": {"name": "MUI KWOK BUDDHIST TEMPLE", "designationCode": "C", "categoryCode": "35", "address": "11036 96 ST NW", "city": "EDMONTON", "province": "AB", "country": "CA", "postalCode": "T5H2K9", "twitter": "None", "instagram": "None", "facebook": "None", "youtube": "None", "website": "None", "summary": "None", "logo": "None", "latitude": 53.558690270327226, "longitude": -113.48930937610345}, "107745820RR0001": {"name": "MUIR LAKE COMMUNITY ALLIANCE CHURCH OF THE CHRISTIAN AND MISSIONARY ALLIANCE IN CANADA", "designationCode": "C", "categoryCode": "39", "address": "BOX 2457", "city": "STONY PLAIN", "province": "AB", "country": "CA", "postalCode": "T7Z1X9", "twitter": "None", "instagram": "None", "facebook": "None", "youtube": "None", "website": "None", "summary": "None", "logo": "None", "latitude": 53.52878400000006, "longitude": -114.00552349999992}, "866344716RR0001": {"name": "MUIR LAKE COMMUNITY SCHOOL FOUNDATION", "designationCode": "C", "categoryCode": "56", "address": "53422 SH779 MAIL BAG 500", "city": "STONY PLAIN", "province": "AB", "country": "CA", "postalCode": "T7Z1Y5", "twitter": "None", "instagram": "None", "facebook": "None", "youtube": "None", "website": "None", "summary": "None", "logo": "None", "latitude": 53.52878400000006, "longitude": -114.00552349999992}, "846039683RR0001": {"name": "MUKIBAUM ACCESSIBILITY CENTRE", "designationCode": "C", "categoryCode": "03", "address": "25-401 MAGNETIC DRIVE", "city": "TORONTO", "province": "ON", "country": "CA", "postalCode": "M3J3H9", "twitter": "None", "instagram": "None", "facebook": "None", "youtube": "None", "website": "None", "summary": "None", "logo": "None", "latitude": 43.78300191234316, "longitude": -79.47367940045616}, "890968894RR0001": {"name": "MUKS-KUM-OL HOUSING DEVELOPMENT SOCIETY", "designationCode": "C", "categoryCode": "01", "address": "2009 FERNWOOD RD", "city": "VICTORIA", "province": "BC", "country": "CA", "postalCode": "V8T2Y8", "twitter": "None", "instagram": "None", "facebook": "None", "youtube": "None", "website": "None", "summary": "None", "logo": "None", "latitude": 48.43082453788449, "longitude": -123.34507194973762}, "119048999RR0001": {"name": "MUKS-KUM-OL HOUSING SOCIETY", "designationCode": "C", "categoryCode": "01", "address": "2009 - FERNWOOD ROAD", "city": "VICTORIA", "province": "BC", "country": "CA", "postalCode": "V8T2Y8", "twitter": "None", "instagram": "None", "facebook": "None", "youtube": "None", "website": "None", "summary": "None", "logo": "None", "latitude": 48.43082453788449, "longitude": -123.34507194973762}, "899251821RR0001": {"name": "MUKUL HINDI SCHOOL", "designationCode": "C", "categoryCode": "20", "address": "129 WOODMILL TERR", "city": "KANATA", "province": "ON", "country": "CA", "postalCode": "K2K0B8", "twitter": "None", "instagram": "None", "facebook": "None", "youtube": "None", "website": "None", "summary": "None", "logo": "None", "latitude": 45.342773005539925, "longitude": -75.93719002749712}, "895625275RR0001": {"name": "MULBERRY WALDORF SCHOOL", "designationCode": "C", "categoryCode": "20", "address": "25 MARKLAND ST", "city": "KINGSTON", "province": "ON", "country": "CA", "postalCode": "K7K1S2", "twitter": "None", "instagram": "None", "facebook": "None", "youtube": "None", "website": "None", "summary": "None", "logo": "None", "latitude": 44.238189267297464, "longitude": -76.4867487305095}, "899947881RR0001": {"name": "MULGRAVE & AREA RESTING PLACE COMMITTEE", "designationCode": "C", "categoryCode": "59", "address": "24 CHURCH STREET              P. O. BOX 2", "city": "MULGRAVE", "province": "NS", "country": "CA", "postalCode": "B0E2G0", "twitter": "None", "instagram": "None", "facebook": "None", "youtube": "None", "website": "None", "summary": "None", "logo": "None", "latitude": 45.61087760113128, "longitude": -61.391597501240746}, "119049005RR0001": {"name": "MULGRAVE AND AREA MEDICAL CENTER COMMITTEE", "designationCode": "C", "categoryCode": "19", "address": "403 MURRAY STREET             P. O. BOX 72", "city": "MULGRAVE", "province": "NS", "country": "CA", "postalCode": "B0E2G0", "twitter": "None", "instagram": "None", "facebook": "None", "youtube": "None", "website": "None", "summary": "None", "logo": "None", "latitude": 45.60775844434192, "longitude": -61.39361813532217}, "896671658RR0001": {"name": "MULGRAVE INDEPENDENT SCHOOL SOCIETY", "designationCode": "C", "categoryCode": "20", "address": "2330 CYPRESS BOWL LANE", "city": "WEST VANCOUVER", "province": "BC", "country": "CA", "postalCode": "V7S3H9", "twitter": "None", "instagram": "None", "facebook": "None", "youtube": "None", "website": "None", "summary": "None", "logo": "None", "latitude": 49.34973600000001, "longitude": -123.19607982835215}, "879559300RR0001": {"name": "MULGRAVE MUSEUM AND CENOTAPH COMMITTEE", "designationCode": "C", "categoryCode": "50", "address": "54 LOGGIE STREET              PO BOX 420", "city": "MULGRAVE", "province": "NS", "country": "CA", "postalCode": "B0E2G0", "twitter": "None", "instagram": "None", "facebook": "None", "youtube": "None", "website": "None", "summary": "None", "logo": "None", "latitude": 45.6165977529863, "longitude": -61.38885558549247}, "107745929RR0001": {"name": "MULGRAVE PARK UNITED BAPTIST CHURCH", "designationCode": "C", "categoryCode": "31", "address": "3567 LEAMAN ST", "city": "HALIFAX", "province": "NS", "country": "CA", "postalCode": "B3K3Z6", "twitter": "None", "instagram": "None", "facebook": "None", "youtube": "None", "website": "None", "summary": "None", "logo": "None", "latitude": 44.667967504587644, "longitude": -63.60826587578633}, "119246098RR0001": {"name": "MULGRAVE ROAD THEATRE FOUNDATION", "designationCode": "C", "categoryCode": "22", "address": "BOX 219", "city": "GUYSBOROUGH", "province": "NS", "country": "CA", "postalCode": "B0H1N0", "twitter": "None", "instagram": "None", "facebook": "None", "youtube": "None", "website": "None", "summary": "None", "logo": "None", "latitude": 45.37026600000006, "longitude": -61.50474349999993}, "891025264RR0001": {"name": "MULHURST LUTHERAN CHURCH CAMP ASSOCIATION", "designationCode": "C", "categoryCode": "49", "address": "PO BOX 78", "city": "MULHURST BAY", "province": "AB", "country": "CA", "postalCode": "T0C2C0", "twitter": "None", "instagram": "None", "facebook": "None", "youtube": "None", "website": "None", "summary": "None", "logo": "None", "latitude": 53.04612742041925, "longitude": -113.99270706040598}, "803339142RR0001": {"name": "MULLY CHILDREN'S FAMILY CHARITABLE FOUNDATION", "designationCode": "C", "categoryCode": "01", "address": "864 HURONTARIO STREET", "city": "COLLINGWOOD", "province": "ON", "country": "CA", "postalCode": "L9Y0G7", "twitter": "None", "instagram": "None", "facebook": "None", "youtube": "None", "website": "None", "summary": "None", "logo": "None", "latitude": 44.48043157917496, "longitude": -80.2128784683016}, "118803410RR0001": {"name": "MULOCK CHRISTIAN FELLOWSHIP", "designationCode": "C", "categoryCode": "31", "address": "173998 MULOCK RD              RR 1", "city": "ELMWOOD", "province": "ON", "country": "CA", "postalCode": "N0G1S0", "twitter": "None", "instagram": "None", "facebook": "None", "youtube": "None", "website": "None", "summary": "None", "logo": "None", "latitude": 44.22570637341668, "longitude": -80.92213275799648}, "892111782RR0001": {"name": "MULTI ADDICTION CENTRE SOCIETY", "designationCode": "C", "categoryCode": "57", "address": "751 BROOKLYN ST", "city": "NORTH KINGSTON", "province": "NS", "country": "CA", "postalCode": "B0P1R0", "twitter": "None", "instagram": "None", "facebook": "None", "youtube": "None", "website": "None", "summary": "None", "logo": "None", "latitude": 45.00619918405534, "longitude": -64.94619006829579}, "888152261RR0001": {"name": "MULTI MEDIA MINISTRIES INC", "designationCode": "C", "categoryCode": "47", "address": "10 - 3351 HORN STREET", "city": "ABBOTSFORD", "province": "BC", "country": "CA", "postalCode": "V2S7J9", "twitter": "None", "instagram": "None", "facebook": "None", "youtube": "None", "website": "None", "summary": "None", "logo": "None", "latitude": 49.06271689112895, "longitude": -122.30813437499896}, "899724462RR0001": {"name": "MULTI-FEMMES INC", "designationCode": "C", "categoryCode": "09", "address": "C.P. 83564, CP GARNIER", "city": "MONTREAL", "province": "QC", "country": "CA", "postalCode": "H2J4E9", "twitter": "None", "instagram": "None", "facebook": "None", "youtube": "None", "website": "None", "summary": "None", "logo": "None", "latitude": 45.53236393566572, "longitude": -73.57977769394239}, "897303046RR0001": {"name": "MULTICULTURAL AND IMMIGRANT SERVICES ASSOCIATION OF NORTH VANCOUVER ISLAND", "designationCode": "C", "categoryCode": "09", "address": "A114-740 ROBRON RD", "city": "CAMPBELL RIVER", "province": "BC", "country": "CA", "postalCode": "V9W6J7", "twitter": "None", "instagram": "None", "facebook": "None", "youtube": "None", "website": "None", "summary": "None", "logo": "None", "latitude": 49.99492052928615, "longitude": -125.24516002553523}, "124127192RR0001": {"name": "MULTICULTURAL ARTS FOR SCHOOLS AND COMMUNITIES/ ARTS MULTICULTUREL DANS LES ECOLES ET LES COLLECTIVITES", "designationCode": "C", "categoryCode": "22", "address": "250 HOLLAND AVE", "city": "OTTAWA", "province": "ON", "country": "CA", "postalCode": "K1Y0Y5", "twitter": "None", "instagram": "None", "facebook": "None", "youtube": "None", "website": "None", "summary": "None", "logo": "None", "latitude": 45.397666185931264, "longitude": -75.73078133466962}, "128033180RR0001": {"name": "MULTICULTURAL ASSOCIATION OF GREATER MONCTON AREA, INC.", "designationCode": "C", "categoryCode": "59", "address": "C170-22 CHURCH ST", "city": "MONCTON", "province": "NB", "country": "CA", "postalCode": "E1C0P7", "twitter": "None", "instagram": "None", "facebook": "None", "youtube": "None", "website": "None", "summary": "None", "logo": "None", "latitude": 46.089332999999996, "longitude": -64.77836624999999}, "107746042RR0001": {"name": "MULTICULTURAL COUNCIL OF SASKATCHEWAN INC.", "designationCode": "C", "categoryCode": "22", "address": "452 ALBERT STREET NORTH", "city": "REGINA", "province": "SK", "country": "CA", "postalCode": "S4R3C1", "twitter": "None", "instagram": "None", "facebook": "None", "youtube": "None", "website": "None", "summary": "None", "logo": "None", "latitude": 50.48320615110212, "longitude": -104.6184057807937}, "119049054RR0001": {"name": "MULTICULTURAL COUNCIL OF WINDSOR & ESSEX COUNTY", "designationCode": "C", "categoryCode": "59", "address": "245 JANETTE AVE", "city": "WINDSOR", "province": "ON", "country": "CA", "postalCode": "N9A4Z2", "twitter": "None", "instagram": "None", "facebook": "None", "youtube": "None", "website": "None", "summary": "None", "logo": "None", "latitude": 42.31616480737497, "longitude": -83.046327923423}, "865274492RR0001": {"name": "MULTICULTURAL HELPING HOUSE SOCIETY", "designationCode": "C", "categoryCode": "09", "address": "4802 FRASER ST", "city": "VANCOUVER", "province": "BC", "country": "CA", "postalCode": "V5V4H4", "twitter": "None", "instagram": "None", "facebook": "None", "youtube": "None", "website": "None", "summary": "None", "logo": "None", "latitude": 49.241626466727524, "longitude": -123.09028952610751}, "119049070RR0001": {"name": "MULTICULTURAL HERITAGE FOUNDATION OF STONY PLAIN", "designationCode": "A", "categoryCode": "22", "address": "BOX 2188", "city": "STONY PLAIN", "province": "AB", "country": "CA", "postalCode": "T7Z1X7", "twitter": "None", "instagram": "None", "facebook": "None", "youtube": "None", "website": "None", "summary": "None", "logo": "None", "latitude": 53.52878400000006, "longitude": -114.00552349999992}, "867136319RR0001": {"name": "MULTICULTURAL SERVICES NETWORK OF NIAGARA FALLS", "designationCode": "C", "categoryCode": "09", "address": "26 EAST MAIN ST", "city": "WELLAND", "province": "ON", "country": "CA", "postalCode": "L3B3W3", "twitter": "None", "instagram": "None", "facebook": "None", "youtube": "None", "website": "None", "summary": "None", "logo": "None", "latitude": 42.99192277858709, "longitude": -79.25000420025123}, "868777400RR0001": {"name": "MULTICULTURAL SOLUTIONS / SOLUTIONS MULTICULTURELLES", "designationCode": "C", "categoryCode": "09", "address": "1117 ST CATHERINE STREET      SUITE 606", "city": "MONTREAL", "province": "QC", "country": "CA", "postalCode": "H3B1H9", "twitter": "None", "instagram": "None", "facebook": "None", "youtube": "None", "website": "None", "summary": "None", "logo": "None", "latitude": 45.4998128720641, "longitude": -73.57314485570411}, "119049088RR0001": {"name": "MULTICULTURAL TRUST FUND", "designationCode": "C", "categoryCode": "29", "address": "28 SAUNDERS ST", "city": "FREDERICTON", "province": "NB", "country": "CA", "postalCode": "E3B1N1", "twitter": "None", "instagram": "None", "facebook": "None", "youtube": "None", "website": "None", "summary": "None", "logo": "None", "latitude": 45.96194209740903, "longitude": -66.65583183472786}, "861921500RR0001": {"name": "MULTICULTURAL WOMEN & SENIOR SERVICES ASSOCIATION OF EDMONTON", "designationCode": "C", "categoryCode": "09", "address": "329 WOODVALE RD W.", "city": "EDMONTON", "province": "AB", "country": "CA", "postalCode": "T6L3Z7", "twitter": "None", "instagram": "None", "facebook": "None", "youtube": "None", "website": "None", "summary": "None", "logo": "None", "latitude": 53.46752414846413, "longitude": -113.43068702590965}, "122214505RR0001": {"name": "MULTIFAITH ACTION SOCIETY", "designationCode": "C", "categoryCode": "47", "address": "949 W 49 AVE", "city": "VANCOUVER", "province": "BC", "country": "CA", "postalCode": "V5Z2T1", "twitter": "None", "instagram": "None", "facebook": "None", "youtube": "None", "website": "None", "summary": "None", "logo": "None", "latitude": 49.22653944993916, "longitude": -123.12757091756595}, "856663083RR0001": {"name": "MULTIFAITH HOUSING INITIATIVE", "designationCode": "C", "categoryCode": "09", "address": "SUITE 209                     404 MCARTHUR ST", "city": "OTTAWA", "province": "ON", "country": "CA", "postalCode": "K1K1G8", "twitter": "None", "instagram": "None", "facebook": "None", "youtube": "None", "website": "None", "summary": "None", "logo": "None", "latitude": 45.43209152120739, "longitude": -75.64884963765944}, "871172763RR0001": {"name": "MULTILINGUAL ASSOCIATION OF REGINA INC.", "designationCode": "C", "categoryCode": "21", "address": "W331-2440 BROAD STREET", "city": "REGINA", "province": "SK", "country": "CA", "postalCode": "S4P4A1", "twitter": "None", "instagram": "None", "facebook": "None", "youtube": "None", "website": "None", "summary": "None", "logo": "None", "latitude": 50.439087, "longitude": -104.60657660808391}, "895390110RR0001": {"name": "MULTIPLE BIRTHS CANADA/NAISSANCES MULTIPLES CANADA", "designationCode": "C", "categoryCode": "11", "address": "953 CHURCH DRIVE              PO BOX 352", "city": "LEFROY", "province": "ON", "country": "CA", "postalCode": "L0L1W0", "twitter": "None", "instagram": "None", "facebook": "None", "youtube": "None", "website": "None", "summary": "None", "logo": "None", "latitude": 44.263229721696725, "longitude": -79.55884016423764}, "862533296RR0001": {"name": "MULTIPLE MYELOMA CANADA/MYELOME MULTIPLE CANADA", "designationCode": "C", "categoryCode": "11", "address": "160 - 1255 RTE TRANSCANADIENNE", "city": "DORVAL", "province": "QC", "country": "CA", "postalCode": "H9P2V4", "twitter": "None", "instagram": "None", "facebook": "None", "youtube": "None", "website": "None", "summary": "None", "logo": "None", "latitude": 45.48974340997721, "longitude": -73.77006696309647}, "107746174RR0001": {"name": "MULTIPLE SCLEROSIS SOCIETY OF CANADA / SOCI\u00c9T\u00c9 CANADIENNE DE LA SCL\u00c9ROSE EN PLAQUES", "designationCode": "C", "categoryCode": "11", "address": "500 - 250 DUNDAS ST W", "city": "TORONTO", "province": "ON", "country": "CA", "postalCode": "M5T2Z5", "twitter": "None", "instagram": "None", "facebook": "None", "youtube": "None", "website": "None", "summary": "None", "logo": "None", "latitude": 43.65312820103721, "longitude": -79.3972269948139}, "139619860RR0001": {"name": "MULTIWORKS VOCATIONAL TRAINING CORPORATION", "designationCode": "C", "categoryCode": "59", "address": "709 SERGENT AVE", "city": "MEADOW LAKE", "province": "SK", "country": "CA", "postalCode": "S9X1H9", "twitter": "None", "instagram": "None", "facebook": "None", "youtube": "None", "website": "None", "summary": "None", "logo": "None", "latitude": 54.131596462201344, "longitude": -108.41898896220135}, "888688447RR0001": {"name": "MUNCHAS ECOZER MUNKAS CONGREGATION", "designationCode": "C", "categoryCode": "42", "address": "395 AV BLOOMFIELD", "city": "OUTREMONT", "province": "QC", "country": "CA", "postalCode": "H2V3R7", "twitter": "None", "instagram": "None", "facebook": "None", "youtube": "None", "website": "None", "summary": "None", "logo": "None", "latitude": 45.518988319752886, "longitude": -73.60474098346714}, "119049153RR0001": {"name": "MUNDARE & DISTRICT AGRICULTURAL SOCIETY", "designationCode": "C", "categoryCode": "56", "address": "BOX 362", "city": "MUNDARE", "province": "AB", "country": "CA", "postalCode": "T0B3H0", "twitter": "None", "instagram": "None", "facebook": "None", "youtube": "None", "website": "None", "summary": "None", "logo": "None", "latitude": 53.594760000000065, "longitude": -112.33641999999998}, "882241763RR0001": {"name": "MUNDARE COMMUNITY SCHOOL ASSOCIATION", "designationCode": "C", "categoryCode": "20", "address": "BOX 319", "city": "MUNDARE", "province": "AB", "country": "CA", "postalCode": "T0B3H0", "twitter": "None", "instagram": "None", "facebook": "None", "youtube": "None", "website": "None", "summary": "None", "logo": "None", "latitude": 53.594760000000065, "longitude": -112.33641999999998}, "119049161RR0001": {"name": "MUNDAY-MAXWELL & GAYLENE-ASSOCIATION", "designationCode": "B", "categoryCode": "43", "address": "206 - 4400 DOMINION STREET", "city": "BURNABY", "province": "BC", "country": "CA", "postalCode": "V5G4G3", "twitter": "None", "instagram": "None", "facebook": "None", "youtube": "None", "website": "None", "summary": "None", "logo": "None", "latitude": 49.25629954284747, "longitude": -123.00519247446476}, "106973720RR0001": {"name": "MUNDY PARK CHRISTIAN FELLOWSHIP", "designationCode": "C", "categoryCode": "39", "address": "2600 AUSTIN AV", "city": "COQUITLAM", "province": "BC", "country": "CA", "postalCode": "V3K6C4", "twitter": "None", "instagram": "None", "facebook": "None", "youtube": "None", "website": "None", "summary": "None", "logo": "None", "latitude": 49.24904852842077, "longitude": -122.82019102553522}, "792412884RR0001": {"name": "MUNFORD FAMILY FOUNDATION", "designationCode": "B", "categoryCode": "03", "address": "1800-510 WEST GEORGIA STREET", "city": "VANCOUVER", "province": "BC", "country": "CA", "postalCode": "V6B0M3", "twitter": "None", "instagram": "None", "facebook": "None", "youtube": "None", "website": "None", "summary": "None", "logo": "None", "latitude": 49.281267759207665, "longitude": -123.11633309804196}, "107747404RR0001": {"name": "MUNICIPAL DISTRICT OF ST. PAUL FOUNDATION", "designationCode": "C", "categoryCode": "01", "address": "4440 50 AVE", "city": "ST PAUL", "province": "AB", "country": "CA", "postalCode": "T0A3A2", "twitter": "None", "instagram": "None", "facebook": "None", "youtube": "None", "website": "None", "summary": "None", "logo": "None", "latitude": 53.99148413473209, "longitude": -111.28136490223987}, "119049187RR0001": {"name": "MUNICIPALITE SCOLAIRE KATIVIK", "designationCode": "C", "categoryCode": "20", "address": "9800 BOULEVARD CAVENDISH      SUITE 400", "city": "SAINT-LAURENT", "province": "QC", "country": "CA", "postalCode": "H4M2V9", "twitter": "None", "instagram": "None", "facebook": "None", "youtube": "None", "website": "None", "summary": "None", "logo": "None", "latitude": 45.49524302273662, "longitude": -73.69927489407861}, "119247062RR0001": {"name": "MUNICIPALITIES NEWFOUNDLAND & LABRADOR INC.", "designationCode": "C", "categoryCode": "59", "address": "460 TORBAY RD", "city": "ST. JOHN'S", "province": "NL", "country": "CA", "postalCode": "A1A5J3", "twitter": "None", "instagram": "None", "facebook": "None", "youtube": "None", "website": "None", "summary": "None", "logo": "None", "latitude": 47.607126421430706, "longitude": -52.72040405120418}, "137675989RR0001": {"name": "MUNN'S CHILD CARE CENTRE INC", "designationCode": "C", "categoryCode": "20", "address": "9 DUNDAS STREET EAST", "city": "OAKVILLE", "province": "ON", "country": "CA", "postalCode": "L6V4Z2", "twitter": "None", "instagram": "None", "facebook": "None", "youtube": "None", "website": "None", "summary": "None", "logo": "None", "latitude": 43.47952984652886, "longitude": -79.72887103194051}, "107753832RR0001": {"name": "MUNN'S UNITED CHURCH", "designationCode": "C", "categoryCode": "44", "address": "5 DUNDAS ST E", "city": "OAKVILLE", "province": "ON", "country": "CA", "postalCode": "L6H7C4", "twitter": "None", "instagram": "None", "facebook": "None", "youtube": "None", "website": "None", "summary": "None", "logo": "None", "latitude": 43.479439930347894, "longitude": -79.72897436430246}, "106911712RR0001": {"name": "MUNROE EARLY CHILDHOOD EDUCATION CENTRE INC.", "designationCode": "C", "categoryCode": "01", "address": "186 - 505 CHALMERS AVENUE", "city": "WINNIPEG", "province": "MB", "country": "CA", "postalCode": "R2L0G4", "twitter": "None", "instagram": "None", "facebook": "None", "youtube": "None", "website": "None", "summary": "None", "logo": "None", "latitude": 49.91123907960801, "longitude": -97.1031166347771}, "887951648RR0001": {"name": "MUNSTER UNION CEMETERY", "designationCode": "C", "categoryCode": "59", "address": "P.O. BOX 651", "city": "RICHMOND", "province": "ON", "country": "CA", "postalCode": "K0A2Z0", "twitter": "None", "instagram": "None", "facebook": "None", "youtube": "None", "website": "None", "summary": "None", "logo": "None", "latitude": 45.07289024235629, "longitude": -76.0222203768388}, "119363331RR0001": {"name": "MUNSTER UNITED CHURCH,", "designationCode": "C", "categoryCode": "44", "address": "2881 MUNSTER RD  BOX 509", "city": "MUNSTER", "province": "ON", "country": "CA", "postalCode": "K0A3P0", "twitter": "None", "instagram": "None", "facebook": "None", "youtube": "None", "website": "None", "summary": "None", "logo": "None", "latitude": 45.164221710254395, "longitude": -75.93905414152592}, "107754897RR0001": {"name": "MUPPETS CO-OPERATIVE PRESCHOOL INCORPORATED", "designationCode": "C", "categoryCode": "20", "address": "4407 SPRUCE AVENUE", "city": "BURLINGTON", "province": "ON", "country": "CA", "postalCode": "L7L1L9", "twitter": "None", "instagram": "None", "facebook": "None", "youtube": "None", "website": "None", "summary": "None", "logo": "None", "latitude": 43.35998626092083, "longitude": -79.75242080353715}, "893873265RR0001": {"name": "MURAL ROUTES INCORPORATED", "designationCode": "C", "categoryCode": "22", "address": "1859 KINGSTON ROAD", "city": "SCARBOROUGH", "province": "ON", "country": "CA", "postalCode": "M1N1T3", "twitter": "None", "instagram": "None", "facebook": "None", "youtube": "None", "website": "None", "summary": "None", "logo": "None", "latitude": 43.695512896185676, "longitude": -79.25893380347983}, "119049294RR0001": {"name": "MURCHISON FOUNDATION INC.", "designationCode": "A", "categoryCode": "13", "address": "P O BOX 785", "city": "CHARLOTTETOWN", "province": "PE", "country": "CA", "postalCode": "C1A7L9", "twitter": "None", "instagram": "None", "facebook": "None", "youtube": "None", "website": "None", "summary": "None", "logo": "None", "latitude": 46.23659700000006, "longitude": -63.12815449999994}, "892858663RR0001": {"name": "MURIEL LUTES SIKORSKI FUND INC", "designationCode": "B", "categoryCode": "03", "address": "31 MARSH ST", "city": "MONCTON", "province": "NB", "country": "CA", "postalCode": "E1G1C6", "twitter": "None", "instagram": "None", "facebook": "None", "youtube": "None", "website": "None", "summary": "None", "logo": "None", "latitude": 46.11869703442203, "longitude": -64.84776070956191}, "132523028RR0001": {"name": "MURIEL MCQUEEN FERGUSSON FOUNDATION, INC.", "designationCode": "A", "categoryCode": "09", "address": "P.O. BOX 4400                 678 WINDSOR STREET", "city": "FREDERICTON", "province": "NB", "country": "CA", "postalCode": "E3B5A3", "twitter": "None", "instagram": "None", "facebook": "None", "youtube": "None", "website": "None", "summary": "None", "logo": "None", "latitude": 45.946891740204364, "longitude": -66.64532830319138}, "131816472RR0001": {"name": "MURRAY BAY PROTESTANT CHURCH,", "designationCode": "C", "categoryCode": "30", "address": "2640 LAURIER BLVD SUITE 1700", "city": "QU\u00c9BEC", "province": "QC", "country": "CA", "postalCode": "G1V5C2", "twitter": "None", "instagram": "None", "facebook": "None", "youtube": "None", "website": "None", "summary": "None", "logo": "None", "latitude": 46.77047587215123, "longitude": -71.28238051072985}, "119049336RR0001": {"name": "MURRAY HARBOUR CHURCH OF CHRIST", "designationCode": "C", "categoryCode": "39", "address": "1818 CAPE BEAR RD.", "city": "MURRAY HARBOUR", "province": "PE", "country": "CA", "postalCode": "C0A1V0", "twitter": "None", "instagram": "None", "facebook": "None", "youtube": "None", "website": "None", "summary": "None", "logo": "None", "latitude": 46.00648675109521, "longitude": -62.53629773170924}, "107755498RR0001": {"name": "MURRAY HARBOUR UNITED BAPTIST CHURCH", "designationCode": "C", "categoryCode": "31", "address": "BOX 9", "city": "MURRAY HARBOUR", "province": "PE", "country": "CA", "postalCode": "C0A1V0", "twitter": "None", "instagram": "None", "facebook": "None", "youtube": "None", "website": "None", "summary": "None", "logo": "None", "latitude": 46.16917635237179, "longitude": -62.81750980881458}, "130633878RR0001": {"name": "MURRAY MCKINNON FOUNDATION", "designationCode": "B", "categoryCode": "59", "address": "PO BOX 2218", "city": "OSHAWA", "province": "ON", "country": "CA", "postalCode": "L1H7V5", "twitter": "None", "instagram": "None", "facebook": "None", "youtube": "None", "website": "None", "summary": "None", "logo": "None", "latitude": 43.88868600000005, "longitude": -78.85951999999993}, "814811907RR0001": {"name": "MURRAY RIVER BAPTIST CHURCH INC.", "designationCode": "C", "categoryCode": "31", "address": "1157 GLADSTONE RD             P O BOX 114", "city": "MURRAY RIVER", "province": "PE", "country": "CA", "postalCode": "C0A1W0", "twitter": "None", "instagram": "None", "facebook": "None", "youtube": "None", "website": "None", "summary": "None", "logo": "None", "latitude": 46.012392135726216, "longitude": -62.6073581626464}, "119049393RR0001": {"name": "MURRAY RIVER CHURCH OF CHRIST", "designationCode": "C", "categoryCode": "39", "address": "K1-16 ROSEDALE ROAD           RR #2", "city": "MONTAGUE", "province": "PE", "country": "CA", "postalCode": "C0A1R0", "twitter": "None", "instagram": "None", "facebook": "None", "youtube": "None", "website": "None", "summary": "None", "logo": "None", "latitude": 46.16331045435825, "longitude": -62.63807017195542}, "107755761RR0001": {"name": "MURRAY STREET BAPTIST CHURCH", "designationCode": "C", "categoryCode": "31", "address": "175 MURRAY STREET", "city": "PETERBOROUGH", "province": "ON", "country": "CA", "postalCode": "K9H2S7", "twitter": "None", "instagram": "None", "facebook": "None", "youtube": "None", "website": "None", "summary": "None", "logo": "None", "latitude": 44.308294535634126, "longitude": -78.32141211073923}, "887187110RR0001": {"name": "MURRAY'S POINT CEMETERY", "designationCode": "C", "categoryCode": "59", "address": "R.R.#1", "city": "MERIGOMISH", "province": "NS", "country": "CA", "postalCode": "B0K1G0", "twitter": "None", "instagram": "None", "facebook": "None", "youtube": "None", "website": "None", "summary": "None", "logo": "None", "latitude": 45.63122000000004, "longitude": -62.42946999999998}, "892513136RR0001": {"name": "MURUGAN TEMPLE SOCIETY", "designationCode": "C", "categoryCode": "39", "address": "3460 GARRY ST", "city": "RICHMOND", "province": "BC", "country": "CA", "postalCode": "V7E2T1", "twitter": "None", "instagram": "None", "facebook": "None", "youtube": "None", "website": "None", "summary": "None", "logo": "None", "latitude": 49.129280466818734, "longitude": -123.186753}, "100305473RR0001": {"name": "MUS\u00c9E CANADIEN DE L'ARME ET BRONZE INC.", "designationCode": "C", "categoryCode": "50", "address": "89, RUE ALEXANDRA", "city": "GRANBY", "province": "QC", "country": "CA", "postalCode": "J2G2P4", "twitter": "None", "instagram": "None", "facebook": "None", "youtube": "None", "website": "None", "summary": "None", "logo": "None", "latitude": 45.4001945115412, "longitude": -72.71540383389114}, "118846617RR0001": {"name": "MUS\u00c9E D'ART CONTEMPORAIN DES LAURENTIDES", "designationCode": "C", "categoryCode": "50", "address": "101 PLACE DU CURE-LABELLE", "city": "ST-JEROME", "province": "QC", "country": "CA", "postalCode": "J7Z1X6", "twitter": "None", "instagram": "None", "facebook": "None", "youtube": "None", "website": "None", "summary": "None", "logo": "None", "latitude": 45.77859538386507, "longitude": -74.00320818720067}, "119049617RR0001": {"name": "MUS\u00c9E DE CHARLEVOIX", "designationCode": "C", "categoryCode": "50", "address": "10 CHEMIN DU HAVRE", "city": "LA MALBAIE", "province": "QC", "country": "CA", "postalCode": "G5A2Y8", "twitter": "None", "instagram": "None", "facebook": "None", "youtube": "None", "website": "None", "summary": "None", "logo": "None", "latitude": 47.63086182537972, "longitude": -70.14105704449133}, "714974490RR0001": {"name": "MUS\u00c9E DE CIRE DU SAGUENAY-LAC-ST-JEAN", "designationCode": "C", "categoryCode": "50", "address": "2626 RUE WHITAKER", "city": "JONQUIERE", "province": "QC", "country": "CA", "postalCode": "G7S5C6", "twitter": "None", "instagram": "None", "facebook": "None", "youtube": "None", "website": "None", "summary": "None", "logo": "None", "latitude": 48.39965438467313, "longitude": -71.14373216942708}, "897896874RR0001": {"name": "MUS\u00c9E DES ONDES EMILE BERLINER", "designationCode": "C", "categoryCode": "50", "address": "E206 - 1001 RUE LENOIR", "city": "MONTREAL", "province": "QC", "country": "CA", "postalCode": "H4C2Z6", "twitter": "None", "instagram": "None", "facebook": "None", "youtube": "None", "website": "None", "summary": "None", "logo": "None", "latitude": 45.47701380630713, "longitude": -73.59315707337436}, "119153997RR0001": {"name": "MUS\u00c9E MIN\u00c9RALOGIQUE ET MINIER DE THETFORD MINES", "designationCode": "C", "categoryCode": "21", "address": "711 BOUL FRONTENAC OUEST", "city": "THETFORD-MINES", "province": "QC", "country": "CA", "postalCode": "G6G7Y8", "twitter": "None", "instagram": "None", "facebook": "None", "youtube": "None", "website": "None", "summary": "None", "logo": "None", "latitude": 46.095594482139504, "longitude": -71.32514757415284}, "132174335RR0001": {"name": "MUS\u00c9E PIERRE BOUCHER", "designationCode": "C", "categoryCode": "50", "address": "858 RUE LAVIOLETTE", "city": "TROIS RIVIERES", "province": "QC", "country": "CA", "postalCode": "G9A5S3", "twitter": "None", "instagram": "None", "facebook": "None", "youtube": "None", "website": "None", "summary": "None", "logo": "None", "latitude": 46.34869787846938, "longitude": -72.54542115869394}, "858117005RR0001": {"name": "MUSAGETES FOUNDATION", "designationCode": "C", "categoryCode": "22", "address": "6 DUBLIN ST. SOUTH            SUITE 103", "city": "GUELPH", "province": "ON", "country": "CA", "postalCode": "N1H4L5", "twitter": "None", "instagram": "None", "facebook": "None", "youtube": "None", "website": "None", "summary": "None", "logo": "None", "latitude": 43.54106344298561, "longitude": -80.2507747288074}, "898312392RR0001": {"name": "MUSAICO INC.", "designationCode": "C", "categoryCode": "22", "address": "1811-33 HARGRAVE ST", "city": "WINNIPEG", "province": "MB", "country": "CA", "postalCode": "R3C3T9", "twitter": "None", "instagram": "None", "facebook": "None", "youtube": "None", "website": "None", "summary": "None", "logo": "None", "latitude": 49.88887452870536, "longitude": -97.1423310069619}, "847071503RR0001": {"name": "MUSE: Multilingual Understanding and Shared Education Society", "designationCode": "C", "categoryCode": "20", "address": "3302-1238 MELVILLE STREET", "city": "VANCOUVER", "province": "BC", "country": "CA", "postalCode": "V6E4N2", "twitter": "None", "instagram": "None", "facebook": "None", "youtube": "None", "website": "None", "summary": "None", "logo": "None", "latitude": 49.28839682096499, "longitude": -123.12503090316788}, "107755886RR0001": {"name": "MUSEE BEAULNE INC.", "designationCode": "C", "categoryCode": "50", "address": "96, RUE DE L'UNION", "city": "COATICOOK", "province": "QC", "country": "CA", "postalCode": "J1A1Y9", "twitter": "None", "instagram": "None", "facebook": "None", "youtube": "None", "website": "None", "summary": "None", "logo": "None", "latitude": 45.13037312017429, "longitude": -71.80734081424163}, "107755894RR0001": {"name": "MUSEE D'ART CONTEMPORAIN DE MONTREAL", "designationCode": "C", "categoryCode": "50", "address": "185 RUE SAINTE-CATHERINE O", "city": "MONTREAL", "province": "QC", "country": "CA", "postalCode": "H2X3X5", "twitter": "None", "instagram": "None", "facebook": "None", "youtube": "None", "website": "None", "summary": "None", "logo": "None", "latitude": 45.507424474217025, "longitude": -73.5659912645051}, "119049450RR0001": {"name": "MUSEE D'ART DE JOLIETTE", "designationCode": "C", "categoryCode": "50", "address": "145 RUE WILFRID-CORBEIL", "city": "JOLIETTE", "province": "QC", "country": "CA", "postalCode": "J6E4T4", "twitter": "None", "instagram": "None", "facebook": "None", "youtube": "None", "website": "None", "summary": "None", "logo": "None", "latitude": 46.02447336522611, "longitude": -73.43591792134552}, "135742732RR0001": {"name": "MUSEE D'ART DE MONT SAINT-HILAIRE", "designationCode": "C", "categoryCode": "50", "address": "150 RUE DU CENTRE-CIVIQUE", "city": "MONT-SAINT-HILAIRE", "province": "QC", "country": "CA", "postalCode": "J3H5Z5", "twitter": "None", "instagram": "None", "facebook": "None", "youtube": "None", "website": "None", "summary": "None", "logo": "None", "latitude": 45.56524297533017, "longitude": -73.18980889693546}, "106740954RR0001": {"name": "MUSEE D'AYLMER INC./ AYLMER MUSEUM INC.", "designationCode": "C", "categoryCode": "50", "address": "C.P. 311                      SUCC. AYLMER", "city": "GATINEAU", "province": "QC", "country": "CA", "postalCode": "J9H5E6", "twitter": "None", "instagram": "None", "facebook": "None", "youtube": "None", "website": "None", "summary": "None", "logo": "None", "latitude": 45.403180979312346, "longitude": -75.79808429804527}, "856938535RR0001": {"name": "MUSEE D'HISTOIRE ET DU PATRIMOINE DE DORVAL/DORVAL MUSEUM OF LOCAL HISTORY AND HERITAGE", "designationCode": "C", "categoryCode": "50", "address": "60, AVENUE MARTIN", "city": "DORVAL", "province": "QC", "country": "CA", "postalCode": "H9S3R4", "twitter": "None", "instagram": "None", "facebook": "None", "youtube": "None", "website": "None", "summary": "None", "logo": "None", "latitude": 45.43925776158466, "longitude": -73.73032789595452}, "103811345RR0001": {"name": "MUSEE D'HISTOIRE, D'ETHNOGRAPHIE ET D'ART RELIGIEUX DE NICOLET/THE NICOLET MUSEUM OF HISTORY, ETHNOGRAPHY AND RELIGIOUS ART.", "designationCode": "C", "categoryCode": "50", "address": "900 BOUL LOUIS-FRECHETTE", "city": "NICOLET", "province": "QC", "country": "CA", "postalCode": "J3T1V5", "twitter": "None", "instagram": "None", "facebook": "None", "youtube": "None", "website": "None", "summary": "None", "logo": "None", "latitude": 46.23299394667921, "longitude": -72.61006220993728}, "107755910RR0001": {"name": "MUSEE DAVID M. STEWART - THE DAVID M. STEWART MUSEUM", "designationCode": "C", "categoryCode": "50", "address": "2175 RUE VICTORIA", "city": "MONTREAL", "province": "QC", "country": "CA", "postalCode": "H3A2A3", "twitter": "None", "instagram": "None", "facebook": "None", "youtube": "None", "website": "None", "summary": "None", "logo": "None", "latitude": 45.50403382015692, "longitude": -73.57326858505978}, "119049500RR0001": {"name": "MUSEE DE KENT INC.", "designationCode": "C", "categoryCode": "50", "address": "150 CHEMIN DU COUVENT", "city": "BOUCTOUCHE", "province": "NB", "country": "CA", "postalCode": "E4S3C1", "twitter": "None", "instagram": "None", "facebook": "None", "youtube": "None", "website": "None", "summary": "None", "logo": "None", "latitude": 46.47912495413847, "longitude": -64.69926647708832}, "814818878RR0001": {"name": "MUSEE DE L'ACCORDEON", "designationCode": "C", "categoryCode": "50", "address": "301 BOULEVARD TACHE EST", "city": "MONTMAGNY", "province": "QC", "country": "CA", "postalCode": "G5V1C5", "twitter": "None", "instagram": "None", "facebook": "None", "youtube": "None", "website": "None", "summary": "None", "logo": "None", "latitude": 46.98504250100961, "longitude": -70.54696936219632}, "144747664RR0001": {"name": "MUSEE DE LA CHANSON QUEBECOISE", "designationCode": "C", "categoryCode": "22", "address": "1631 CH. DU LAC ECHO", "city": "PREVOST", "province": "QC", "country": "CA", "postalCode": "J0R1T0", "twitter": "None", "instagram": "None", "facebook": "None", "youtube": "None", "website": "None", "summary": "None", "logo": "None", "latitude": 45.87783060170821, "longitude": -74.0230297127359}, "107755928RR0001": {"name": "MUSEE DE LA CIVILISATION", "designationCode": "C", "categoryCode": "50", "address": "CP 155 SUCC.B 16 RUE DE LA BARRICADE", "city": "QUEBEC", "province": "QC", "country": "CA", "postalCode": "G1K7A6", "twitter": "None", "instagram": "None", "facebook": "None", "youtube": "None", "website": "None", "summary": "None", "logo": "None", "latitude": 46.815627175918145, "longitude": -71.20234542719727}, "119049518RR0001": {"name": "MUSEE DE LA MER INC.", "designationCode": "C", "categoryCode": "50", "address": "1023 ROUTE 199", "city": "HAVRE-AUBERT", "province": "QC", "country": "CA", "postalCode": "G4T9C8", "twitter": "None", "instagram": "None", "facebook": "None", "youtube": "None", "website": "None", "summary": "None", "logo": "None", "latitude": 47.2365928581859, "longitude": -61.84189375687648}}