{"887712891RR0001": {"name": "Comox Valley Healthcare Foundation", "designationCode": "A", "categoryCode": "13", "address": "2137 COMOX AVENUE", "city": "COMOX", "province": "BC", "country": "CA", "postalCode": "V9M1P2", "twitter": "None", "instagram": "None", "facebook": "None", "youtube": "None", "website": "None", "summary": "None", "logo": "None", "latitude": 49.67551634655669, "longitude": -124.94082592151634}, "847385861RR0001": {"name": "Comox Valley Korean Baptist Church", "designationCode": "C", "categoryCode": "31", "address": "1250 ANDERTON RD", "city": "COMOX", "province": "BC", "country": "CA", "postalCode": "V9M3Z2", "twitter": "None", "instagram": "None", "facebook": "None", "youtube": "None", "website": "None", "summary": "None", "logo": "None", "latitude": 49.703019343233805, "longitude": -124.93414080199194}, "837668284RR0001": {"name": "Comox Valley Lifelong Learning Association", "designationCode": "C", "categoryCode": "21", "address": "300 6TH STREET", "city": "COURTENAY", "province": "BC", "country": "CA", "postalCode": "V9N9V9", "twitter": "None", "instagram": "None", "facebook": "None", "youtube": "None", "website": "None", "summary": "None", "logo": "None", "latitude": 49.68986693615823, "longitude": -124.99871648525423}, "141088013RR0001": {"name": "Comox Valley Presbyterian Church", "designationCode": "C", "categoryCode": "37", "address": "725 ASPEN ROAD", "city": "COMOX", "province": "BC", "country": "CA", "postalCode": "V9M4E9", "twitter": "None", "instagram": "None", "facebook": "None", "youtube": "None", "website": "None", "summary": "None", "logo": "None", "latitude": 49.68949400444341, "longitude": -124.94324386424421}, "126249721RR0001": {"name": "Comox Valley Youth Music Centre", "designationCode": "C", "categoryCode": "22", "address": "204-580 DUNCAN AVE", "city": "COURTENAY", "province": "BC", "country": "CA", "postalCode": "V9N2M7", "twitter": "None", "instagram": "None", "facebook": "None", "youtube": "None", "website": "None", "summary": "None", "logo": "None", "latitude": 49.69041596448145, "longitude": -124.99817541629653}, "836259770RR0001": {"name": "Compagnie de cimeti\u00e8re de Hull / Hull Cemetery Company", "designationCode": "C", "categoryCode": "52", "address": "71 BRONSON AVENUE", "city": "OTTAWA", "province": "ON", "country": "CA", "postalCode": "K1R6G6", "twitter": "None", "instagram": "None", "facebook": "None", "youtube": "None", "website": "None", "summary": "None", "logo": "None", "latitude": 45.41739558756995, "longitude": -75.7091518756421}, "824897243RR0001": {"name": "Compagnie de cimeti\u00e8re de Hull 2009", "designationCode": "C", "categoryCode": "59", "address": "283, BOUL.ALEXANDRE TACH\u00c9     CASIER POSTALE 1250", "city": "GATINEAU", "province": "QC", "country": "CA", "postalCode": "J9A1L8", "twitter": "None", "instagram": "None", "facebook": "None", "youtube": "None", "website": "None", "summary": "None", "logo": "None", "latitude": 45.42279754731954, "longitude": -75.73900770843673}, "765518329RR0001": {"name": "Compagnie de cimeti\u00e8res de Portneuf Est", "designationCode": "C", "categoryCode": "59", "address": "210 RUE DUPONT", "city": "PONT-ROUGE", "province": "QC", "country": "CA", "postalCode": "G3H1N9", "twitter": "None", "instagram": "None", "facebook": "None", "youtube": "None", "website": "None", "summary": "None", "logo": "None", "latitude": 46.75604050288554, "longitude": -71.6969644730798}, "840915441RR0001": {"name": "Compagnie de cimeti\u00e8res Saint-Esprit des Pentes-C\u00f4tes", "designationCode": "C", "categoryCode": "59", "address": "230 RUE PRINCIPALE", "city": "EAST BROUGHTON", "province": "QC", "country": "CA", "postalCode": "G0N1G0", "twitter": "None", "instagram": "None", "facebook": "None", "youtube": "None", "website": "None", "summary": "None", "logo": "None", "latitude": 46.216963112384036, "longitude": -71.0736456295807}, "851653584RR0001": {"name": "Compagnie la Otra Orilla", "designationCode": "C", "categoryCode": "22", "address": "137, RUE SAINT-FERDINAND      LOCAL 227", "city": "MONTREAL", "province": "QC", "country": "CA", "postalCode": "H4C2S5", "twitter": "None", "instagram": "None", "facebook": "None", "youtube": "None", "website": "None", "summary": "None", "logo": "None", "latitude": 45.47490197841723, "longitude": -73.58211781606022}, "801492133RR0001": {"name": "Compagnie Cimeti\u00e8re de Rupert Rupert Cemetery Company", "designationCode": "C", "categoryCode": "59", "address": "10 CH PARENT", "city": "ALCOVE", "province": "QC", "country": "CA", "postalCode": "J0X1A0", "twitter": "None", "instagram": "None", "facebook": "None", "youtube": "None", "website": "None", "summary": "None", "logo": "None", "latitude": 45.69064215462499, "longitude": -75.99055589174228}, "140943176RR0001": {"name": "Compagnie Flak", "designationCode": "C", "categoryCode": "22", "address": "460 STE-CATHERINE OUEST       SUITE 411", "city": "MONTREAL", "province": "QC", "country": "CA", "postalCode": "H3B1A7", "twitter": "None", "instagram": "None", "facebook": "None", "youtube": "None", "website": "None", "summary": "None", "logo": "None", "latitude": 45.50506326865377, "longitude": -73.56795990671725}, "845863927RR0001": {"name": "Compagnie Vision Selective Arts Society", "designationCode": "C", "categoryCode": "22", "address": "336 EAST 1ST AVENUE           SUITE 104", "city": "VANCOUVER", "province": "BC", "country": "CA", "postalCode": "V5T4R6", "twitter": "None", "instagram": "None", "facebook": "None", "youtube": "None", "website": "None", "summary": "None", "logo": "None", "latitude": 49.26760784569215, "longitude": -123.09685711919334}, "800994675RR0001": {"name": "Compagnons de la Pointe Rouge, Inc. Friends of Pointe Rouge, Inc.", "designationCode": "C", "categoryCode": "52", "address": "794 DUNLOE AVE", "city": "OTTAWA", "province": "ON", "country": "CA", "postalCode": "K1K0K4", "twitter": "None", "instagram": "None", "facebook": "None", "youtube": "None", "website": "None", "summary": "None", "logo": "None", "latitude": 45.45020462334829, "longitude": -75.65795676810552}, "860232552RR0001": {"name": "Companion Animal Rescue Effort", "designationCode": "C", "categoryCode": "54", "address": "1077 NORTH SERVICE RD         PO BOX 20022", "city": "MISSISSAUGA", "province": "ON", "country": "CA", "postalCode": "L4Y4L2", "twitter": "None", "instagram": "None", "facebook": "None", "youtube": "None", "website": "None", "summary": "None", "logo": "None", "latitude": 43.591092765838134, "longitude": -79.57536359670613}, "843586595RR0001": {"name": "Companions of St. Joseph of Arimathea Mercy Chapel", "designationCode": "C", "categoryCode": "39", "address": "2868 RICHMOND ST", "city": "WINDSOR", "province": "ON", "country": "CA", "postalCode": "N8Y1M4", "twitter": "None", "instagram": "None", "facebook": "None", "youtube": "None", "website": "None", "summary": "None", "logo": "None", "latitude": 42.320213986555416, "longitude": -82.9985610806134}, "811237338RR0001": {"name": "Company of Disciples Christian Ministries Society", "designationCode": "C", "categoryCode": "39", "address": "907 - 2077 ROSSER AVE", "city": "BURNABY", "province": "BC", "country": "CA", "postalCode": "V5C0G6", "twitter": "None", "instagram": "None", "facebook": "None", "youtube": "None", "website": "None", "summary": "None", "logo": "None", "latitude": 49.265714849621894, "longitude": -123.00606316674786}, "894061514RR0001": {"name": "Company Erasga Society", "designationCode": "C", "categoryCode": "22", "address": "1408-207 HASTINGS ST W", "city": "VANCOUVER", "province": "BC", "country": "CA", "postalCode": "V6B1H7", "twitter": "None", "instagram": "None", "facebook": "None", "youtube": "None", "website": "None", "summary": "None", "logo": "None", "latitude": 49.282745342777936, "longitude": -123.10981369856898}, "871677142RR0001": {"name": "Company Link Inc.", "designationCode": "C", "categoryCode": "22", "address": "822 DORCHESTER AVENUE", "city": "WINNIPEG", "province": "MB", "country": "CA", "postalCode": "R3M0R7", "twitter": "None", "instagram": "None", "facebook": "None", "youtube": "None", "website": "None", "summary": "None", "logo": "None", "latitude": 49.87060107908719, "longitude": -97.1597040674304}, "841861826RR0001": {"name": "Compasio Relief and Development Canada", "designationCode": "C", "categoryCode": "47", "address": "23 CROWNHILL ST", "city": "GLOUCESTER", "province": "ON", "country": "CA", "postalCode": "K1J7K3", "twitter": "None", "instagram": "None", "facebook": "None", "youtube": "None", "website": "None", "summary": "None", "logo": "None", "latitude": 45.442883869842376, "longitude": -75.60822008405017}, "845591049RR0001": {"name": "Compass Centre for Self-Directed Learning", "designationCode": "C", "categoryCode": "20", "address": "223 - 225 DONALD ST", "city": "OTTAWA", "province": "ON", "country": "CA", "postalCode": "K1K1N1", "twitter": "None", "instagram": "None", "facebook": "None", "youtube": "None", "website": "None", "summary": "None", "logo": "None", "latitude": 45.42760444056142, "longitude": -75.65890547558996}, "835731381RR0001": {"name": "Compass Fellowship of Crowsnest Pass", "designationCode": "C", "categoryCode": "39", "address": "POST OFFICE BOX", "city": "BLAIRMORE", "province": "AB", "country": "CA", "postalCode": "T0K0E0", "twitter": "None", "instagram": "None", "facebook": "None", "youtube": "None", "website": "None", "summary": "None", "logo": "None", "latitude": 49.491268008524564, "longitude": -113.94719278131039}, "887305399RR0002": {"name": "Compass Minerals Canada Corp., Hourly Paid Employees Charity Trust", "designationCode": "B", "categoryCode": "75", "address": "PO BOX 550", "city": "AMHERST", "province": "NS", "country": "CA", "postalCode": "B4H4A1", "twitter": "None", "instagram": "None", "facebook": "None", "youtube": "None", "website": "None", "summary": "None", "logo": "None", "latitude": 45.83198400000006, "longitude": -64.20979249999993}, "819244906RR0001": {"name": "Compassion and Grace Institute Inc.", "designationCode": "C", "categoryCode": "39", "address": "985 LINE RD                   RR 2", "city": "MONTAGUE", "province": "PE", "country": "CA", "postalCode": "C0A1R0", "twitter": "None", "instagram": "None", "facebook": "None", "youtube": "None", "website": "None", "summary": "None", "logo": "None", "latitude": 46.10687607672854, "longitude": -62.60465696115353}, "841127418RR0001": {"name": "Compassion for Souls Ministry", "designationCode": "C", "categoryCode": "47", "address": "44 STUDEBAKER TRAIL", "city": "BRAMPTON", "province": "ON", "country": "CA", "postalCode": "L7A3A5", "twitter": "None", "instagram": "None", "facebook": "None", "youtube": "None", "website": "None", "summary": "None", "logo": "None", "latitude": 43.69105659507176, "longitude": -79.83581411867374}, "863326468RR0001": {"name": "Compassion Fruit Society", "designationCode": "C", "categoryCode": "01", "address": "400-856 HOMER ST", "city": "VANCOUVER", "province": "BC", "country": "CA", "postalCode": "V6B2W5", "twitter": "None", "instagram": "None", "facebook": "None", "youtube": "None", "website": "None", "summary": "None", "logo": "None", "latitude": 49.27860172993258, "longitude": -123.11810476836533}, "829515444RR0001": {"name": "Compassion Globally Society", "designationCode": "C", "categoryCode": "09", "address": "1500 WEST GEORGIA STREET      SUITE 1250, POST OFFICE BOX 62", "city": "VANCOUVER", "province": "BC", "country": "CA", "postalCode": "V6G2Z6", "twitter": "None", "instagram": "None", "facebook": "None", "youtube": "None", "website": "None", "summary": "None", "logo": "None", "latitude": 49.2900638104334, "longitude": -123.12989899362336}, "804301810RR0001": {"name": "Compassion Society of Halton", "designationCode": "C", "categoryCode": "09", "address": "484 PLAINS RD E", "city": "BURLINGTON", "province": "ON", "country": "CA", "postalCode": "L7T2E1", "twitter": "None", "instagram": "None", "facebook": "None", "youtube": "None", "website": "None", "summary": "None", "logo": "None", "latitude": 43.3182895925043, "longitude": -79.83736665826126}, "800861932RR0001": {"name": "Compassionate Aid Network International Society", "designationCode": "C", "categoryCode": "09", "address": "#2607-1200 GEORGIA W ST", "city": "VANCOUVER", "province": "BC", "country": "CA", "postalCode": "V6E4R2", "twitter": "None", "instagram": "None", "facebook": "None", "youtube": "None", "website": "None", "summary": "None", "logo": "None", "latitude": 49.28667362057004, "longitude": -123.12466569892877}, "700820525RR0001": {"name": "Compassionate Care Hospice Society (2016)", "designationCode": "C", "categoryCode": "11", "address": "PO BOX 283", "city": "ROCKY MOUNTAIN HOUSE", "province": "AB", "country": "CA", "postalCode": "T4T1A2", "twitter": "None", "instagram": "None", "facebook": "None", "youtube": "None", "website": "None", "summary": "None", "logo": "None", "latitude": 52.37758500000005, "longitude": -114.93030049999993}, "824667869RR0001": {"name": "Compassionate Community Care", "designationCode": "C", "categoryCode": "11", "address": "261 VICTORIA STREET", "city": "GLENCOE", "province": "ON", "country": "CA", "postalCode": "N0L1M0", "twitter": "None", "instagram": "None", "facebook": "None", "youtube": "None", "website": "None", "summary": "None", "logo": "None", "latitude": 42.750509928962906, "longitude": -81.71230250816565}, "819850371RR0001": {"name": "Compassionate Listening Society", "designationCode": "B", "categoryCode": "09", "address": "9602 82 AVE NW", "city": "EDMONTON", "province": "AB", "country": "CA", "postalCode": "T6C1A1", "twitter": "None", "instagram": "None", "facebook": "None", "youtube": "None", "website": "None", "summary": "None", "logo": "None", "latitude": 53.518113, "longitude": -113.476743}, "852697531RR0001": {"name": "Compassionate Outreach Faith International", "designationCode": "C", "categoryCode": "47", "address": "7971 KIPLING AVENUE", "city": "WOODBRIDGE", "province": "ON", "country": "CA", "postalCode": "L4L1Z8", "twitter": "None", "instagram": "None", "facebook": "None", "youtube": "None", "website": "None", "summary": "None", "logo": "None", "latitude": 43.78407620566678, "longitude": -79.59850760266049}, "877834903RR0001": {"name": "Compassionate Resource Warehouse", "designationCode": "C", "categoryCode": "59", "address": "4277 QUADRA ST", "city": "VICTORIA", "province": "BC", "country": "CA", "postalCode": "V8X1L5", "twitter": "None", "instagram": "None", "facebook": "None", "youtube": "None", "website": "None", "summary": "None", "logo": "None", "latitude": 48.48446200167343, "longitude": -123.38060132457166}, "846910958RR0001": {"name": "Compassionet Impact Development Canada", "designationCode": "B", "categoryCode": "03", "address": "6417 DOG LAKE RD", "city": "GORHAM", "province": "ON", "country": "CA", "postalCode": "P7G0E1", "twitter": "None", "instagram": "None", "facebook": "None", "youtube": "None", "website": "None", "summary": "None", "logo": "None", "latitude": 48.6139178334739, "longitude": -89.3336326267689}, "803300482RR0001": {"name": "Compassionlight Institute", "designationCode": "C", "categoryCode": "35", "address": "D - 250 FERRIER ST", "city": "MARKHAM", "province": "ON", "country": "CA", "postalCode": "L3R2Z5", "twitter": "None", "instagram": "None", "facebook": "None", "youtube": "None", "website": "None", "summary": "None", "logo": "None", "latitude": 43.82260257810623, "longitude": -79.33181200854008}, "800960387RR0001": {"name": "Compelling Love Ministries", "designationCode": "B", "categoryCode": "39", "address": "16-2030 VAN HORNE DR", "city": "KAMLOOPS", "province": "BC", "country": "CA", "postalCode": "V1S1P6", "twitter": "None", "instagram": "None", "facebook": "None", "youtube": "None", "website": "None", "summary": "None", "logo": "None", "latitude": 50.64704893857179, "longitude": -120.36883127566465}, "805577251RR0001": {"name": "Complexe de salles du royaume des t\u00e9moins de j\u00e9hovah d'Aylmer/Aylmer Kingdom Hall Complex of Jehovah's Witnesses", "designationCode": "C", "categoryCode": "61", "address": "2567 RUE ONTARIO EST          3E ETAGE", "city": "MONTREAL", "province": "QC", "country": "CA", "postalCode": "H2K1W6", "twitter": "None", "instagram": "None", "facebook": "None", "youtube": "None", "website": "None", "summary": "None", "logo": "None", "latitude": 45.53326957092151, "longitude": -73.55244527534754}, "854899655RR0001": {"name": "Comptoir alimentaire St-Hippolyte Inc.", "designationCode": "C", "categoryCode": "09", "address": "2253, CHEMIN DES HAUTEURS", "city": "SAINT-HIPPOLYTE", "province": "QC", "country": "CA", "postalCode": "J8A1A1", "twitter": "None", "instagram": "None", "facebook": "None", "youtube": "None", "website": "None", "summary": "None", "logo": "None", "latitude": 45.93033626314251, "longitude": -74.0253671967217}, "837671825RR0001": {"name": "Comptoir alimentaire Val-David", "designationCode": "C", "categoryCode": "09", "address": "1331, CHEMIN DE LA RIVI\u00c8RE", "city": "STE-AGATHE-DES-MONTS", "province": "QC", "country": "CA", "postalCode": "J8C2Z7", "twitter": "None", "instagram": "None", "facebook": "None", "youtube": "None", "website": "None", "summary": "None", "logo": "None", "latitude": 46.046112747706196, "longitude": -74.24912944102371}, "140349069RR0001": {"name": "Comptoir de R\u00e9cup\u00e9ration de Meubles de la Maison de Quartier de Jonqui\u00e8re", "designationCode": "C", "categoryCode": "09", "address": "3963 RUE DU VIEUX-PONT CP 42", "city": "JONQUIERE", "province": "QC", "country": "CA", "postalCode": "G7X7V8", "twitter": "None", "instagram": "None", "facebook": "None", "youtube": "None", "website": "None", "summary": "None", "logo": "None", "latitude": 48.40990785706044, "longitude": -71.25774644685208}, "101079200RR0001": {"name": "Comptoir de R\u00e9cup\u00e9ration de V\u00eatements de la Maison de Quartier de Jonqui\u00e8re", "designationCode": "C", "categoryCode": "09", "address": "3971 DU VIEUX PONT CP 42 SUCCA", "city": "JONQUIERE", "province": "QC", "country": "CA", "postalCode": "G7X7V8", "twitter": "None", "instagram": "None", "facebook": "None", "youtube": "None", "website": "None", "summary": "None", "logo": "None", "latitude": 48.409984834843456, "longitude": -71.25810043242537}, "815435565RR0001": {"name": "Comptoir vestimentaire Saint-Paul", "designationCode": "C", "categoryCode": "09", "address": "18 BOUL BRASSARD", "city": "SAINT-PAUL", "province": "QC", "country": "CA", "postalCode": "J0K3E0", "twitter": "None", "instagram": "None", "facebook": "None", "youtube": "None", "website": "None", "summary": "None", "logo": "None", "latitude": 45.98236438243115, "longitude": -73.44502009239082}, "803349562RR0001": {"name": "Comptoir Alimentaire de Malartic", "designationCode": "C", "categoryCode": "09", "address": "491 1RE AV", "city": "MALARTIC", "province": "QC", "country": "CA", "postalCode": "J0Y1Z0", "twitter": "None", "instagram": "None", "facebook": "None", "youtube": "None", "website": "None", "summary": "None", "logo": "None", "latitude": 48.1404306217035, "longitude": -78.12597287541097}, "836305177RR0001": {"name": "Comunidad de Dios Hechos", "designationCode": "C", "categoryCode": "39", "address": "209 - 25 AGNES ST", "city": "MISSISSAUGA", "province": "ON", "country": "CA", "postalCode": "L5B3X7", "twitter": "None", "instagram": "None", "facebook": "None", "youtube": "None", "website": "None", "summary": "None", "logo": "None", "latitude": 43.58054927283738, "longitude": -79.6180337847826}, "849062971RR0001": {"name": "Comunidad Christiana Church", "designationCode": "C", "categoryCode": "39", "address": "606 JANE ST", "city": "YORK", "province": "ON", "country": "CA", "postalCode": "M6S4A6", "twitter": "None", "instagram": "None", "facebook": "None", "youtube": "None", "website": "None", "summary": "None", "logo": "None", "latitude": 43.66494215875126, "longitude": -79.49089539428107}, "821103116RR0001": {"name": "Comunidad Christiana Oasis de Amor", "designationCode": "C", "categoryCode": "36", "address": "7 KIMBERLEY CRES", "city": "BRAMPTON", "province": "ON", "country": "CA", "postalCode": "L6R1T6", "twitter": "None", "instagram": "None", "facebook": "None", "youtube": "None", "website": "None", "summary": "None", "logo": "None", "latitude": 43.74150993698433, "longitude": -79.7532671740147}, "821042041RR0001": {"name": "Comunidad Cristiana de Toronto", "designationCode": "C", "categoryCode": "39", "address": "39 CASTLE GREEN CRES", "city": "ETOBICOKE", "province": "ON", "country": "CA", "postalCode": "M9R1N5", "twitter": "None", "instagram": "None", "facebook": "None", "youtube": "None", "website": "None", "summary": "None", "logo": "None", "latitude": 43.694243402995006, "longitude": -79.54841309077258}, "842603615RR0001": {"name": "Conam Charitable Foundation", "designationCode": "A", "categoryCode": "03", "address": "58 LISA CRES.", "city": "THORNHILL", "province": "ON", "country": "CA", "postalCode": "L4J2N3", "twitter": "None", "instagram": "None", "facebook": "None", "youtube": "None", "website": "None", "summary": "None", "logo": "None", "latitude": 43.80052992423106, "longitude": -79.44280088816424}, "809303332RR0001": {"name": "Concentus Citizenship Education Foundation", "designationCode": "C", "categoryCode": "21", "address": "200 - 123 2ND AVE S", "city": "SASKATOON", "province": "SK", "country": "CA", "postalCode": "S7K7E6", "twitter": "None", "instagram": "None", "facebook": "None", "youtube": "None", "website": "None", "summary": "None", "logo": "None", "latitude": 52.12586293276392, "longitude": -106.66525850222874}, "842130882RR0001": {"name": "Concerned Citizens of Canada for Community Welfare Inc.", "designationCode": "A", "categoryCode": "03", "address": "6203 NETHERHART ROAD", "city": "MISSISSAUGA", "province": "ON", "country": "CA", "postalCode": "L5T1G5", "twitter": "None", "instagram": "None", "facebook": "None", "youtube": "None", "website": "None", "summary": "None", "logo": "None", "latitude": 43.6657510912922, "longitude": -79.64304147859106}, "840132641RR0001": {"name": "Concerned Citizens Association of North Parkland Inc.", "designationCode": "C", "categoryCode": "11", "address": "208-203 8TH AVE S", "city": "SWAN RIVER", "province": "MB", "country": "CA", "postalCode": "R0L1Z0", "twitter": "None", "instagram": "None", "facebook": "None", "youtube": "None", "website": "None", "summary": "None", "logo": "None", "latitude": 52.102998430124906, "longitude": -101.26325207997782}, "767583495RR0001": {"name": "Concerts noncerto", "designationCode": "B", "categoryCode": "22", "address": "4028 AVE DE MARLOWE", "city": "MONTREAL", "province": "QC", "country": "CA", "postalCode": "H4A3M2", "twitter": "None", "instagram": "None", "facebook": "None", "youtube": "None", "website": "None", "summary": "None", "logo": "None", "latitude": 45.478541756852806, "longitude": -73.61489510756523}, "118856160RR0001": {"name": "Concilio Prison Ministry/Concilio Ministere Aupres Des Prisonniers", "designationCode": "C", "categoryCode": "47", "address": "261 MCGEE ST                  RR # 1", "city": "SPRINGHILL", "province": "NS", "country": "CA", "postalCode": "B0M1X0", "twitter": "None", "instagram": "None", "facebook": "None", "youtube": "None", "website": "None", "summary": "None", "logo": "None", "latitude": 45.62965583042871, "longitude": -64.08061013783232}, "841096969RR0001": {"name": "Concours international d'orgue du Canada / Canadian International Organ Competition", "designationCode": "C", "categoryCode": "22", "address": "335-606 RUE CATHCART", "city": "MONTREAL", "province": "QC", "country": "CA", "postalCode": "H3B1K9", "twitter": "None", "instagram": "None", "facebook": "None", "youtube": "None", "website": "None", "summary": "None", "logo": "None", "latitude": 45.50352944489019, "longitude": -73.56822896984849}, "832454441RR0001": {"name": "Concussion Legacy Foundation (Canada) Inc.", "designationCode": "C", "categoryCode": "11", "address": "WESTERN U-RIX CLINICAL SKILLS BUILDING, ROOM 3701", "city": "LONDON", "province": "ON", "country": "CA", "postalCode": "N6A5C1", "twitter": "None", "instagram": "None", "facebook": "None", "youtube": "None", "website": "None", "summary": "None", "logo": "None", "latitude": 43.00933200000006, "longitude": -81.26167399999993}, "859087751RR0001": {"name": "Conf\u00e9rence de l'\u00eele", "designationCode": "C", "categoryCode": "09", "address": "109, RUE WRIGHT", "city": "GATINEAU", "province": "QC", "country": "CA", "postalCode": "J8X2G7", "twitter": "None", "instagram": "None", "facebook": "None", "youtube": "None", "website": "None", "summary": "None", "logo": "None", "latitude": 45.42702050432782, "longitude": -75.71872264071786}, "132410671RR0503": {"name": "Conf\u00e9rence Saint-Louis de Courville, \u00e0 Qu\u00e9bec (Qc)", "designationCode": "C", "categoryCode": "09", "address": "101 RUE SYLVIO", "city": "QU\u00c9BEC", "province": "QC", "country": "CA", "postalCode": "G1C2R1", "twitter": "None", "instagram": "None", "facebook": "None", "youtube": "None", "website": "None", "summary": "None", "logo": "None", "latitude": 46.89040883458364, "longitude": -71.15667416997533}, "854220142RR0001": {"name": "Conf\u00e9rence St-Vincent de Paul de St-Pierre de Wakefield", "designationCode": "C", "categoryCode": "09", "address": "1 - 34 CH DE L'EGLISE", "city": "VAL-DES-MONTS", "province": "QC", "country": "CA", "postalCode": "J8N2A1", "twitter": "None", "instagram": "None", "facebook": "None", "youtube": "None", "website": "None", "summary": "None", "logo": "None"}, "841281264RR0001": {"name": "Conf\u00e9rences Pectoral", "designationCode": "C", "categoryCode": "47", "address": "9120, AVE. C\u00c9R\u00c8S              APP. 101", "city": "MONTR\u00c9AL", "province": "QC", "country": "CA", "postalCode": "H8Y3N7", "twitter": "None", "instagram": "None", "facebook": "None", "youtube": "None", "website": "None", "summary": "None", "logo": "None", "latitude": 45.50114663445678, "longitude": -73.78015348043738}, "841534712RR0001": {"name": "Confederation Centre of the Arts Foundation Inc.", "designationCode": "B", "categoryCode": "03", "address": "145 RICHMOND STREET", "city": "CHARLOTTETOWN", "province": "PE", "country": "CA", "postalCode": "C1A1J1", "twitter": "None", "instagram": "None", "facebook": "None", "youtube": "None", "website": "None", "summary": "None", "logo": "None", "latitude": 46.23417015681803, "longitude": -63.12633998779498}, "119288918RR0614": {"name": "Confederation Park Congregation of Jehovah's Witnesses, Saskatoon, Saskatchewan", "designationCode": "C", "categoryCode": "61", "address": "385 MEIGHEN CRESCENT", "city": "SASKATOON", "province": "SK", "country": "CA", "postalCode": "S7L4W6", "twitter": "None", "instagram": "None", "facebook": "None", "youtube": "None", "website": "None", "summary": "None", "logo": "None", "latitude": 52.140426539529265, "longitude": -106.74380266763806}, "851031856RR0001": {"name": "Confessio Augustana (Canada) Limited", "designationCode": "B", "categoryCode": "47", "address": "1533 PARKLAND DR", "city": "PARKLAND COUNTY", "province": "AB", "country": "CA", "postalCode": "T7Y2T6", "twitter": "None", "instagram": "None", "facebook": "None", "youtube": "None", "website": "None", "summary": "None", "logo": "None", "latitude": 53.542273916700566, "longitude": -114.14756801684997}, "824531495RR0001": {"name": "Confr\u00e9rie Kuan-Ti", "designationCode": "C", "categoryCode": "59", "address": "107 - 835 RUE GRANDJEAN", "city": "QUEBEC", "province": "QC", "country": "CA", "postalCode": "G1X4E5", "twitter": "None", "instagram": "None", "facebook": "None", "youtube": "None", "website": "None", "summary": "None", "logo": "None", "latitude": 46.76370204662706, "longitude": -71.33210201226234}, "848399267RR0001": {"name": "Congo (RDC) Faim / Hunger Inc.", "designationCode": "C", "categoryCode": "09", "address": "2-400 RUE RAYMOND", "city": "GATINEAU", "province": "QC", "country": "CA", "postalCode": "J8P5H4", "twitter": "None", "instagram": "None", "facebook": "None", "youtube": "None", "website": "None", "summary": "None", "logo": "None", "latitude": 45.491911983351585, "longitude": -75.65078123333772}, "118872258RR0001": {"name": "Congr\u00e9gation amour pour Isra\u00ebl", "designationCode": "C", "categoryCode": "42", "address": "1040 VAN HORNE", "city": "MONTREAL", "province": "QC", "country": "CA", "postalCode": "H2V1J5", "twitter": "None", "instagram": "None", "facebook": "None", "youtube": "None", "website": "None", "summary": "None", "logo": "None", "latitude": 45.52456537800805, "longitude": -73.61122873186582}, "843974841RR0001": {"name": "Congr\u00e9gation de la bonne nouvelle pour toutes les nations", "designationCode": "C", "categoryCode": "39", "address": "541 90E AVENUE", "city": "VILLE LASALLE", "province": "QC", "country": "CA", "postalCode": "H8R2Z9", "twitter": "None", "instagram": "None", "facebook": "None", "youtube": "None", "website": "None", "summary": "None", "logo": "None", "latitude": 45.42228243130019, "longitude": -73.64187823241407}, "849289442RR0001": {"name": "Congr\u00e9gation de la Maison de David / Congregation of the House of David", "designationCode": "C", "categoryCode": "39", "address": "6902 C\u00d4TE-DES-NEIGES", "city": "MONTR\u00c9AL", "province": "QC", "country": "CA", "postalCode": "H3S2B9", "twitter": "None", "instagram": "None", "facebook": "None", "youtube": "None", "website": "None", "summary": "None", "logo": "None", "latitude": 45.50366569135562, "longitude": -73.63896492160532}, "119288918RR1488": {"name": "Congr\u00e9gation des t\u00e9moins de J\u00e9hovah d'Ottawa-Cr\u00e9ole (Ontario)", "designationCode": "C", "categoryCode": "61", "address": "1637, CHEMIN CYRVILLE", "city": "GLOUCESTER", "province": "ON", "country": "CA", "postalCode": "K1B3L7", "twitter": "None", "instagram": "None", "facebook": "None", "youtube": "None", "website": "None", "summary": "None", "logo": "None", "latitude": 45.41819703473914, "longitude": -75.60988665901107}, "119288918RR1510": {"name": "Congr\u00e9gation des t\u00e9moins de J\u00e9hovah de Ch\u00e2teauguay-Espagnole(Qu\u00e9bec)", "designationCode": "C", "categoryCode": "61", "address": "201 BERGEVIN", "city": "CH\u00c2TEAUGUAY", "province": "QC", "country": "CA", "postalCode": "J6K5A9", "twitter": "None", "instagram": "None", "facebook": "None", "youtube": "None", "website": "None", "summary": "None", "logo": "None", "latitude": 45.34717514011229, "longitude": -73.75285844292827}, "119288918RR1533": {"name": "Congr\u00e9gation des t\u00e9moins de J\u00e9hovah de Laval-Cr\u00e9ole (Qu\u00e9bec)", "designationCode": "C", "categoryCode": "61", "address": "60, DE MAYENCE", "city": "LAVAL", "province": "QC", "country": "CA", "postalCode": "H7M3M3", "twitter": "None", "instagram": "None", "facebook": "None", "youtube": "None", "website": "None", "summary": "None", "logo": "None", "latitude": 45.59476834358601, "longitude": -73.7186072757229}, "119288918RR1532": {"name": "Congr\u00e9gation des t\u00e9moins de J\u00e9hovah de Longueuil-Cr\u00e9ole (Qu\u00e9bec)", "designationCode": "C", "categoryCode": "61", "address": "2065, RUE B\u00c9DARD", "city": "LONGUEUIL", "province": "QC", "country": "CA", "postalCode": "J4N1B4", "twitter": "None", "instagram": "None", "facebook": "None", "youtube": "None", "website": "None", "summary": "None", "logo": "None", "latitude": 45.55003412934957, "longitude": -73.45597128224378}, "119288918RR1511": {"name": "Congr\u00e9gation des t\u00e9moins de J\u00e9hovah de Montr\u00e9al-Lingala (Qu\u00e9bec)", "designationCode": "C", "categoryCode": "61", "address": "2567 ONTARIO EST", "city": "MONTREAL", "province": "QC", "country": "CA", "postalCode": "H2K1W6", "twitter": "None", "instagram": "None", "facebook": "None", "youtube": "None", "website": "None", "summary": "None", "logo": "None", "latitude": 45.53326957092151, "longitude": -73.55244527534754}, "119288918RR1617": {"name": "Congr\u00e9gation des t\u00e9moins de J\u00e9hovah de Nord-Cr\u00e9ole, Montr\u00e9al(Qu\u00e9bec)", "designationCode": "C", "categoryCode": "61", "address": "7170 BOUL SAINT-MICHEL", "city": "MONTREAL", "province": "QC", "country": "CA", "postalCode": "H2A2Z4", "twitter": "None", "instagram": "None", "facebook": "None", "youtube": "None", "website": "None", "summary": "None", "logo": "None", "latitude": 45.558487698568975, "longitude": -73.59778338885674}, "119288918RR1480": {"name": "Congr\u00e9gation des t\u00e9moins de J\u00e9hovah de Qu\u00e9bec-Hispana (Qu\u00e9bec)", "designationCode": "C", "categoryCode": "61", "address": "7070 BOULEVARD HENRI-BOURASSA", "city": "QU\u00c9BEC", "province": "QC", "country": "CA", "postalCode": "G1H3E1", "twitter": "None", "instagram": "None", "facebook": "None", "youtube": "None", "website": "None", "summary": "None", "logo": "None", "latitude": 46.85760957536493, "longitude": -71.26197125226516}, "119288918RR1446": {"name": "Congr\u00e9gation des t\u00e9moins de J\u00e9hovah de Saint-J\u00e9r\u00f4me-Bellefeuille (Qu\u00e9bec)", "designationCode": "C", "categoryCode": "61", "address": "305, RUE DES CH\u00dbTES WILSON", "city": "ST-J\u00c9R\u00d4ME", "province": "QC", "country": "CA", "postalCode": "J7Y4Z7", "twitter": "None", "instagram": "None", "facebook": "None", "youtube": "None", "website": "None", "summary": "None", "logo": "None", "latitude": 45.811023892059374, "longitude": -74.0336724128341}, "807757729RR0001": {"name": "Congr\u00e9gation des Fr\u00e8res de Saint-Jean", "designationCode": "C", "categoryCode": "47", "address": "825 RUE SAINT-LOUIS", "city": "TERREBONNE", "province": "QC", "country": "CA", "postalCode": "J6W1J7", "twitter": "None", "instagram": "None", "facebook": "None", "youtube": "None", "website": "None", "summary": "None", "logo": "None", "latitude": 45.6948694205088, "longitude": -73.63657497169481}, "814964326RR0001": {"name": "Congr\u00e9gation des Missionnaires Libanais", "designationCode": "C", "categoryCode": "39", "address": "12475 RUE GRENET", "city": "MONTREAL", "province": "QC", "country": "CA", "postalCode": "H4J2K4", "twitter": "None", "instagram": "None", "facebook": "None", "youtube": "None", "website": "None", "summary": "None", "logo": "None", "latitude": 45.53465803303704, "longitude": -73.72288791727748}, "119288918RR0911": {"name": "Congr\u00e9gation des T\u00e9moins de J\u00e9hovah \u00c9rable, Victoriaville (Qu\u00e9bec)", "designationCode": "C", "categoryCode": "61", "address": "49 RUE ALLARD", "city": "VICTORIAVILLE", "province": "QC", "country": "CA", "postalCode": "G6T0S2", "twitter": "None", "instagram": "None", "facebook": "None", "youtube": "None", "website": "None", "summary": "None", "logo": "None", "latitude": 46.08435703288615, "longitude": -71.93637928169622}, "119288918RR1616": {"name": "Congr\u00e9gation des T\u00e9moins de J\u00e9hovah de la Montagne, Rigaud (Qu\u00e9bec)", "designationCode": "C", "categoryCode": "61", "address": "2599 DU MANOIR", "city": "VAUDREUIL-DORION", "province": "QC", "country": "CA", "postalCode": "J7V8W5", "twitter": "None", "instagram": "None", "facebook": "None", "youtube": "None", "website": "None", "summary": "None", "logo": "None", "latitude": 45.404270100727274, "longitude": -74.04019529626646}, "119288918RR1615": {"name": "Congr\u00e9gation des T\u00e9moins de J\u00e9hovah de Beaus\u00e9jour, Shediac, New Brunswick", "designationCode": "C", "categoryCode": "61", "address": "17 MACARTHUR LANE", "city": "BOUDREAU-OUEST", "province": "NB", "country": "CA", "postalCode": "E4P6P2", "twitter": "None", "instagram": "None", "facebook": "None", "youtube": "None", "website": "None", "summary": "None", "logo": "None", "latitude": 46.22597563059154, "longitude": -64.48620104558906}, "119288918RR1522": {"name": "Congr\u00e9gation des T\u00e9moins de J\u00e9hovah de Boisbriand-Espagnole(Qu\u00e9bec)", "designationCode": "C", "categoryCode": "61", "address": "85, BOUL. DES ENTREPRISES", "city": "BOISBRIAND", "province": "QC", "country": "CA", "postalCode": "J7G2Y2", "twitter": "None", "instagram": "None", "facebook": "None", "youtube": "None", "website": "None", "summary": "None", "logo": "None", "latitude": 45.626341612239784, "longitude": -73.82791866596462}, "119288918RR1555": {"name": "Congr\u00e9gation des T\u00e9moins de J\u00e9hovah de Calgary-Fran\u00e7aise (Alberta)", "designationCode": "C", "categoryCode": "61", "address": "127  44 STREET S.E.", "city": "CALGARY", "province": "AB", "country": "CA", "postalCode": "T2A3E2", "twitter": "None", "instagram": "None", "facebook": "None", "youtube": "None", "website": "None", "summary": "None", "logo": "None", "latitude": 51.05120400000001, "longitude": -113.97001623968477}, "119288918RR1650": {"name": "Congr\u00e9gation des T\u00e9moins de J\u00e9hovah de Cr\u00e9ole-C\u00f4te-Vertu, Montr\u00e9al , (Qu\u00e9bec)", "designationCode": "C", "categoryCode": "61", "address": "2400 RUE WARD", "city": "SAINT-LAURENT", "province": "QC", "country": "CA", "postalCode": "H4M2Y3", "twitter": "None", "instagram": "None", "facebook": "None", "youtube": "None", "website": "None", "summary": "None", "logo": "None", "latitude": 45.49627816928284, "longitude": -73.68206098012027}, "119288918RR1528": {"name": "Congr\u00e9gation des T\u00e9moins de J\u00e9hovah de Drummondville-Hispana(Qu\u00e9bec)", "designationCode": "C", "categoryCode": "61", "address": "272 RTE 1395                  RR4", "city": "ACTON VALE", "province": "QC", "country": "CA", "postalCode": "J0H1A0", "twitter": "None", "instagram": "None", "facebook": "None", "youtube": "None", "website": "None", "summary": "None", "logo": "None", "latitude": 45.64627800000005, "longitude": -72.57168349999993}, "119288918RR1509": {"name": "Congr\u00e9gation des T\u00e9moins de J\u00e9hovah de Gatineau-Espagnol (Qu\u00e9bec)", "designationCode": "C", "categoryCode": "61", "address": "1316, BOUL GR\u00c9BER", "city": "GATINEAU", "province": "QC", "country": "CA", "postalCode": "J8V3Z9", "twitter": "None", "instagram": "None", "facebook": "None", "youtube": "None", "website": "None", "summary": "None", "logo": "None", "latitude": 45.50492340276387, "longitude": -75.68452437927743}, "791325129RR0001": {"name": "Congr\u00e9gation des T\u00e9moins de J\u00e9hovah de Laval-Fabreville", "designationCode": "C", "categoryCode": "61", "address": "3342 DORIS", "city": "LAVAL", "province": "QC", "country": "CA", "postalCode": "H7P2K6", "twitter": "None", "instagram": "None", "facebook": "None", "youtube": "None", "website": "None", "summary": "None", "logo": "None", "latitude": 45.57198059449484, "longitude": -73.80065737745977}, "119288918RR1461": {"name": "Congr\u00e9gation des T\u00e9moins de J\u00e9hovah de Longueuil-Arabe (Qu\u00e9bec)", "designationCode": "C", "categoryCode": "61", "address": "5250 GRAND ALL\u00c9E", "city": "ST. HUBERT", "province": "QC", "country": "CA", "postalCode": "J3Y1A1", "twitter": "None", "instagram": "None", "facebook": "None", "youtube": "None", "website": "None", "summary": "None", "logo": "None", "latitude": 45.479843924259725, "longitude": -73.45062601203213}, "119288918RR1717": {"name": "Congr\u00e9gation des T\u00e9moins de J\u00e9hovah de Lucerne Cr\u00e9ole, Gatineau (Qu\u00e9bec)", "designationCode": "C", "categoryCode": "61", "address": "1432 CH D'AYLMER", "city": "GATINEAU", "province": "QC", "country": "CA", "postalCode": "J9H7L4", "twitter": "None", "instagram": "None", "facebook": "None", "youtube": "None", "website": "None", "summary": "None", "logo": "None", "latitude": 45.41507623307792, "longitude": -75.76476734298043}, "119288918RR1618": {"name": "Congr\u00e9gation des T\u00e9moins de J\u00e9hovah de Mille-\u00celes-Cr\u00e9ole, T errebonne (Quebec)", "designationCode": "C", "categoryCode": "61", "address": "263 RUE FLORIMOND-GAUTHIER", "city": "TERREBONNE", "province": "QC", "country": "CA", "postalCode": "J6W5H1", "twitter": "None", "instagram": "None", "facebook": "None", "youtube": "None", "website": "None", "summary": "None", "logo": "None", "latitude": 45.69148409994785, "longitude": -73.65285760165088}, "119288918RR1567": {"name": "Congr\u00e9gation des T\u00e9moins de J\u00e9hovah de Mississauga-Fran\u00e7aise(Ontario)", "designationCode": "C", "categoryCode": "61", "address": "PO BOX 4100 STN MAIN", "city": "GEORGETOWN", "province": "ON", "country": "CA", "postalCode": "L7G4Y4", "twitter": "None", "instagram": "None", "facebook": "None", "youtube": "None", "website": "None", "summary": "None", "logo": "None", "latitude": 43.676964428204535, "longitude": -79.92917582331788}, "119288918RR1626": {"name": "Congr\u00e9gation des T\u00e9moins de J\u00e9hovah de Montr\u00e9al - Bendicion (Qu\u00e9bec)", "designationCode": "C", "categoryCode": "61", "address": "7170 BOULEVARD ST-MICHEL", "city": "MONTR\u00c9AL", "province": "QC", "country": "CA", "postalCode": "H2A2Z4", "twitter": "None", "instagram": "None", "facebook": "None", "youtube": "None", "website": "None", "summary": "None", "logo": "None", "latitude": 45.558487698568975, "longitude": -73.59778338885674}, "119288918RR1540": {"name": "Congr\u00e9gation des T\u00e9moins de J\u00e9hovah de Montr\u00e9al - Cr\u00e9ole des Sources (Qu\u00e9bec)", "designationCode": "C", "categoryCode": "61", "address": "9027 LOGAN", "city": "PIERREFONDS", "province": "QC", "country": "CA", "postalCode": "H8Y2B4", "twitter": "None", "instagram": "None", "facebook": "None", "youtube": "None", "website": "None", "summary": "None", "logo": "None", "latitude": 45.501766238703816, "longitude": -73.77681359198468}, "119288918RR1575": {"name": "Congr\u00e9gation des T\u00e9moins de J\u00e9hovah de Montr\u00e9al-Cartierville (Qu\u00e9bec)", "designationCode": "C", "categoryCode": "61", "address": "2400 RUE WARD", "city": "SAINT LAURENT", "province": "QC", "country": "CA", "postalCode": "H4M2Y3", "twitter": "None", "instagram": "None", "facebook": "None", "youtube": "None", "website": "None", "summary": "None", "logo": "None", "latitude": 45.49627816928284, "longitude": -73.68206098012027}, "119288918RR1549": {"name": "Congr\u00e9gation des T\u00e9moins de J\u00e9hovah de Montr\u00e9al-Cr\u00e9ole-Centre (Qu\u00e9bec)", "designationCode": "C", "categoryCode": "61", "address": "4680, RUE D'AMIENS", "city": "MONTR\u00c9AL-NORD", "province": "QC", "country": "CA", "postalCode": "H1H2H7", "twitter": "None", "instagram": "None", "facebook": "None", "youtube": "None", "website": "None", "summary": "None", "logo": "None", "latitude": 45.59256614262245, "longitude": -73.6290665550525}, "119288918RR1492": {"name": "Congr\u00e9gation des T\u00e9moins de J\u00e9hovah de Montr\u00e9al-Cr\u00e9ole-Est (Qu\u00e9bec)", "designationCode": "C", "categoryCode": "61", "address": "12700 BOUL METROPOLITAIN E", "city": "POINTE-AUX-TREMBLES", "province": "QC", "country": "CA", "postalCode": "H1A4A7", "twitter": "None", "instagram": "None", "facebook": "None", "youtube": "None", "website": "None", "summary": "None", "logo": "None", "latitude": 45.65575326121796, "longitude": -73.52099767361118}, "119288918RR1437": {"name": "Congr\u00e9gation des T\u00e9moins de J\u00e9hovah de Montr\u00e9al-Cr\u00e9ole-Ouest (Qu\u00e9bec)", "designationCode": "C", "categoryCode": "61", "address": "7676 13EME AVENUE", "city": "MONTR\u00c9AL", "province": "QC", "country": "CA", "postalCode": "H2A2X7", "twitter": "None", "instagram": "None", "facebook": "None", "youtube": "None", "website": "None", "summary": "None", "logo": "None", "latitude": 45.563195589214715, "longitude": -73.60368510465105}, "119288918RR1435": {"name": "Congr\u00e9gation des T\u00e9moins de J\u00e9hovah de Montr\u00e9al-Las Praderas (Qu\u00e9bec)", "designationCode": "C", "categoryCode": "61", "address": "12700 BOUL.METROPOLITAIN EST", "city": "MONTREAL", "province": "QC", "country": "CA", "postalCode": "H1A4A7", "twitter": "None", "instagram": "None", "facebook": "None", "youtube": "None", "website": "None", "summary": "None", "logo": "None", "latitude": 45.65575326121796, "longitude": -73.52099767361118}, "119288918RR0550": {"name": "Congr\u00e9gation des T\u00e9moins de J\u00e9hovah de Montr\u00e9al-Laurier (Qu\u00e9bec)", "designationCode": "C", "categoryCode": "61", "address": "50 RUE VILLENEUVE O", "city": "MONTREAL", "province": "QC", "country": "CA", "postalCode": "H2T2R3", "twitter": "None", "instagram": "None", "facebook": "None", "youtube": "None", "website": "None", "summary": "None", "logo": "None", "latitude": 45.52077125422706, "longitude": -73.58991598721806}, "119288918RR1514": {"name": "Congr\u00e9gation des T\u00e9moins de J\u00e9hovah de Montr\u00e9al-Lealtad (Quebec)", "designationCode": "C", "categoryCode": "61", "address": "6940 STUART", "city": "MONTREAL", "province": "QC", "country": "CA", "postalCode": "H3N2R1", "twitter": "None", "instagram": "None", "facebook": "None", "youtube": "None", "website": "None", "summary": "None", "logo": "None", "latitude": 45.524582079087175, "longitude": -73.62316074369546}}