{"104529193RR0001": {"name": "RIDEAU CHILD CARE CENTRE INC.", "designationCode": "C", "categoryCode": "01", "address": "2 GOULD ST.", "city": "SMITHS FALL", "province": "ON", "country": "CA", "postalCode": "K7A2S5", "twitter": "None", "instagram": "None", "facebook": "None", "youtube": "None", "website": "None", "summary": "None", "logo": "None", "latitude": 44.9090268787885, "longitude": -76.0251024231097}, "893137430RR0001": {"name": "RIDEAU CHRISTIAN FELLOWSHIP", "designationCode": "C", "categoryCode": "39", "address": "PO BOX 20041", "city": "PERTH", "province": "ON", "country": "CA", "postalCode": "K7H3M6", "twitter": "None", "instagram": "None", "facebook": "None", "youtube": "None", "website": "None", "summary": "None", "logo": "None", "latitude": 44.89893600000005, "longitude": -76.24831399999994}, "119038784RR0001": {"name": "RIDEAU COMMUNITY HEALTH SERVICES", "designationCode": "C", "categoryCode": "11", "address": "354 READ ST.                  BOX 550", "city": "MERRICKVILLE", "province": "ON", "country": "CA", "postalCode": "K0G1N0", "twitter": "None", "instagram": "None", "facebook": "None", "youtube": "None", "website": "None", "summary": "None", "logo": "None", "latitude": 44.91379135336818, "longitude": -75.84151165623378}, "119288918RR0211": {"name": "RIDEAU CONGREGATION OF JEHOVAH'S WITNESSES", "designationCode": "C", "categoryCode": "61", "address": "6814 BREANNA CARDILL ST", "city": "GREELY", "province": "ON", "country": "CA", "postalCode": "K4P1P3", "twitter": "None", "instagram": "None", "facebook": "None", "youtube": "None", "website": "None", "summary": "None", "logo": "None", "latitude": 45.245533705782336, "longitude": -75.56676145071856}, "119288918RR0096": {"name": "RIDEAU CONGREGATION OF JEHOVAH'S WITNESSES KINGSTON ONTARIO", "designationCode": "C", "categoryCode": "61", "address": "#3-19 BAKER ST.", "city": "KINGSTON", "province": "ON", "country": "CA", "postalCode": "K7K4Z2", "twitter": "None", "instagram": "None", "facebook": "None", "youtube": "None", "website": "None", "summary": "None", "logo": "None", "latitude": 44.26175216985976, "longitude": -76.48347654674261}, "891375347RR0001": {"name": "RIDEAU COUNCIL NO 2444 CHARITABLE TRUST", "designationCode": "A", "categoryCode": "65", "address": "208 - 40 PEARL ST", "city": "SMITHS FALLS", "province": "ON", "country": "CA", "postalCode": "K7A5B5", "twitter": "None", "instagram": "None", "facebook": "None", "youtube": "None", "website": "None", "summary": "None", "logo": "None", "latitude": 44.88601252067295, "longitude": -76.01194719845134}, "119119394RR0001": {"name": "RIDEAU FERRY CEMETERY", "designationCode": "C", "categoryCode": "59", "address": "40 CODE CRES", "city": "SMITHS FALLS", "province": "ON", "country": "CA", "postalCode": "K7A0A9", "twitter": "None", "instagram": "None", "facebook": "None", "youtube": "None", "website": "None", "summary": "None", "logo": "None", "latitude": 44.960377211542216, "longitude": -75.98819051046715}, "123645509RR0001": {"name": "RIDEAU HILL CAMP OF THE UNITED CHURCH OF CANADA", "designationCode": "C", "categoryCode": "49", "address": "BOX 1818", "city": "KEMPTVILLE", "province": "ON", "country": "CA", "postalCode": "K0G1J0", "twitter": "None", "instagram": "None", "facebook": "None", "youtube": "None", "website": "None", "summary": "None", "logo": "None", "latitude": 44.98774800000005, "longitude": -75.69332899999993}, "820480143RR0001": {"name": "RIDEAU LAKES CHRISTIAN EDUCATION", "designationCode": "C", "categoryCode": "20", "address": "2392 COLE HILL RD", "city": "GLENBURNIE", "province": "ON", "country": "CA", "postalCode": "K0H1S0", "twitter": "None", "instagram": "None", "facebook": "None", "youtube": "None", "website": "None", "summary": "None", "logo": "None", "latitude": 44.31808110519933, "longitude": -76.51059624141645}, "139789713RR0001": {"name": "RIDEAU LAKES ENVIRONMENTAL FOUNDATION", "designationCode": "C", "categoryCode": "52", "address": "31 CRESCENT HEIGHTS", "city": "OTTAWA", "province": "ON", "country": "CA", "postalCode": "K1S3G7", "twitter": "None", "instagram": "None", "facebook": "None", "youtube": "None", "website": "None", "summary": "None", "logo": "None", "latitude": 45.397362092128915, "longitude": -75.70018052579502}, "107896052RR0001": {"name": "RIDEAU MEDICAL CENTRE", "designationCode": "C", "categoryCode": "11", "address": "PO BOX 120", "city": "NEWBORO", "province": "ON", "country": "CA", "postalCode": "K0G1P0", "twitter": "None", "instagram": "None", "facebook": "None", "youtube": "None", "website": "None", "summary": "None", "logo": "None", "latitude": 44.65170000000006, "longitude": -76.31781999999998}, "122123763RR0001": {"name": "RIDEAU PARK PARENTS' ASSOCIATION", "designationCode": "C", "categoryCode": "21", "address": "829 RIDEAU ROAD S.W.", "city": "CALGARY", "province": "AB", "country": "CA", "postalCode": "T2S0S2", "twitter": "None", "instagram": "None", "facebook": "None", "youtube": "None", "website": "None", "summary": "None", "logo": "None", "latitude": 51.02564105661036, "longitude": -114.07646290348595}, "119119436RR0001": {"name": "RIDEAU PARK UNITED CHURCH", "designationCode": "C", "categoryCode": "44", "address": "2203 ALTA VISTA DR", "city": "OTTAWA", "province": "ON", "country": "CA", "postalCode": "K1H7L9", "twitter": "None", "instagram": "None", "facebook": "None", "youtube": "None", "website": "None", "summary": "None", "logo": "None", "latitude": 45.388946159299536, "longitude": -75.6629581443828}, "140391129RR0001": {"name": "RIDEAU SOCIAL ENTERPRISES", "designationCode": "C", "categoryCode": "09", "address": "546 OLD ST PATRICK ST", "city": "OTTAWA", "province": "ON", "country": "CA", "postalCode": "K1N5L5", "twitter": "None", "instagram": "None", "facebook": "None", "youtube": "None", "website": "None", "summary": "None", "logo": "None", "latitude": 45.434995629176676, "longitude": -75.68302131874327}, "886541390RR0001": {"name": "RIDEAU TOWNSHIP HISTORICAL SOCIETY", "designationCode": "C", "categoryCode": "50", "address": "PO BOX 56", "city": "NORTH GOWER", "province": "ON", "country": "CA", "postalCode": "K0A2T0", "twitter": "None", "instagram": "None", "facebook": "None", "youtube": "None", "website": "None", "summary": "None", "logo": "None", "latitude": 45.3567173236206, "longitude": -75.0434798516718}, "107896136RR0001": {"name": "RIDEAU VALLEY CONSERVATION AUTHORITY", "designationCode": "C", "categoryCode": "52", "address": "3889 RIDEAU VALLEY DRIVE      PO BOX 599", "city": "MANOTICK", "province": "ON", "country": "CA", "postalCode": "K4M1A5", "twitter": "None", "instagram": "None", "facebook": "None", "youtube": "None", "website": "None", "summary": "None", "logo": "None", "latitude": 45.192858736849146, "longitude": -75.6405153900275}, "827317744RR0001": {"name": "RIDEAU VALLEY WILDLIFE SANCTUARY", "designationCode": "C", "categoryCode": "54", "address": "3370 MULHOLLAND ROAD          RR 2", "city": "NORTH GOWER", "province": "ON", "country": "CA", "postalCode": "K0A2T0", "twitter": "None", "instagram": "None", "facebook": "None", "youtube": "None", "website": "None", "summary": "None", "logo": "None", "latitude": 45.0544098048075, "longitude": -75.7525349121148}, "107896094RR0001": {"name": "RIDEAU-ROXBORO COMMUNITY ASSOCIATION", "designationCode": "C", "categoryCode": "56", "address": "PO BOX 94117 RPO ELBOW RIVER", "city": "CALGARY", "province": "AB", "country": "CA", "postalCode": "T2S0S4", "twitter": "None", "instagram": "None", "facebook": "None", "youtube": "None", "website": "None", "summary": "None", "logo": "None", "latitude": 51.020315985401176, "longitude": -114.077844}, "849395355RR0001": {"name": "RIDEAU-ST. LAWRENCE SCIENCE FAIR", "designationCode": "C", "categoryCode": "21", "address": "PO BOX 114", "city": "BROCKVILLE", "province": "ON", "country": "CA", "postalCode": "K6V5T7", "twitter": "None", "instagram": "None", "facebook": "None", "youtube": "None", "website": "None", "summary": "None", "logo": "None", "latitude": 44.59037100000006, "longitude": -75.68301049999994}, "822132148RR0001": {"name": "RIDEAUVALE CEMETERY COMPANY", "designationCode": "C", "categoryCode": "59", "address": "P.O. BOX 264", "city": "OSGOODE", "province": "ON", "country": "CA", "postalCode": "K0A2W0", "twitter": "None", "instagram": "None", "facebook": "None", "youtube": "None", "website": "None", "summary": "None", "logo": "None", "latitude": 45.14356518086365, "longitude": -75.59063555322211}, "119119519RR0001": {"name": "RIDEAUVIEW BIBLE CHAPEL", "designationCode": "C", "categoryCode": "39", "address": "1249 PRINCE OF WALES DR", "city": "OTTAWA", "province": "ON", "country": "CA", "postalCode": "K2C1N1", "twitter": "None", "instagram": "None", "facebook": "None", "youtube": "None", "website": "None", "summary": "None", "logo": "None", "latitude": 45.37222546684739, "longitude": -75.70824395666251}, "119119535RR0001": {"name": "RIDEAUWOOD ADDICTION AND FAMILY SERVICES", "designationCode": "C", "categoryCode": "57", "address": "312 PARKDALE AVENUE", "city": "OTTAWA", "province": "ON", "country": "CA", "postalCode": "K1Y4X5", "twitter": "None", "instagram": "None", "facebook": "None", "youtube": "None", "website": "None", "summary": "None", "logo": "None", "latitude": 45.40315226643207, "longitude": -75.7305909284433}, "107896219RR0001": {"name": "RIDGE K.I.D.S. (KIDS INCORPORATED DAY CARE SERVICE)", "designationCode": "C", "categoryCode": "20", "address": "20473 VICTORIA RD             RR 3", "city": "RIDGETOWN", "province": "ON", "country": "CA", "postalCode": "N0P2C0", "twitter": "None", "instagram": "None", "facebook": "None", "youtube": "None", "website": "None", "summary": "None", "logo": "None", "latitude": 42.44783565857837, "longitude": -81.87464620269526}, "132644204RR0001": {"name": "RIDGE MEADOWS CHILD DEVELOPMENT CENTRE SOCIETY", "designationCode": "C", "categoryCode": "20", "address": "22610 DEWDNEY TRUNK ROAD", "city": "MAPLE RIDGE", "province": "BC", "country": "CA", "postalCode": "V2X3J9", "twitter": "None", "instagram": "None", "facebook": "None", "youtube": "None", "website": "None", "summary": "None", "logo": "None", "latitude": 49.220395473455184, "longitude": -122.59594269317328}, "887597623RR0001": {"name": "RIDGE MEADOWS COMMUNITY LIVING FOUNDATION", "designationCode": "A", "categoryCode": "13", "address": "11641 - 224TH STREET", "city": "MAPLE RIDGE", "province": "BC", "country": "CA", "postalCode": "V2X6A1", "twitter": "None", "instagram": "None", "facebook": "None", "youtube": "None", "website": "None", "summary": "None", "logo": "None", "latitude": 49.213713048848746, "longitude": -122.6022961737549}, "856666144RR0001": {"name": "RIDGE MEADOWS EDUCATIONAL FOUNDATION", "designationCode": "A", "categoryCode": "23", "address": "22311  119 AVE", "city": "MAPLE RIDGE", "province": "BC", "country": "CA", "postalCode": "V2X2Z2", "twitter": "None", "instagram": "None", "facebook": "None", "youtube": "None", "website": "None", "summary": "None", "logo": "None", "latitude": 49.218577478792604, "longitude": -122.60425444463039}, "119032019RR0001": {"name": "RIDGE MEADOWS HOSPICE SOCIETY", "designationCode": "C", "categoryCode": "59", "address": "PO BOX 11 STN DEL CTR", "city": "MAPLE RIDGE", "province": "BC", "country": "CA", "postalCode": "V2X7E9", "twitter": "None", "instagram": "None", "facebook": "None", "youtube": "None", "website": "None", "summary": "None", "logo": "None", "latitude": 49.21686600000005, "longitude": -122.60537449999993}, "119032035RR0001": {"name": "RIDGE MEADOWS HOSPITAL FOUNDATION", "designationCode": "A", "categoryCode": "13", "address": "BOX 5000, 11666 LAITY STREET", "city": "MAPLE RIDGE", "province": "BC", "country": "CA", "postalCode": "V2X7G5", "twitter": "None", "instagram": "None", "facebook": "None", "youtube": "None", "website": "None", "summary": "None", "logo": "None", "latitude": 49.214493000000004, "longitude": -122.631920918374}, "890800345RR0001": {"name": "RIDGE MEADOWS OPEN DOOR CHURCH", "designationCode": "C", "categoryCode": "39", "address": "11391 DARTFORD ST", "city": "MAPLE RIDGE", "province": "BC", "country": "CA", "postalCode": "V2X1V6", "twitter": "None", "instagram": "None", "facebook": "None", "youtube": "None", "website": "None", "summary": "None", "logo": "None", "latitude": 49.20930899999999, "longitude": -122.64962557441264}, "119119600RR0001": {"name": "RIDGE MEADOWS RECYCLING SOCIETY", "designationCode": "C", "categoryCode": "59", "address": "BOX 283", "city": "MAPLE RIDGE", "province": "BC", "country": "CA", "postalCode": "V2X7G2", "twitter": "None", "instagram": "None", "facebook": "None", "youtube": "None", "website": "None", "summary": "None", "logo": "None", "latitude": 49.21686600000005, "longitude": -122.60537449999993}, "119032068RR0001": {"name": "RIDGE MEADOWS SEARCH AND RESCUE SOCIETY", "designationCode": "C", "categoryCode": "59", "address": "23598 105TH AVE", "city": "MAPLE RIDGE", "province": "BC", "country": "CA", "postalCode": "V2W1B8", "twitter": "None", "instagram": "None", "facebook": "None", "youtube": "None", "website": "None", "summary": "None", "logo": "None", "latitude": 49.19484039604144, "longitude": -122.56579189826313}, "859132482RR0001": {"name": "RIDGE MEADOWS SENIORS SOCIETY", "designationCode": "C", "categoryCode": "09", "address": "12150 224TH ST", "city": "MAPLE RIDGE", "province": "BC", "country": "CA", "postalCode": "V2X3N8", "twitter": "None", "instagram": "None", "facebook": "None", "youtube": "None", "website": "None", "summary": "None", "logo": "None", "latitude": 49.223281112687125, "longitude": -122.60132671407773}, "140091281RR0001": {"name": "RIDGE MEADOWS YOUTH & JUSTICE ADVOCACY ASSOCIATION", "designationCode": "C", "categoryCode": "59", "address": "22377 DEWDNEY TRUNK RD", "city": "MAPLE RIDGE", "province": "BC", "country": "CA", "postalCode": "V2X3J4", "twitter": "None", "instagram": "None", "facebook": "None", "youtube": "None", "website": "None", "summary": "None", "logo": "None", "latitude": 49.2205737764454, "longitude": -122.60226297279917}, "119119550RR0001": {"name": "RIDGECREST SOUTHERN BAPTIST CHURCH", "designationCode": "C", "categoryCode": "39", "address": "582 BARTON STREET EAST", "city": "HAMILTON", "province": "ON", "country": "CA", "postalCode": "L8L2Z5", "twitter": "None", "instagram": "None", "facebook": "None", "youtube": "None", "website": "None", "summary": "None", "logo": "None", "latitude": 43.257684951411065, "longitude": -79.84075998640999}, "893022079RR0001": {"name": "RIDGELAND CHARITABLE TRUST", "designationCode": "B", "categoryCode": "39", "address": "3425 2 AVE S", "city": "LETHBRIDGE", "province": "AB", "country": "CA", "postalCode": "T1J4V1", "twitter": "None", "instagram": "None", "facebook": "None", "youtube": "None", "website": "None", "summary": "None", "logo": "None", "latitude": 49.696839530439966, "longitude": -112.78914308381903}, "897066270RR0001": {"name": "RIDGELAND CHARITABLE TRUST", "designationCode": "B", "categoryCode": "39", "address": "2500-201 PORTAGE AVENUE", "city": "WINNIPEG", "province": "MB", "country": "CA", "postalCode": "R3B3K6", "twitter": "None", "instagram": "None", "facebook": "None", "youtube": "None", "website": "None", "summary": "None", "logo": "None", "latitude": 49.895359615067065, "longitude": -97.13919299627776}, "843644162RR0001": {"name": "RIDGELINE FOUNDATION", "designationCode": "A", "categoryCode": "03", "address": "1500 WEST GEORGIA STREET      SUITE 1250   BOX 62", "city": "VANCOUVER", "province": "BC", "country": "CA", "postalCode": "V6G2Z6", "twitter": "None", "instagram": "None", "facebook": "None", "youtube": "None", "website": "None", "summary": "None", "logo": "None", "latitude": 49.2900638104334, "longitude": -123.12989899362336}, "119119634RR0001": {"name": "RIDGETOWN DISTRICT AGRICULTURAL SOCIETY", "designationCode": "C", "categoryCode": "56", "address": "BOX 477", "city": "RIDGETOWN", "province": "ON", "country": "CA", "postalCode": "N0P2C0", "twitter": "None", "instagram": "None", "facebook": "None", "youtube": "None", "website": "None", "summary": "None", "logo": "None", "latitude": 42.42687003390246, "longitude": -81.90498998889144}, "888589868RR0001": {"name": "RIDGETOWN DISTRICT HIGH SCHOOL STUDENT AID FUND,", "designationCode": "C", "categoryCode": "21", "address": "9 HAROLD STREET N", "city": "RIDGETOWN", "province": "ON", "country": "CA", "postalCode": "N0P2C0", "twitter": "None", "instagram": "None", "facebook": "None", "youtube": "None", "website": "None", "summary": "None", "logo": "None", "latitude": 42.44408804942566, "longitude": -81.88235187229522}, "891319840RR0001": {"name": "RIDGETOWN KIWANIS CLUB FOUNDATION", "designationCode": "C", "categoryCode": "52", "address": "PO BOX 1642", "city": "RIDGETOWN", "province": "ON", "country": "CA", "postalCode": "N0P2C0", "twitter": "None", "instagram": "None", "facebook": "None", "youtube": "None", "website": "None", "summary": "None", "logo": "None", "latitude": 42.42687003390246, "longitude": -81.90498998889144}, "107769499RR0001": {"name": "RIDGEVIEW COMMUNITY CHURCH", "designationCode": "C", "categoryCode": "47", "address": "1470 GLENORA DRIVE", "city": "LONDON", "province": "ON", "country": "CA", "postalCode": "N5X1V2", "twitter": "None", "instagram": "None", "facebook": "None", "youtube": "None", "website": "None", "summary": "None", "logo": "None", "latitude": 43.036717305585974, "longitude": -81.23671110903715}, "119119667RR0001": {"name": "RIDGEVIEW EVANGELICAL CHURCH", "designationCode": "C", "categoryCode": "39", "address": "1097 HOLLYWOOD ROAD", "city": "KELOWNA", "province": "BC", "country": "CA", "postalCode": "V1X4N3", "twitter": "None", "instagram": "None", "facebook": "None", "youtube": "None", "website": "None", "summary": "None", "logo": "None", "latitude": 49.874795580904845, "longitude": -119.39826788271122}, "119119675RR0001": {"name": "RIDGEVILLE BIBLE CHAPEL", "designationCode": "C", "categoryCode": "39", "address": "281 BECKETT CRESCENT", "city": "FONTHILL", "province": "ON", "country": "CA", "postalCode": "L0S1E4", "twitter": "None", "instagram": "None", "facebook": "None", "youtube": "None", "website": "None", "summary": "None", "logo": "None", "latitude": 43.02141647931222, "longitude": -79.29998174135821}, "119119683RR0001": {"name": "RIDGEVILLE CENTENNIAL HALL", "designationCode": "C", "categoryCode": "56", "address": "BOX 28", "city": "RIDGEVILLE", "province": "MB", "country": "CA", "postalCode": "R0A1M0", "twitter": "None", "instagram": "None", "facebook": "None", "youtube": "None", "website": "None", "summary": "None", "logo": "None", "latitude": 49.09657000000004, "longitude": -97.01055999999994}, "119119691RR0001": {"name": "RIDGEWAY BAPTIST CHURCH INC.", "designationCode": "C", "categoryCode": "31", "address": "BOX 422                       3133 ROUTE 625", "city": "BOIESTOWN", "province": "NB", "country": "CA", "postalCode": "E6A2A2", "twitter": "None", "instagram": "None", "facebook": "None", "youtube": "None", "website": "None", "summary": "None", "logo": "None", "latitude": 46.455641191138724, "longitude": -66.47511683856904}, "889081147RR0001": {"name": "RIDGEWAY CRYSTAL BEACH HIGH SCHOOL SCHOLARSHIP & BURSARY FUND", "designationCode": "C", "categoryCode": "21", "address": "576 RIDGE ROAD                BOX 310", "city": "RIDGEWAY", "province": "ON", "country": "CA", "postalCode": "L0S1N0", "twitter": "None", "instagram": "None", "facebook": "None", "youtube": "None", "website": "None", "summary": "None", "logo": "None", "latitude": 42.89142526781706, "longitude": -79.051885395667}, "890192271RR0001": {"name": "RIDGEWAY ELEMENTARY SCHOOL PARENT ADVISORY COUNCIL", "designationCode": "C", "categoryCode": "21", "address": "420 8TH ST E", "city": "NORTH VANCOUVER", "province": "BC", "country": "CA", "postalCode": "V7L1Z5", "twitter": "None", "instagram": "None", "facebook": "None", "youtube": "None", "website": "None", "summary": "None", "logo": "None", "latitude": 49.314667490478044, "longitude": -123.06172151151253}, "107896391RR0001": {"name": "RIDGEWOOD EVANGELICAL MENNONITE CHURCH", "designationCode": "C", "categoryCode": "34", "address": "BOX 18  GRP 3  RR 1", "city": "STEINBACH", "province": "MB", "country": "CA", "postalCode": "R5G1L9", "twitter": "None", "instagram": "None", "facebook": "None", "youtube": "None", "website": "None", "summary": "None", "logo": "None", "latitude": 49.52572800000006, "longitude": -96.68393449999994}, "876642968RR0001": {"name": "RIDING MOUNTAIN HISTORICAL SOCIETY INC.", "designationCode": "C", "categoryCode": "50", "address": "BOX 578", "city": "ONANOLE", "province": "MB", "country": "CA", "postalCode": "R0J1N0", "twitter": "None", "instagram": "None", "facebook": "None", "youtube": "None", "website": "None", "summary": "None", "logo": "None", "latitude": 50.62285000000003, "longitude": -99.96866999999997}, "119119808RR0001": {"name": "RIDLEY COLLEGE", "designationCode": "C", "categoryCode": "20", "address": "PO BOX 3013, 2 RIDLEY ROAD", "city": "ST. CATHARINES", "province": "ON", "country": "CA", "postalCode": "L2R7C3", "twitter": "None", "instagram": "None", "facebook": "None", "youtube": "None", "website": "None", "summary": "None", "logo": "None", "latitude": 43.15634700000005, "longitude": -79.24869349999993}, "873751630RR0001": {"name": "RIELCO PRODUCTIONS INC", "designationCode": "C", "categoryCode": "22", "address": "BOX 2378", "city": "MELVILLE", "province": "SK", "country": "CA", "postalCode": "S0A2P0", "twitter": "None", "instagram": "None", "facebook": "None", "youtube": "None", "website": "None", "summary": "None", "logo": "None", "latitude": 50.87164886256234, "longitude": -103.09293300498788}, "119119881RR0001": {"name": "RIGHT TO LIFE ASSOCIATION", "designationCode": "C", "categoryCode": "09", "address": "195 FRESHWATER RD", "city": "ST. JOHN'S", "province": "NL", "country": "CA", "postalCode": "A1C2P1", "twitter": "None", "instagram": "None", "facebook": "None", "youtube": "None", "website": "None", "summary": "None", "logo": "None", "latitude": 47.56301955063777, "longitude": -52.729900140573626}, "888414844RR0001": {"name": "RIGHT TO LIFE ASSOCIATION OF MISSISSAUGA AND AREA", "designationCode": "C", "categoryCode": "09", "address": "857 CRAIG CARRIER COURT", "city": "MISSISSAUGA", "province": "ON", "country": "CA", "postalCode": "L5W1A6", "twitter": "None", "instagram": "None", "facebook": "None", "youtube": "None", "website": "None", "summary": "None", "logo": "None", "latitude": 43.625803977783, "longitude": -79.71839145285335}, "119119865RR0001": {"name": "RIGHT TO LIFE ASSOCIATION OF THUNDER BAY AND AREA", "designationCode": "C", "categoryCode": "09", "address": "PO BOX 32018 RPO ARTHUR", "city": "THUNDER BAY", "province": "ON", "country": "CA", "postalCode": "P7E0A1", "twitter": "None", "instagram": "None", "facebook": "None", "youtube": "None", "website": "None", "summary": "None", "logo": "None", "latitude": 48.38095472085908, "longitude": -89.2304792946918}, "119119873RR0001": {"name": "RIGHT TO LIFE ASSOCIATION OF TORONTO AND AREA", "designationCode": "C", "categoryCode": "09", "address": "209 - 2238 DUNDAS ST W", "city": "TORONTO", "province": "ON", "country": "CA", "postalCode": "M6R3A9", "twitter": "None", "instagram": "None", "facebook": "None", "youtube": "None", "website": "None", "summary": "None", "logo": "None", "latitude": 43.65258315160868, "longitude": -79.44912761159188}, "107896607RR0001": {"name": "RIGHT TO LIFE KENT INC.", "designationCode": "C", "categoryCode": "09", "address": "39 GRAND AVE W", "city": "CHATHAM", "province": "ON", "country": "CA", "postalCode": "N7L1B4", "twitter": "None", "instagram": "None", "facebook": "None", "youtube": "None", "website": "None", "summary": "None", "logo": "None", "latitude": 42.407093639477104, "longitude": -82.1923295856367}, "888804218RR0001": {"name": "RIGHT TO PLAY INTERNATIONAL", "designationCode": "C", "categoryCode": "01", "address": "18 KING STREET EAST, 14TH FL.", "city": "TORONTO", "province": "ON", "country": "CA", "postalCode": "M5C1C4", "twitter": "None", "instagram": "None", "facebook": "None", "youtube": "None", "website": "None", "summary": "None", "logo": "None", "latitude": 43.64935016515658, "longitude": -79.37696809423504}, "119154680RR0001": {"name": "RIGHT TO QUIET SSAP SOCIETY FOR SOUNDSCAPE AWARENESS AND PROTECTION", "designationCode": "C", "categoryCode": "59", "address": "359 - 1985 WALLACE ST", "city": "VANCOUVER", "province": "BC", "country": "CA", "postalCode": "V6R4H4", "twitter": "None", "instagram": "None", "facebook": "None", "youtube": "None", "website": "None", "summary": "None", "logo": "None", "latitude": 49.269458598389974, "longitude": -123.190643440677}, "866355258RR0001": {"name": "RIGPA FELLOWSHIP CANADA", "designationCode": "C", "categoryCode": "35", "address": "C.P. 202 SUCC. DU PARC", "city": "MONTREAL", "province": "QC", "country": "CA", "postalCode": "H2S3K9", "twitter": "None", "instagram": "None", "facebook": "None", "youtube": "None", "website": "None", "summary": "None", "logo": "None", "latitude": 45.51239400000006, "longitude": -73.55469049999994}, "119119923RR0001": {"name": "RIGPE DORJE FOUNDATION", "designationCode": "C", "categoryCode": "01", "address": "503-5TH AVENUE", "city": "VERDUN", "province": "QC", "country": "CA", "postalCode": "H4G2Z2", "twitter": "None", "instagram": "None", "facebook": "None", "youtube": "None", "website": "None", "summary": "None", "logo": "None", "latitude": 45.45626444936226, "longitude": -73.5713422754631}, "887911865RR0001": {"name": "RIMBEY & DISTRICT DROP IN CENTRE", "designationCode": "C", "categoryCode": "09", "address": "BOX 1352", "city": "RIMBEY", "province": "AB", "country": "CA", "postalCode": "T0C2J0", "twitter": "None", "instagram": "None", "facebook": "None", "youtube": "None", "website": "None", "summary": "None", "logo": "None", "latitude": 52.63970000000006, "longitude": -114.23827999999997}, "119119972RR0001": {"name": "RIMBEY ALBERTA CONGREGATION OF JEHOVAH'S WITNESSES", "designationCode": "C", "categoryCode": "61", "address": "RR 3", "city": "RIMBEY", "province": "AB", "country": "CA", "postalCode": "T0C2J0", "twitter": "None", "instagram": "None", "facebook": "None", "youtube": "None", "website": "None", "summary": "None", "logo": "None", "latitude": 52.63970000000006, "longitude": -114.23827999999997}, "883853426RR0001": {"name": "RIMBEY ALLIANCE CHURCH", "designationCode": "C", "categoryCode": "39", "address": "BOX 2033", "city": "RIMBEY", "province": "AB", "country": "CA", "postalCode": "T0C2J0", "twitter": "None", "instagram": "None", "facebook": "None", "youtube": "None", "website": "None", "summary": "None", "logo": "None", "latitude": 52.63970000000006, "longitude": -114.23827999999997}, "119119998RR0001": {"name": "RIMBEY CHRISTIAN REFORMED CHURCH", "designationCode": "C", "categoryCode": "39", "address": "RR #1", "city": "BENTLEY", "province": "AB", "country": "CA", "postalCode": "T0C0J0", "twitter": "None", "instagram": "None", "facebook": "None", "youtube": "None", "website": "None", "summary": "None", "logo": "None", "latitude": 52.4550694388436, "longitude": -113.96626356533534}, "107896789RR0001": {"name": "RIMBEY CHURCH OF THE NAZARENE", "designationCode": "C", "categoryCode": "39", "address": "BOX 889", "city": "RIMBEY", "province": "AB", "country": "CA", "postalCode": "T0C2J0", "twitter": "None", "instagram": "None", "facebook": "None", "youtube": "None", "website": "None", "summary": "None", "logo": "None", "latitude": 52.63970000000006, "longitude": -114.23827999999997}, "131805665RR0001": {"name": "RIMBEY COMMUNITY HOME HELP SERVICES ASSOCIATION", "designationCode": "C", "categoryCode": "09", "address": "BOX 404", "city": "RIMBEY", "province": "AB", "country": "CA", "postalCode": "T0C2J0", "twitter": "None", "instagram": "None", "facebook": "None", "youtube": "None", "website": "None", "summary": "None", "logo": "None", "latitude": 52.63970000000006, "longitude": -114.23827999999997}, "119120046RR0001": {"name": "RIMBEY HISTORICAL SOCIETY", "designationCode": "C", "categoryCode": "50", "address": "BOX 813", "city": "RIMBEY", "province": "AB", "country": "CA", "postalCode": "T0C2J0", "twitter": "None", "instagram": "None", "facebook": "None", "youtube": "None", "website": "None", "summary": "None", "logo": "None", "latitude": 52.63970000000006, "longitude": -114.23827999999997}, "890692189RR0001": {"name": "RIMBEY NEW LIFE FELLOWSHIP", "designationCode": "C", "categoryCode": "43", "address": "BOX 1414", "city": "RIMBEY", "province": "AB", "country": "CA", "postalCode": "T0C2J0", "twitter": "None", "instagram": "None", "facebook": "None", "youtube": "None", "website": "None", "summary": "None", "logo": "None", "latitude": 52.63970000000006, "longitude": -114.23827999999997}, "107896813RR0001": {"name": "RIMBEY NURSERY SCHOOL SOCIETY", "designationCode": "C", "categoryCode": "20", "address": "BOX 778", "city": "RIMBEY", "province": "AB", "country": "CA", "postalCode": "T0C2J0", "twitter": "None", "instagram": "None", "facebook": "None", "youtube": "None", "website": "None", "summary": "None", "logo": "None", "latitude": 52.63970000000006, "longitude": -114.23827999999997}, "119120079RR0001": {"name": "RIMBEY SEVENTH-DAY ADVENTIST CHURCH", "designationCode": "C", "categoryCode": "41", "address": "5816 HIGHWAY 2A", "city": "LACOMBE", "province": "AB", "country": "CA", "postalCode": "T4L2G5", "twitter": "None", "instagram": "None", "facebook": "None", "youtube": "None", "website": "None", "summary": "None", "logo": "None", "latitude": 52.474063600197404, "longitude": -113.71692568401835}, "891048845RR0001": {"name": "RIMBEY UNITED CHURCH", "designationCode": "C", "categoryCode": "44", "address": "POST OFFICE BOX 7", "city": "RIMBEY", "province": "AB", "country": "CA", "postalCode": "T0C2J0", "twitter": "None", "instagram": "None", "facebook": "None", "youtube": "None", "website": "None", "summary": "None", "logo": "None", "latitude": 52.63970000000006, "longitude": -114.23827999999997}, "132866971RR0001": {"name": "RIMOKA HOUSING FOUNDATION", "designationCode": "C", "categoryCode": "01", "address": "5608 57TH AVE", "city": "PONOKA", "province": "AB", "country": "CA", "postalCode": "T4J1P2", "twitter": "None", "instagram": "None", "facebook": "None", "youtube": "None", "website": "None", "summary": "None", "logo": "None", "latitude": 52.683358207226796, "longitude": -113.58833834138728}, "119120087RR0001": {"name": "RINAT YISRAEL CONGREGATION/CONGREGATION RINAT YISRAEL", "designationCode": "C", "categoryCode": "39", "address": "5633, ELDRIDGE AVE", "city": "COTE SAINT-LUC", "province": "QC", "country": "CA", "postalCode": "H4W2C9", "twitter": "None", "instagram": "None", "facebook": "None", "youtube": "None", "website": "None", "summary": "None", "logo": "None", "latitude": 45.46387850181767, "longitude": -73.66457977739634}, "107896995RR0001": {"name": "RINK AVENUE DAY CARE CO-OPERATIVE", "designationCode": "C", "categoryCode": "01", "address": "587 RINK AVENUE", "city": "REGINA", "province": "SK", "country": "CA", "postalCode": "S4X2G1", "twitter": "None", "instagram": "None", "facebook": "None", "youtube": "None", "website": "None", "summary": "None", "logo": "None", "latitude": 50.487658513994035, "longitude": -104.67504}, "893572768RR0001": {"name": "RIO GRANDE BIBLE INSTITUTE (CANADA) INC.", "designationCode": "C", "categoryCode": "47", "address": "103 - 2005 ST MARY'S ROAD", "city": "WINNIPEG", "province": "MB", "country": "CA", "postalCode": "R2N4P1", "twitter": "None", "instagram": "None", "facebook": "None", "youtube": "None", "website": "None", "summary": "None", "logo": "None", "latitude": 49.80764480373461, "longitude": -97.11372412275982}, "892822768RR0001": {"name": "RIO TERRACE COMMUNITY LEAGUE BUILDING SOCIETY", "designationCode": "C", "categoryCode": "59", "address": "15500 76 AVE", "city": "EDMONTON", "province": "AB", "country": "CA", "postalCode": "T5R4L8", "twitter": "None", "instagram": "None", "facebook": "None", "youtube": "None", "website": "None", "summary": "None", "logo": "None", "latitude": 53.50800302586675, "longitude": -113.58915002586672}, "132490590RR0001": {"name": "RIO TERRACE MORAVIAN CHURCH", "designationCode": "C", "categoryCode": "39", "address": "15108 - 76 AVENUE", "city": "EDMONTON", "province": "AB", "country": "CA", "postalCode": "T5R2Z9", "twitter": "None", "instagram": "None", "facebook": "None", "youtube": "None", "website": "None", "summary": "None", "logo": "None", "latitude": 53.508879322263034, "longitude": -113.5815484020427}, "119120137RR0001": {"name": "RIONDEL COMMUNITY CHURCH", "designationCode": "C", "categoryCode": "39", "address": "BOX 116", "city": "RIONDEL", "province": "BC", "country": "CA", "postalCode": "V0B2B0", "twitter": "None", "instagram": "None", "facebook": "None", "youtube": "None", "website": "None", "summary": "None", "logo": "None", "latitude": 49.766036751298664, "longitude": -116.85704333202874}, "119120152RR0001": {"name": "RIPLEY AGRICULTURAL SOCIETY", "designationCode": "C", "categoryCode": "56", "address": "BOX 252", "city": "RIPLEY", "province": "ON", "country": "CA", "postalCode": "N0G2R0", "twitter": "None", "instagram": "None", "facebook": "None", "youtube": "None", "website": "None", "summary": "None", "logo": "None", "latitude": 44.068873499999995, "longitude": -81.57846375}, "108006149RR0001": {"name": "RIPLEY PASTORAL CHARGE", "designationCode": "C", "categoryCode": "44", "address": "BOX 164", "city": "RIPLEY", "province": "ON", "country": "CA", "postalCode": "N0G2R0", "twitter": "None", "instagram": "None", "facebook": "None", "youtube": "None", "website": "None", "summary": "None", "logo": "None", "latitude": 44.068873499999995, "longitude": -81.57846375}, "833597149RR0001": {"name": "RIPPLE EFFECT ARTS & LITERATURE SOCIETY", "designationCode": "C", "categoryCode": "22", "address": "#310-55 EAST 14TH AVENUE", "city": "VANCOUVER", "province": "BC", "country": "CA", "postalCode": "V5T2M4", "twitter": "None", "instagram": "None", "facebook": "None", "youtube": "None", "website": "None", "summary": "None", "logo": "None", "latitude": 49.25849751875456, "longitude": -123.10442058090484}, "845640770RR0001": {"name": "RISE & SHINE FOUNDATION", "designationCode": "A", "categoryCode": "03", "address": "1250-1500 WEST GEORGIA STREET POST OFFICE BOX 62", "city": "VANCOUVER", "province": "BC", "country": "CA", "postalCode": "V6G2Z6", "twitter": "None", "instagram": "None", "facebook": "None", "youtube": "None", "website": "None", "summary": "None", "logo": "None", "latitude": 49.290187500000016, "longitude": -123.130035}, "881236624RR0001": {"name": "RISE: RESOURCE CENTRE FOR INDEPENDENT LIVING", "designationCode": "C", "categoryCode": "09", "address": "117 - 70 ISABELLA ST", "city": "PARRY SOUND", "province": "ON", "country": "CA", "postalCode": "P2A1M6", "twitter": "None", "instagram": "None", "facebook": "None", "youtube": "None", "website": "None", "summary": "None", "logo": "None", "latitude": 45.355406605603356, "longitude": -80.02967565528881}, "131804395RR0001": {"name": "RISEN CHRIST LUTHERAN CHURCH", "designationCode": "C", "categoryCode": "32", "address": "4090 DIXIE ROAD", "city": "MISSISSAUGA", "province": "ON", "country": "CA", "postalCode": "L4W1M4", "twitter": "None", "instagram": "None", "facebook": "None", "youtube": "None", "website": "None", "summary": "None", "logo": "None", "latitude": 43.624512392117644, "longitude": -79.60520759186912}, "876047911RR0001": {"name": "RISEN LORD LUTHERAN CHURCH", "designationCode": "C", "categoryCode": "49", "address": "10709 32A AVENUE              ERMINESKIN COMMUNITY CENTRE", "city": "EDMONTON", "province": "AB", "country": "CA", "postalCode": "T6J4A6", "twitter": "None", "instagram": "None", "facebook": "None", "youtube": "None", "website": "None", "summary": "None", "logo": "None", "latitude": 53.465021206652295, "longitude": -113.50570697947644}, "816555353RR0001": {"name": "RISEUP SOCIETY ALBERTA", "designationCode": "C", "categoryCode": "09", "address": "BOX 5437", "city": "LEDUC", "province": "AB", "country": "CA", "postalCode": "T9E6L7", "twitter": "None", "instagram": "None", "facebook": "None", "youtube": "None", "website": "None", "summary": "None", "logo": "None", "latitude": 53.26051200000006, "longitude": -113.54857099999992}, "892691163RR0001": {"name": "RISHI SAMSKRUTI VIDYA KENDRA (RSVK) CANADA", "designationCode": "C", "categoryCode": "19", "address": "72 SUNNYSIDE AVE", "city": "OTTAWA", "province": "ON", "country": "CA", "postalCode": "K1S0R1", "twitter": "None", "instagram": "None", "facebook": "None", "youtube": "None", "website": "None", "summary": "None", "logo": "None", "latitude": 45.39802714847948, "longitude": -75.67436560698832}, "878116219RR0001": {"name": "RISHON LE ZION CONGREGATION", "designationCode": "C", "categoryCode": "42", "address": "269 ARNOLD AVENUE", "city": "THORNHILL", "province": "ON", "country": "CA", "postalCode": "L4J1C3", "twitter": "None", "instagram": "None", "facebook": "None", "youtube": "None", "website": "None", "summary": "None", "logo": "None", "latitude": 43.80630282373494, "longitude": -79.44801793559935}, "889485835RR0001": {"name": "RISING ABOVE ABUSE COUNSELLING AGENCY", "designationCode": "C", "categoryCode": "09", "address": "BOX 930", "city": "NIVERVILLE", "province": "MB", "country": "CA", "postalCode": "R0A1E0", "twitter": "None", "instagram": "None", "facebook": "None", "youtube": "None", "website": "None", "summary": "None", "logo": "None", "latitude": 49.60599000000006, "longitude": -97.04598199999994}, "861457604RR0001": {"name": "RISING SUN KOREAN METHODIST CHURCH", "designationCode": "C", "categoryCode": "39", "address": "30 NEW PORT WAY", "city": "THORNHILL", "province": "ON", "country": "CA", "postalCode": "L3T5G4", "twitter": "None", "instagram": "None", "facebook": "None", "youtube": "None", "website": "None", "summary": "None", "logo": "None", "latitude": 43.809846212331884, "longitude": -79.40709982737027}, "119120194RR0001": {"name": "RISING TIDE ASSOCIATION", "designationCode": "C", "categoryCode": "22", "address": "PO BOX 78", "city": "TRINITY TB", "province": "NL", "country": "CA", "postalCode": "A0C2S0", "twitter": "None", "instagram": "None", "facebook": "None", "youtube": "None", "website": "None", "summary": "None", "logo": "None", "latitude": 48.370593285141474, "longitude": -53.370700424307735}, "889793170RR0001": {"name": "RITA STEINBERG GOLDFARB FOUNDATION/FOUNDATION RITA STEINBERGGOLDFARB", "designationCode": "B", "categoryCode": "03", "address": "1455 SHERBROOK STREET WEST    PH #6", "city": "MONTREAL", "province": "QC", "country": "CA", "postalCode": "H3G1L2", "twitter": "None", "instagram": "None", "facebook": "None", "youtube": "None", "website": "None", "summary": "None", "logo": "None", "latitude": 45.498149132090866, "longitude": -73.58086317848677}, "119120228RR0001": {"name": "RITCHIE UNITED CHURCH", "designationCode": "C", "categoryCode": "44", "address": "4406- MCCLUNG CRT NW", "city": "EDMONTON", "province": "AB", "country": "CA", "postalCode": "T6R0M9", "twitter": "None", "instagram": "None", "facebook": "None", "youtube": "None", "website": "None", "summary": "None", "logo": "None", "latitude": 53.44426251875456, "longitude": -113.55432180544173}, "851024000RR0001": {"name": "RITE CANADA - REFORMED INTERNATIONAL THEOLOGICAL EDUCATION CANADA SOCIETY", "designationCode": "C", "categoryCode": "20", "address": "POST OFFICE BOX 20034", "city": "ALBERTA", "province": "AB", "country": "CA", "postalCode": "T9E6R2", "twitter": "None", "instagram": "None", "facebook": "None", "youtube": "None", "website": "None", "summary": "None", "logo": "None", "latitude": 53.26051200000006, "longitude": -113.54857099999992}, "867383614RR0001": {"name": "RITE CATHOLIQUE-CHRETIEN D'EGLISES COMMUNAUTAIRES (ORDINARIAT DES VIEUX-CATHOLIQUES FRANCOPHONES D'AMERIQUE)", "designationCode": "C", "categoryCode": "39", "address": "30 BRIERMOOR CRESCENT", "city": "OTTAWA", "province": "ON", "country": "CA", "postalCode": "K1T3G7", "twitter": "None", "instagram": "None", "facebook": "None", "youtube": "None", "website": "None", "summary": "None", "logo": "None", "latitude": 45.36823650929084, "longitude": -75.62240289996522}, "892208646RR0001": {"name": "RITHET'S BOG CONSERVATION SOCIETY", "designationCode": "C", "categoryCode": "52", "address": "1503 ROBINWOOD PLACE", "city": "VICTORIA", "province": "BC", "country": "CA", "postalCode": "V8N5N8", "twitter": "None", "instagram": "None", "facebook": "None", "youtube": "None", "website": "None", "summary": "None", "logo": "None", "latitude": 48.48752557617298, "longitude": -123.33495084779827}, "894945633RR0048": {"name": "RITSON ROAD ALLIANCE CHURCH", "designationCode": "C", "categoryCode": "39", "address": "605 RITSON ROAD NORTH", "city": "OSHAWA", "province": "ON", "country": "CA", "postalCode": "L1G5R5", "twitter": "None", "instagram": "None", "facebook": "None", "youtube": "None", "website": "None", "summary": "None", "logo": "None", "latitude": 43.91582839912853, "longitude": -78.86084097258978}, "139942437RR0001": {"name": "RITTEN-HOUSE", "designationCode": "C", "categoryCode": "59", "address": "526 RICHMOND STREET E", "city": "TORONTO", "province": "ON", "country": "CA", "postalCode": "M5A1R3", "twitter": "None", "instagram": "None", "facebook": "None", "youtube": "None", "website": "None", "summary": "None", "logo": "None", "latitude": 43.65445411798126, "longitude": -79.36440889246342}, "107897449RR0001": {"name": "RITZ LUTHERAN VILLA", "designationCode": "C", "categoryCode": "01", "address": "4118A ROAD 164                RR #5", "city": "MITCHELL", "province": "ON", "country": "CA", "postalCode": "N0K1N0", "twitter": "None", "instagram": "None", "facebook": "None", "youtube": "None", "website": "None", "summary": "None", "logo": "None", "latitude": 43.477542776226905, "longitude": -81.19005048407949}, "875811812RR0001": {"name": "RIVENDELL FOUNDATION", "designationCode": "A", "categoryCode": "03", "address": "1480 INGLEWOOD AVENUE", "city": "WEST VANCOUVER", "province": "BC", "country": "CA", "postalCode": "V7T1Z1", "twitter": "None", "instagram": "None", "facebook": "None", "youtube": "None", "website": "None", "summary": "None", "logo": "None", "latitude": 49.33449751399405, "longitude": -123.15629152553522}}