{"898481429RR0001": {"name": "LOBSTICK SUCCESSFUL KIDS AND FAMILIES SOCIETY", "designationCode": "C", "categoryCode": "09", "address": "PO BOX 485", "city": "WILDWOOD", "province": "AB", "country": "CA", "postalCode": "T0E2M0", "twitter": "None", "instagram": "None", "facebook": "None", "youtube": "None", "website": "None", "summary": "None", "logo": "None", "latitude": 53.60579000000007, "longitude": -115.23706999999996}, "889694055RR0001": {"name": "LOCAL ACTION JEUNES", "designationCode": "C", "categoryCode": "09", "address": "801 RANG ST-LOUIS", "city": "NOTRE-DAME DE MONT CARMEL", "province": "QC", "country": "CA", "postalCode": "G0X3J0", "twitter": "None", "instagram": "None", "facebook": "None", "youtube": "None", "website": "None", "summary": "None", "logo": "None", "latitude": 46.483038939263366, "longitude": -72.70667884214276}, "861043917RR0001": {"name": "LOCAL CANCER BENEFIT GROUP", "designationCode": "C", "categoryCode": "01", "address": "PO BOX 357", "city": "ST ALBANS", "province": "NL", "country": "CA", "postalCode": "A0H2E0", "twitter": "None", "instagram": "None", "facebook": "None", "youtube": "None", "website": "None", "summary": "None", "logo": "None", "latitude": 47.86890000000005, "longitude": -55.845639999999946}, "890674385RR0001": {"name": "LOCAL CHURCH MINISTRIES", "designationCode": "C", "categoryCode": "39", "address": "26 MASSEY CRES", "city": "SARNIA", "province": "ON", "country": "CA", "postalCode": "N7S2P7", "twitter": "None", "instagram": "None", "facebook": "None", "youtube": "None", "website": "None", "summary": "None", "logo": "None", "latitude": 42.97000233076316, "longitude": -82.36969593782196}, "119022564RR0001": {"name": "LOCAL CHURCH OF CRANBROOK", "designationCode": "C", "categoryCode": "39", "address": "3013 MT FISHER PL.", "city": "CRANBROOK", "province": "BC", "country": "CA", "postalCode": "V1C0A8", "twitter": "None", "instagram": "None", "facebook": "None", "youtube": "None", "website": "None", "summary": "None", "logo": "None", "latitude": 49.5250665428475, "longitude": -115.7381311902591}, "868999558RR0001": {"name": "LOCAL INVESTMENT TOWARD EMPLOYMENT (L.I.T.E.) INC.", "designationCode": "A", "categoryCode": "59", "address": "203-765 MAIN ST", "city": "WINNIPEG", "province": "MB", "country": "CA", "postalCode": "R2W3N5", "twitter": "None", "instagram": "None", "facebook": "None", "youtube": "None", "website": "None", "summary": "None", "logo": "None", "latitude": 49.90587282263842, "longitude": -97.1339225146292}, "870374295RR0001": {"name": "LOCAL JEUNES CENTRE-VILLE DE CHICOUTIMI", "designationCode": "C", "categoryCode": "09", "address": "336, DU HAVRE", "city": "CHICOUTIMI", "province": "QC", "country": "CA", "postalCode": "G7H1N4", "twitter": "None", "instagram": "None", "facebook": "None", "youtube": "None", "website": "None", "summary": "None", "logo": "None", "latitude": 48.42806743658031, "longitude": -71.05767002983438}, "119022622RR0001": {"name": "LOCAL SERVICES BOARD OF KAMINISTIQUIA", "designationCode": "C", "categoryCode": "59", "address": "RR 1", "city": "KAMINISTIQUIA", "province": "ON", "country": "CA", "postalCode": "P0T1X0", "twitter": "None", "instagram": "None", "facebook": "None", "youtube": "None", "website": "None", "summary": "None", "logo": "None", "latitude": 48.54068700000006, "longitude": -89.61444349999994}, "890865793RR0001": {"name": "LOCAL SPIRITUAL ASSEMBLY OF BAHA'IS OF GRAND MANAN", "designationCode": "B", "categoryCode": "33", "address": "PO BOX 1302", "city": "GRAND MANAN", "province": "NB", "country": "CA", "postalCode": "E5G4M9", "twitter": "None", "instagram": "None", "facebook": "None", "youtube": "None", "website": "None", "summary": "None", "logo": "None", "latitude": 44.67544800000006, "longitude": -66.79815199999993}, "119022671RR0001": {"name": "LOCAL SPIRITUAL ASSEMBLY OF THE BAHA'IS OF CALGARY ALBERTA", "designationCode": "C", "categoryCode": "33", "address": "BOX 5222, STN A", "city": "CALGARY", "province": "AB", "country": "CA", "postalCode": "T2H1X3", "twitter": "None", "instagram": "None", "facebook": "None", "youtube": "None", "website": "None", "summary": "None", "logo": "None", "latitude": 51.04531500000006, "longitude": -114.06301099999993}, "119022689RR0001": {"name": "LOCAL SPIRITUAL ASSEMBLY OF THE BAHA'IS OF COMOX", "designationCode": "C", "categoryCode": "33", "address": "P.O. BOX 20016                COMOX CENTRE RO", "city": "COMOX", "province": "BC", "country": "CA", "postalCode": "V9M4H3", "twitter": "None", "instagram": "None", "facebook": "None", "youtube": "None", "website": "None", "summary": "None", "logo": "None", "latitude": 49.67494492580512, "longitude": -124.9313365678887}, "891394140RR0001": {"name": "LOCAL SPIRITUAL ASSEMBLY OF THE BAHA'IS OF COWICHAN VALLEY 'D'", "designationCode": "C", "categoryCode": "33", "address": "1364 GARRET PLACE", "city": "COWICHAN BAY", "province": "BC", "country": "CA", "postalCode": "V0R1N2", "twitter": "None", "instagram": "None", "facebook": "None", "youtube": "None", "website": "None", "summary": "None", "logo": "None", "latitude": 48.73108547100232, "longitude": -123.59471919164407}, "119022655RR0001": {"name": "LOCAL SPIRITUAL ASSEMBLY OF THE BAHA'IS OF HALIFAX", "designationCode": "C", "categoryCode": "33", "address": "PO BOX 381                    DARTMOUTH MAIN", "city": "DARTMOUTH", "province": "NS", "country": "CA", "postalCode": "B2Y3Y5", "twitter": "None", "instagram": "None", "facebook": "None", "youtube": "None", "website": "None", "summary": "None", "logo": "None", "latitude": 44.66654002943042, "longitude": -63.5670500516473}, "869547323RR0001": {"name": "LOCAL 200 CANADIAN AUTO WORKERS SOCIAL JUSTICE FUND", "designationCode": "C", "categoryCode": "09", "address": "1855 TURNER RD", "city": "WINDSOR", "province": "ON", "country": "CA", "postalCode": "N8W3K1", "twitter": "None", "instagram": "None", "facebook": "None", "youtube": "None", "website": "None", "summary": "None", "logo": "None", "latitude": 42.303625942264446, "longitude": -82.99660151445538}, "893993196RR0001": {"name": "LOCAL 444 CANADIAN AUTO WORKERS SOCIAL JUSTICE FUND", "designationCode": "B", "categoryCode": "09", "address": "1855 TURNER ROAD", "city": "WINDSOR", "province": "ON", "country": "CA", "postalCode": "N8W3K2", "twitter": "None", "instagram": "None", "facebook": "None", "youtube": "None", "website": "None", "summary": "None", "logo": "None", "latitude": 42.303625942264446, "longitude": -82.99660151445538}, "891176786RR0001": {"name": "LOCH LOMOND CEMETERY COMPANY INC", "designationCode": "C", "categoryCode": "59", "address": "8 MCLELLAN STREET", "city": "GLACE BAY", "province": "NS", "country": "CA", "postalCode": "B1A3R8", "twitter": "None", "instagram": "None", "facebook": "None", "youtube": "None", "website": "None", "summary": "None", "logo": "None", "latitude": 45.36634630974089, "longitude": -63.27103805288812}, "892431966RR0001": {"name": "LOCH LOMOND VILLA FOUNDATION INC.", "designationCode": "A", "categoryCode": "03", "address": "185 LOCH LOMOND ROAD", "city": "SAINT JOHN", "province": "NB", "country": "CA", "postalCode": "E2J3S3", "twitter": "None", "instagram": "None", "facebook": "None", "youtube": "None", "website": "None", "summary": "None", "logo": "None", "latitude": 45.2896989975185, "longitude": -66.03236022344036}, "107639916RR0001": {"name": "LOCH LOMOND VILLA INC.", "designationCode": "C", "categoryCode": "09", "address": "185 LOCH LOMOND RD", "city": "SAINT JOHN", "province": "NB", "country": "CA", "postalCode": "E2J3S3", "twitter": "None", "instagram": "None", "facebook": "None", "youtube": "None", "website": "None", "summary": "None", "logo": "None", "latitude": 45.2896989975185, "longitude": -66.03236022344036}, "134604248RR0001": {"name": "LOCH LOMOND VOLUNTEER FIRE DEPT", "designationCode": "C", "categoryCode": "59", "address": "308 MCVICAR RD.", "city": "ENON", "province": "NS", "country": "CA", "postalCode": "B1J1W4", "twitter": "None", "instagram": "None", "facebook": "None", "youtube": "None", "website": "None", "summary": "None", "logo": "None", "latitude": 45.810009019995306, "longitude": -60.558459018812805}, "107639858RR0001": {"name": "LOCHABER COMMUNITY DEVELOPMENT ASSOCIATION", "designationCode": "C", "categoryCode": "56", "address": "1281 HIGHWAY #7", "city": "LOCHABER", "province": "NS", "country": "CA", "postalCode": "B2G2L3", "twitter": "None", "instagram": "None", "facebook": "None", "youtube": "None", "website": "None", "summary": "None", "logo": "None", "latitude": 45.442933151624175, "longitude": -62.01668134742172}, "135370617RR0001": {"name": "LOCHABER UNITED CHURCH", "designationCode": "C", "categoryCode": "44", "address": "54 HAWTHORNE ST.", "city": "ANTIGONISH", "province": "NS", "country": "CA", "postalCode": "B2G1A4", "twitter": "None", "instagram": "None", "facebook": "None", "youtube": "None", "website": "None", "summary": "None", "logo": "None", "latitude": 45.62342326092081, "longitude": -61.99649439823447}, "119022697RR0001": {"name": "LOCHALSH CEMETERY BOARD", "designationCode": "C", "categoryCode": "59", "address": "RR 3", "city": "LUCKNOW", "province": "ON", "country": "CA", "postalCode": "N0G2H0", "twitter": "None", "instagram": "None", "facebook": "None", "youtube": "None", "website": "None", "summary": "None", "logo": "None", "latitude": 43.908877358915426, "longitude": -81.55752636962617}, "890938947RR0001": {"name": "LOCHLIN UNITED CHURCH,", "designationCode": "C", "categoryCode": "44", "address": "1050 LOCHLIN ROAD", "city": "MINDEN", "province": "ON", "country": "CA", "postalCode": "K0M2K0", "twitter": "None", "instagram": "None", "facebook": "None", "youtube": "None", "website": "None", "summary": "None", "logo": "None", "latitude": 44.94766151843613, "longitude": -78.57962812259993}, "107639924RR0001": {"name": "LOCHWINNOCH PRESBYTERIAN CHURCH", "designationCode": "C", "categoryCode": "37", "address": "21 CLIFFORD S.R.              RR1", "city": "RENFREW", "province": "ON", "country": "CA", "postalCode": "K7V3Z4", "twitter": "None", "instagram": "None", "facebook": "None", "youtube": "None", "website": "None", "summary": "None", "logo": "None", "latitude": 45.47850534396453, "longitude": -76.53597969593389}, "119022754RR0001": {"name": "LOCK-DANSEURS INC.", "designationCode": "C", "categoryCode": "22", "address": "5655, AVE. DU PARC, BUR. 206", "city": "MONTREAL", "province": "QC", "country": "CA", "postalCode": "H2V4H2", "twitter": "None", "instagram": "None", "facebook": "None", "youtube": "None", "website": "None", "summary": "None", "logo": "None", "latitude": 45.52295926868244, "longitude": -73.60387142518334}, "119022762RR0001": {"name": "LOCKEPORT BAPTIST CHURCH INDEPENDENT", "designationCode": "C", "categoryCode": "31", "address": "PO BOX 310", "city": "LOCKEPORT", "province": "NS", "country": "CA", "postalCode": "B0T1L0", "twitter": "None", "instagram": "None", "facebook": "None", "youtube": "None", "website": "None", "summary": "None", "logo": "None", "latitude": 43.69726000000003, "longitude": -65.11463999999995}, "892696568RR0001": {"name": "LOCKEPORT CEMETERY COMPANY, LIMITED", "designationCode": "C", "categoryCode": "59", "address": "PO BOX 234", "city": "LOCKEPORT", "province": "NS", "country": "CA", "postalCode": "B0T1L0", "twitter": "None", "instagram": "None", "facebook": "None", "youtube": "None", "website": "None", "summary": "None", "logo": "None", "latitude": 43.69726000000003, "longitude": -65.11463999999995}, "131452534RR0001": {"name": "LOCKEPORT PASTORAL CHARGE", "designationCode": "C", "categoryCode": "44", "address": "BOX 192", "city": "LOCKEPORT", "province": "NS", "country": "CA", "postalCode": "B0T1L0", "twitter": "None", "instagram": "None", "facebook": "None", "youtube": "None", "website": "None", "summary": "None", "logo": "None", "latitude": 43.69726000000003, "longitude": -65.11463999999995}, "869373951RR0001": {"name": "LOCKEPORT PENTECOSTAL CHURCH,", "designationCode": "C", "categoryCode": "36", "address": "PO BOX 29", "city": "LOCKPORT", "province": "NS", "country": "CA", "postalCode": "B0T1L0", "twitter": "None", "instagram": "None", "facebook": "None", "youtube": "None", "website": "None", "summary": "None", "logo": "None", "latitude": 43.69726000000003, "longitude": -65.11463999999995}, "119022796RR0001": {"name": "LOCKEPORT REGIONAL HIGH SCHOOL AWARD & SCHOLARSHIP FUND", "designationCode": "C", "categoryCode": "21", "address": "P.O. BOX 129", "city": "LOCKEPORT", "province": "NS", "country": "CA", "postalCode": "B0T1L0", "twitter": "None", "instagram": "None", "facebook": "None", "youtube": "None", "website": "None", "summary": "None", "logo": "None", "latitude": 43.69726000000003, "longitude": -65.11463999999995}, "119022804RR0001": {"name": "LOCKEPORT UNITED BAPTIST CHURCH", "designationCode": "C", "categoryCode": "31", "address": "PO BOX 98", "city": "LOCKPORT", "province": "NS", "country": "CA", "postalCode": "B0T1L0", "twitter": "None", "instagram": "None", "facebook": "None", "youtube": "None", "website": "None", "summary": "None", "logo": "None", "latitude": 43.69726000000003, "longitude": -65.11463999999995}, "888033941RR0001": {"name": "LOCKHART FOUNDATION", "designationCode": "B", "categoryCode": "05", "address": "193 PORTLEDGE AVE", "city": "MONCTON", "province": "NB", "country": "CA", "postalCode": "E1C5T1", "twitter": "None", "instagram": "None", "facebook": "None", "youtube": "None", "website": "None", "summary": "None", "logo": "None", "latitude": 46.101787092705834, "longitude": -64.79125643946583}, "119022812RR0001": {"name": "LOCKHARTVILLE UNITED BAPTIST CHURCH", "designationCode": "C", "categoryCode": "31", "address": "181 LAKEWOOD DR", "city": "NEWPORT", "province": "NS", "country": "CA", "postalCode": "B0N2A0", "twitter": "None", "instagram": "None", "facebook": "None", "youtube": "None", "website": "None", "summary": "None", "logo": "None", "latitude": 44.99938220566678, "longitude": -64.01362582607221}, "119022820RR0001": {"name": "LOCKPORT COMMUNITY CHURCH", "designationCode": "C", "categoryCode": "37", "address": "6989 HENDERSON HWY", "city": "LOCKPORT", "province": "MB", "country": "CA", "postalCode": "R1B1A1", "twitter": "None", "instagram": "None", "facebook": "None", "youtube": "None", "website": "None", "summary": "None", "logo": "None", "latitude": 50.08509261080822, "longitude": -96.93261525334029}, "869999649RR0001": {"name": "LOCKWARD MEMORIAL SCHOLARSHIPS", "designationCode": "B", "categoryCode": "25", "address": "1709 HOLLIS STREET, 5TH FLOOR P.O. BOX 457, HALIFAX CENTRAL", "city": "HALIFAX", "province": "NS", "country": "CA", "postalCode": "B3J2P8", "twitter": "None", "instagram": "None", "facebook": "None", "youtube": "None", "website": "None", "summary": "None", "logo": "None", "latitude": 44.647722827370295, "longitude": -63.57286089243476}, "119022879RR0001": {"name": "LOCUST HILL UNITED CHURCH", "designationCode": "C", "categoryCode": "44", "address": "8847 REESOR RD", "city": "MARKHAM", "province": "ON", "country": "CA", "postalCode": "L6B1A8", "twitter": "None", "instagram": "None", "facebook": "None", "youtube": "None", "website": "None", "summary": "None", "logo": "None", "latitude": 43.891995847662336, "longitude": -79.21234806354357}, "119022887RR0001": {"name": "LODZER CENTRE CONGREGATION", "designationCode": "C", "categoryCode": "42", "address": "12 HEATON ST.", "city": "NORTH YORK", "province": "ON", "country": "CA", "postalCode": "M3H4Y6", "twitter": "None", "instagram": "None", "facebook": "None", "youtube": "None", "website": "None", "summary": "None", "logo": "None", "latitude": 43.757400217035084, "longitude": -79.44016546367338}, "883905507RR0001": {"name": "LOEB-WILLIAMS-WOODALL CHILDREN'S FOUNDATION (L.W.W.)", "designationCode": "A", "categoryCode": "05", "address": "51 SHORE GDNS", "city": "OAKVILLE", "province": "ON", "country": "CA", "postalCode": "L6L5Z2", "twitter": "None", "instagram": "None", "facebook": "None", "youtube": "None", "website": "None", "summary": "None", "logo": "None", "latitude": 43.384108368313186, "longitude": -79.7167389770905}, "130586605RR0001": {"name": "LOFT COMMUNITY SERVICES", "designationCode": "C", "categoryCode": "01", "address": "15 TORONTO ST.                9TH FLOOR", "city": "TORONTO", "province": "ON", "country": "CA", "postalCode": "M5C2E3", "twitter": "None", "instagram": "None", "facebook": "None", "youtube": "None", "website": "None", "summary": "None", "logo": "None", "latitude": 43.650268228980295, "longitude": -79.37619023048084}, "119023166RR0001": {"name": "LOGAN LAKE CHRISTIAN FELLOWSHIP SOCIETY", "designationCode": "C", "categoryCode": "47", "address": "PO BOX 301", "city": "LOGAN LAKE", "province": "BC", "country": "CA", "postalCode": "V0K1W0", "twitter": "None", "instagram": "None", "facebook": "None", "youtube": "None", "website": "None", "summary": "None", "logo": "None", "latitude": 50.49127000000004, "longitude": -120.81466999999998}, "856510771RR0001": {"name": "LOGAN LAKE SEARCH AND RESCUE SOCIETY", "designationCode": "C", "categoryCode": "59", "address": "1 OPAL DR                     PO BOX 550", "city": "LOGAN LAKE", "province": "BC", "country": "CA", "postalCode": "V0K1W0", "twitter": "None", "instagram": "None", "facebook": "None", "youtube": "None", "website": "None", "summary": "None", "logo": "None", "latitude": 50.494266449362236, "longitude": -120.81354536234055}, "889139374RR0001": {"name": "LOGAN LAKE SENIORS SOCIETY", "designationCode": "C", "categoryCode": "56", "address": "PO BOX 959                    80 - 150 OPAL", "city": "LOGAN LAKE", "province": "BC", "country": "CA", "postalCode": "V0K1W0", "twitter": "None", "instagram": "None", "facebook": "None", "youtube": "None", "website": "None", "summary": "None", "logo": "None", "latitude": 50.494168480668534, "longitude": -120.8145533366611}, "897789418RR0001": {"name": "LOGAN LAKE WELLNESS, HEALTH & YOUTH SOCIETY", "designationCode": "C", "categoryCode": "59", "address": "BOX 640", "city": "LOGAN LAKE", "province": "BC", "country": "CA", "postalCode": "V0K1W0", "twitter": "None", "instagram": "None", "facebook": "None", "youtube": "None", "website": "None", "summary": "None", "logo": "None", "latitude": 50.49127000000004, "longitude": -120.81466999999998}, "103373635RR0001": {"name": "LOGBERG-HEIMSKRINGLA INCORPORATED", "designationCode": "C", "categoryCode": "22", "address": "PO BOX 62059 RPO TRANSCONA", "city": "WINNIPEG", "province": "MB", "country": "CA", "postalCode": "R2C5G2", "twitter": "None", "instagram": "None", "facebook": "None", "youtube": "None", "website": "None", "summary": "None", "logo": "None", "latitude": 49.90015262318507, "longitude": -97.02950803629832}, "119023182RR0001": {"name": "LOGE FRONTIERE - FRONTIER LODGE", "designationCode": "C", "categoryCode": "56", "address": "2100 CHEMIN LEHOUX            RR #3", "city": "COATICOOK", "province": "QC", "country": "CA", "postalCode": "J1A2S2", "twitter": "None", "instagram": "None", "facebook": "None", "youtube": "None", "website": "None", "summary": "None", "logo": "None", "latitude": 45.0629887277109, "longitude": -71.82595549829696}, "894736826RR0001": {"name": "LOGE M'ENTRAIDE", "designationCode": "C", "categoryCode": "09", "address": "30, RUE RACINE EST,BUR.230", "city": "CHICOUTIMI", "province": "QC", "country": "CA", "postalCode": "G7H1P5", "twitter": "None", "instagram": "None", "facebook": "None", "youtube": "None", "website": "None", "summary": "None", "logo": "None", "latitude": 48.42793757227784, "longitude": -71.06742597169482}, "126538545RR0001": {"name": "LOGEMENT COMMUNAUTAIRE CHINOIS PHASE II", "designationCode": "C", "categoryCode": "09", "address": "1070 AV DE L'H\u00d4TEL-DE-VILLE", "city": "MONTR\u00c9AL", "province": "QC", "country": "CA", "postalCode": "H2X3A6", "twitter": "None", "instagram": "None", "facebook": "None", "youtube": "None", "website": "None", "summary": "None", "logo": "None", "latitude": 45.51022677517466, "longitude": -73.55897245005474}, "867385932RR0001": {"name": "LOGEMENTS ADAPTES M R C THERESE DE BLAINVILLE", "designationCode": "C", "categoryCode": "21", "address": "330 - 6 RUE DE L'EGLISE", "city": "SAINTE-THERESE", "province": "QC", "country": "CA", "postalCode": "J7E3L1", "twitter": "None", "instagram": "None", "facebook": "None", "youtube": "None", "website": "None", "summary": "None", "logo": "None", "latitude": 45.64028637423346, "longitude": -73.84411982344947}, "893338061RR0001": {"name": "LOGEMENTS CHALEUR HOUSING INC.", "designationCode": "C", "categoryCode": "01", "address": "702 RUE PRINCIPALE            BUREAU 312", "city": "PETIT-ROCHER", "province": "NB", "country": "CA", "postalCode": "E8J1V1", "twitter": "None", "instagram": "None", "facebook": "None", "youtube": "None", "website": "None", "summary": "None", "logo": "None", "latitude": 47.77393212261475, "longitude": -65.71558934337072}, "107640658RR0001": {"name": "LOGGIEVILLE-BLACK RIVER PASTORAL CHARGE", "designationCode": "C", "categoryCode": "44", "address": "368 SOUTH NAPAN ROAD", "city": "NAPAN", "province": "NB", "country": "CA", "postalCode": "E1N4W3", "twitter": "None", "instagram": "None", "facebook": "None", "youtube": "None", "website": "None", "summary": "None", "logo": "None", "latitude": 47.02621865722207, "longitude": -65.3846166942698}, "861257012RR0001": {"name": "LOGIS DU BEL AGE", "designationCode": "C", "categoryCode": "09", "address": "22-164 CH VALENTIN CUMMINGS", "city": "FATIMA", "province": "QC", "country": "CA", "postalCode": "G4T2E4", "twitter": "None", "instagram": "None", "facebook": "None", "youtube": "None", "website": "None", "summary": "None", "logo": "None", "latitude": 47.4033346628193, "longitude": -61.897210336833986}, "131214348RR0001": {"name": "LOGIS ROSE-VIRGINIE", "designationCode": "C", "categoryCode": "01", "address": "CP 363 SUCURSALE ROSEMONT", "city": "MONTREAL", "province": "QC", "country": "CA", "postalCode": "H1X3C6", "twitter": "None", "instagram": "None", "facebook": "None", "youtube": "None", "website": "None", "summary": "None", "logo": "None", "latitude": 45.55697407537291, "longitude": -73.57715938598749}, "891427643RR0001": {"name": "LOGISTICS EMPLOYMENT TRAINING TRUST", "designationCode": "C", "categoryCode": "21", "address": "405 - 501 ALLIANCE AVE", "city": "YORK", "province": "ON", "country": "CA", "postalCode": "M6N2J1", "twitter": "None", "instagram": "None", "facebook": "None", "youtube": "None", "website": "None", "summary": "None", "logo": "None", "latitude": 43.67703284090295, "longitude": -79.48854506269855}, "866584725RR0001": {"name": "LOGOS APOSTOLIC CHURCH OF RECONCILIATION", "designationCode": "C", "categoryCode": "39", "address": "380 ALBION ROAD", "city": "TORONTO", "province": "ON", "country": "CA", "postalCode": "M9W3P5", "twitter": "None", "instagram": "None", "facebook": "None", "youtube": "None", "website": "None", "summary": "None", "logo": "None", "latitude": 43.72550127090413, "longitude": -79.5509017468408}, "839670320RR0001": {"name": "LOGOS BAPTIST CHURCH", "designationCode": "C", "categoryCode": "31", "address": "23511 WESTMINSTER HWY", "city": "RICHMOND", "province": "BC", "country": "CA", "postalCode": "V6V1C3", "twitter": "None", "instagram": "None", "facebook": "None", "youtube": "None", "website": "None", "summary": "None", "logo": "None", "latitude": 49.18271246898251, "longitude": -122.96052858873871}, "885706531RR0001": {"name": "LOGOS BAPTIST CHURCH (JIREH)", "designationCode": "C", "categoryCode": "31", "address": "8 AMROTH AVENUE", "city": "TORONTO", "province": "ON", "country": "CA", "postalCode": "M4C4H2", "twitter": "None", "instagram": "None", "facebook": "None", "youtube": "None", "website": "None", "summary": "None", "logo": "None", "latitude": 43.68361643574359, "longitude": -79.31074654359728}, "882740913RR0001": {"name": "LOGOS BAPTIST CHURCH (MILLIKEN)", "designationCode": "C", "categoryCode": "31", "address": "133 OLD KENNEDY ROAD", "city": "MARKHAM", "province": "ON", "country": "CA", "postalCode": "L3R0L5", "twitter": "None", "instagram": "None", "facebook": "None", "youtube": "None", "website": "None", "summary": "None", "logo": "None", "latitude": 43.828976817935214, "longitude": -79.30102735022244}, "887001485RR0001": {"name": "LOGOS BAPTIST CHURCH (MISSISSAUGA)", "designationCode": "C", "categoryCode": "31", "address": "6955 MILLCREEK DR", "city": "MISSISSAUGA", "province": "ON", "country": "CA", "postalCode": "L5N5Z6", "twitter": "None", "instagram": "None", "facebook": "None", "youtube": "None", "website": "None", "summary": "None", "logo": "None", "latitude": 43.59642121706372, "longitude": -79.75916459100372}, "894799642RR0001": {"name": "LOGOS CANADA SOCIETY", "designationCode": "C", "categoryCode": "39", "address": "P.O.BOX 2249 STN A", "city": "ABBOTSFORD", "province": "BC", "country": "CA", "postalCode": "V2T2X4", "twitter": "None", "instagram": "None", "facebook": "None", "youtube": "None", "website": "None", "summary": "None", "logo": "None", "latitude": 49.043301000000056, "longitude": -122.33712499999993}, "107640724RR0001": {"name": "LOGOS CHRISTIAN FAMILY CHURCH", "designationCode": "C", "categoryCode": "36", "address": "3535 DIXIE RD", "city": "MISSISSAUGA", "province": "ON", "country": "CA", "postalCode": "L4Y2B3", "twitter": "None", "instagram": "None", "facebook": "None", "youtube": "None", "website": "None", "summary": "None", "logo": "None", "latitude": 43.620080603410315, "longitude": -79.5992429364074}, "862310497RR0001": {"name": "LOGOS EVANGELICAL SEMINARY (CANADA) INC.", "designationCode": "C", "categoryCode": "47", "address": "2940 MARKHAM ROAD", "city": "TORONTO", "province": "ON", "country": "CA", "postalCode": "M1X1E6", "twitter": "None", "instagram": "None", "facebook": "None", "youtube": "None", "website": "None", "summary": "None", "logo": "None", "latitude": 43.82688473244276, "longitude": -79.24924306953653}, "821338548RR0001": {"name": "LOGOS ROMANIAN PENTECOSTAL CHURCH OF TORONTO", "designationCode": "C", "categoryCode": "36", "address": "606 JANE STREET", "city": "TORONTO", "province": "ON", "country": "CA", "postalCode": "M6S4A6", "twitter": "None", "instagram": "None", "facebook": "None", "youtube": "None", "website": "None", "summary": "None", "logo": "None", "latitude": 43.66494215875126, "longitude": -79.49089539428107}, "886519594RR0001": {"name": "LOHANA CHARITABLE FOUNDATION OF TORONTO", "designationCode": "C", "categoryCode": "49", "address": "P O BOX 927                   ADELAIDE POSTAL STATION", "city": "TORONTO", "province": "ON", "country": "CA", "postalCode": "M5C2K3", "twitter": "None", "instagram": "None", "facebook": "None", "youtube": "None", "website": "None", "summary": "None", "logo": "None", "latitude": 43.65106129336214, "longitude": -79.3754558860496}, "892487778RR0001": {"name": "LOHANA CULTURAL ASSOCIATION OF BRITISH COLUMBIA", "designationCode": "C", "categoryCode": "49", "address": "202 1644 MCGUIRE AVE", "city": "NORTH VANCOUVER", "province": "BC", "country": "CA", "postalCode": "V7P3B1", "twitter": "None", "instagram": "None", "facebook": "None", "youtube": "None", "website": "None", "summary": "None", "logo": "None", "latitude": 49.32454449708581, "longitude": -123.12018089283879}, "891585390RR0001": {"name": "LOHN FOUNDATION", "designationCode": "B", "categoryCode": "13", "address": "1008-808 NELSON STREET", "city": "VANCOUVER", "province": "BC", "country": "CA", "postalCode": "V6Z2H2", "twitter": "None", "instagram": "None", "facebook": "None", "youtube": "None", "website": "None", "summary": "None", "logo": "None", "latitude": 49.28023429251557, "longitude": -123.12461904082731}, "859949406RR0001": {"name": "LOISIRS ACTI-FAMILLE", "designationCode": "C", "categoryCode": "56", "address": "6670 RUE \u00c9MERY-FONTAINE", "city": "SHERBROOKE", "province": "QC", "country": "CA", "postalCode": "J1N2T2", "twitter": "None", "instagram": "None", "facebook": "None", "youtube": "None", "website": "None", "summary": "None", "logo": "None", "latitude": 45.347771065208725, "longitude": -71.99290646153861}, "718025299RR0001": {"name": "LOISIRS ADAPT\u00c9S EN NATURE CAVALETTI", "designationCode": "C", "categoryCode": "11", "address": "4000 - 1 PLACE VILLE-MARIE", "city": "MONTREAL", "province": "QC", "country": "CA", "postalCode": "H3B4M4", "twitter": "None", "instagram": "None", "facebook": "None", "youtube": "None", "website": "None", "summary": "None", "logo": "None", "latitude": 45.50188724476333, "longitude": -73.56787382018557}, "119023257RR0001": {"name": "LOISIRS DE JEUNESSE (RIMOUSKI) INC.", "designationCode": "C", "categoryCode": "56", "address": "186 RUE ROULEAU", "city": "RIMOUSKI", "province": "QC", "country": "CA", "postalCode": "G5L5S9", "twitter": "None", "instagram": "None", "facebook": "None", "youtube": "None", "website": "None", "summary": "None", "logo": "None", "latitude": 48.44576228449413, "longitude": -68.53035664028518}, "119023307RR0001": {"name": "LOISIRS JEUNESSE DU CAP-DE-LA-MADELEINE INC.", "designationCode": "C", "categoryCode": "56", "address": "55 RUE MERCIER", "city": "CAP-DE-LA-MADELEINE", "province": "QC", "country": "CA", "postalCode": "G8T5R3", "twitter": "None", "instagram": "None", "facebook": "None", "youtube": "None", "website": "None", "summary": "None", "logo": "None", "latitude": 46.36351440769819, "longitude": -72.50728874857155}, "119023323RR0001": {"name": "LOISIRS MONTCALM INC.", "designationCode": "C", "categoryCode": "56", "address": "265 BOUL RENE LEVESQUE OUEST", "city": "QUEBEC", "province": "QC", "country": "CA", "postalCode": "G1R2A7", "twitter": "None", "instagram": "None", "facebook": "None", "youtube": "None", "website": "None", "summary": "None", "logo": "None", "latitude": 46.802877372439454, "longitude": -71.22907895097836}, "103375960RR0001": {"name": "LOISIRS NOTRE-DAME DE GRACE DE QUEBEC INC.", "designationCode": "C", "categoryCode": "56", "address": "390 ARAGO OUEST", "city": "QUEBEC", "province": "QC", "country": "CA", "postalCode": "G1K2J3", "twitter": "None", "instagram": "None", "facebook": "None", "youtube": "None", "website": "None", "summary": "None", "logo": "None", "latitude": 46.80727126617229, "longitude": -71.23278981294355}, "892935859RR0001": {"name": "LOISIRS ST-SAUVEUR INC.", "designationCode": "C", "categoryCode": "53", "address": "680 RUE RAOUL-JOBIN", "city": "QU\u00c9BEC", "province": "QC", "country": "CA", "postalCode": "G1N4N1", "twitter": "None", "instagram": "None", "facebook": "None", "youtube": "None", "website": "None", "summary": "None", "logo": "None", "latitude": 46.80762241217027, "longitude": -71.24413677670385}, "890472368RR0001": {"name": "LOISIRS THERAPEUTIQUES COATICOOK", "designationCode": "C", "categoryCode": "09", "address": "464 RUE MERRILL", "city": "COATICOOK", "province": "QC", "country": "CA", "postalCode": "J1A1X5", "twitter": "None", "instagram": "None", "facebook": "None", "youtube": "None", "website": "None", "summary": "None", "logo": "None", "latitude": 45.12264960115995, "longitude": -71.80995913396583}, "119023398RR0001": {"name": "LOMBARDY UNITED CHURCH", "designationCode": "C", "categoryCode": "44", "address": "1601 GUTHRIE ROAD             R.R.#1", "city": "SMITHS FALLS", "province": "ON", "country": "CA", "postalCode": "K7A5B8", "twitter": "None", "instagram": "None", "facebook": "None", "youtube": "None", "website": "None", "summary": "None", "logo": "None", "latitude": 44.91973155839938, "longitude": -75.94723743655165}, "857495238RR0001": {"name": "LOMDEI TORAH", "designationCode": "C", "categoryCode": "21", "address": "361 RUE BETH-HALEVY", "city": "BOISBRIAND", "province": "QC", "country": "CA", "postalCode": "J7E4H4", "twitter": "None", "instagram": "None", "facebook": "None", "youtube": "None", "website": "None", "summary": "None", "logo": "None", "latitude": 45.61143352290949, "longitude": -73.86678425532357}, "888217049RR0001": {"name": "LOMDEI TORAH PROGRAMS", "designationCode": "A", "categoryCode": "21", "address": "970 LAWRENCE AVENUE WEST,     SUITE 300", "city": "TORONTO", "province": "ON", "country": "CA", "postalCode": "M6A3B6", "twitter": "None", "instagram": "None", "facebook": "None", "youtube": "None", "website": "None", "summary": "None", "logo": "None", "latitude": 43.713414238444024, "longitude": -79.45809593770547}, "139025225RR0001": {"name": "LOMOND CHARITABLE TRUST", "designationCode": "B", "categoryCode": "39", "address": "3425 2ND AVE S", "city": "LETHBRIDGE", "province": "AB", "country": "CA", "postalCode": "T1J4V1", "twitter": "None", "instagram": "None", "facebook": "None", "youtube": "None", "website": "None", "summary": "None", "logo": "None", "latitude": 49.696839530439966, "longitude": -112.78914308381903}, "119023422RR0001": {"name": "LOMOND COMMUNITY CENTRE AGRICULTURAL SOCIETY", "designationCode": "C", "categoryCode": "56", "address": "BOX 264", "city": "LOMOND", "province": "AB", "country": "CA", "postalCode": "T0L1G0", "twitter": "None", "instagram": "None", "facebook": "None", "youtube": "None", "website": "None", "summary": "None", "logo": "None", "latitude": 50.35039000000006, "longitude": -112.63985999999994}, "119023430RR0001": {"name": "LOMOND SUNSHINE DROP-IN CENTRE", "designationCode": "C", "categoryCode": "56", "address": "PO BOX 53", "city": "LOMOND", "province": "AB", "country": "CA", "postalCode": "T0L1G0", "twitter": "None", "instagram": "None", "facebook": "None", "youtube": "None", "website": "None", "summary": "None", "logo": "None", "latitude": 50.35039000000006, "longitude": -112.63985999999994}, "107641540RR0001": {"name": "LONDESBORO PASTORAL CHARGE", "designationCode": "C", "categoryCode": "44", "address": "R.R#1", "city": "AUBURN", "province": "ON", "country": "CA", "postalCode": "N0M1E0", "twitter": "None", "instagram": "None", "facebook": "None", "youtube": "None", "website": "None", "summary": "None", "logo": "None", "latitude": 43.77100000000007, "longitude": -81.53011999999995}, "119242725RR0001": {"name": "LONDON ABUSED WOMEN'S CENTRE", "designationCode": "C", "categoryCode": "09", "address": "5 - 797 YORK ST", "city": "LONDON", "province": "ON", "country": "CA", "postalCode": "N5W6A8", "twitter": "None", "instagram": "None", "facebook": "None", "youtube": "None", "website": "None", "summary": "None", "logo": "None", "latitude": 42.98777988938981, "longitude": -81.22433448235418}, "899042105RR0001": {"name": "LONDON AFFORDABLE HOUSING FOUNDATION", "designationCode": "C", "categoryCode": "09", "address": "485 WINDEMERE RD", "city": "LONDON", "province": "ON", "country": "CA", "postalCode": "N5X2T1", "twitter": "None", "instagram": "None", "facebook": "None", "youtube": "None", "website": "None", "summary": "None", "logo": "None", "latitude": 43.01818794362078, "longitude": -81.26582712917667}, "130291461RR0001": {"name": "LONDON AIR PATROL INC", "designationCode": "C", "categoryCode": "59", "address": "3 - 2480 HURON ST", "city": "LONDON", "province": "ON", "country": "CA", "postalCode": "N5V0B1", "twitter": "None", "instagram": "None", "facebook": "None", "youtube": "None", "website": "None", "summary": "None", "logo": "None", "latitude": 43.03431394702496, "longitude": -81.16499151875456}, "136203205RR0001": {"name": "LONDON AND AREA FOOD BANK INC", "designationCode": "C", "categoryCode": "09", "address": "91 HIGHLAND WOODS COURT", "city": "LONDON", "province": "ON", "country": "CA", "postalCode": "N6C5X2", "twitter": "None", "instagram": "None", "facebook": "None", "youtube": "None", "website": "None", "summary": "None", "logo": "None", "latitude": 42.95505084485543, "longitude": -81.25152796347184}, "129874541RR0001": {"name": "LONDON AND MIDDLESEX HERITAGE MUSEUM", "designationCode": "C", "categoryCode": "50", "address": "2609 FANSHAWE PARK RD E", "city": "LONDON", "province": "ON", "country": "CA", "postalCode": "N5X4A1", "twitter": "None", "instagram": "None", "facebook": "None", "youtube": "None", "website": "None", "summary": "None", "logo": "None", "latitude": 43.05436440170775, "longitude": -81.18476200389081}, "889191664RR0001": {"name": "LONDON AND MIDDLESEX HISTORICAL SOCIETY", "designationCode": "C", "categoryCode": "52", "address": "BOX 303 STATION B", "city": "LONDON", "province": "ON", "country": "CA", "postalCode": "N6A4W1", "twitter": "None", "instagram": "None", "facebook": "None", "youtube": "None", "website": "None", "summary": "None", "logo": "None", "latitude": 42.98689500000006, "longitude": -81.24624349999993}, "107641573RR0001": {"name": "LONDON AREA RIGHT TO LIFE ASSOCIATION INC", "designationCode": "C", "categoryCode": "09", "address": "3-1193 OXFORD STREET E", "city": "LONDON", "province": "ON", "country": "CA", "postalCode": "N5Y3M2", "twitter": "None", "instagram": "None", "facebook": "None", "youtube": "None", "website": "None", "summary": "None", "logo": "None", "latitude": 43.003007506141316, "longitude": -81.22754564619565}, "896242153RR0001": {"name": "LONDON ARTS COUNCIL", "designationCode": "C", "categoryCode": "22", "address": "201 KING ST", "city": "LONDON", "province": "ON", "country": "CA", "postalCode": "N6A1C9", "twitter": "None", "instagram": "None", "facebook": "None", "youtube": "None", "website": "None", "summary": "None", "logo": "None", "latitude": 42.98290806797868, "longitude": -81.24760251067582}, "119288918RR0980": {"name": "LONDON ASSEMBLY HALL OF JEHOVAH'S WITNESSES", "designationCode": "C", "categoryCode": "61", "address": "459 SECOND STREET", "city": "LONDON", "province": "ON", "country": "CA", "postalCode": "N5V2B1", "twitter": "None", "instagram": "None", "facebook": "None", "youtube": "None", "website": "None", "summary": "None", "logo": "None", "latitude": 43.00353938152786, "longitude": -81.19123096023323}, "891950867RR0001": {"name": "LONDON CAMPUS MINISTRY OF THE CHRISTIAN REFORMED CHURCH", "designationCode": "C", "categoryCode": "47", "address": "1806 ROYAL CRES", "city": "LONDON", "province": "ON", "country": "CA", "postalCode": "N5W2A6", "twitter": "None", "instagram": "None", "facebook": "None", "youtube": "None", "website": "None", "summary": "None", "logo": "None", "latitude": 42.99559590648611, "longitude": -81.1730882663165}, "136021672RR0001": {"name": "LONDON CENTRE OF THE DEAF", "designationCode": "C", "categoryCode": "11", "address": "706 - 380 KING ST", "city": "LONDON", "province": "ON", "country": "CA", "postalCode": "N6B3L6", "twitter": "None", "instagram": "None", "facebook": "None", "youtube": "None", "website": "None", "summary": "None", "logo": "None", "latitude": 42.9850429503432, "longitude": -81.24005850764605}, "129879003RR0001": {"name": "LONDON CHILDREN'S CONNECTION INC", "designationCode": "C", "categoryCode": "01", "address": "346 WONDERLAND RD S", "city": "LONDON", "province": "ON", "country": "CA", "postalCode": "N6K1L3", "twitter": "None", "instagram": "None", "facebook": "None", "youtube": "None", "website": "None", "summary": "None", "logo": "None", "latitude": 42.963996872213, "longitude": -81.29306375780763}, "107641680RR0001": {"name": "LONDON CHINESE ALLIANCE CHURCH", "designationCode": "C", "categoryCode": "39", "address": "76 JACQUELINE ST", "city": "LONDON", "province": "ON", "country": "CA", "postalCode": "N5Z3P7", "twitter": "None", "instagram": "None", "facebook": "None", "youtube": "None", "website": "None", "summary": "None", "logo": "None", "latitude": 42.971018562871436, "longitude": -81.22125857490357}, "126775493RR0001": {"name": "LONDON CHORAL FOUNDATION", "designationCode": "C", "categoryCode": "22", "address": "PO BOX 1103 STN B", "city": "LONDON", "province": "ON", "country": "CA", "postalCode": "N6A5K2", "twitter": "None", "instagram": "None", "facebook": "None", "youtube": "None", "website": "None", "summary": "None", "logo": "None", "latitude": 42.98689500000006, "longitude": -81.24624349999993}, "133065060RR0001": {"name": "LONDON CITIZENS FOR MEDICAL RESEARCH", "designationCode": "C", "categoryCode": "21", "address": "157 KING SOLOMON ST", "city": "INGERSOLL", "province": "ON", "country": "CA", "postalCode": "N5C1P4", "twitter": "None", "instagram": "None", "facebook": "None", "youtube": "None", "website": "None", "summary": "None", "logo": "None", "latitude": 43.04893081877194, "longitude": -80.88074222537361}, "107641953RR0001": {"name": "LONDON COMMUNITY FOUNDATION", "designationCode": "A", "categoryCode": "03", "address": "130 KING ST                   COVENT GARDEN MARKET", "city": "LONDON", "province": "ON", "country": "CA", "postalCode": "N6A1C5", "twitter": "None", "instagram": "None", "facebook": "None", "youtube": "None", "website": "None", "summary": "None", "logo": "None", "latitude": 42.9822428704193, "longitude": -81.2501906893068}, "107642027RR0001": {"name": "LONDON COMMUNITY HEBREW DAY SCHOOL", "designationCode": "C", "categoryCode": "20", "address": "536 HURON STREET", "city": "LONDON", "province": "ON", "country": "CA", "postalCode": "N5Y4J5", "twitter": "None", "instagram": "None", "facebook": "None", "youtube": "None", "website": "None", "summary": "None", "logo": "None", "latitude": 43.011370433369336, "longitude": -81.244859759368}, "119023653RR0001": {"name": "LONDON COMMUNITY PLAYERS", "designationCode": "C", "categoryCode": "22", "address": "710 DUNDAS ST", "city": "LONDON", "province": "ON", "country": "CA", "postalCode": "N5W2Z4", "twitter": "None", "instagram": "None", "facebook": "None", "youtube": "None", "website": "None", "summary": "None", "logo": "None", "latitude": 42.98989988095089, "longitude": -81.2279885177736}, "107641722RR0001": {"name": "LONDON COMMUNITY RESOURCE CENTRE", "designationCode": "C", "categoryCode": "59", "address": "201 KING ST", "city": "LONDON", "province": "ON", "country": "CA", "postalCode": "N6A1C9", "twitter": "None", "instagram": "None", "facebook": "None", "youtube": "None", "website": "None", "summary": "None", "logo": "None", "latitude": 42.98290806797868, "longitude": -81.24760251067582}, "107641763RR0001": {"name": "LONDON CONFERENCE OF UNITED CHURCH OF CANADA", "designationCode": "C", "categoryCode": "44", "address": "PO BOX 28039 RPO OAKRIDGE", "city": "LONDON", "province": "ON", "country": "CA", "postalCode": "N6H5E1", "twitter": "None", "instagram": "None", "facebook": "None", "youtube": "None", "website": "None", "summary": "None", "logo": "None", "latitude": 42.97798229667386, "longitude": -81.29520973991119}}