{"890451818RR0001": {"name": "GLEN PARK CEMETERY MAINTENANCE SOCIETY", "designationCode": "C", "categoryCode": "59", "address": "10432 35A AVE NW", "city": "EDMONTON", "province": "AB", "country": "CA", "postalCode": "T6J2H2", "twitter": "None", "instagram": "None", "facebook": "None", "youtube": "None", "website": "None", "summary": "None", "logo": "None", "latitude": 53.46942116515656, "longitude": -113.49948772773955}, "118940196RR0001": {"name": "GLEN PARK, ALBERTA, CONGREGATION OF JEHOVAH'S WITNESSES", "designationCode": "C", "categoryCode": "61", "address": "PO BOX 1029", "city": "CALMAR", "province": "AB", "country": "CA", "postalCode": "T0C0V0", "twitter": "None", "instagram": "None", "facebook": "None", "youtube": "None", "website": "None", "summary": "None", "logo": "None", "latitude": 53.265040000000056, "longitude": -113.80454999999995}, "866882962RR0001": {"name": "GLEN PINE 50PLUS SOCIETY", "designationCode": "C", "categoryCode": "56", "address": "1200 GLEN PINE CRT", "city": "COQUITLAM", "province": "BC", "country": "CA", "postalCode": "V3B2P7", "twitter": "None", "instagram": "None", "facebook": "None", "youtube": "None", "website": "None", "summary": "None", "logo": "None", "latitude": 49.28315501500363, "longitude": -122.79448513659158}, "129995510RR0001": {"name": "GLEN RHODES UNITED CHURCH", "designationCode": "C", "categoryCode": "44", "address": "1470 GERRARD ST E", "city": "TORONTO", "province": "ON", "country": "CA", "postalCode": "M4L2A3", "twitter": "None", "instagram": "None", "facebook": "None", "youtube": "None", "website": "None", "summary": "None", "logo": "None", "latitude": 43.6726160558023, "longitude": -79.32061993242536}, "118940303RR0001": {"name": "GLEN WILLIAMS CEMETERY", "designationCode": "C", "categoryCode": "59", "address": "12976 NINTH LN RR5", "city": "GEORGETOWN", "province": "ON", "country": "CA", "postalCode": "L7G4S8", "twitter": "None", "instagram": "None", "facebook": "None", "youtube": "None", "website": "None", "summary": "None", "logo": "None", "latitude": 43.687767694054564, "longitude": -79.95367383220373}, "888868262RR0001": {"name": "GLEN WILLIAMS TOWN HALL INC", "designationCode": "C", "categoryCode": "56", "address": "1 PRINCE STREET", "city": "GLEN WILLIAMS", "province": "ON", "country": "CA", "postalCode": "L7G2X1", "twitter": "None", "instagram": "None", "facebook": "None", "youtube": "None", "website": "None", "summary": "None", "logo": "None", "latitude": 43.67053313904442, "longitude": -79.92567291367081}, "118939578RR0001": {"name": "GLENAVON CEMETERY IMPROVEMENT COMMITTEE", "designationCode": "C", "categoryCode": "59", "address": "BOX 87", "city": "GLENAVON", "province": "SK", "country": "CA", "postalCode": "S0G1Y0", "twitter": "None", "instagram": "None", "facebook": "None", "youtube": "None", "website": "None", "summary": "None", "logo": "None", "latitude": 50.194980000000044, "longitude": -103.14260999999999}, "118939610RR0001": {"name": "GLENAVON WE-ALL-GO CLUB INC.", "designationCode": "C", "categoryCode": "09", "address": "P.O. BOX 73", "city": "GLENAVON", "province": "SK", "country": "CA", "postalCode": "S0G1Y0", "twitter": "None", "instagram": "None", "facebook": "None", "youtube": "None", "website": "None", "summary": "None", "logo": "None", "latitude": 50.194980000000044, "longitude": -103.14260999999999}, "889928024RR0001": {"name": "GLENBARD CEMETERY COMPANY", "designationCode": "C", "categoryCode": "59", "address": "94 PLEASANT STREET", "city": "ANTIGONISH", "province": "NS", "country": "CA", "postalCode": "B2G1W9", "twitter": "None", "instagram": "None", "facebook": "None", "youtube": "None", "website": "None", "summary": "None", "logo": "None", "latitude": 45.62357255288813, "longitude": -61.994311547752226}, "866375108RR0001": {"name": "GLENBORO & AREA DONOR'S CHOICE", "designationCode": "A", "categoryCode": "05", "address": "P. O. BOX 635", "city": "GLENBORO", "province": "MB", "country": "CA", "postalCode": "R0K0X0", "twitter": "None", "instagram": "None", "facebook": "None", "youtube": "None", "website": "None", "summary": "None", "logo": "None", "latitude": 49.55755000000005, "longitude": -99.29090999999994}, "118939636RR0001": {"name": "GLENBORO AGRICULTURAL SOCIETY", "designationCode": "C", "categoryCode": "56", "address": "BOX 57", "city": "GLENBORO", "province": "MB", "country": "CA", "postalCode": "R0K0X0", "twitter": "None", "instagram": "None", "facebook": "None", "youtube": "None", "website": "None", "summary": "None", "logo": "None", "latitude": 49.55755000000005, "longitude": -99.29090999999994}, "118939651RR0001": {"name": "GLENBORO BIBLE CHAPEL", "designationCode": "C", "categoryCode": "39", "address": "BOX 154", "city": "GLENBORO", "province": "MB", "country": "CA", "postalCode": "R0K0X0", "twitter": "None", "instagram": "None", "facebook": "None", "youtube": "None", "website": "None", "summary": "None", "logo": "None", "latitude": 49.55755000000005, "longitude": -99.29090999999994}, "802484741RR0001": {"name": "GLENBORO CHILDREN'S LEARNING CENTRE INC.", "designationCode": "C", "categoryCode": "01", "address": "PO BOX 146", "city": "GLENBORO", "province": "MB", "country": "CA", "postalCode": "R0K0X0", "twitter": "None", "instagram": "None", "facebook": "None", "youtube": "None", "website": "None", "summary": "None", "logo": "None", "latitude": 49.55755000000005, "longitude": -99.29090999999994}, "118939677RR0001": {"name": "GLENBORO LUTHERAN CHURCH", "designationCode": "C", "categoryCode": "32", "address": "BOX 325", "city": "GLENBORO", "province": "MB", "country": "CA", "postalCode": "R0K0X0", "twitter": "None", "instagram": "None", "facebook": "None", "youtube": "None", "website": "None", "summary": "None", "logo": "None", "latitude": 49.55755000000005, "longitude": -99.29090999999994}, "131789257RR0001": {"name": "GLENBORO UNITED CHURCH", "designationCode": "C", "categoryCode": "44", "address": "PO BOX 623", "city": "GLENBORO", "province": "MB", "country": "CA", "postalCode": "R0K0X0", "twitter": "None", "instagram": "None", "facebook": "None", "youtube": "None", "website": "None", "summary": "None", "logo": "None", "latitude": 49.55755000000005, "longitude": -99.29090999999994}, "107435695RR0001": {"name": "GLENBOW - ALBERTA INSTITUTE", "designationCode": "C", "categoryCode": "50", "address": "130 9 AVE SE", "city": "CALGARY", "province": "AB", "country": "CA", "postalCode": "T2G0P3", "twitter": "None", "instagram": "None", "facebook": "None", "youtube": "None", "website": "None", "summary": "None", "logo": "None", "latitude": 51.04457646768411, "longitude": -114.06116297155059}, "872250337RR0001": {"name": "GLENBOW FOUNDATION,", "designationCode": "C", "categoryCode": "53", "address": "130 9 AVE SE", "city": "CALGARY", "province": "AB", "country": "CA", "postalCode": "T2G0P3", "twitter": "None", "instagram": "None", "facebook": "None", "youtube": "None", "website": "None", "summary": "None", "logo": "None", "latitude": 51.04457646768411, "longitude": -114.06116297155059}, "118939727RR0001": {"name": "GLENBROOK PRESBYTERIAN CHURCH", "designationCode": "C", "categoryCode": "37", "address": "3535 SOUTH COMMON COURT", "city": "MISSISSAUGA", "province": "ON", "country": "CA", "postalCode": "L5L2B3", "twitter": "None", "instagram": "None", "facebook": "None", "youtube": "None", "website": "None", "summary": "None", "logo": "None", "latitude": 43.54322738138359, "longitude": -79.68633599509525}, "132172388RR0001": {"name": "GLENBURNIE UNITED CHURCH", "designationCode": "C", "categoryCode": "44", "address": "387 KNIGHTSBRIDGE RD", "city": "KINGSTON", "province": "ON", "country": "CA", "postalCode": "K7M5W5", "twitter": "None", "instagram": "None", "facebook": "None", "youtube": "None", "website": "None", "summary": "None", "logo": "None", "latitude": 44.23015095920135, "longitude": -76.57852062380964}, "107435810RR0001": {"name": "GLENBUSH MENNONITE BRETHREN CHURCH", "designationCode": "C", "categoryCode": "34", "address": "PO BOX 42", "city": "GLENBUSH", "province": "SK", "country": "CA", "postalCode": "S0M0Z0", "twitter": "None", "instagram": "None", "facebook": "None", "youtube": "None", "website": "None", "summary": "None", "logo": "None", "latitude": 53.25621000000007, "longitude": -108.00094999999999}, "107435828RR0001": {"name": "GLENCAIRN ALLIANCE CHURCH", "designationCode": "C", "categoryCode": "39", "address": "139 CANNON STREET", "city": "REGINA", "province": "SK", "country": "CA", "postalCode": "S4N4T3", "twitter": "None", "instagram": "None", "facebook": "None", "youtube": "None", "website": "None", "summary": "None", "logo": "None", "latitude": 50.45608732944774, "longitude": -104.55253736147517}, "107435935RR0001": {"name": "GLENCAIRN BAPTIST CHURCH", "designationCode": "C", "categoryCode": "31", "address": "713 GLENCAIRN AVE", "city": "NORTH YORK", "province": "ON", "country": "CA", "postalCode": "M6B1Z8", "twitter": "None", "instagram": "None", "facebook": "None", "youtube": "None", "website": "None", "summary": "None", "logo": "None", "latitude": 43.71012280930823, "longitude": -79.43831662155928}, "119288918RR0991": {"name": "GLENCAIRN CONGREGATION OF JEHOVAH'S WITNESSES", "designationCode": "C", "categoryCode": "61", "address": "5 MAPLE LEAF DRIVE", "city": "TORONTO", "province": "ON", "country": "CA", "postalCode": "M6L1N4", "twitter": "None", "instagram": "None", "facebook": "None", "youtube": "None", "website": "None", "summary": "None", "logo": "None", "latitude": 43.70940867773697, "longitude": -79.50452675116864}, "107435877RR0001": {"name": "GLENCAIRN MENNONITE BRETHREN CHURCH", "designationCode": "C", "categoryCode": "34", "address": "725 ERINBROOK DRIVE", "city": "KITCHENER", "province": "ON", "country": "CA", "postalCode": "N2E3E3", "twitter": "None", "instagram": "None", "facebook": "None", "youtube": "None", "website": "None", "summary": "None", "logo": "None", "latitude": 43.411772457729434, "longitude": -80.49040345005473}, "892503848RR0001": {"name": "GLENCOE & DISTRICT HISTORICAL SOCIETY", "designationCode": "C", "categoryCode": "50", "address": "247 MAIN ST", "city": "GLENCOE", "province": "ON", "country": "CA", "postalCode": "N0L1M0", "twitter": "None", "instagram": "None", "facebook": "None", "youtube": "None", "website": "None", "summary": "None", "logo": "None", "latitude": 42.74873709660098, "longitude": -81.71201395279604}, "107435976RR0001": {"name": "GLENCOE PRESBYTERIAN CHURCH", "designationCode": "C", "categoryCode": "37", "address": "177 MAIN STREET", "city": "GLENCOE", "province": "ON", "country": "CA", "postalCode": "N0L1M0", "twitter": "None", "instagram": "None", "facebook": "None", "youtube": "None", "website": "None", "summary": "None", "logo": "None", "latitude": 42.74594307164267, "longitude": -81.70833233175635}, "118939842RR0001": {"name": "GLENCOE UNITED CHURCH", "designationCode": "C", "categoryCode": "44", "address": "3268 CONCESSION DRIVE", "city": "GLENCOE", "province": "ON", "country": "CA", "postalCode": "N0L1M0", "twitter": "None", "instagram": "None", "facebook": "None", "youtube": "None", "website": "None", "summary": "None", "logo": "None", "latitude": 42.73173109362077, "longitude": -81.72725720583503}, "119288918RR0111": {"name": "GLENCREST CONGREGATION OF JEHOVAH'S WITNESSES, TORONTO, ONTARIO", "designationCode": "C", "categoryCode": "61", "address": "64 TIAGO AVE EAST YORK", "city": "TORONTO", "province": "ON", "country": "CA", "postalCode": "M4B2A3", "twitter": "None", "instagram": "None", "facebook": "None", "youtube": "None", "website": "None", "summary": "None", "logo": "None", "latitude": 43.71189715794319, "longitude": -79.30332920358929}, "118939859RR0001": {"name": "GLENCROSS MENNONITE CHURCH", "designationCode": "C", "categoryCode": "34", "address": "PO BOX 1719", "city": "MORDEN", "province": "MB", "country": "CA", "postalCode": "R6M1B5", "twitter": "None", "instagram": "None", "facebook": "None", "youtube": "None", "website": "None", "summary": "None", "logo": "None", "latitude": 49.192296000000056, "longitude": -98.11329199999993}, "119288918RR1232": {"name": "GLENDALE CONGREGATION OF JEHOVAH'S WITNESSES", "designationCode": "C", "categoryCode": "61", "address": "36 SIGNATURE WAY SW", "city": "CALGARY", "province": "AB", "country": "CA", "postalCode": "T3H2V8", "twitter": "None", "instagram": "None", "facebook": "None", "youtube": "None", "website": "None", "summary": "None", "logo": "None", "latitude": 51.0350619281262, "longitude": -114.16978052360197}, "118939875RR0001": {"name": "GLENDON AGRICULTURAL SOCIETY", "designationCode": "C", "categoryCode": "56", "address": "BOX 630", "city": "GLENDON", "province": "AB", "country": "CA", "postalCode": "T0A1P0", "twitter": "None", "instagram": "None", "facebook": "None", "youtube": "None", "website": "None", "summary": "None", "logo": "None", "latitude": 54.247190000000046, "longitude": -111.15382999999997}, "888939063RR0001": {"name": "GLENDON AND DISTRICTS SENIOR CITIZENS CLUB", "designationCode": "C", "categoryCode": "56", "address": "BOX 532 LOT 1, PLAN 772-0009", "city": "GLENDON", "province": "AB", "country": "CA", "postalCode": "T0A1P0", "twitter": "None", "instagram": "None", "facebook": "None", "youtube": "None", "website": "None", "summary": "None", "logo": "None", "latitude": 54.25246350000001, "longitude": -111.16572075}, "893174979RR0001": {"name": "GLENDON COMMUNITY CHURCH", "designationCode": "C", "categoryCode": "39", "address": "BOX 504", "city": "GLENDON", "province": "AB", "country": "CA", "postalCode": "T0A1P0", "twitter": "None", "instagram": "None", "facebook": "None", "youtube": "None", "website": "None", "summary": "None", "logo": "None", "latitude": 54.247190000000046, "longitude": -111.15382999999997}, "118939891RR0001": {"name": "GLENDON EVANGELICAL CHURCH", "designationCode": "C", "categoryCode": "39", "address": "BOX 333", "city": "GLENDON", "province": "AB", "country": "CA", "postalCode": "T0A1P0", "twitter": "None", "instagram": "None", "facebook": "None", "youtube": "None", "website": "None", "summary": "None", "logo": "None", "latitude": 54.247190000000046, "longitude": -111.15382999999997}, "107436206RR0001": {"name": "GLENELG CENTRE BAPTIST CHURCH", "designationCode": "C", "categoryCode": "31", "address": "RR#2", "city": "PRICEVILLE", "province": "ON", "country": "CA", "postalCode": "N0C1K0", "twitter": "None", "instagram": "None", "facebook": "None", "youtube": "None", "website": "None", "summary": "None", "logo": "None", "latitude": 44.2285869152861, "longitude": -80.60097955471853}, "888424595RR0001": {"name": "GLENELG PRESBYTERIAN CHURCH", "designationCode": "C", "categoryCode": "37", "address": "RR #1", "city": "ASPEN", "province": "NS", "country": "CA", "postalCode": "B0H1E0", "twitter": "None", "instagram": "None", "facebook": "None", "youtube": "None", "website": "None", "summary": "None", "logo": "None", "latitude": 45.298358714951625, "longitude": -62.05212549935461}, "107436214RR0001": {"name": "GLENELG YOUTH ALLIANCE INC.", "designationCode": "C", "categoryCode": "59", "address": "PO BOX 301", "city": "MIRAMICHI", "province": "NB", "country": "CA", "postalCode": "E1N3A7", "twitter": "None", "instagram": "None", "facebook": "None", "youtube": "None", "website": "None", "summary": "None", "logo": "None", "latitude": 47.00187600000005, "longitude": -65.56824349999994}, "107436321RR0001": {"name": "GLENGARRY CHILD CARE SOCIETY", "designationCode": "C", "categoryCode": "01", "address": "13315 89 ST NW", "city": "EDMONTON", "province": "AB", "country": "CA", "postalCode": "T5E3K3", "twitter": "None", "instagram": "None", "facebook": "None", "youtube": "None", "website": "None", "summary": "None", "logo": "None", "latitude": 53.59392795927037, "longitude": -113.47710193618853}, "891529976RR0001": {"name": "GLENGARRY EAST PASTORAL CHARGE,", "designationCode": "C", "categoryCode": "44", "address": "20085 KENYON CON.1, RR 3", "city": "ALEXANDRIA", "province": "ON", "country": "CA", "postalCode": "K0C1A0", "twitter": "None", "instagram": "None", "facebook": "None", "youtube": "None", "website": "None", "summary": "None", "logo": "None", "latitude": 45.312525000000015, "longitude": -74.63350125}, "107436370RR0001": {"name": "GLENGARRY HISTORICAL SOCIETY", "designationCode": "C", "categoryCode": "52", "address": "PO BOX 416", "city": "ALEXANDRIA", "province": "ON", "country": "CA", "postalCode": "K0C1A0", "twitter": "None", "instagram": "None", "facebook": "None", "youtube": "None", "website": "None", "summary": "None", "logo": "None", "latitude": 45.324006000000054, "longitude": -74.57325649999993}, "118940055RR0001": {"name": "GLENGARRY MEMORIAL HOSPITAL", "designationCode": "C", "categoryCode": "10", "address": "20260 COUNTY ROAD 43", "city": "ALEXANDRIA", "province": "ON", "country": "CA", "postalCode": "K0C1A0", "twitter": "None", "instagram": "None", "facebook": "None", "youtube": "None", "website": "None", "summary": "None", "logo": "None", "latitude": 45.30038103988232, "longitude": -74.65632403571706}, "140068313RR0001": {"name": "GLENGARRY PIPE BAND", "designationCode": "C", "categoryCode": "22", "address": "17430 MCLEAN RD PO BOX 86", "city": "MOOSE CREEK", "province": "ON", "country": "CA", "postalCode": "K0C1W0", "twitter": "None", "instagram": "None", "facebook": "None", "youtube": "None", "website": "None", "summary": "None", "logo": "None", "latitude": 45.27888128198399, "longitude": -74.93471765875127}, "891047482RR0001": {"name": "GLENGARRY SPORTS HALL OF FAME INC", "designationCode": "C", "categoryCode": "50", "address": "P.O. BOX 871", "city": "ALEXANDRIA", "province": "ON", "country": "CA", "postalCode": "K0C1A0", "twitter": "None", "instagram": "None", "facebook": "None", "youtube": "None", "website": "None", "summary": "None", "logo": "None", "latitude": 45.324006000000054, "longitude": -74.57325649999993}, "107436438RR0001": {"name": "GLENGATE ALLIANCE CHURCH", "designationCode": "C", "categoryCode": "39", "address": "6009 VALLEY WAY", "city": "NIAGARA FALLS", "province": "ON", "country": "CA", "postalCode": "L2E1X9", "twitter": "None", "instagram": "None", "facebook": "None", "youtube": "None", "website": "None", "summary": "None", "logo": "None", "latitude": 43.09782352769866, "longitude": -79.0940044118818}, "118940089RR0001": {"name": "GLENGOLAND CHRISTIAN FELLOWSHIP", "designationCode": "C", "categoryCode": "47", "address": "351 MAITLAND HILL NE", "city": "CALGARY", "province": "AB", "country": "CA", "postalCode": "T2A5V4", "twitter": "None", "instagram": "None", "facebook": "None", "youtube": "None", "website": "None", "summary": "None", "logo": "None", "latitude": 51.063144066333905, "longitude": -113.93942397322402}, "119288918RR0334": {"name": "GLENLAWN CONGREGATION OF JEHOVAH'S WITNESSES WINNIPEG, MANITOBA", "designationCode": "C", "categoryCode": "61", "address": "227 LAKEWOOD", "city": "WINNIPEG", "province": "MB", "country": "CA", "postalCode": "R2J2N2", "twitter": "None", "instagram": "None", "facebook": "None", "youtube": "None", "website": "None", "summary": "None", "logo": "None", "latitude": 49.848209999999995, "longitude": -97.07698035097319}, "118940097RR0001": {"name": "GLENLEA MENNONITE CHURCH", "designationCode": "C", "categoryCode": "34", "address": "P.O. BOX 21", "city": "GLENLEA", "province": "MB", "country": "CA", "postalCode": "R0G0S0", "twitter": "None", "instagram": "None", "facebook": "None", "youtube": "None", "website": "None", "summary": "None", "logo": "None", "latitude": 49.63541399999999, "longitude": -97.1493005270666}, "881495568RR0001": {"name": "GLENLYON NORFOLK SCHOOL FOUNDATION", "designationCode": "A", "categoryCode": "21", "address": "801 BANK ST", "city": "VICTORIA", "province": "BC", "country": "CA", "postalCode": "V8S4A8", "twitter": "None", "instagram": "None", "facebook": "None", "youtube": "None", "website": "None", "summary": "None", "logo": "None", "latitude": 48.420657840931625, "longitude": -123.32960845092012}, "118940105RR0001": {"name": "GLENLYON-NORFOLK SCHOOL SOCIETY", "designationCode": "C", "categoryCode": "20", "address": "801 BANK ST", "city": "VICTORIA", "province": "BC", "country": "CA", "postalCode": "V8S4A8", "twitter": "None", "instagram": "None", "facebook": "None", "youtube": "None", "website": "None", "summary": "None", "logo": "None", "latitude": 48.420657840931625, "longitude": -123.32960845092012}, "131506347RR0001": {"name": "GLENMORE COMMUNITY CHURCH", "designationCode": "C", "categoryCode": "39", "address": "4686 MARANDA STREET", "city": "KELOWNA", "province": "BC", "country": "CA", "postalCode": "V1W2N8", "twitter": "None", "instagram": "None", "facebook": "None", "youtube": "None", "website": "None", "summary": "None", "logo": "None", "latitude": 49.81277792200936, "longitude": -119.47194605900495}, "119288918RR1689": {"name": "GLENMORE CONGREGATION OF JEHOVAH'S WITNESSES, KELOWNA, BRITISH COLUMBIA", "designationCode": "C", "categoryCode": "61", "address": "1880 DALLAS RD", "city": "KELOWNA", "province": "BC", "country": "CA", "postalCode": "V1V1P2", "twitter": "None", "instagram": "None", "facebook": "None", "youtube": "None", "website": "None", "summary": "None", "logo": "None", "latitude": 49.91844604826761, "longitude": -119.44510659823158}, "889332391RR0001": {"name": "GLENN REDDON MEMORIAL TRUST FUND", "designationCode": "C", "categoryCode": "21", "address": "32 IDLEWYLDE ST.", "city": "FORT ERIE", "province": "ON", "country": "CA", "postalCode": "L2A2L1", "twitter": "None", "instagram": "None", "facebook": "None", "youtube": "None", "website": "None", "summary": "None", "logo": "None", "latitude": 42.91983970246413, "longitude": -78.91326051408095}, "856666722RR0001": {"name": "GLENN'S HELPING HAND FOUNDATION INC.", "designationCode": "B", "categoryCode": "03", "address": "36 BRISTOL ST", "city": "ST. JOHN'S", "province": "NL", "country": "CA", "postalCode": "A1A2E6", "twitter": "None", "instagram": "None", "facebook": "None", "youtube": "None", "website": "None", "summary": "None", "logo": "None", "latitude": 47.5813542253736, "longitude": -52.709761945438444}, "107794828RR0001": {"name": "GLENORA CHILD CARE SOCIETY", "designationCode": "C", "categoryCode": "01", "address": "10530-138 STREET", "city": "EDMONTON", "province": "AB", "country": "CA", "postalCode": "T5N2J6", "twitter": "None", "instagram": "None", "facebook": "None", "youtube": "None", "website": "None", "summary": "None", "logo": "None", "latitude": 53.5483527485429, "longitude": -113.55972874098282}, "118940170RR0001": {"name": "GLENORA COMMUNITY HALL", "designationCode": "C", "categoryCode": "56", "address": "BOX 133", "city": "GLENORA", "province": "MB", "country": "CA", "postalCode": "R0K0Y0", "twitter": "None", "instagram": "None", "facebook": "None", "youtube": "None", "website": "None", "summary": "None", "logo": "None", "latitude": 49.25261000000006, "longitude": -99.15568999999994}, "891084196RR0001": {"name": "GLENORA HISTORICAL SOCIETY INC", "designationCode": "C", "categoryCode": "52", "address": "PO BOX 74", "city": "GLENORA", "province": "MB", "country": "CA", "postalCode": "R0K0Y0", "twitter": "None", "instagram": "None", "facebook": "None", "youtube": "None", "website": "None", "summary": "None", "logo": "None", "latitude": 49.25261000000006, "longitude": -99.15568999999994}, "118940188RR0001": {"name": "GLENORA PARENT TEACHER ASSOCIATION", "designationCode": "C", "categoryCode": "21", "address": "13520-102A AVENUE", "city": "EDMONTON", "province": "AB", "country": "CA", "postalCode": "T5N0N7", "twitter": "None", "instagram": "None", "facebook": "None", "youtube": "None", "website": "None", "summary": "None", "logo": "None", "latitude": 53.54372700000001, "longitude": -113.56395075}, "118940204RR0001": {"name": "GLENRIDGE BIBLE CHURCH", "designationCode": "C", "categoryCode": "39", "address": "310 SCOTT ST", "city": "ST. CATHARINES", "province": "ON", "country": "CA", "postalCode": "L2N1J4", "twitter": "None", "instagram": "None", "facebook": "None", "youtube": "None", "website": "None", "summary": "None", "logo": "None", "latitude": 43.186759321023246, "longitude": -79.23513180371097}, "119288918RR0314": {"name": "GLENRIDGE CONGREGATION OF JEHOVAH'S WITNESSES", "designationCode": "C", "categoryCode": "61", "address": "66 DENRICH AVE", "city": "TILLSONBURG", "province": "ON", "country": "CA", "postalCode": "N4G4X7", "twitter": "None", "instagram": "None", "facebook": "None", "youtube": "None", "website": "None", "summary": "None", "logo": "None", "latitude": 42.85650099249818, "longitude": -80.74263447126212}, "119288918RR0356": {"name": "GLENROSA CONGREGATION OF JEHOVAH'S WITNESSES WESTBANK, BRITISH COLUMBIA", "designationCode": "C", "categoryCode": "61", "address": "38-1850 SHANNON LAKE RD", "city": "WESTBANK", "province": "BC", "country": "CA", "postalCode": "V4T1L6", "twitter": "None", "instagram": "None", "facebook": "None", "youtube": "None", "website": "None", "summary": "None", "logo": "None", "latitude": 49.84635615660247, "longitude": -119.62230284339752}, "119288918RR0838": {"name": "GLENROSE CONGREGATION OF JEHOVAH'S WITNESSES, BRAMPTON, ONTARIO", "designationCode": "C", "categoryCode": "61", "address": "159 ECCLESTONE DR", "city": "BRAMPTON", "province": "ON", "country": "CA", "postalCode": "L6X3R1", "twitter": "None", "instagram": "None", "facebook": "None", "youtube": "None", "website": "None", "summary": "None", "logo": "None", "latitude": 43.699771069652115, "longitude": -79.78806152634328}, "891016347RR0001": {"name": "GLENROSE REHABILITATION HOSPITAL FOUNDATION", "designationCode": "A", "categoryCode": "13", "address": "10230 111 AVE NW", "city": "EDMONTON", "province": "AB", "country": "CA", "postalCode": "T5G0B7", "twitter": "None", "instagram": "None", "facebook": "None", "youtube": "None", "website": "None", "summary": "None", "logo": "None"}, "118940238RR0001": {"name": "GLENSIDE RECREATION AND ACTIVITY CENTRE INCORPORATED", "designationCode": "C", "categoryCode": "56", "address": "BOX 42", "city": "GLENSIDE", "province": "SK", "country": "CA", "postalCode": "S0H1T0", "twitter": "None", "instagram": "None", "facebook": "None", "youtube": "None", "website": "None", "summary": "None", "logo": "None", "latitude": 51.45302000000004, "longitude": -106.80077999999997}, "118940261RR0001": {"name": "GLENTWORTH UNITED CHURCH", "designationCode": "C", "categoryCode": "44", "address": "BOX 5", "city": "GLENTWORTH", "province": "SK", "country": "CA", "postalCode": "S0H1V0", "twitter": "None", "instagram": "None", "facebook": "None", "youtube": "None", "website": "None", "summary": "None", "logo": "None", "latitude": 49.42336000000006, "longitude": -106.68054999999998}, "131635773RR0001": {"name": "GLENVIEW CHURCH OF THE NAZARENE", "designationCode": "C", "categoryCode": "39", "address": "4072 STRACHAN RD SE", "city": "MEDICINE HAT", "province": "AB", "country": "CA", "postalCode": "T1B4Y3", "twitter": "None", "instagram": "None", "facebook": "None", "youtube": "None", "website": "None", "summary": "None", "logo": "None", "latitude": 49.992534000000006, "longitude": -110.64179077335699}, "118940279RR0001": {"name": "GLENVIEW PRESBYTERIAN CHURCH", "designationCode": "C", "categoryCode": "37", "address": "1 GLENVIEW AVE", "city": "TORONTO", "province": "ON", "country": "CA", "postalCode": "M4R1P5", "twitter": "None", "instagram": "None", "facebook": "None", "youtube": "None", "website": "None", "summary": "None", "logo": "None", "latitude": 43.720159767413044, "longitude": -79.40150977257757}, "138399068RR0001": {"name": "GLENWAY CHARITABLE TRUST", "designationCode": "B", "categoryCode": "39", "address": "2500 - 201 PORTAGE AVE", "city": "WINNIPEG", "province": "MB", "country": "CA", "postalCode": "R3B3K6", "twitter": "None", "instagram": "None", "facebook": "None", "youtube": "None", "website": "None", "summary": "None", "logo": "None", "latitude": 49.895359615067065, "longitude": -97.13919299627776}, "893793976RR0001": {"name": "GLENWEST CENTRE FOR CHILDREN", "designationCode": "C", "categoryCode": "01", "address": "P.O. BOX 34318                WESTBROOK RPO", "city": "CALGARY", "province": "AB", "country": "CA", "postalCode": "T3C1S2", "twitter": "None", "instagram": "None", "facebook": "None", "youtube": "None", "website": "None", "summary": "None", "logo": "None", "latitude": 51.04166100000006, "longitude": -114.14121199999994}, "891459448RR0001": {"name": "GLENWOOD ELEMENTARY PARENT ADVISORY COUNCIL", "designationCode": "A", "categoryCode": "21", "address": "20785-24TH AVE", "city": "LANGLEY", "province": "BC", "country": "CA", "postalCode": "V2Z2B4", "twitter": "None", "instagram": "None", "facebook": "None", "youtube": "None", "website": "None", "summary": "None", "logo": "None", "latitude": 49.04569749653756, "longitude": -122.6488219417162}, "118940360RR0001": {"name": "GLENWOOD UNITED CHURCH", "designationCode": "C", "categoryCode": "44", "address": "1825 GRAND MARAIS ROAD WEST", "city": "WINDSOR", "province": "ON", "country": "CA", "postalCode": "N9E1E9", "twitter": "None", "instagram": "None", "facebook": "None", "youtube": "None", "website": "None", "summary": "None", "logo": "None", "latitude": 42.26558105880341, "longitude": -83.03081887451692}, "141048736RR0001": {"name": "GLIDDEN CHARITABLE TRUST", "designationCode": "B", "categoryCode": "39", "address": "3425-2 AVENUE SOUTH", "city": "LETHBRIDGE", "province": "AB", "country": "CA", "postalCode": "T1J4V1", "twitter": "None", "instagram": "None", "facebook": "None", "youtube": "None", "website": "None", "summary": "None", "logo": "None", "latitude": 49.696839530439966, "longitude": -112.78914308381903}, "850689183RR0001": {"name": "GLOBAL AGENTS FOR CHANGE", "designationCode": "C", "categoryCode": "09", "address": "PO BOX 2947                   VANCOUVER MAIN", "city": "VANCOUVER", "province": "BC", "country": "CA", "postalCode": "V6B3X4", "twitter": "None", "instagram": "None", "facebook": "None", "youtube": "None", "website": "None", "summary": "None", "logo": "None", "latitude": 49.24741000000006, "longitude": -123.10113999999999}, "890240997RR0001": {"name": "GLOBAL AID NETWORK", "designationCode": "C", "categoryCode": "43", "address": "20385 64 AVE", "city": "LANGLEY", "province": "BC", "country": "CA", "postalCode": "V2Y1N5", "twitter": "None", "instagram": "None", "facebook": "None", "youtube": "None", "website": "None", "summary": "None", "logo": "None", "latitude": 49.119045277109755, "longitude": -122.6577146462147}, "871659645RR0001": {"name": "GLOBAL AID SOCIETY", "designationCode": "C", "categoryCode": "01", "address": "4319 CORONATION DR. S.W.", "city": "CALGARY", "province": "AB", "country": "CA", "postalCode": "T2S1M3", "twitter": "None", "instagram": "None", "facebook": "None", "youtube": "None", "website": "None", "summary": "None", "logo": "None", "latitude": 51.01447084041203, "longitude": -114.08407332514858}, "855070033RR0001": {"name": "GLOBAL ALLIANCE INTERNATIONAL AID OF CANADA", "designationCode": "C", "categoryCode": "47", "address": "50 WEYBRIGHT COURT            UNIT 9, SUITE 123", "city": "SCARBOROUGH", "province": "ON", "country": "CA", "postalCode": "M1S5A8", "twitter": "None", "instagram": "None", "facebook": "None", "youtube": "None", "website": "None", "summary": "None", "logo": "None", "latitude": 43.781887564487555, "longitude": -79.27905505121468}, "891432643RR0001": {"name": "GLOBAL AMBASSADORS", "designationCode": "C", "categoryCode": "47", "address": "PO BOX 778", "city": "SUTTON WEST", "province": "ON", "country": "CA", "postalCode": "L0E1R0", "twitter": "None", "instagram": "None", "facebook": "None", "youtube": "None", "website": "None", "summary": "None", "logo": "None", "latitude": 44.33123400000005, "longitude": -79.33264549999993}, "859969545RR0001": {"name": "GLOBAL ASSISTANCE PARTNERS (G.A.P) MISSIONS CHURCH", "designationCode": "C", "categoryCode": "37", "address": "6965 PROFESSIONAL CRT", "city": "MISSISSAUGA", "province": "ON", "country": "CA", "postalCode": "L4V1Y3", "twitter": "None", "instagram": "None", "facebook": "None", "youtube": "None", "website": "None", "summary": "None", "logo": "None", "latitude": 43.70898595388052, "longitude": -79.63520540836362}, "859028276RR0001": {"name": "GLOBAL BIBLE CHURCH", "designationCode": "C", "categoryCode": "39", "address": "524-550 COTTONWOOD AVE", "city": "COQUITLAM", "province": "BC", "country": "CA", "postalCode": "V3J2S1", "twitter": "None", "instagram": "None", "facebook": "None", "youtube": "None", "website": "None", "summary": "None", "logo": "None", "latitude": 49.25875749190774, "longitude": -122.88929732536826}, "857802409RR0001": {"name": "GLOBAL CENTRE FOR PLURALISM/CENTRE MONDIAL DU PLURALISME", "designationCode": "C", "categoryCode": "20", "address": "330 SUSSEX DR", "city": "OTTAWA", "province": "ON", "country": "CA", "postalCode": "K1N0C7", "twitter": "None", "instagram": "None", "facebook": "None", "youtube": "None", "website": "None", "summary": "None", "logo": "None", "latitude": 45.43096063278335, "longitude": -75.69807868448804}, "107414963RR0001": {"name": "GLOBAL CHILD CARE SERVICES/SERVICES GLOBAUX POUR ENFANTS", "designationCode": "C", "categoryCode": "01", "address": "1714 MONTREAL ROAD", "city": "GLOUCESTER", "province": "ON", "country": "CA", "postalCode": "K1J6N5", "twitter": "None", "instagram": "None", "facebook": "None", "youtube": "None", "website": "None", "summary": "None", "logo": "None", "latitude": 45.44606559781306, "longitude": -75.611422974609}, "861893790RR0001": {"name": "GLOBAL CHRISTIAN CENTRE MINISTRIES", "designationCode": "C", "categoryCode": "47", "address": "#406, 917-85 ST SW            SUITE#224", "city": "CALGARY", "province": "AB", "country": "CA", "postalCode": "T3H5Z9", "twitter": "None", "instagram": "None", "facebook": "None", "youtube": "None", "website": "None", "summary": "None", "logo": "None", "latitude": 51.05844448810981, "longitude": -114.21107421421185}, "890491947RR0002": {"name": "GLOBAL CHRISTIAN MINISTRIES", "designationCode": "C", "categoryCode": "36", "address": "#207-4104A-97 STREET", "city": "EDMONTON", "province": "AB", "country": "CA", "postalCode": "T6E5Y6", "twitter": "None", "instagram": "None", "facebook": "None", "youtube": "None", "website": "None", "summary": "None", "logo": "None", "latitude": 53.476614915268634, "longitude": -113.47949181993836}, "840672943RR0001": {"name": "GLOBAL DISABILITY FOUNDATION", "designationCode": "C", "categoryCode": "09", "address": "240 COVE WAY", "city": "CHESTEMERE", "province": "AB", "country": "CA", "postalCode": "T1X1V4", "twitter": "None", "instagram": "None", "facebook": "None", "youtube": "None", "website": "None", "summary": "None", "logo": "None", "latitude": 51.060113234808675, "longitude": -113.81520136612014}, "853977239RR0001": {"name": "GLOBAL ECONOMIC AND DEVELOPMENT INC.", "designationCode": "C", "categoryCode": "09", "address": "BOX 1704", "city": "WARMAN", "province": "SK", "country": "CA", "postalCode": "S0K4S0", "twitter": "None", "instagram": "None", "facebook": "None", "youtube": "None", "website": "None", "summary": "None", "logo": "None", "latitude": 52.31985000000006, "longitude": -106.58322349999993}, "869645481RR0001": {"name": "GLOBAL EDUCATIONAL DONATION FUND", "designationCode": "B", "categoryCode": "21", "address": "201-100 MURAL STREET", "city": "RICHMOND HILL", "province": "ON", "country": "CA", "postalCode": "L4B1J3", "twitter": "None", "instagram": "None", "facebook": "None", "youtube": "None", "website": "None", "summary": "None", "logo": "None", "latitude": 43.86254035250148, "longitude": -79.38151117228301}, "862497807RR0001": {"name": "GLOBAL EMERGENCY MISSIONS SOCIETY", "designationCode": "C", "categoryCode": "02", "address": "2870 CROSSLEY DR", "city": "ABBOTSFORD", "province": "BC", "country": "CA", "postalCode": "V2T5H3", "twitter": "None", "instagram": "None", "facebook": "None", "youtube": "None", "website": "None", "summary": "None", "logo": "None", "latitude": 49.05436059059971, "longitude": -122.35689600305842}, "873533715RR0001": {"name": "GLOBAL ENERGY PLUS INC.", "designationCode": "C", "categoryCode": "09", "address": "24 ANGUS ST", "city": "SAINT JOHN", "province": "NB", "country": "CA", "postalCode": "E2M7S6", "twitter": "None", "instagram": "None", "facebook": "None", "youtube": "None", "website": "None", "summary": "None", "logo": "None", "latitude": 45.27123242463509, "longitude": -66.11938405164736}, "899955439RR0001": {"name": "GLOBAL EVANGELISM TELEVISION CANADA INC.", "designationCode": "C", "categoryCode": "47", "address": "P.O.BOX 9900", "city": "TORONTO", "province": "ON", "country": "CA", "postalCode": "M3C2T9", "twitter": "None", "instagram": "None", "facebook": "None", "youtube": "None", "website": "None", "summary": "None", "logo": "None", "latitude": 43.72586700000005, "longitude": -79.34462449999994}, "831683073RR0001": {"name": "GLOBAL FELLOWSHIP", "designationCode": "C", "categoryCode": "43", "address": "3261 RATHTREVOR COURT", "city": "ABBOTSFORD", "province": "BC", "country": "CA", "postalCode": "V3G2X8", "twitter": "None", "instagram": "None", "facebook": "None", "youtube": "None", "website": "None", "summary": "None", "logo": "None", "latitude": 49.06107707216228, "longitude": -122.24151484849075}, "890982978RR0001": {"name": "GLOBAL FOCUS INTERNATIONAL ASSOCIATION", "designationCode": "C", "categoryCode": "47", "address": "211 CILAIRE DRIVE", "city": "NANAIMO", "province": "BC", "country": "CA", "postalCode": "V9S3E5", "twitter": "None", "instagram": "None", "facebook": "None", "youtube": "None", "website": "None", "summary": "None", "logo": "None", "latitude": 49.19724506968076, "longitude": -123.96919718737357}, "899856017RR0001": {"name": "GLOBAL GATHERING PLACE INC.", "designationCode": "C", "categoryCode": "09", "address": "100 5 AVE N", "city": "SASKATOON", "province": "SK", "country": "CA", "postalCode": "S7K2N7", "twitter": "None", "instagram": "None", "facebook": "None", "youtube": "None", "website": "None", "summary": "None", "logo": "None", "latitude": 52.127828491196475, "longitude": -106.65860059683894}, "881775498RR0001": {"name": "GLOBAL HARVEST MINISTRIES INTERNATIONAL", "designationCode": "C", "categoryCode": "39", "address": "17 HERITAGE PL", "city": "ILDERTON", "province": "ON", "country": "CA", "postalCode": "N0M2A0", "twitter": "None", "instagram": "None", "facebook": "None", "youtube": "None", "website": "None", "summary": "None", "logo": "None", "latitude": 43.074875437558234, "longitude": -81.37410999676291}, "891094740RR0001": {"name": "GLOBAL IMPACT MINISTRIES", "designationCode": "C", "categoryCode": "47", "address": "111-8579 SCURFIELD DRIVE NW", "city": "CALGARY", "province": "AB", "country": "CA", "postalCode": "T3L1Z6", "twitter": "None", "instagram": "None", "facebook": "None", "youtube": "None", "website": "None", "summary": "None", "logo": "None", "latitude": 51.1206005692481, "longitude": -114.21110460869043}, "842428955RR0001": {"name": "GLOBAL KINGDOM MINISTRIES INC.", "designationCode": "C", "categoryCode": "36", "address": "1250 MARKHAM ROAD", "city": "TORONTO", "province": "ON", "country": "CA", "postalCode": "M1H2Y9", "twitter": "None", "instagram": "None", "facebook": "None", "youtube": "None", "website": "None", "summary": "None", "logo": "None", "latitude": 43.78037701858168, "longitude": -79.23333758762725}, "896090701RR0001": {"name": "GLOBAL KOREAN MISSION CENTRE", "designationCode": "C", "categoryCode": "39", "address": "200 - 15932 96 AVE", "city": "SURREY", "province": "BC", "country": "CA", "postalCode": "V4N2L6", "twitter": "None", "instagram": "None", "facebook": "None", "youtube": "None", "website": "None", "summary": "None", "logo": "None", "latitude": 49.17688851788918, "longitude": -122.78083050000001}, "857003792RR0001": {"name": "GLOBAL LEGACY FOUNDATION", "designationCode": "B", "categoryCode": "15", "address": "22 ALDER COURT", "city": "BELLEVILLE", "province": "ON", "country": "CA", "postalCode": "K8P5L5", "twitter": "None", "instagram": "None", "facebook": "None", "youtube": "None", "website": "None", "summary": "None", "logo": "None", "latitude": 44.18278012187639, "longitude": -77.39566913379295}, "845241140RR0001": {"name": "GLOBAL LIBERTY FOUNDATION", "designationCode": "A", "categoryCode": "03", "address": "120 - 21900 WESTMINSTER HWY", "city": "RICHMOND", "province": "BC", "country": "CA", "postalCode": "V6V0A8", "twitter": "None", "instagram": "None", "facebook": "None", "youtube": "None", "website": "None", "summary": "None", "logo": "None", "latitude": 49.169125542847496, "longitude": -122.98018299293086}, "831190947RR0001": {"name": "GLOBAL MINISTRIES AND RELIEF INC.", "designationCode": "C", "categoryCode": "47", "address": "107 - 6 SHETTLESTON DR", "city": "CAMBRIDGE", "province": "ON", "country": "CA", "postalCode": "N3H5E7", "twitter": "None", "instagram": "None", "facebook": "None", "youtube": "None", "website": "None", "summary": "None", "logo": "None", "latitude": 43.40629045573889, "longitude": -80.35208642659698}, "107437360RR0001": {"name": "GLOBAL MISSIONS INCORPORATED", "designationCode": "C", "categoryCode": "39", "address": "BOX 934", "city": "NORTH BATTLEFORD", "province": "SK", "country": "CA", "postalCode": "S9A2Z3", "twitter": "None", "instagram": "None", "facebook": "None", "youtube": "None", "website": "None", "summary": "None", "logo": "None", "latitude": 52.77640200000006, "longitude": -108.29903299999994}, "886683390RR0001": {"name": "GLOBAL MISSIONS THE CHURCH AT WINNIPEG", "designationCode": "C", "categoryCode": "39", "address": "984 STRATHCONA STREET", "city": "WINNIPEG", "province": "MB", "country": "CA", "postalCode": "R3G3G5", "twitter": "None", "instagram": "None", "facebook": "None", "youtube": "None", "website": "None", "summary": "None", "logo": "None", "latitude": 49.892149540106175, "longitude": -97.19073296797256}}