{"891466591RR0001": {"name": "TORONTO ART THERAPY INSTITUTE", "designationCode": "C", "categoryCode": "11", "address": "8 PRINCE ARTHUR AVE           2ND FLOOR", "city": "TORONTO", "province": "ON", "country": "CA", "postalCode": "M5R1A9", "twitter": "None", "instagram": "None", "facebook": "None", "youtube": "None", "website": "None", "summary": "None", "logo": "None", "latitude": 43.6697791690517, "longitude": -79.3953656708407}, "888547064RR0001": {"name": "TORONTO ARTS FOUNDATION", "designationCode": "A", "categoryCode": "23", "address": "200-26 GRAND TRUNK CRES.", "city": "TORONTO", "province": "ON", "country": "CA", "postalCode": "M5J3A9", "twitter": "None", "instagram": "None", "facebook": "None", "youtube": "None", "website": "None", "summary": "None", "logo": "None", "latitude": 43.64201849847078, "longitude": -79.38255500848277}, "855588034RR0001": {"name": "TORONTO ARTSCAPE FOUNDATION", "designationCode": "C", "categoryCode": "22", "address": "171 EAST LIBERTY ST           SUITE 224", "city": "TORONTO", "province": "ON", "country": "CA", "postalCode": "M6K3P6", "twitter": "None", "instagram": "None", "facebook": "None", "youtube": "None", "website": "None", "summary": "None", "logo": "None", "latitude": 43.6387007176989, "longitude": -79.41761882543703}, "119265882RR0001": {"name": "TORONTO ARYA SAMAJ", "designationCode": "C", "categoryCode": "39", "address": "2974 WESTON ROAD", "city": "NORTH YORK", "province": "ON", "country": "CA", "postalCode": "M9M2S7", "twitter": "None", "instagram": "None", "facebook": "None", "youtube": "None", "website": "None", "summary": "None", "logo": "None", "latitude": 43.72653600000001, "longitude": -79.5355819817068}, "108113853RR0001": {"name": "TORONTO ASSOCIATION OF NEIGHBOURHOOD SERVICES", "designationCode": "C", "categoryCode": "09", "address": "815 DANFORTH AVENUE  SUITE 402", "city": "TORONTO", "province": "ON", "country": "CA", "postalCode": "M4L1L2", "twitter": "None", "instagram": "None", "facebook": "None", "youtube": "None", "website": "None", "summary": "None", "logo": "None", "latitude": 43.67965075823778, "longitude": -79.34105624104107}, "123370520RR0001": {"name": "TORONTO ASSOCIATION OF PHILATELIC EXHIBITIONS", "designationCode": "C", "categoryCode": "22", "address": "10 SUMMERHILL AVE", "city": "TORONTO", "province": "ON", "country": "CA", "postalCode": "M4T1A8", "twitter": "None", "instagram": "None", "facebook": "None", "youtube": "None", "website": "None", "summary": "None", "logo": "None", "latitude": 43.683237219545234, "longitude": -79.39151607591317}, "135718088RR0001": {"name": "TORONTO ASSOCIATION OF THE DEAF", "designationCode": "C", "categoryCode": "56", "address": "55 - 65 SHUTER ST", "city": "TORONTO", "province": "ON", "country": "CA", "postalCode": "M5B1B2", "twitter": "None", "instagram": "None", "facebook": "None", "youtube": "None", "website": "None", "summary": "None", "logo": "None", "latitude": 43.65486880209486, "longitude": -79.37603606618966}, "884628918RR0001": {"name": "TORONTO AUTOMOBILE DEALERS FOUNDATION", "designationCode": "B", "categoryCode": "23", "address": "85 RENFREW DRIVE", "city": "MARKHAM", "province": "ON", "country": "CA", "postalCode": "L3R0N9", "twitter": "None", "instagram": "None", "facebook": "None", "youtube": "None", "website": "None", "summary": "None", "logo": "None", "latitude": 43.858615043308816, "longitude": -79.3624832161697}, "119265916RR0001": {"name": "TORONTO BAPTIST CHURCH", "designationCode": "C", "categoryCode": "31", "address": "65 SHUTER ST. SUITE 116", "city": "TORONTO", "province": "ON", "country": "CA", "postalCode": "M5B1B2", "twitter": "None", "instagram": "None", "facebook": "None", "youtube": "None", "website": "None", "summary": "None", "logo": "None", "latitude": 43.65486880209486, "longitude": -79.37603606618966}, "892677162RR0001": {"name": "TORONTO BAPTIST FELLOWSHIP", "designationCode": "C", "categoryCode": "31", "address": "1608 - 297 COLLEGE ST", "city": "TORONTO", "province": "ON", "country": "CA", "postalCode": "M5T0C2", "twitter": "None", "instagram": "None", "facebook": "None", "youtube": "None", "website": "None", "summary": "None", "logo": "None", "latitude": 43.65768483037138, "longitude": -79.40164732234996}, "890061278RR0001": {"name": "TORONTO BAPTIST INTERCULTURAL SERVICES", "designationCode": "C", "categoryCode": "31", "address": "1585 YONGE ST", "city": "TORONTO", "province": "ON", "country": "CA", "postalCode": "M4T1Z9", "twitter": "None", "instagram": "None", "facebook": "None", "youtube": "None", "website": "None", "summary": "None", "logo": "None", "latitude": 43.69044499362336, "longitude": -79.39494619781917}, "894240878RR0001": {"name": "TORONTO BETHEL BIBLE CHURCH", "designationCode": "C", "categoryCode": "39", "address": "116 NORTON AVE.", "city": "NORTH YORK", "province": "ON", "country": "CA", "postalCode": "M2N4A6", "twitter": "None", "instagram": "None", "facebook": "None", "youtube": "None", "website": "None", "summary": "None", "logo": "None", "latitude": 43.773574157943195, "longitude": -79.4063289805816}, "135774271RR0001": {"name": "TORONTO BIBLE CHURCH", "designationCode": "C", "categoryCode": "39", "address": "130 INDUSTRY ST.              UNIT 22", "city": "TORONTO", "province": "ON", "country": "CA", "postalCode": "M6M5G3", "twitter": "None", "instagram": "None", "facebook": "None", "youtube": "None", "website": "None", "summary": "None", "logo": "None", "latitude": 43.69451294061968, "longitude": -79.49522143767682}, "119227486RR0001": {"name": "TORONTO BOTANICAL GARDEN", "designationCode": "C", "categoryCode": "56", "address": "777 LAWRENCE AVENUE EAST", "city": "DON MILLS", "province": "ON", "country": "CA", "postalCode": "M3C1P2", "twitter": "None", "instagram": "None", "facebook": "None", "youtube": "None", "website": "None", "summary": "None", "logo": "None", "latitude": 43.734691542847486, "longitude": -79.35854313503371}, "895577773RR0001": {"name": "TORONTO BREAKTHROUGH TABERNACLE", "designationCode": "C", "categoryCode": "39", "address": "1820 EGLINTON AVENUE WEST", "city": "TORONTO", "province": "ON", "country": "CA", "postalCode": "M6E2H6", "twitter": "None", "instagram": "None", "facebook": "None", "youtube": "None", "website": "None", "summary": "None", "logo": "None", "latitude": 43.695770132407986, "longitude": -79.44999698058162}, "119265924RR0001": {"name": "TORONTO BRIGANTINE INC", "designationCode": "C", "categoryCode": "59", "address": "240 - 585 DUNDAS ST E", "city": "TORONTO", "province": "ON", "country": "CA", "postalCode": "M5A2B7", "twitter": "None", "instagram": "None", "facebook": "None", "youtube": "None", "website": "None", "summary": "None", "logo": "None", "latitude": 43.66027180930821, "longitude": -79.36201567984308}, "121676423RR0001": {"name": "TORONTO BUDDHIST CHURCH", "designationCode": "C", "categoryCode": "35", "address": "1011 SHEPPARD AVE WEST", "city": "TORONTO", "province": "ON", "country": "CA", "postalCode": "M3H2T7", "twitter": "None", "instagram": "None", "facebook": "None", "youtube": "None", "website": "None", "summary": "None", "logo": "None", "latitude": 43.75083190423575, "longitude": -79.46047532566818}, "868903576RR0001": {"name": "TORONTO CAMBODIAN ALLIANCE CHURCH", "designationCode": "C", "categoryCode": "39", "address": "187 KILLIAN ROAD", "city": "MAPLE", "province": "ON", "country": "CA", "postalCode": "L6A1A6", "twitter": "None", "instagram": "None", "facebook": "None", "youtube": "None", "website": "None", "summary": "None", "logo": "None", "latitude": 43.8578932539386, "longitude": -79.52078131167414}, "720884691RR0001": {"name": "TORONTO CAT RESCUE", "designationCode": "C", "categoryCode": "54", "address": "4229C DUNDAS ST W", "city": "ETOBICOKE", "province": "ON", "country": "CA", "postalCode": "M8X1Y3", "twitter": "None", "instagram": "None", "facebook": "None", "youtube": "None", "website": "None", "summary": "None", "logo": "None", "latitude": 43.65973403650948, "longitude": -79.51268585546936}, "107694119RR0001": {"name": "TORONTO CATHOLIC DISTRICT SCHOOL BOARD", "designationCode": "C", "categoryCode": "20", "address": "80 SHEPPARD AVE E", "city": "NORTH YORK", "province": "ON", "country": "CA", "postalCode": "M2N6E8", "twitter": "None", "instagram": "None", "facebook": "None", "youtube": "None", "website": "None", "summary": "None", "logo": "None", "latitude": 43.76228021348571, "longitude": -79.40773851099293}, "873745152RR0001": {"name": "TORONTO CENTRAL BAPTIST CHURCH", "designationCode": "C", "categoryCode": "31", "address": "70 MCGRISKIN RD", "city": "TORONTO", "province": "ON", "country": "CA", "postalCode": "M1S5C5", "twitter": "None", "instagram": "None", "facebook": "None", "youtube": "None", "website": "None", "summary": "None", "logo": "None", "latitude": 43.79441315852013, "longitude": -79.24616559813018}, "107797383RR0082": {"name": "TORONTO CENTRAL SEVENTH-DAY ADVENTIST CHURCH", "designationCode": "C", "categoryCode": "41", "address": "156-162 BENTWORTH AVENUE", "city": "TORONTO", "province": "ON", "country": "CA", "postalCode": "M6A1P7", "twitter": "None", "instagram": "None", "facebook": "None", "youtube": "None", "website": "None", "summary": "None", "logo": "None", "latitude": 43.71998154305557, "longitude": -79.46714589004564}, "119266427RR0001": {"name": "TORONTO CENTRE FOR COMMUNITY LEARNING & DEVELOPMENT", "designationCode": "C", "categoryCode": "21", "address": "540 DUNDAS ST E", "city": "TORONTO", "province": "ON", "country": "CA", "postalCode": "M5A2B3", "twitter": "None", "instagram": "None", "facebook": "None", "youtube": "None", "website": "None", "summary": "None", "logo": "None", "latitude": 43.66006317236994, "longitude": -79.36322665543304}, "119266005RR0001": {"name": "TORONTO CHAMBER SOCIETY", "designationCode": "C", "categoryCode": "22", "address": "401 - 159 RUSSELL HILL RD", "city": "TORONTO", "province": "ON", "country": "CA", "postalCode": "M4V2S9", "twitter": "None", "instagram": "None", "facebook": "None", "youtube": "None", "website": "None", "summary": "None", "logo": "None", "latitude": 43.68167094589979, "longitude": -79.40610506269856}, "855422721RR0001": {"name": "TORONTO CHAMBITT PRESBYTERIAN CHURCH", "designationCode": "C", "categoryCode": "39", "address": "169 - 325 BOGERT AVE", "city": "NORTH YORK", "province": "ON", "country": "CA", "postalCode": "M2N1L8", "twitter": "None", "instagram": "None", "facebook": "None", "youtube": "None", "website": "None", "summary": "None", "logo": "None", "latitude": 43.757356696058835, "longitude": -79.42576662597308}, "893910380RR0001": {"name": "TORONTO CHEDER", "designationCode": "C", "categoryCode": "20", "address": "3995 BATHURST ST", "city": "TORONTO", "province": "ON", "country": "CA", "postalCode": "M3H5V3", "twitter": "None", "instagram": "None", "facebook": "None", "youtube": "None", "website": "None", "summary": "None", "logo": "None", "latitude": 43.74409073550117, "longitude": -79.43563391670057}, "118852631RR0001": {"name": "TORONTO CHILDREN'S CARE INC.", "designationCode": "C", "categoryCode": "11", "address": "240 MCCAUL ST", "city": "TORONTO", "province": "ON", "country": "CA", "postalCode": "M5T1W5", "twitter": "None", "instagram": "None", "facebook": "None", "youtube": "None", "website": "None", "summary": "None", "logo": "None", "latitude": 43.658216319175956, "longitude": -79.39312549252683}, "896190154RR0001": {"name": "TORONTO CHINA BIBLE CHURCH", "designationCode": "C", "categoryCode": "39", "address": "2900 WARDEN AVE               PO BOX 20070", "city": "TORONTO", "province": "ON", "country": "CA", "postalCode": "M1W4B6", "twitter": "None", "instagram": "None", "facebook": "None", "youtube": "None", "website": "None", "summary": "None", "logo": "None", "latitude": 43.79846671998633, "longitude": -79.31660975219654}, "894945633RR0044": {"name": "TORONTO CHINESE ALLIANCE CHURCH", "designationCode": "C", "categoryCode": "39", "address": "77 FIRST AVENUE", "city": "TORONTO", "province": "ON", "country": "CA", "postalCode": "M4M1W7", "twitter": "None", "instagram": "None", "facebook": "None", "youtube": "None", "website": "None", "summary": "None", "logo": "None", "latitude": 43.6652449114491, "longitude": -79.34918478628315}, "816219000RR0001": {"name": "TORONTO CHINESE BAPTIST CHURCH", "designationCode": "C", "categoryCode": "31", "address": "72-78 BEVERLEY STREET", "city": "TORONTO", "province": "ON", "country": "CA", "postalCode": "M5T1Y1", "twitter": "None", "instagram": "None", "facebook": "None", "youtube": "None", "website": "None", "summary": "None", "logo": "None", "latitude": 43.65206129364075, "longitude": -79.39317694145639}, "795805324RR0001": {"name": "TORONTO CHINESE CATERING EVANGELISTIC FELLOWSHIP", "designationCode": "C", "categoryCode": "39", "address": "99 SCARSDALE ROAD", "city": "DON MILLS", "province": "ON", "country": "CA", "postalCode": "M3B2R4", "twitter": "None", "instagram": "None", "facebook": "None", "youtube": "None", "website": "None", "summary": "None", "logo": "None", "latitude": 43.75099403831717, "longitude": -79.35534130495172}, "889834248RR0001": {"name": "TORONTO CHINESE CHRISTIAN PARENTING ASSOCIATION", "designationCode": "C", "categoryCode": "09", "address": "1320 ISLINGTON AVE            SUITE 1607", "city": "TORONTO", "province": "ON", "country": "CA", "postalCode": "M9A5C6", "twitter": "None", "instagram": "None", "facebook": "None", "youtube": "None", "website": "None", "summary": "None", "logo": "None", "latitude": 43.65057723783843, "longitude": -79.52706706463178}, "139906549RR0001": {"name": "TORONTO CHINESE CHRISTIAN SHORT-TERM MISSION TRAINING CENTRE", "designationCode": "C", "categoryCode": "39", "address": "#63 SILVER STAR BLVD          UNIT D6", "city": "SCARBOROUGH", "province": "ON", "country": "CA", "postalCode": "M1V5E5", "twitter": "None", "instagram": "None", "facebook": "None", "youtube": "None", "website": "None", "summary": "None", "logo": "None", "latitude": 43.806541220122156, "longitude": -79.29099602873787}, "891494247RR0001": {"name": "TORONTO CHINESE COMMUNITY ENDOWMENT", "designationCode": "A", "categoryCode": "03", "address": "206 - 302 SPADINA AVE", "city": "TORONTO", "province": "ON", "country": "CA", "postalCode": "M5T2E7", "twitter": "None", "instagram": "None", "facebook": "None", "youtube": "None", "website": "None", "summary": "None", "logo": "None", "latitude": 43.65326574216628, "longitude": -79.39833674398392}, "108114042RR0001": {"name": "TORONTO CHINESE DISCIPLES CHURCH", "designationCode": "C", "categoryCode": "39", "address": "BOX 87203 2942 FINCH AVE. EAST", "city": "SCARBOROUGH", "province": "ON", "country": "CA", "postalCode": "M1W3Z2", "twitter": "None", "instagram": "None", "facebook": "None", "youtube": "None", "website": "None", "summary": "None", "logo": "None", "latitude": 43.79372068106577, "longitude": -79.32906590995779}, "891730244RR0001": {"name": "TORONTO CHINESE EVANGELICAL CHURCH", "designationCode": "C", "categoryCode": "39", "address": "7676 WOODBINE AVENUE          SUITE 120", "city": "MARKHAM", "province": "ON", "country": "CA", "postalCode": "L3R2N2", "twitter": "None", "instagram": "None", "facebook": "None", "youtube": "None", "website": "None", "summary": "None", "logo": "None", "latitude": 43.83018215984779, "longitude": -79.3529975793747}, "891622060RR0001": {"name": "TORONTO CHINESE EVANGELICAL MINISTERIAL FELLOWSHIP", "designationCode": "C", "categoryCode": "47", "address": "25-145 ROYAL CREST CRT", "city": "MARKHAM", "province": "ON", "country": "CA", "postalCode": "L3R9Z4", "twitter": "None", "instagram": "None", "facebook": "None", "youtube": "None", "website": "None", "summary": "None", "logo": "None", "latitude": 43.84116291750863, "longitude": -79.32536487382443}, "895835445RR0001": {"name": "TORONTO CHINESE GOOD NEWS CHURCH", "designationCode": "C", "categoryCode": "36", "address": "2212-8 HILLCREST AVE", "city": "NORTH YORK", "province": "ON", "country": "CA", "postalCode": "M2N6Y6", "twitter": "None", "instagram": "None", "facebook": "None", "youtube": "None", "website": "None", "summary": "None", "logo": "None"}, "131888109RR0001": {"name": "TORONTO CHINESE LUTHERAN CHURCH", "designationCode": "C", "categoryCode": "32", "address": "2850 MIDLAND AVE", "city": "TORONTO", "province": "ON", "country": "CA", "postalCode": "M1S1S4", "twitter": "None", "instagram": "None", "facebook": "None", "youtube": "None", "website": "None", "summary": "None", "logo": "None", "latitude": 43.79954342463509, "longitude": -79.284534124675}, "108114091RR0001": {"name": "TORONTO CHINESE METHODIST CHURCH", "designationCode": "C", "categoryCode": "39", "address": "8 METROPOLITAN ROAD", "city": "SCARBOROUGH", "province": "ON", "country": "CA", "postalCode": "M1R2T5", "twitter": "None", "instagram": "None", "facebook": "None", "youtube": "None", "website": "None", "summary": "None", "logo": "None", "latitude": 43.76745019242255, "longitude": -79.30185946673181}, "107797383RR0064": {"name": "TORONTO CHINESE SEVENTH-DAY ADVENTIST CHURCH", "designationCode": "C", "categoryCode": "41", "address": "3988 MIDLAND AVENUE", "city": "SCARBOROUGH", "province": "ON", "country": "CA", "postalCode": "M1V4S8", "twitter": "None", "instagram": "None", "facebook": "None", "youtube": "None", "website": "None", "summary": "None", "logo": "None", "latitude": 43.82099315875128, "longitude": -79.29508397088675}, "127704187RR0001": {"name": "TORONTO CHINESE YOUNG MENS CHRISTIAN INSTITUTE", "designationCode": "C", "categoryCode": "20", "address": "33 ROSEMARY LANE", "city": "TORONTO", "province": "ON", "country": "CA", "postalCode": "M5P3E7", "twitter": "None", "instagram": "None", "facebook": "None", "youtube": "None", "website": "None", "summary": "None", "logo": "None", "latitude": 43.700345139621355, "longitude": -79.42478632015691}, "827081159RR0001": {"name": "TORONTO CHOONGHYUN PRESBYTERIAN CHURCH", "designationCode": "C", "categoryCode": "37", "address": "4263 JEFTON CRESCENT", "city": "MISSISSAUGA", "province": "ON", "country": "CA", "postalCode": "L5L1Z2", "twitter": "None", "instagram": "None", "facebook": "None", "youtube": "None", "website": "None", "summary": "None", "logo": "None", "latitude": 43.5408065323159, "longitude": -79.6979427171793}, "119266138RR0001": {"name": "TORONTO CHRISTADELPHIAN ASSEMBLY (CENTRAL)", "designationCode": "C", "categoryCode": "39", "address": "728 CHURCH ST.", "city": "TORONTO", "province": "ON", "country": "CA", "postalCode": "M4W2M6", "twitter": "None", "instagram": "None", "facebook": "None", "youtube": "None", "website": "None", "summary": "None", "logo": "None", "latitude": 43.672191130157614, "longitude": -79.38394930197927}, "830427860RR0001": {"name": "TORONTO CHRISTADELPHIANS", "designationCode": "C", "categoryCode": "39", "address": "519 ARROWHEAD ROAD", "city": "MISSISSAUGA", "province": "ON", "country": "CA", "postalCode": "L5H1V5", "twitter": "None", "instagram": "None", "facebook": "None", "youtube": "None", "website": "None", "summary": "None", "logo": "None", "latitude": 43.55259023287544, "longitude": -79.60578132142632}, "824210926RR0001": {"name": "TORONTO CHRISTIAN ALLIANCE CHURCH", "designationCode": "C", "categoryCode": "37", "address": "607 GERRARD ST.E.             PO BOX 75507", "city": "TORONTO", "province": "ON", "country": "CA", "postalCode": "M4M1Y2", "twitter": "None", "instagram": "None", "facebook": "None", "youtube": "None", "website": "None", "summary": "None", "logo": "None", "latitude": 43.66566183484345, "longitude": -79.35149795392121}, "888176849RR0001": {"name": "TORONTO CHRISTIAN CENTRE", "designationCode": "C", "categoryCode": "39", "address": "50 GERVAIS DRIVE", "city": "DON MILLS", "province": "ON", "country": "CA", "postalCode": "M3C1Z3", "twitter": "None", "instagram": "None", "facebook": "None", "youtube": "None", "website": "None", "summary": "None", "logo": "None", "latitude": 43.72524896808814, "longitude": -79.33757831660755}, "108114133RR0001": {"name": "TORONTO CHRISTIAN RESOURCE CENTRE", "designationCode": "C", "categoryCode": "09", "address": "40 OAK STREET", "city": "TORONTO", "province": "ON", "country": "CA", "postalCode": "M5A2C6", "twitter": "None", "instagram": "None", "facebook": "None", "youtube": "None", "website": "None", "summary": "None", "logo": "None", "latitude": 43.66105219790514, "longitude": -79.36506584569214}, "872608070RR0001": {"name": "TORONTO CHRISTIAN WORSHIP CENTER", "designationCode": "C", "categoryCode": "39", "address": "P.O. BOX 64 STATION C", "city": "TORONTO", "province": "ON", "country": "CA", "postalCode": "M6J3M7", "twitter": "None", "instagram": "None", "facebook": "None", "youtube": "None", "website": "None", "summary": "None", "logo": "None", "latitude": 43.64854800000006, "longitude": -79.41777199999993}, "864399415RR0001": {"name": "TORONTO CHRISTIAN WORSHIP CENTRE INTERNATIONAL MINISTRIES", "designationCode": "C", "categoryCode": "39", "address": "931 MARYGRACE COURT", "city": "MISSISSAUGA", "province": "ON", "country": "CA", "postalCode": "L5V2X7", "twitter": "None", "instagram": "None", "facebook": "None", "youtube": "None", "website": "None", "summary": "None", "logo": "None", "latitude": 43.60161810519933, "longitude": -79.6906415362397}, "119266179RR0001": {"name": "TORONTO CHRISTS CONGREGATION", "designationCode": "C", "categoryCode": "39", "address": "217 FINCH AVENUE EAST", "city": "WILLOWDALE", "province": "ON", "country": "CA", "postalCode": "M2N4S1", "twitter": "None", "instagram": "None", "facebook": "None", "youtube": "None", "website": "None", "summary": "None", "logo": "None", "latitude": 43.78316884205682, "longitude": -79.39998537010217}, "119266187RR0001": {"name": "TORONTO CHUNG WAH CHINESE SCHOOL", "designationCode": "C", "categoryCode": "20", "address": "21 - 155 EAST BEAVER CREEK RD", "city": "RICHMOND HILL", "province": "ON", "country": "CA", "postalCode": "L4B2N1", "twitter": "None", "instagram": "None", "facebook": "None", "youtube": "None", "website": "None", "summary": "None", "logo": "None", "latitude": 43.85365726780647, "longitude": -79.37809699785268}, "106990096RR0001": {"name": "TORONTO CITY CHURCH", "designationCode": "C", "categoryCode": "39", "address": "36 CURITY AVE.", "city": "TORONTO", "province": "ON", "country": "CA", "postalCode": "M4B0A2", "twitter": "None", "instagram": "None", "facebook": "None", "youtube": "None", "website": "None", "summary": "None", "logo": "None", "latitude": 43.710482385826985, "longitude": -79.3171599854004}, "888206067RR0001": {"name": "TORONTO CITY OPERA", "designationCode": "C", "categoryCode": "22", "address": "27 EVERINGHAM COURT", "city": "TORONTO", "province": "ON", "country": "CA", "postalCode": "M2M2J6", "twitter": "None", "instagram": "None", "facebook": "None", "youtube": "None", "website": "None", "summary": "None", "logo": "None", "latitude": 43.79043775102441, "longitude": -79.41634812447346}, "886593854RR0001": {"name": "TORONTO COMMUNITY & CULTURE CENTRE", "designationCode": "C", "categoryCode": "23", "address": "UNIT 217                      222 SPANDINA AVENUE", "city": "TORONTO", "province": "ON", "country": "CA", "postalCode": "M5T3B3", "twitter": "None", "instagram": "None", "facebook": "None", "youtube": "None", "website": "None", "summary": "None", "logo": "None", "latitude": 43.65110001110854, "longitude": -79.39716996999269}, "118967553RR0001": {"name": "TORONTO COMMUNITY EMPLOYMENT SERVICES", "designationCode": "C", "categoryCode": "09", "address": "807 - 150 EGLINTON AVE E", "city": "TORONTO", "province": "ON", "country": "CA", "postalCode": "M4P1E8", "twitter": "None", "instagram": "None", "facebook": "None", "youtube": "None", "website": "None", "summary": "None", "logo": "None", "latitude": 43.7089009100495, "longitude": -79.38780176683875}, "887495596RR0001": {"name": "TORONTO COMMUNITY HOSTELS", "designationCode": "C", "categoryCode": "09", "address": "191 SPADINA ROAD", "city": "TORONTO", "province": "ON", "country": "CA", "postalCode": "M5R2T9", "twitter": "None", "instagram": "None", "facebook": "None", "youtube": "None", "website": "None", "summary": "None", "logo": "None", "latitude": 43.67355067361068, "longitude": -79.40656100357802}, "120341193RR0001": {"name": "TORONTO COMMUNITY-VIDEOTEX", "designationCode": "C", "categoryCode": "21", "address": "1 - 950 DUPONT ST", "city": "TORONTO", "province": "ON", "country": "CA", "postalCode": "M6H1Z2", "twitter": "None", "instagram": "None", "facebook": "None", "youtube": "None", "website": "None", "summary": "None", "logo": "None", "latitude": 43.66989318347843, "longitude": -79.43187620358928}, "108100215RR0001": {"name": "TORONTO CONFERENCE THE UNITED CHURCH OF CANADA", "designationCode": "C", "categoryCode": "44", "address": "65 MAYALL AVE", "city": "DOWNSVIEW", "province": "ON", "country": "CA", "postalCode": "M3L1E7", "twitter": "None", "instagram": "None", "facebook": "None", "youtube": "None", "website": "None", "summary": "None", "logo": "None", "latitude": 43.72722110964273, "longitude": -79.5187085040107}, "105255244RR0001": {"name": "TORONTO COUNCIL FIRE NATIVE CULTURAL CENTRE", "designationCode": "C", "categoryCode": "09", "address": "439 DUNDAS ST. EAST", "city": "TORONTO", "province": "ON", "country": "CA", "postalCode": "M5A2B1", "twitter": "None", "instagram": "None", "facebook": "None", "youtube": "None", "website": "None", "summary": "None", "logo": "None", "latitude": 43.65932987870053, "longitude": -79.3662963373536}, "119266328RR0001": {"name": "TORONTO COUNCIL KNIGHTS OF COLUMBUS 1388 CHARITABLE WELFARE TRUST", "designationCode": "A", "categoryCode": "65", "address": "250 DAVISVILLE AVENUE         SUITE 127", "city": "TORONTO", "province": "ON", "country": "CA", "postalCode": "M4S1H2", "twitter": "None", "instagram": "None", "facebook": "None", "youtube": "None", "website": "None", "summary": "None", "logo": "None", "latitude": 43.70043416515655, "longitude": -79.38638595504638}, "119266344RR0001": {"name": "TORONTO CULTURAL ADVISORY CORPORATION", "designationCode": "A", "categoryCode": "23", "address": "200 - 26 GRAND TRUNK CRES", "city": "TORONTO", "province": "ON", "country": "CA", "postalCode": "M5J3A9", "twitter": "None", "instagram": "None", "facebook": "None", "youtube": "None", "website": "None", "summary": "None", "logo": "None", "latitude": 43.64201849847078, "longitude": -79.38255500848277}, "119266351RR0001": {"name": "TORONTO DANCE THEATRE", "designationCode": "C", "categoryCode": "22", "address": "80 WINCHESTER ST.", "city": "TORONTO", "province": "ON", "country": "CA", "postalCode": "M4X1B2", "twitter": "None", "instagram": "None", "facebook": "None", "youtube": "None", "website": "None", "summary": "None", "logo": "None", "latitude": 43.66625313962134, "longitude": -79.3668887647873}, "119266369RR0001": {"name": "TORONTO DIOCESAN ANGLICAN CHURCH WOMEN", "designationCode": "C", "categoryCode": "49", "address": "135 ADELAIDE STREET EAST", "city": "TORONTO", "province": "ON", "country": "CA", "postalCode": "M5C1L8", "twitter": "None", "instagram": "None", "facebook": "None", "youtube": "None", "website": "None", "summary": "None", "logo": "None", "latitude": 43.651317845951944, "longitude": -79.37416675353457}, "130167281RR0001": {"name": "TORONTO DISTRICT CHRISTIAN HIGH SCHOOL", "designationCode": "C", "categoryCode": "20", "address": "377 WOODBRIDGE AVE.", "city": "WOODBRIDGE", "province": "ON", "country": "CA", "postalCode": "L4L2V7", "twitter": "None", "instagram": "None", "facebook": "None", "youtube": "None", "website": "None", "summary": "None", "logo": "None", "latitude": 43.78371715290729, "longitude": -79.60037941921958}, "895788222RR0001": {"name": "TORONTO DISTRICT SCHOOL BOARD", "designationCode": "C", "categoryCode": "20", "address": "5050 YONGE STREET", "city": "TORONTO", "province": "ON", "country": "CA", "postalCode": "M2N5N8", "twitter": "None", "instagram": "None", "facebook": "None", "youtube": "None", "website": "None", "summary": "None", "logo": "None", "latitude": 43.7669130910324, "longitude": -79.41232595992248}, "129690269RR0001": {"name": "TORONTO DOWNTOWN JAZZ SOCIETY", "designationCode": "C", "categoryCode": "22", "address": "82 BLEECKER STREET", "city": "TORONTO", "province": "ON", "country": "CA", "postalCode": "M4X1L8", "twitter": "None", "instagram": "None", "facebook": "None", "youtube": "None", "website": "None", "summary": "None", "logo": "None", "latitude": 43.66492042853023, "longitude": -79.37282549584506}, "892712969RR0001": {"name": "TORONTO EARLSCOURT ROTARY CLUB CHARITABLE FUND", "designationCode": "C", "categoryCode": "65", "address": "P.O. BOX 58127                770 LAWRENCE AVE W.", "city": "TORONTO", "province": "ON", "country": "CA", "postalCode": "M6A3C8", "twitter": "None", "instagram": "None", "facebook": "None", "youtube": "None", "website": "None", "summary": "None", "logo": "None", "latitude": 43.71441624291607, "longitude": -79.45219562464635}, "119266419RR0001": {"name": "TORONTO EARLY MUSIC PLAYERS ORGANIZATION", "designationCode": "C", "categoryCode": "22", "address": "90 WAYLAND AVENUE", "city": "TORONTO", "province": "ON", "country": "CA", "postalCode": "M4E3C9", "twitter": "None", "instagram": "None", "facebook": "None", "youtube": "None", "website": "None", "summary": "None", "logo": "None", "latitude": 43.684542545097834, "longitude": -79.29583416737826}, "868468620RR0001": {"name": "TORONTO EAST ROTARY CLUB FOUNDATION", "designationCode": "C", "categoryCode": "03", "address": "10 BEAMISH DRIVE", "city": "ETOBICOKE", "province": "ON", "country": "CA", "postalCode": "M9B3P3", "twitter": "None", "instagram": "None", "facebook": "None", "youtube": "None", "website": "None", "summary": "None", "logo": "None", "latitude": 43.64070866887882, "longitude": -79.53675100779029}, "107797383RR0004": {"name": "TORONTO EAST SEVENTH-DAY ADVENTIST CHURCH", "designationCode": "C", "categoryCode": "41", "address": "25 CHANNEL NINE CRT", "city": "SCARBOROUGH", "province": "ON", "country": "CA", "postalCode": "M1S4B5", "twitter": "None", "instagram": "None", "facebook": "None", "youtube": "None", "website": "None", "summary": "None", "logo": "None", "latitude": 43.78427104218364, "longitude": -79.25644630656691}, "119266468RR0001": {"name": "TORONTO EDUCATIONAL OPPORTUNITY FUND", "designationCode": "C", "categoryCode": "21", "address": "BOX 248                       189 DUNDAS STREET WEST", "city": "TORONTO", "province": "ON", "country": "CA", "postalCode": "M5G1C7", "twitter": "None", "instagram": "None", "facebook": "None", "youtube": "None", "website": "None", "summary": "None", "logo": "None", "latitude": 43.655036878700514, "longitude": -79.38675775353457}, "889208708RR0001": {"name": "TORONTO ELDERS' CHOIR", "designationCode": "C", "categoryCode": "22", "address": "183 LUCA AVENUE", "city": "MAPLE", "province": "ON", "country": "CA", "postalCode": "L6A0X4", "twitter": "None", "instagram": "None", "facebook": "None", "youtube": "None", "website": "None", "summary": "None", "logo": "None", "latitude": 43.864871110767886, "longitude": -79.48111343989852}, "131303141RR0001": {"name": "TORONTO ENTOMOLOGISTS' ASSOCIATION", "designationCode": "C", "categoryCode": "21", "address": "49 NORTHFOREST TRAIL", "city": "KITCHENER", "province": "ON", "country": "CA", "postalCode": "N2N2Y7", "twitter": "None", "instagram": "None", "facebook": "None", "youtube": "None", "website": "None", "summary": "None", "logo": "None", "latitude": 43.440986661117186, "longitude": -80.54144982558127}, "862977089RR0001": {"name": "TORONTO ERUV CORPORATION", "designationCode": "C", "categoryCode": "49", "address": "76 PRUE AVENUE", "city": "TORONTO", "province": "ON", "country": "CA", "postalCode": "M6B1R5", "twitter": "None", "instagram": "None", "facebook": "None", "youtube": "None", "website": "None", "summary": "None", "logo": "None", "latitude": 43.7083601579432, "longitude": -79.43328928740831}, "893849869RR0001": {"name": "TORONTO EVANGEL MISSIONARY CHURCH", "designationCode": "C", "categoryCode": "39", "address": "26 TOOKLEA CRESCENT", "city": "TORONTO", "province": "ON", "country": "CA", "postalCode": "M1S4C1", "twitter": "None", "instagram": "None", "facebook": "None", "youtube": "None", "website": "None", "summary": "None", "logo": "None", "latitude": 43.80610088095089, "longitude": -79.26442931738696}, "891587503RR0001": {"name": "TORONTO EVANGELICAL CHURCH OF THE WORD", "designationCode": "C", "categoryCode": "39", "address": "903-6000 YONGE STREET", "city": "TORONTO", "province": "ON", "country": "CA", "postalCode": "M2M3W1", "twitter": "None", "instagram": "None", "facebook": "None", "youtube": "None", "website": "None", "summary": "None", "logo": "None", "latitude": 43.78839620621503, "longitude": -79.4177285794043}, "119288918RR0080": {"name": "TORONTO FAIRVIEW CONGREGATION OF JEHOVAH'S WITNESSES", "designationCode": "C", "categoryCode": "61", "address": "846 PROGRESS AVE", "city": "SCARBOROUGH", "province": "ON", "country": "CA", "postalCode": "M1H2X5", "twitter": "None", "instagram": "None", "facebook": "None", "youtube": "None", "website": "None", "summary": "None", "logo": "None", "latitude": 43.780682460470736, "longitude": -79.23949355551385}, "880579800RR0001": {"name": "TORONTO FAITH CHURCH", "designationCode": "C", "categoryCode": "39", "address": "21 BRUCEDALE CRESCENT", "city": "TORONTO", "province": "ON", "country": "CA", "postalCode": "M2K2C6", "twitter": "None", "instagram": "None", "facebook": "None", "youtube": "None", "website": "None", "summary": "None", "logo": "None", "latitude": 43.785052710802674, "longitude": -79.3880421727453}, "870749777RR0001": {"name": "TORONTO FARSI SCHOOL", "designationCode": "C", "categoryCode": "20", "address": "#206, 5635 YONGE STREET", "city": "TORONTO", "province": "ON", "country": "CA", "postalCode": "M2M3S9", "twitter": "None", "instagram": "None", "facebook": "None", "youtube": "None", "website": "None", "summary": "None", "logo": "None", "latitude": 43.78046758080675, "longitude": -79.41566483900866}, "811637347RR0001": {"name": "TORONTO FESTIVAL OF ARTS, CULTURE AND CREATIVITY", "designationCode": "C", "categoryCode": "22", "address": "180 SHAW STREET, SUITE 301", "city": "TORONTO", "province": "ON", "country": "CA", "postalCode": "M6J2W5", "twitter": "None", "instagram": "None", "facebook": "None", "youtube": "None", "website": "None", "summary": "None", "logo": "None", "latitude": 43.64695199694158, "longitude": -79.41723599933617}, "119266526RR0001": {"name": "TORONTO FIELD NATURALISTS", "designationCode": "C", "categoryCode": "54", "address": "2 - 2449 YONGE ST", "city": "TORONTO", "province": "ON", "country": "CA", "postalCode": "M4P2E7", "twitter": "None", "instagram": "None", "facebook": "None", "youtube": "None", "website": "None", "summary": "None", "logo": "None", "latitude": 43.71101523258698, "longitude": -79.39922476738435}, "134176155RR0001": {"name": "TORONTO FINNISH LANGUAGE SCHOOL", "designationCode": "C", "categoryCode": "20", "address": "20 LYNEDOCK CRESCENT", "city": "TORONTO", "province": "ON", "country": "CA", "postalCode": "M3A2A9", "twitter": "None", "instagram": "None", "facebook": "None", "youtube": "None", "website": "None", "summary": "None", "logo": "None", "latitude": 43.76175988233586, "longitude": -79.33217672274787}, "119266534RR0001": {"name": "TORONTO FINNISH-CANADIAN SENIORS CENTRE", "designationCode": "C", "categoryCode": "01", "address": "795 EGLINTON AVE.E.", "city": "TORONTO", "province": "ON", "country": "CA", "postalCode": "M4G4E4", "twitter": "None", "instagram": "None", "facebook": "None", "youtube": "None", "website": "None", "summary": "None", "logo": "None", "latitude": 43.71326285648352, "longitude": -79.36623421259168}, "833624075RR0001": {"name": "TORONTO FIRST KOREAN EVANGELICAL CHURCH", "designationCode": "C", "categoryCode": "39", "address": "408 CUMMER AVE", "city": "NORTH YORK", "province": "ON", "country": "CA", "postalCode": "M2M2G2", "twitter": "None", "instagram": "None", "facebook": "None", "youtube": "None", "website": "None", "summary": "None", "logo": "None", "latitude": 43.79117612519463, "longitude": -79.39849800611684}, "108122359RR0001": {"name": "TORONTO FORMOSAN PRESBYTERIAN CHURCH", "designationCode": "C", "categoryCode": "37", "address": "31 EASTWOOD RD", "city": "TORONTO", "province": "ON", "country": "CA", "postalCode": "M4L2C4", "twitter": "None", "instagram": "None", "facebook": "None", "youtube": "None", "website": "None", "summary": "None", "logo": "None", "latitude": 43.67310678377298, "longitude": -79.31817684748114}, "889036455RR0001": {"name": "TORONTO FOUNDATION FOR STUDENT SUCCESS", "designationCode": "C", "categoryCode": "21", "address": "#2 TRETHEWEY DRIVE            4TH FLOOR", "city": "TORONTO", "province": "ON", "country": "CA", "postalCode": "M6M4A8", "twitter": "None", "instagram": "None", "facebook": "None", "youtube": "None", "website": "None", "summary": "None", "logo": "None", "latitude": 43.690899499855774, "longitude": -79.4754633079519}, "108101056RR0001": {"name": "TORONTO FRENCH SCHOOL", "designationCode": "C", "categoryCode": "20", "address": "306 LAWRENCE AVE E", "city": "NORTH YORK", "province": "ON", "country": "CA", "postalCode": "M4N1T7", "twitter": "None", "instagram": "None", "facebook": "None", "youtube": "None", "website": "None", "summary": "None", "logo": "None", "latitude": 43.728010971983274, "longitude": -79.38422625491954}, "123864068RR0001": {"name": "TORONTO GENERAL & WESTERN HOSPITAL FOUNDATION", "designationCode": "A", "categoryCode": "13", "address": "5S-801, 190 ELIZABETH STREET  R. FRASER ELLIOTT BUILDING", "city": "TORONTO", "province": "ON", "country": "CA", "postalCode": "M5G2C4", "twitter": "None", "instagram": "None", "facebook": "None", "youtube": "None", "website": "None", "summary": "None", "logo": "None", "latitude": 43.65999899999999, "longitude": -79.387218}, "107797383RR0094": {"name": "TORONTO GHANAIAN SEVENTH-DAY ADVENTIST CHURCH", "designationCode": "C", "categoryCode": "41", "address": "PO BOX 506, STATION B", "city": "ETOBICOKE", "province": "ON", "country": "CA", "postalCode": "M9W5L4", "twitter": "None", "instagram": "None", "facebook": "None", "youtube": "None", "website": "None", "summary": "None", "logo": "None", "latitude": 43.71154800000005, "longitude": -79.58452399999993}, "119266583RR0001": {"name": "TORONTO GOSPEL LIGHTHOUSE", "designationCode": "C", "categoryCode": "39", "address": "625 KINGSTON RD W", "city": "AJAX", "province": "ON", "country": "CA", "postalCode": "L1S6L8", "twitter": "None", "instagram": "None", "facebook": "None", "youtube": "None", "website": "None", "summary": "None", "logo": "None"}, "891170946RR0001": {"name": "TORONTO GOSPEL MINISTRIES", "designationCode": "C", "categoryCode": "39", "address": "6-250 REGINA RD", "city": "VAUGHAN", "province": "ON", "country": "CA", "postalCode": "L4L8N2", "twitter": "None", "instagram": "None", "facebook": "None", "youtube": "None", "website": "None", "summary": "None", "logo": "None", "latitude": 43.767835942264455, "longitude": -79.61122787529538}, "894945633RR0040": {"name": "TORONTO GRACE ALLIANCE CHURCH", "designationCode": "C", "categoryCode": "39", "address": "311 WILSON HEIGHTS BLVD", "city": "NORTH YORK", "province": "ON", "country": "CA", "postalCode": "M3H2V3", "twitter": "None", "instagram": "None", "facebook": "None", "youtube": "None", "website": "None", "summary": "None", "logo": "None", "latitude": 43.7396480044434, "longitude": -79.45121975740105}, "857519722RR0001": {"name": "TORONTO GRACE HARVEST CHURCH", "designationCode": "C", "categoryCode": "39", "address": "8-20 HAINFORD ST", "city": "TORONTO", "province": "ON", "country": "CA", "postalCode": "M1E4Y5", "twitter": "None", "instagram": "None", "facebook": "None", "youtube": "None", "website": "None", "summary": "None", "logo": "None", "latitude": 43.76859614019826, "longitude": -79.17487676576825}, "810863340RR0001": {"name": "TORONTO GRACE OF GOD SPANISH CHURCH OF THE NAZARENE", "designationCode": "C", "categoryCode": "39", "address": "624 ANNETTE ST.", "city": "TORONTO", "province": "ON", "country": "CA", "postalCode": "M6S2C4", "twitter": "None", "instagram": "None", "facebook": "None", "youtube": "None", "website": "None", "summary": "None", "logo": "None", "latitude": 43.65960715794319, "longitude": -79.48207837122736}, "890229099RR0001": {"name": "TORONTO GREEN COMMUNITY INC.", "designationCode": "C", "categoryCode": "59", "address": "PO BOX 26036                  BROADWAY PO", "city": "TORONTO", "province": "ON", "country": "CA", "postalCode": "M4P0A8", "twitter": "None", "instagram": "None", "facebook": "None", "youtube": "None", "website": "None", "summary": "None", "logo": "None", "latitude": 43.71299180227739, "longitude": -79.38187175024669}, "811100148RR0001": {"name": "TORONTO HANBIT PRESBYTERIAN CHURCH", "designationCode": "C", "categoryCode": "37", "address": "401-210 MARKLAND DRIVE", "city": "ETOBICOKE", "province": "ON", "country": "CA", "postalCode": "M9C1R2", "twitter": "None", "instagram": "None", "facebook": "None", "youtube": "None", "website": "None", "summary": "None", "logo": "None", "latitude": 43.62960851018486, "longitude": -79.58027376571093}, "856672084RR0001": {"name": "TORONTO HANUMAN MANDIR CULTURAL CENTRE", "designationCode": "C", "categoryCode": "48", "address": "204 - 2970 JANE ST", "city": "NORTH YORK", "province": "ON", "country": "CA", "postalCode": "M3N2V5", "twitter": "None", "instagram": "None", "facebook": "None", "youtube": "None", "website": "None", "summary": "None", "logo": "None", "latitude": 43.755564249495215, "longitude": -79.51726710551644}, "899377824RR0001": {"name": "TORONTO HARVEST MISSIONARY CHURCH", "designationCode": "C", "categoryCode": "39", "address": "1180 BELLAMY ROAD", "city": "SCARBOROUGH", "province": "ON", "country": "CA", "postalCode": "M1H1H2", "twitter": "None", "instagram": "None", "facebook": "None", "youtube": "None", "website": "None", "summary": "None", "logo": "None", "latitude": 43.7791465850598, "longitude": -79.24351523734748}, "874614001RR0001": {"name": "TORONTO HERITAGE DANCE", "designationCode": "C", "categoryCode": "22", "address": "476 PARLIAMENT STREET         SECOND FLOOR", "city": "TORONTO", "province": "ON", "country": "CA", "postalCode": "M4X1P2", "twitter": "None", "instagram": "None", "facebook": "None", "youtube": "None", "website": "None", "summary": "None", "logo": "None", "latitude": 43.66447262891686, "longitude": -79.3680932184487}}