{"106833585RR0001": {"name": "CALVIN PRESBYTERIAN CHURCH", "designationCode": "C", "categoryCode": "37", "address": "1509 STILLBROOK", "city": "SUDBURY", "province": "ON", "country": "CA", "postalCode": "P3A4B2", "twitter": "None", "instagram": "None", "facebook": "None", "youtube": "None", "website": "None", "summary": "None", "logo": "None", "latitude": 46.53065564104001, "longitude": -80.92959546076355}, "106833593RR0001": {"name": "CALVIN PRESBYTERIAN CHURCH", "designationCode": "C", "categoryCode": "37", "address": "350 SURREY STREET", "city": "THUNDER BAY", "province": "ON", "country": "CA", "postalCode": "P7A1K1", "twitter": "None", "instagram": "None", "facebook": "None", "youtube": "None", "website": "None", "summary": "None", "logo": "None", "latitude": 48.46618552596793, "longitude": -89.1856937514571}, "118825942RR0001": {"name": "CALVIN PRESBYTERIAN CHURCH", "designationCode": "A", "categoryCode": "37", "address": "735 HAY COVE RD", "city": "ST PETERS", "province": "NS", "country": "CA", "postalCode": "B0E3B0", "twitter": "None", "instagram": "None", "facebook": "None", "youtube": "None", "website": "None", "summary": "None", "logo": "None", "latitude": 45.52563061868399, "longitude": -61.08949650251825}, "118825959RR0001": {"name": "CALVIN PRESBYTERIAN CHURCH", "designationCode": "C", "categoryCode": "37", "address": "143 EAST RIVER EAST SIDE RD.", "city": "SUNNY BRAE", "province": "NS", "country": "CA", "postalCode": "B0K1T0", "twitter": "None", "instagram": "None", "facebook": "None", "youtube": "None", "website": "None", "summary": "None", "logo": "None", "latitude": 45.402425550637766, "longitude": -62.50561458243404}, "118825991RR0001": {"name": "CALVIN PRESBYTERIAN CHURCH", "designationCode": "C", "categoryCode": "37", "address": "248 WESTMOUNT RD. EAST", "city": "KITCHENER", "province": "ON", "country": "CA", "postalCode": "N2M4Z1", "twitter": "None", "instagram": "None", "facebook": "None", "youtube": "None", "website": "None", "summary": "None", "logo": "None", "latitude": 43.427167678342535, "longitude": -80.5059580790585}, "118826049RR0001": {"name": "CALVIN PRESBYTERIAN CHURCH", "designationCode": "C", "categoryCode": "37", "address": "95 KEEWATIN ST.", "city": "WINNIPEG", "province": "MB", "country": "CA", "postalCode": "R3E3C7", "twitter": "None", "instagram": "None", "facebook": "None", "youtube": "None", "website": "None", "summary": "None", "logo": "None", "latitude": 49.92011961226845, "longitude": -97.19496787549787}, "118826056RR0001": {"name": "CALVIN PRESBYTERIAN CHURCH", "designationCode": "C", "categoryCode": "37", "address": "33911 HAZELWOOD AVE", "city": "ABBOTSFORD", "province": "BC", "country": "CA", "postalCode": "V2S7V2", "twitter": "None", "instagram": "None", "facebook": "None", "youtube": "None", "website": "None", "summary": "None", "logo": "None", "latitude": 49.06372351659017, "longitude": -122.285484}, "123715021RR0001": {"name": "CALVIN PRESBYTERIAN CHURCH", "designationCode": "C", "categoryCode": "37", "address": "26 DELISLE AVE", "city": "TORONTO", "province": "ON", "country": "CA", "postalCode": "M4V1S5", "twitter": "None", "instagram": "None", "facebook": "None", "youtube": "None", "website": "None", "summary": "None", "logo": "None", "latitude": 43.6888922240173, "longitude": -79.39576537942166}, "895259596RR0001": {"name": "CALVIN PRESBYTERIAN CHURCH", "designationCode": "C", "categoryCode": "37", "address": "P.O. BOX 116", "city": "DELHI", "province": "ON", "country": "CA", "postalCode": "N4B2W8", "twitter": "None", "instagram": "None", "facebook": "None", "youtube": "None", "website": "None", "summary": "None", "logo": "None", "latitude": 42.85183200000006, "longitude": -80.49284449999993}, "106833643RR0001": {"name": "CALVIN UNITED CHURCH", "designationCode": "C", "categoryCode": "44", "address": "276 CHURCH STREET", "city": "PEMBROKE", "province": "ON", "country": "CA", "postalCode": "K8A4L2", "twitter": "None", "instagram": "None", "facebook": "None", "youtube": "None", "website": "None", "summary": "None", "logo": "None", "latitude": 45.82470125534135, "longitude": -77.11478195408243}, "118826064RR0001": {"name": "CALVIN UNITED CHURCH", "designationCode": "C", "categoryCode": "44", "address": "12 O'CONNELL DRIVE", "city": "PORTERS LAKE", "province": "NS", "country": "CA", "postalCode": "B3E1E8", "twitter": "None", "instagram": "None", "facebook": "None", "youtube": "None", "website": "None", "summary": "None", "logo": "None", "latitude": 44.7383078198398, "longitude": -63.31849658491556}, "118826098RR0001": {"name": "CALYPSO FOUNDATION", "designationCode": "C", "categoryCode": "59", "address": "PO BOX 917", "city": "LEWISPORTE", "province": "NL", "country": "CA", "postalCode": "A0G3A0", "twitter": "None", "instagram": "None", "facebook": "None", "youtube": "None", "website": "None", "summary": "None", "logo": "None", "latitude": 49.24179000000004, "longitude": -55.05992999999995}, "895460400RR0001": {"name": "CALYX MUSIC & ARTS SOCIETY", "designationCode": "C", "categoryCode": "22", "address": "28 INDIAN ROAD", "city": "TORONTO", "province": "ON", "country": "CA", "postalCode": "M6R2T9", "twitter": "None", "instagram": "None", "facebook": "None", "youtube": "None", "website": "None", "summary": "None", "logo": "None", "latitude": 43.64020671135091, "longitude": -79.45342181017358}, "888678802RR0001": {"name": "CAM LO VUONG BUDDHIST COMMUNITY TEMPLE", "designationCode": "C", "categoryCode": "35", "address": "2430 TESTON ROAD", "city": "VAUGHAN", "province": "ON", "country": "CA", "postalCode": "L6A1S1", "twitter": "None", "instagram": "None", "facebook": "None", "youtube": "None", "website": "None", "summary": "None", "logo": "None", "latitude": 43.87230917078247, "longitude": -79.52186871527472}, "893137844RR0001": {"name": "CAMBIE BOULEVARD HERITAGE SOCIETY", "designationCode": "C", "categoryCode": "53", "address": "6569 PINEHURST DRIVE", "city": "VANCOUVER", "province": "BC", "country": "CA", "postalCode": "V5X4N9", "twitter": "None", "instagram": "None", "facebook": "None", "youtube": "None", "website": "None", "summary": "None", "logo": "None", "latitude": 49.22550143345666, "longitude": -123.11514863835014}, "119288918RR1692": {"name": "CAMBIE CONGREGATION OF JEHOVAH'S WITNESSES, VANCOUVER, BRITISH COLUMBIA", "designationCode": "C", "categoryCode": "61", "address": "1015 8TH AVE W", "city": "VANCOUVER", "province": "BC", "country": "CA", "postalCode": "V6H1C3", "twitter": "None", "instagram": "None", "facebook": "None", "youtube": "None", "website": "None", "summary": "None", "logo": "None", "latitude": 49.26435749321934, "longitude": -123.12705108090483}, "898349063RR0001": {"name": "CAMBODIAN BAPTIST CHURCH", "designationCode": "C", "categoryCode": "31", "address": "10911 - 116ST", "city": "EDMONTON", "province": "AB", "country": "CA", "postalCode": "T5H3M7", "twitter": "None", "instagram": "None", "facebook": "None", "youtube": "None", "website": "None", "summary": "None", "logo": "None", "latitude": 53.55506700000001, "longitude": -113.5212662490625}, "106833841RR0001": {"name": "CAMBRAY COMMUNITY UNITED CHURCH", "designationCode": "C", "categoryCode": "44", "address": "1182 THE GLEN RD.             R.R. #1", "city": "WOODVILLE", "province": "ON", "country": "CA", "postalCode": "K0M2T0", "twitter": "None", "instagram": "None", "facebook": "None", "youtube": "None", "website": "None", "summary": "None", "logo": "None", "latitude": 44.3988388635536, "longitude": -78.8757057406953}, "886956390RR0001": {"name": "CAMBRIAN COLLEGE OF APPLIED ARTS AND TECHNOLOGY,", "designationCode": "C", "categoryCode": "20", "address": "1400 BARRYDOWNE ROAD", "city": "SUDBURY", "province": "ON", "country": "CA", "postalCode": "P3A3V8", "twitter": "None", "instagram": "None", "facebook": "None", "youtube": "None", "website": "None", "summary": "None", "logo": "None", "latitude": 46.52841979899614, "longitude": -80.94403247628598}, "106833981RR0001": {"name": "CAMBRIAN HEIGHTS BAPTIST CHURCH", "designationCode": "C", "categoryCode": "31", "address": "240 CARDIFF DRIVE N. W.", "city": "CALGARY", "province": "AB", "country": "CA", "postalCode": "T2K1S2", "twitter": "None", "instagram": "None", "facebook": "None", "youtube": "None", "website": "None", "summary": "None", "logo": "None", "latitude": 51.08466355897631, "longitude": -114.08723595100702}, "119218204RR0001": {"name": "CAMBRIAN PLAYERS", "designationCode": "C", "categoryCode": "22", "address": "P O BOX 29080                 1186 MEMORIAL AVE", "city": "THUNDER BAY", "province": "ON", "country": "CA", "postalCode": "P7B6P9", "twitter": "None", "instagram": "None", "facebook": "None", "youtube": "None", "website": "None", "summary": "None", "logo": "None", "latitude": 48.400611675255455, "longitude": -89.2455713739964}, "106834054RR0001": {"name": "CAMBRIAN PRESBYTERY OF THE UNITED CHURCH OF CANADA", "designationCode": "C", "categoryCode": "44", "address": "310 PARK AVE", "city": "THUNDER BAY", "province": "ON", "country": "CA", "postalCode": "P7B6C8", "twitter": "None", "instagram": "None", "facebook": "None", "youtube": "None", "website": "None", "summary": "None", "logo": "None", "latitude": 48.43606040661776, "longitude": -89.22519556540519}, "825949340RR0001": {"name": "CAMBRIDGE (ONTARIO) CHRISTADELPHIAN ECCLESIA", "designationCode": "C", "categoryCode": "39", "address": "311 - 425 HESPELER RD", "city": "CAMBRIDGE", "province": "ON", "country": "CA", "postalCode": "N1R8J6", "twitter": "None", "instagram": "None", "facebook": "None", "youtube": "None", "website": "None", "summary": "None", "logo": "None", "latitude": 43.3958212028968, "longitude": -80.3239978882225}, "881982367RR0001": {"name": "CAMBRIDGE & NORTH DUMFRIES COMMUNITY FOUNDATION", "designationCode": "A", "categoryCode": "03", "address": "1B - 190 TURNBULL CRT", "city": "CAMBRIDGE", "province": "ON", "country": "CA", "postalCode": "N1T1J2", "twitter": "None", "instagram": "None", "facebook": "None", "youtube": "None", "website": "None", "summary": "None", "logo": "None", "latitude": 43.40501125734281, "longitude": -80.29851561783703}, "841808744RR0001": {"name": "CAMBRIDGE - NARROWS REGIONAL LIBRARY", "designationCode": "C", "categoryCode": "50", "address": "2216 LAKEVIEW RD.", "city": "CAMBRIDGE-NARROWS", "province": "NB", "country": "CA", "postalCode": "E4C1N8", "twitter": "None", "instagram": "None", "facebook": "None", "youtube": "None", "website": "None", "summary": "None", "logo": "None", "latitude": 45.83290320595113, "longitude": -65.95381462787557}, "136828522RR0001": {"name": "CAMBRIDGE AND DISTRICT HUMANE SOCIETY", "designationCode": "C", "categoryCode": "54", "address": "1650 DUNBAR RD", "city": "CAMBRIDGE", "province": "ON", "country": "CA", "postalCode": "N1R8J5", "twitter": "None", "instagram": "None", "facebook": "None", "youtube": "None", "website": "None", "summary": "None", "logo": "None", "latitude": 43.39090888201875, "longitude": -80.31597496543374}, "890217748RR0001": {"name": "CAMBRIDGE BAY CHILDCARE SOCIETY", "designationCode": "C", "categoryCode": "01", "address": "8 KOMATIK                     PO BOX 1154", "city": "CAMBRIDGE BAY", "province": "NU", "country": "CA", "postalCode": "X0B0C0", "twitter": "None", "instagram": "None", "facebook": "None", "youtube": "None", "website": "None", "summary": "None", "logo": "None", "latitude": 69.13891500000005, "longitude": -105.17166799999994}, "106834120RR0001": {"name": "CAMBRIDGE CHRISTIAN CENTRE", "designationCode": "C", "categoryCode": "39", "address": "1303 MICHAEL CRES.", "city": "CAMBRIDGE", "province": "ON", "country": "CA", "postalCode": "N3H2R1", "twitter": "None", "instagram": "None", "facebook": "None", "youtube": "None", "website": "None", "summary": "None", "logo": "None", "latitude": 43.39485971438069, "longitude": -80.33824660185243}, "106834138RR0001": {"name": "CAMBRIDGE CHRISTIAN SCHOOL SOCIETY", "designationCode": "C", "categoryCode": "20", "address": "229 MYERS ROAD", "city": "CAMBRIDGE", "province": "ON", "country": "CA", "postalCode": "N1R7H3", "twitter": "None", "instagram": "None", "facebook": "None", "youtube": "None", "website": "None", "summary": "None", "logo": "None", "latitude": 43.34178773212562, "longitude": -80.29626884220102}, "892565441RR0001": {"name": "CAMBRIDGE COMMITTEE FOR PHYSICALLY DISABLED ADULTS", "designationCode": "C", "categoryCode": "09", "address": "208-1195 KING ST. EAST", "city": "CAMBRIDGE", "province": "ON", "country": "CA", "postalCode": "N3H5N5", "twitter": "None", "instagram": "None", "facebook": "None", "youtube": "None", "website": "None", "summary": "None", "logo": "None", "latitude": 43.39247084295085, "longitude": -80.35174747414766}, "137761904RR0001": {"name": "CAMBRIDGE COMMUNITY CHURCH", "designationCode": "C", "categoryCode": "39", "address": "73 POLLOCK AVE", "city": "CAMBRIDGE", "province": "ON", "country": "CA", "postalCode": "N1R2B4", "twitter": "None", "instagram": "None", "facebook": "None", "youtube": "None", "website": "None", "summary": "None", "logo": "None", "latitude": 43.357917867592036, "longitude": -80.30171442838598}, "118826205RR0001": {"name": "CAMBRIDGE CONCERT BAND", "designationCode": "C", "categoryCode": "22", "address": "334 WESTMINSTER DRIVE NORTH", "city": "CAMBRIDGE", "province": "ON", "country": "CA", "postalCode": "N3H1S5", "twitter": "None", "instagram": "None", "facebook": "None", "youtube": "None", "website": "None", "summary": "None", "logo": "None", "latitude": 43.39823522372884, "longitude": -80.35610329369806}, "118826221RR0001": {"name": "CAMBRIDGE DISTRICT ASSOCIATION FOR CHRISTIAN EDUCATION", "designationCode": "C", "categoryCode": "20", "address": "1058 SPITZIG RD", "city": "BRESLAU", "province": "ON", "country": "CA", "postalCode": "N0B1M0", "twitter": "None", "instagram": "None", "facebook": "None", "youtube": "None", "website": "None", "summary": "None", "logo": "None", "latitude": 43.49346198828593, "longitude": -80.41477055415659}, "119094639RR0001": {"name": "CAMBRIDGE FAMILY EARLY YEARS CENTRE", "designationCode": "C", "categoryCode": "01", "address": "149 AINSLIE STREET NORTH", "city": "CAMBRIDGE", "province": "ON", "country": "CA", "postalCode": "N1R3P4", "twitter": "None", "instagram": "None", "facebook": "None", "youtube": "None", "website": "None", "summary": "None", "logo": "None", "latitude": 43.36402559700502, "longitude": -80.3141245461657}, "133115618RR0001": {"name": "CAMBRIDGE KIWANIS BOYS' CHOIR ASSOCIATION", "designationCode": "C", "categoryCode": "22", "address": "550 TRICO DRIVE", "city": "CAMBRIDGE", "province": "ON", "country": "CA", "postalCode": "N3H5M7", "twitter": "None", "instagram": "None", "facebook": "None", "youtube": "None", "website": "None", "summary": "None", "logo": "None", "latitude": 43.40377128530219, "longitude": -80.34375965777032}, "890939978RR0001": {"name": "CAMBRIDGE KIWANIS FOUNDATION", "designationCode": "A", "categoryCode": "09", "address": "PO BOX 22063                  GALT CENTRE POST OFFICE", "city": "CAMBRIDGE", "province": "ON", "country": "CA", "postalCode": "N1R8E3", "twitter": "None", "instagram": "None", "facebook": "None", "youtube": "None", "website": "None", "summary": "None", "logo": "None", "latitude": 43.37412947066547, "longitude": -80.30553925358247}, "118826270RR0001": {"name": "CAMBRIDGE MEMORIAL HOSPITAL", "designationCode": "C", "categoryCode": "10", "address": "700 CORONATION BLVD", "city": "CAMBRIDGE", "province": "ON", "country": "CA", "postalCode": "N1R3G2", "twitter": "None", "instagram": "None", "facebook": "None", "youtube": "None", "website": "None", "summary": "None", "logo": "None", "latitude": 43.37880383928684, "longitude": -80.32799684667309}, "118826288RR0001": {"name": "CAMBRIDGE MEMORIAL HOSPITAL FOUNDATION", "designationCode": "A", "categoryCode": "13", "address": "700 CORONATION BLVD", "city": "CAMBRIDGE", "province": "ON", "country": "CA", "postalCode": "N1R3G2", "twitter": "None", "instagram": "None", "facebook": "None", "youtube": "None", "website": "None", "summary": "None", "logo": "None", "latitude": 43.37880383928684, "longitude": -80.32799684667309}, "889274247RR0001": {"name": "CAMBRIDGE MEMORIAL HOSPITAL STAFF DONATION FUND", "designationCode": "B", "categoryCode": "05", "address": "700 CORONATION BOULEVARD", "city": "CAMBRIDGE", "province": "ON", "country": "CA", "postalCode": "N1R3G2", "twitter": "None", "instagram": "None", "facebook": "None", "youtube": "None", "website": "None", "summary": "None", "logo": "None", "latitude": 43.37880383928684, "longitude": -80.32799684667309}, "860123975RR0001": {"name": "CAMBRIDGE MEMORIAL HOSPITAL VOLUNTEER ASSOCIATION", "designationCode": "C", "categoryCode": "19", "address": "700 CORONATION BOULEVARD", "city": "CAMBRIDGE", "province": "ON", "country": "CA", "postalCode": "N1R3G2", "twitter": "None", "instagram": "None", "facebook": "None", "youtube": "None", "website": "None", "summary": "None", "logo": "None", "latitude": 43.37880383928684, "longitude": -80.32799684667309}, "118826296RR0001": {"name": "CAMBRIDGE MUSLIM SOCIETY", "designationCode": "C", "categoryCode": "60", "address": "282 ELGIN STREET NORTH", "city": "CAMBRIDGE", "province": "ON", "country": "CA", "postalCode": "N1R7H9", "twitter": "None", "instagram": "None", "facebook": "None", "youtube": "None", "website": "None", "summary": "None", "logo": "None", "latitude": 43.374010862052096, "longitude": -80.3034861934904}, "141065557RR0001": {"name": "CAMBRIDGE NORTH ROTARY CHARITABLE FUND", "designationCode": "C", "categoryCode": "63", "address": "887 LANGS DR", "city": "CAMBRIDGE", "province": "ON", "country": "CA", "postalCode": "N3H5K4", "twitter": "None", "instagram": "None", "facebook": "None", "youtube": "None", "website": "None", "summary": "None", "logo": "None", "latitude": 43.399644293409615, "longitude": -80.33560779268845}, "874460405RR0001": {"name": "CAMBRIDGE PREGNANCY RESOURCE CENTRE", "designationCode": "C", "categoryCode": "09", "address": "119 WATER ST N", "city": "CAMBRIDGE", "province": "ON", "country": "CA", "postalCode": "N1R3B7", "twitter": "None", "instagram": "None", "facebook": "None", "youtube": "None", "website": "None", "summary": "None", "logo": "None", "latitude": 43.36406248765075, "longitude": -80.31545498845881}, "106834377RR0001": {"name": "CAMBRIDGE PUBLIC LIBRARY", "designationCode": "C", "categoryCode": "50", "address": "1 NORTH SQUARE", "city": "CAMBRIDGE", "province": "ON", "country": "CA", "postalCode": "N1S2K6", "twitter": "None", "instagram": "None", "facebook": "None", "youtube": "None", "website": "None", "summary": "None", "logo": "None", "latitude": 43.359191493796246, "longitude": -80.31813347155058}, "118826312RR0001": {"name": "CAMBRIDGE RIGHT TO LIFE", "designationCode": "C", "categoryCode": "09", "address": "10 WATER STREET SOUTH", "city": "CAMBRIDGE", "province": "ON", "country": "CA", "postalCode": "N1R3C5", "twitter": "None", "instagram": "None", "facebook": "None", "youtube": "None", "website": "None", "summary": "None", "logo": "None", "latitude": 43.358545424923534, "longitude": -80.31539127352987}, "844027326RR0001": {"name": "CAMBRIDGE SCULPTURE GARDEN", "designationCode": "C", "categoryCode": "50", "address": "18 PINE HILL PLACE", "city": "KITCHENER", "province": "ON", "country": "CA", "postalCode": "N2P2P6", "twitter": "None", "instagram": "None", "facebook": "None", "youtube": "None", "website": "None", "summary": "None", "logo": "None", "latitude": 43.38055871438067, "longitude": -80.4134097979399}, "118826320RR0001": {"name": "CAMBRIDGE SECOND UNITED BAPTIST CHURCH", "designationCode": "C", "categoryCode": "31", "address": "2462 LOWER CAMBRIDGE RD", "city": "CAMBRIDGE-NARROWS", "province": "NB", "country": "CA", "postalCode": "E4C1P4", "twitter": "None", "instagram": "None", "facebook": "None", "youtube": "None", "website": "None", "summary": "None", "logo": "None", "latitude": 45.81263402168399, "longitude": -65.96545208153483}, "890658743RR0001": {"name": "CAMBRIDGE SELF-HELP FOOD BANK INC.", "designationCode": "C", "categoryCode": "09", "address": "54 AINSLIE ST SOUTH", "city": "CAMBRIDGE", "province": "ON", "country": "CA", "postalCode": "N1R3K3", "twitter": "None", "instagram": "None", "facebook": "None", "youtube": "None", "website": "None", "summary": "None", "logo": "None", "latitude": 43.35660210574758, "longitude": -80.31394012908976}, "107797383RR0010": {"name": "CAMBRIDGE SEVENTH-DAY ADVENTIST CHURCH", "designationCode": "C", "categoryCode": "41", "address": "146 BURNHAM CRESCENT", "city": "CAMBRIDGE", "province": "ON", "country": "CA", "postalCode": "N3E1B3", "twitter": "None", "instagram": "None", "facebook": "None", "youtube": "None", "website": "None", "summary": "None", "logo": "None", "latitude": 43.4285713516934, "longitude": -80.33932568901834}, "890259419RR0001": {"name": "CAMBRIDGE SHELTER CORPORATION", "designationCode": "C", "categoryCode": "09", "address": "26 SIMCOE STREET", "city": "CAMBRIDGE", "province": "ON", "country": "CA", "postalCode": "N1R8P2", "twitter": "None", "instagram": "None", "facebook": "None", "youtube": "None", "website": "None", "summary": "None", "logo": "None", "latitude": 43.364588498499465, "longitude": -80.31390133957528}, "868308578RR0001": {"name": "CAMBRIDGE SPORTS HALL OF FAME", "designationCode": "C", "categoryCode": "50", "address": "444-425 HESPELER RD.", "city": "CAMBRIDGE", "province": "ON", "country": "CA", "postalCode": "N1R8J6", "twitter": "None", "instagram": "None", "facebook": "None", "youtube": "None", "website": "None", "summary": "None", "logo": "None", "latitude": 43.3958212028968, "longitude": -80.3239978882225}, "106834443RR0001": {"name": "CAMBRIDGE STREET BAPTIST CHURCH", "designationCode": "C", "categoryCode": "31", "address": "28 CAMBRIDGE ST N", "city": "LINDSAY", "province": "ON", "country": "CA", "postalCode": "K9V4C5", "twitter": "None", "instagram": "None", "facebook": "None", "youtube": "None", "website": "None", "summary": "None", "logo": "None", "latitude": 44.355795777373416, "longitude": -78.73985345367154}, "106834450RR0001": {"name": "CAMBRIDGE STREET UNITED CHURCH", "designationCode": "C", "categoryCode": "44", "address": "61 CAMBRIDGE ST. N", "city": "LINDSAY", "province": "ON", "country": "CA", "postalCode": "K9V4C9", "twitter": "None", "instagram": "None", "facebook": "None", "youtube": "None", "website": "None", "summary": "None", "logo": "None", "latitude": 44.35769220855641, "longitude": -78.74084172545058}, "847013752RR0001": {"name": "CAMBRIDGE SYMPHONY ORCHESTRA", "designationCode": "C", "categoryCode": "22", "address": "37 MAPLEWOOD PL", "city": "KITCHENER", "province": "ON", "country": "CA", "postalCode": "N2H4L4", "twitter": "None", "instagram": "None", "facebook": "None", "youtube": "None", "website": "None", "summary": "None", "logo": "None", "latitude": 43.47035155482136, "longitude": -80.49435218070847}, "118826379RR0001": {"name": "CAMBRIDGE UNITED BAPTIST CHURCH", "designationCode": "C", "categoryCode": "31", "address": "5981 HIGHWAY 1", "city": "CAMBRIDGE STATION", "province": "NS", "country": "CA", "postalCode": "B0P1G0", "twitter": "None", "instagram": "None", "facebook": "None", "youtube": "None", "website": "None", "summary": "None", "logo": "None", "latitude": 45.05624277531984, "longitude": -64.64138758915566}, "134994383RR0001": {"name": "CAMBRIDGE VINEYARD CHRISTIAN FELLOWSHIP", "designationCode": "C", "categoryCode": "39", "address": "147 ELGIN ST N", "city": "CAMBRIDGE", "province": "ON", "country": "CA", "postalCode": "N1R5H6", "twitter": "None", "instagram": "None", "facebook": "None", "youtube": "None", "website": "None", "summary": "None", "logo": "None", "latitude": 43.36679055565808, "longitude": -80.30055842890559}, "895852622RR0001": {"name": "CAMBRIDGE-NARROWS VOLUNTEER FIRE DEPARTMENT", "designationCode": "C", "categoryCode": "59", "address": "2542 LWR. CAMBRIDGE RD", "city": "CAMBRIDGE-NARROWS", "province": "NB", "country": "CA", "postalCode": "E4C1P4", "twitter": "None", "instagram": "None", "facebook": "None", "youtube": "None", "website": "None", "summary": "None", "logo": "None", "latitude": 45.806529829143436, "longitude": -65.9708281902758}, "891917171RR0001": {"name": "CAMBRIDGE-PRESTON CHURCH OF THE NAZARENE", "designationCode": "C", "categoryCode": "39", "address": "1332 HAMILTON ST", "city": "CAMBRIDGE", "province": "ON", "country": "CA", "postalCode": "N3H3G5", "twitter": "None", "instagram": "None", "facebook": "None", "youtube": "None", "website": "None", "summary": "None", "logo": "None", "latitude": 43.38922317926618, "longitude": -80.35061297088676}, "828500488RR0001": {"name": "CAME Foundation / Fondation de L'AC\u00c9M", "designationCode": "C", "categoryCode": "21", "address": "100-2733 LANCASTER ROAD", "city": "OTTAWA", "province": "ON", "country": "CA", "postalCode": "K1B0A9", "twitter": "None", "instagram": "None", "facebook": "None", "youtube": "None", "website": "None", "summary": "None", "logo": "None", "latitude": 45.39681519403868, "longitude": -75.60689732468722}, "805239548RR0001": {"name": "CAMELOT CENTRE ADULT DAY PROGRAM", "designationCode": "C", "categoryCode": "20", "address": "4223 SPRUCE AVENUE", "city": "BURLINGTON", "province": "ON", "country": "CA", "postalCode": "L7L1L1", "twitter": "None", "instagram": "None", "facebook": "None", "youtube": "None", "website": "None", "summary": "None", "logo": "None", "latitude": 43.35589949737428, "longitude": -79.75867872344037}, "870058518RR0001": {"name": "CAMERATA NOVA INC.", "designationCode": "C", "categoryCode": "22", "address": "PMB 125                       30-360 MAIN ST, UNIT 13B", "city": "WINNIPEG", "province": "MB", "country": "CA", "postalCode": "R3C3Z8", "twitter": "None", "instagram": "None", "facebook": "None", "youtube": "None", "website": "None", "summary": "None", "logo": "None", "latitude": 49.89459781320337, "longitude": -97.1381563866637}, "895416915RR0001": {"name": "CAMERATA SINGERS", "designationCode": "C", "categoryCode": "22", "address": "31 TURNABOUT VIEW", "city": "NANAIMO", "province": "BC", "country": "CA", "postalCode": "V9X1A3", "twitter": "None", "instagram": "None", "facebook": "None", "youtube": "None", "website": "None", "summary": "None", "logo": "None", "latitude": 49.11701483819033, "longitude": -123.92883193352188}, "130534613RR0001": {"name": "CAMERAY COMMUNITY FUND", "designationCode": "C", "categoryCode": "59", "address": "102 - 5623 IMPERIAL ST", "city": "BURNABY", "province": "BC", "country": "CA", "postalCode": "V5J1G1", "twitter": "None", "instagram": "None", "facebook": "None", "youtube": "None", "website": "None", "summary": "None", "logo": "None", "latitude": 49.22189952899767, "longitude": -122.982624}, "890212772RR0001": {"name": "CAMERON AND CHURCH CEMETERIES OF THE PRINCEVILLE UNITED CHURCH OF CANADA", "designationCode": "C", "categoryCode": "59", "address": "441 PICTOU ROAD", "city": "TRURO", "province": "NS", "country": "CA", "postalCode": "B2N2T6", "twitter": "None", "instagram": "None", "facebook": "None", "youtube": "None", "website": "None", "summary": "None", "logo": "None", "latitude": 45.38744950571282, "longitude": -63.22435386860163}, "140767963RR0001": {"name": "CAMERON CHARITABLE TRUST", "designationCode": "B", "categoryCode": "39", "address": "3425-2 AVENUE SOUTH", "city": "LETHBRIDGE", "province": "AB", "country": "CA", "postalCode": "T1J4V1", "twitter": "None", "instagram": "None", "facebook": "None", "youtube": "None", "website": "None", "summary": "None", "logo": "None", "latitude": 49.696839530439966, "longitude": -112.78914308381903}, "890198898RR0001": {"name": "CAMERON HIGHLANDERS OF OTTAWA FOUNDATION", "designationCode": "C", "categoryCode": "51", "address": "PO BOX 180, STATION B", "city": "OTTAWA", "province": "ON", "country": "CA", "postalCode": "K1P6C4", "twitter": "None", "instagram": "None", "facebook": "None", "youtube": "None", "website": "None", "summary": "None", "logo": "None", "latitude": 45.42177300000006, "longitude": -75.69115999999994}, "890868599RR0001": {"name": "CAMERON SENIORS SOCIETY", "designationCode": "C", "categoryCode": "56", "address": "9523 CAMERON STREET", "city": "BURNABY", "province": "BC", "country": "CA", "postalCode": "V3J1L6", "twitter": "None", "instagram": "None", "facebook": "None", "youtube": "None", "website": "None", "summary": "None", "logo": "None", "latitude": 49.253470454411236, "longitude": -122.89922189064575}, "889032595RR0001": {"name": "CAMINO DE EMAUS DE L'EGLISE UNIE", "designationCode": "C", "categoryCode": "44", "address": "110 STE-CATHERINE EST", "city": "MONTREAL", "province": "QC", "country": "CA", "postalCode": "H2X1K7", "twitter": "None", "instagram": "None", "facebook": "None", "youtube": "None", "website": "None", "summary": "None", "logo": "None", "latitude": 45.511016951699524, "longitude": -73.56275053009419}, "106834864RR0001": {"name": "CAMLACHIE UNITED CHURCH OF CANADA", "designationCode": "C", "categoryCode": "44", "address": "BOX 38                        6784 CAMLACHIE ROAD", "city": "CAMLACHIE", "province": "ON", "country": "CA", "postalCode": "N0N1E0", "twitter": "None", "instagram": "None", "facebook": "None", "youtube": "None", "website": "None", "summary": "None", "logo": "None", "latitude": 43.04041138190317, "longitude": -82.16211641964341}, "118826486RR0001": {"name": "CAMMAC", "designationCode": "C", "categoryCode": "22", "address": "85 CH CAMMAC", "city": "HARRINGTON", "province": "QC", "country": "CA", "postalCode": "J8G2T2", "twitter": "None", "instagram": "None", "facebook": "None", "youtube": "None", "website": "None", "summary": "None", "logo": "None", "latitude": 45.85269965667379, "longitude": -74.57921737024641}, "118826494RR0001": {"name": "CAMOSUN COLLEGE", "designationCode": "C", "categoryCode": "20", "address": "3100 FOUL BAY ROAD", "city": "VICTORIA", "province": "BC", "country": "CA", "postalCode": "V8P5J2", "twitter": "None", "instagram": "None", "facebook": "None", "youtube": "None", "website": "None", "summary": "None", "logo": "None", "latitude": 48.44651713266779, "longitude": -123.32185395865308}, "118826502RR0001": {"name": "CAMOSUN COLLEGE FOUNDATION", "designationCode": "C", "categoryCode": "23", "address": "3100 FOUL BAY RD", "city": "VICTORIA", "province": "BC", "country": "CA", "postalCode": "V8P5J2", "twitter": "None", "instagram": "None", "facebook": "None", "youtube": "None", "website": "None", "summary": "None", "logo": "None", "latitude": 48.44651713266779, "longitude": -123.32185395865308}, "892298332RR0001": {"name": "CAMP \"O\" CARREFOUR INC.", "designationCode": "C", "categoryCode": "56", "address": "2301 1RE AVENUE", "city": "QUEBEC", "province": "QC", "country": "CA", "postalCode": "G1L3M9", "twitter": "None", "instagram": "None", "facebook": "None", "youtube": "None", "website": "None", "summary": "None", "logo": "None", "latitude": 46.83305526187793, "longitude": -71.24104108555136}, "118826528RR0001": {"name": "CAMP ABEGWEIT ORGANIZATION", "designationCode": "C", "categoryCode": "49", "address": "PO BOX 632                    171 CAMP ABEGWEIT RD", "city": "KENSINGTON", "province": "PE", "country": "CA", "postalCode": "C0B1M0", "twitter": "None", "instagram": "None", "facebook": "None", "youtube": "None", "website": "None", "summary": "None", "logo": "None", "latitude": 46.21088554371286, "longitude": -63.59161236565878}, "890576242RR0001": {"name": "CAMP ADONAI", "designationCode": "C", "categoryCode": "56", "address": "497 WICHERS WAY               P.O. BOX 827", "city": "WINCHESTER", "province": "ON", "country": "CA", "postalCode": "K0C2K0", "twitter": "None", "instagram": "None", "facebook": "None", "youtube": "None", "website": "None", "summary": "None", "logo": "None", "latitude": 45.09040305107046, "longitude": -75.34562737440136}, "132465642RR0001": {"name": "CAMP AHSHUNYOONG CORPORATION", "designationCode": "C", "categoryCode": "56", "address": "8 DURANT AVENUE", "city": "TORONTO", "province": "ON", "country": "CA", "postalCode": "M4J4V9", "twitter": "None", "instagram": "None", "facebook": "None", "youtube": "None", "website": "None", "summary": "None", "logo": "None", "latitude": 43.68884345545042, "longitude": -79.3279632453689}, "118826544RR0001": {"name": "CAMP AMY MOLSON INC.", "designationCode": "C", "categoryCode": "56", "address": "5165 SHERBROOKE ST WEST       SUITE 210", "city": "MONTREAL", "province": "QC", "country": "CA", "postalCode": "H4A1T6", "twitter": "None", "instagram": "None", "facebook": "None", "youtube": "None", "website": "None", "summary": "None", "logo": "None", "latitude": 45.47573837497828, "longitude": -73.60727460563201}, "118826551RR0001": {"name": "CAMP ARTABAN SOCIETY", "designationCode": "C", "categoryCode": "56", "address": "1058 RIDGEWOOD DR", "city": "NORTH VANCOUVER", "province": "BC", "country": "CA", "postalCode": "V7R1H8", "twitter": "None", "instagram": "None", "facebook": "None", "youtube": "None", "website": "None", "summary": "None", "logo": "None", "latitude": 49.33934346047074, "longitude": -123.10253983236194}, "118796804RR0001": {"name": "CAMP AUSH-BIK-KOONG", "designationCode": "C", "categoryCode": "56", "address": "583 GORMANVILLE RD", "city": "NORTH BAY", "province": "ON", "country": "CA", "postalCode": "P1B8N9", "twitter": "None", "instagram": "None", "facebook": "None", "youtube": "None", "website": "None", "summary": "None", "logo": "None", "latitude": 46.32763597446478, "longitude": -79.48717219201944}, "118826577RR0001": {"name": "CAMP AWAKENING INCORPORATED", "designationCode": "C", "categoryCode": "56", "address": "403 - 150 EGLINTON AVE E", "city": "TORONTO", "province": "ON", "country": "CA", "postalCode": "M4P1E8", "twitter": "None", "instagram": "None", "facebook": "None", "youtube": "None", "website": "None", "summary": "None", "logo": "None", "latitude": 43.7089009100495, "longitude": -79.38780176683875}, "100749357RR0001": {"name": "CAMP B'NAI B'RITH OF OTTAWA INCORPORATED", "designationCode": "C", "categoryCode": "49", "address": "PO BOX 23108", "city": "OTTAWA", "province": "ON", "country": "CA", "postalCode": "K2A4E2", "twitter": "None", "instagram": "None", "facebook": "None", "youtube": "None", "website": "None", "summary": "None", "logo": "None", "latitude": 45.42177300000006, "longitude": -75.69115999999994}, "106835614RR0001": {"name": "CAMP B'NAI B'RITH SOCIETY", "designationCode": "C", "categoryCode": "56", "address": "200, 10220 156 ST", "city": "EDMONTON", "province": "AB", "country": "CA", "postalCode": "T5P2R1", "twitter": "None", "instagram": "None", "facebook": "None", "youtube": "None", "website": "None", "summary": "None", "logo": "None", "latitude": 53.54370900000001, "longitude": -113.590396762046}, "130972789RR0001": {"name": "CAMP B'NAI BRITH INC.", "designationCode": "C", "categoryCode": "56", "address": "235-5151 COTE ST-CATHERINE", "city": "MONTREAL", "province": "QC", "country": "CA", "postalCode": "H3W1M6", "twitter": "None", "instagram": "None", "facebook": "None", "youtube": "None", "website": "None", "summary": "None", "logo": "None", "latitude": 45.488925385538515, "longitude": -73.63610869559653}, "889794376RR0001": {"name": "CAMP B'NAI BRITH OF MONTREAL FOUNDATION / FONDATION DU CAMP B'NAI BRITH DE MONTREAL", "designationCode": "A", "categoryCode": "43", "address": "1 CARRE CUMMINGS SQUARE       SUITE 232", "city": "MONTREAL", "province": "QC", "country": "CA", "postalCode": "H3W1M6", "twitter": "None", "instagram": "None", "facebook": "None", "youtube": "None", "website": "None", "summary": "None", "logo": "None", "latitude": 45.48925656614425, "longitude": -73.63588473115946}, "888352390RR0001": {"name": "CAMP BIMINI", "designationCode": "C", "categoryCode": "47", "address": "3180 113 RD                   RR 1", "city": "ST. PAULS", "province": "ON", "country": "CA", "postalCode": "N0K1V0", "twitter": "None", "instagram": "None", "facebook": "None", "youtube": "None", "website": "None", "summary": "None", "logo": "None", "latitude": 43.51877700000006, "longitude": -79.71154999999993}, "118826940RR0001": {"name": "CAMP BOUTE-EN-TRAIN", "designationCode": "C", "categoryCode": "56", "address": "1640 CHEMIN ROCHON R R 1", "city": "CHERTSEY", "province": "QC", "country": "CA", "postalCode": "J0K3K0", "twitter": "None", "instagram": "None", "facebook": "None", "youtube": "None", "website": "None", "summary": "None", "logo": "None", "latitude": 46.12342249160735, "longitude": -73.87415360810343}, "118826965RR0001": {"name": "CAMP BROCHET", "designationCode": "C", "categoryCode": "56", "address": "C.P. 8336 SUCC RACINE", "city": "CHICOUTIMI", "province": "QC", "country": "CA", "postalCode": "G7H5C2", "twitter": "None", "instagram": "None", "facebook": "None", "youtube": "None", "website": "None", "summary": "None", "logo": "None", "latitude": 48.42794086469511, "longitude": -71.05630255036941}, "894516418RR0001": {"name": "CAMP BUCKO", "designationCode": "C", "categoryCode": "56", "address": "265 PORT UNION ROAD", "city": "SCARBOROUGH", "province": "ON", "country": "CA", "postalCode": "M1C4Z7", "twitter": "None", "instagram": "None", "facebook": "None", "youtube": "None", "website": "None", "summary": "None", "logo": "None", "latitude": 43.78842194728479, "longitude": -79.14032860788329}, "883408403RR0001": {"name": "CAMP CARMANGAY", "designationCode": "C", "categoryCode": "09", "address": "BOX 15", "city": "CARMANGAY", "province": "AB", "country": "CA", "postalCode": "T0L0N0", "twitter": "None", "instagram": "None", "facebook": "None", "youtube": "None", "website": "None", "summary": "None", "logo": "None", "latitude": 50.12684000000007, "longitude": -113.11334999999997}, "132494717RR0001": {"name": "CAMP CAROWANIS INC", "designationCode": "C", "categoryCode": "56", "address": "306 ST-ZOTIQUE ST E           SUITE 100", "city": "MONTREAL", "province": "QC", "country": "CA", "postalCode": "H2S1L6", "twitter": "None", "instagram": "None", "facebook": "None", "youtube": "None", "website": "None", "summary": "None", "logo": "None", "latitude": 45.53457797723475, "longitude": -73.60932057395128}, "890469547RR0001": {"name": "CAMP CHAMISALL", "designationCode": "C", "categoryCode": "56", "address": "#620 - 7620 ELBOW DRIVE S.W.", "city": "CALGARY", "province": "AB", "country": "CA", "postalCode": "T2V1K2", "twitter": "None", "instagram": "None", "facebook": "None", "youtube": "None", "website": "None", "summary": "None", "logo": "None", "latitude": 50.98527321929785, "longitude": -114.08309202200739}, "124168485RR0001": {"name": "CAMP CHERITH - ONTARIO", "designationCode": "C", "categoryCode": "56", "address": "3240 INNISFIL BEACH ROAD", "city": "INNISFIL", "province": "ON", "country": "CA", "postalCode": "L9S4C7", "twitter": "None", "instagram": "None", "facebook": "None", "youtube": "None", "website": "None", "summary": "None", "logo": "None", "latitude": 44.287962104131466, "longitude": -79.66661677979094}, "132336777RR0001": {"name": "CAMP CHESTERMERE ASSOCIATION", "designationCode": "C", "categoryCode": "56", "address": "1041 EAST LAKEVIEW RD", "city": "CHESTERMERE", "province": "AB", "country": "CA", "postalCode": "T1X1B1", "twitter": "None", "instagram": "None", "facebook": "None", "youtube": "None", "website": "None", "summary": "None", "logo": "None", "latitude": 51.02058645045878, "longitude": -113.81578659209931}, "864121702RR0001": {"name": "CAMP CIRCLE O'FRIENDS INC.", "designationCode": "C", "categoryCode": "11", "address": "PO BOX 47                     ROYAL UNIVERSITY HOSPIAL", "city": "SASKATOON", "province": "SK", "country": "CA", "postalCode": "S7N0W8", "twitter": "None", "instagram": "None", "facebook": "None", "youtube": "None", "website": "None", "summary": "None", "logo": "None", "latitude": 52.13176000000004, "longitude": -106.64154999999994}, "835167149RR0001": {"name": "CAMP CROSSROADS", "designationCode": "C", "categoryCode": "49", "address": "PO BOX 100                    1224 EAST BAY RD", "city": "TORRANCE", "province": "ON", "country": "CA", "postalCode": "P0C1M0", "twitter": "None", "instagram": "None", "facebook": "None", "youtube": "None", "website": "None", "summary": "None", "logo": "None", "latitude": 45.0182863760748, "longitude": -79.56169844434193}, "891467144RR0001": {"name": "CAMP CUCUMBER", "designationCode": "C", "categoryCode": "56", "address": "18 LONSDALE RD", "city": "TORONTO", "province": "ON", "country": "CA", "postalCode": "M4V1W3", "twitter": "None", "instagram": "None", "facebook": "None", "youtube": "None", "website": "None", "summary": "None", "logo": "None", "latitude": 43.691941234548864, "longitude": -79.39712581002935}, "118827062RR0001": {"name": "CAMP D'ETE POUR JEUNES DIABETIQUES DE L'EST DU QUEBEC INC.", "designationCode": "C", "categoryCode": "56", "address": "4500 BOULEVARD HENRI-BOURASSA BUREAU 220", "city": "QUEBEC", "province": "QC", "country": "CA", "postalCode": "G1H3A5", "twitter": "None", "instagram": "None", "facebook": "None", "youtube": "None", "website": "None", "summary": "None", "logo": "None", "latitude": 46.848488299497795, "longitude": -71.24026583579573}, "815637145RR0001": {"name": "CAMP DAWN", "designationCode": "C", "categoryCode": "11", "address": "201 KING ST", "city": "LONDON", "province": "ON", "country": "CA", "postalCode": "N6A1C9", "twitter": "None", "instagram": "None", "facebook": "None", "youtube": "None", "website": "None", "summary": "None", "logo": "None", "latitude": 42.98290806797868, "longitude": -81.24760251067582}, "118827047RR0001": {"name": "CAMP DE RIVIERE-OUELLE INC.", "designationCode": "C", "categoryCode": "56", "address": "132, CHEMIN DE LA GREVE EST   C.P. 28", "city": "RIVIERE-OUELLE", "province": "QC", "country": "CA", "postalCode": "G0L2C0", "twitter": "None", "instagram": "None", "facebook": "None", "youtube": "None", "website": "None", "summary": "None", "logo": "None", "latitude": 47.49329400000006, "longitude": -69.97565149999993}, "118884790RR0001": {"name": "CAMP DE VACANCES FAMILIALES VALLEYFIELD INC.", "designationCode": "C", "categoryCode": "56", "address": "663 BOUL DU BORD-DE-L'EAU", "city": "SALABERRY-DE-VALLEYFIELD", "province": "QC", "country": "CA", "postalCode": "J6S0B5", "twitter": "None", "instagram": "None", "facebook": "None", "youtube": "None", "website": "None", "summary": "None", "logo": "None", "latitude": 45.276848465722196, "longitude": -74.16100232653355}}