{"119145068RR0001": {"name": "SEND INTERNATIONAL OF CANADA INC.", "designationCode": "C", "categoryCode": "47", "address": "1-22423 JEFFRIES RD           RR 5", "city": "KOMOKA", "province": "ON", "country": "CA", "postalCode": "N0L1R0", "twitter": "None", "instagram": "None", "facebook": "None", "youtube": "None", "website": "None", "summary": "None", "logo": "None", "latitude": 42.9588599549294, "longitude": -81.40797248414897}, "107967168RR0001": {"name": "SENECA COLLEGE OF APPLIED ARTS & TECHNOLOGY", "designationCode": "C", "categoryCode": "22", "address": "NAAZ MOHAMED, DIRECTOR FINANCE1750 FINCH AVENUE EAST", "city": "TORONTO", "province": "ON", "country": "CA", "postalCode": "M2J2X5", "twitter": "None", "instagram": "None", "facebook": "None", "youtube": "None", "website": "None", "summary": "None", "logo": "None", "latitude": 43.79389558203562, "longitude": -79.34931855885493}, "857807309RR0001": {"name": "SENGMYUNG SAEM CHURCH OF CANADA", "designationCode": "C", "categoryCode": "39", "address": "2909 28TH AVE E", "city": "VANCOUVER", "province": "BC", "country": "CA", "postalCode": "V5R1S3", "twitter": "None", "instagram": "None", "facebook": "None", "youtube": "None", "website": "None", "summary": "None", "logo": "None", "latitude": 49.24548351875456, "longitude": -123.04411985789716}, "119145076RR0001": {"name": "SENIOR ADULT SERVICES-IN THE ANNEX-TORONTO", "designationCode": "C", "categoryCode": "09", "address": "341 BLOOR ST W                SECOND FLOOR", "city": "TORONTO", "province": "ON", "country": "CA", "postalCode": "M5S1W8", "twitter": "None", "instagram": "None", "facebook": "None", "youtube": "None", "website": "None", "summary": "None", "logo": "None", "latitude": 43.66727285648353, "longitude": -79.40082571259167}, "856579032RR0001": {"name": "SENIOR ANIMALS IN NEED TODAY SOCIETY", "designationCode": "C", "categoryCode": "54", "address": "1B-7331 JAMES ST", "city": "MISSION", "province": "BC", "country": "CA", "postalCode": "V2V3V5", "twitter": "None", "instagram": "None", "facebook": "None", "youtube": "None", "website": "None", "summary": "None", "logo": "None", "latitude": 49.134968947544564, "longitude": -122.30719546116323}, "845538479RR0001": {"name": "SENIOR CHINESE SOCIETY OF VANCOUVER", "designationCode": "C", "categoryCode": "56", "address": "43 A E PENDER STREET", "city": "VANCOUVER", "province": "BC", "country": "CA", "postalCode": "V6A1S9", "twitter": "None", "instagram": "None", "facebook": "None", "youtube": "None", "website": "None", "summary": "None", "logo": "None"}, "107967275RR0001": {"name": "SENIOR CITIZENS ASSOCIATION OF PETERBOROUGH", "designationCode": "C", "categoryCode": "09", "address": "MAPLERIDGE SENIORS REC. CENTRE1085 BREALEY DR", "city": "PETERBOROUGH", "province": "ON", "country": "CA", "postalCode": "K9K0C1", "twitter": "None", "instagram": "None", "facebook": "None", "youtube": "None", "website": "None", "summary": "None", "logo": "None", "latitude": 44.28399101339256, "longitude": -78.37549019911715}, "119145126RR0001": {"name": "SENIOR CITIZENS CLUB OF FERNIE AND DISTRICT", "designationCode": "C", "categoryCode": "56", "address": "PO BOX 567", "city": "FERNIE", "province": "BC", "country": "CA", "postalCode": "V0B1M0", "twitter": "None", "instagram": "None", "facebook": "None", "youtube": "None", "website": "None", "summary": "None", "logo": "None", "latitude": 49.499960000000044, "longitude": -115.06870999999995}, "119145175RR0001": {"name": "SENIOR CITIZENS HOUSING OF SOUTH SURREY", "designationCode": "C", "categoryCode": "01", "address": "5956-176A ST", "city": "SURREY", "province": "BC", "country": "CA", "postalCode": "V3S4H8", "twitter": "None", "instagram": "None", "facebook": "None", "youtube": "None", "website": "None", "summary": "None", "logo": "None", "latitude": 49.110677779906524, "longitude": -122.73365855715863}, "107967358RR0001": {"name": "SENIOR CITIZENS OPPORTUNITY NEIGHBOURHOOD ASSOCIATION S.C.O.N.A.", "designationCode": "C", "categoryCode": "09", "address": "10440 - 84 AVE", "city": "EDMONTON", "province": "AB", "country": "CA", "postalCode": "T6E2H2", "twitter": "None", "instagram": "None", "facebook": "None", "youtube": "None", "website": "None", "summary": "None", "logo": "None", "latitude": 53.52004747489746, "longitude": -113.49957052553522}, "119145225RR0001": {"name": "SENIOR CITIZENS SERVICE ASSOCIATION OF SASKATOON", "designationCode": "C", "categoryCode": "09", "address": "614 11TH STREET E", "city": "SASKATOON", "province": "SK", "country": "CA", "postalCode": "S7N0G3", "twitter": "None", "instagram": "None", "facebook": "None", "youtube": "None", "website": "None", "summary": "None", "logo": "None", "latitude": 52.1187765212074, "longitude": -106.65532286081135}, "892147042RR0001": {"name": "SENIOR CITIZENS SUNSHINE CLUB OF VEGREVILLE", "designationCode": "C", "categoryCode": "56", "address": "4630-49 ST.", "city": "VEGREVILLE", "province": "AB", "country": "CA", "postalCode": "T9C1K7", "twitter": "None", "instagram": "None", "facebook": "None", "youtube": "None", "website": "None", "summary": "None", "logo": "None", "latitude": 53.49188055084015, "longitude": -112.05262518192684}, "882852817RR0001": {"name": "SENIOR CITIZENS' ASSOCIATION OF B.C., BRANCH #49, POWELL RIVER, B.C.", "designationCode": "C", "categoryCode": "56", "address": "CRANBERRY SENIORS CENTRE      6792 CRANBERRY STREET", "city": "POWELL RIVER", "province": "BC", "country": "CA", "postalCode": "V8A3Z4", "twitter": "None", "instagram": "None", "facebook": "None", "youtube": "None", "website": "None", "summary": "None", "logo": "None", "latitude": 49.87182652510254, "longitude": -124.52929252400601}, "888645462RR0001": {"name": "SENIOR CITIZENS' SOCIETY OF STONY PLAIN", "designationCode": "C", "categoryCode": "56", "address": "5018 51 AVENUE", "city": "STONY PLAIN", "province": "AB", "country": "CA", "postalCode": "T7Z1C2", "twitter": "None", "instagram": "None", "facebook": "None", "youtube": "None", "website": "None", "summary": "None", "logo": "None", "latitude": 53.52854251399404, "longitude": -114.00932947293558}, "119145274RR0001": {"name": "SENIOR LEAGUE ENDOWMENT SOCIETY OF COLLINGWOOD", "designationCode": "C", "categoryCode": "23", "address": "P.O. BOX 572", "city": "COLLINGWOOD", "province": "ON", "country": "CA", "postalCode": "L9Y4E8", "twitter": "None", "instagram": "None", "facebook": "None", "youtube": "None", "website": "None", "summary": "None", "logo": "None", "latitude": 44.49987600000006, "longitude": -80.21683249999994}, "133854513RR0001": {"name": "SENIOR PEER COUNSELLING OF BRITISH COLUMBIA", "designationCode": "C", "categoryCode": "09", "address": "3757 YALE ST", "city": "BURNABY", "province": "BC", "country": "CA", "postalCode": "V5C1P3", "twitter": "None", "instagram": "None", "facebook": "None", "youtube": "None", "website": "None", "summary": "None", "logo": "None", "latitude": 49.290264285774754, "longitude": -123.02187674412005}, "104973458RR0001": {"name": "SENIOR PEOPLES' RESOURCES IN NORTH TORONTO INCORPORATED", "designationCode": "C", "categoryCode": "09", "address": "140 MERTON ST 2ND FLOOR", "city": "TORONTO", "province": "ON", "country": "CA", "postalCode": "M4S1A1", "twitter": "None", "instagram": "None", "facebook": "None", "youtube": "None", "website": "None", "summary": "None", "logo": "None", "latitude": 43.69709420959058, "longitude": -79.39152926576824}, "890165392RR0001": {"name": "SENIOR RESOURCES ASSOCIATION", "designationCode": "C", "categoryCode": "20", "address": "6250 OAKLAND RD", "city": "HALIFAX", "province": "NS", "country": "CA", "postalCode": "B3H1P2", "twitter": "None", "instagram": "None", "facebook": "None", "youtube": "None", "website": "None", "summary": "None", "logo": "None", "latitude": 44.633107918662475, "longitude": -63.59060464847948}, "131467979RR0001": {"name": "SENIOR SCENE INC", "designationCode": "C", "categoryCode": "59", "address": "PO BOX 115", "city": "VICTORIA BEACH", "province": "MB", "country": "CA", "postalCode": "R0E2C0", "twitter": "None", "instagram": "None", "facebook": "None", "youtube": "None", "website": "None", "summary": "None", "logo": "None", "latitude": 50.69768737686306, "longitude": -96.55575829762454}, "140817958RR0001": {"name": "SENIOR SERVICES OF BANNER COUNTY INC", "designationCode": "C", "categoryCode": "09", "address": "PO BOX 10", "city": "RUSSELL", "province": "MB", "country": "CA", "postalCode": "R0J1W0", "twitter": "None", "instagram": "None", "facebook": "None", "youtube": "None", "website": "None", "summary": "None", "logo": "None", "latitude": 50.69676379161792, "longitude": -101.40612232134879}, "131666489RR0001": {"name": "SENIOR WHEELS ASSOCIATION", "designationCode": "C", "categoryCode": "09", "address": "100 HIGH ST                   PO BOX 151", "city": "BRIDGEWATER", "province": "NS", "country": "CA", "postalCode": "B4V1V9", "twitter": "None", "instagram": "None", "facebook": "None", "youtube": "None", "website": "None", "summary": "None", "logo": "None", "latitude": 44.37203031141435, "longitude": -64.52841014568085}, "107967440RR0001": {"name": "SENIOREN HAUS CONCORDIA INC.", "designationCode": "C", "categoryCode": "01", "address": "483 OTTAWA ST S               ATTENTION: OFFICE", "city": "KITCHENER", "province": "ON", "country": "CA", "postalCode": "N2M5H1", "twitter": "None", "instagram": "None", "facebook": "None", "youtube": "None", "website": "None", "summary": "None", "logo": "None", "latitude": 43.43023539462779, "longitude": -80.48102150118342}, "886366194RR0001": {"name": "SENIORS ACCESS TO INDEPENDENT LIVING INC", "designationCode": "C", "categoryCode": "09", "address": "PO BOX 1984", "city": "VIRDEN", "province": "MB", "country": "CA", "postalCode": "R0M2C0", "twitter": "None", "instagram": "None", "facebook": "None", "youtube": "None", "website": "None", "summary": "None", "logo": "None", "latitude": 49.85688000000005, "longitude": -100.92262999999997}, "132230202RR0001": {"name": "SENIORS ACTIVATION MAINTENANCE PROGRAM OF HAMILTON INC.", "designationCode": "C", "categoryCode": "09", "address": "A - 10 PEARL ST N", "city": "HAMILTON", "province": "ON", "country": "CA", "postalCode": "L8R2Y8", "twitter": "None", "instagram": "None", "facebook": "None", "youtube": "None", "website": "None", "summary": "None", "logo": "None", "latitude": 43.26061188660855, "longitude": -79.88174629502389}, "138023684RR0001": {"name": "SENIORS ACTIVE LIVING CENTRE INC", "designationCode": "C", "categoryCode": "56", "address": "560 UNIVERSITY AVE", "city": "CHARLOTTETOWN", "province": "PE", "country": "CA", "postalCode": "C1A0G9", "twitter": "None", "instagram": "None", "facebook": "None", "youtube": "None", "website": "None", "summary": "None", "logo": "None", "latitude": 46.257273837642074, "longitude": -63.14221253800004}, "862493715RR0001": {"name": "SENIORS ASSISTED TRANSPORTATION SOCIETY OF GREATER EDMONTON", "designationCode": "C", "categoryCode": "09", "address": "9948 82 ST NW", "city": "EDMONTON", "province": "AB", "country": "CA", "postalCode": "T6A3L8", "twitter": "None", "instagram": "None", "facebook": "None", "youtube": "None", "website": "None", "summary": "None", "logo": "None", "latitude": 53.54036983236193, "longitude": -113.45348772540227}, "118981935RR0001": {"name": "SENIORS ASSOCIATION KINGSTON REGION", "designationCode": "C", "categoryCode": "09", "address": "56 FRANCIS STREET", "city": "KINGSTON", "province": "ON", "country": "CA", "postalCode": "K7M1L8", "twitter": "None", "instagram": "None", "facebook": "None", "youtube": "None", "website": "None", "summary": "None", "logo": "None", "latitude": 44.224404244792005, "longitude": -76.52192027217355}, "129908489RR0001": {"name": "SENIORS COME SHARE SOCIETY", "designationCode": "C", "categoryCode": "09", "address": "15008 26 AVE", "city": "SURREY", "province": "BC", "country": "CA", "postalCode": "V4P3H5", "twitter": "None", "instagram": "None", "facebook": "None", "youtube": "None", "website": "None", "summary": "None", "logo": "None", "latitude": 49.04902259449485, "longitude": -122.80394659466774}, "866049224RR0001": {"name": "SENIORS FOR KIDS SOCIETY (SKS)", "designationCode": "C", "categoryCode": "09", "address": "PO BOX 5, SITE 13, RR1", "city": "COCHRANE", "province": "AB", "country": "CA", "postalCode": "T4C1A1", "twitter": "None", "instagram": "None", "facebook": "None", "youtube": "None", "website": "None", "summary": "None", "logo": "None", "latitude": 51.19089900000006, "longitude": -114.46804249999994}, "896004223RR0001": {"name": "SENIORS LIFE ENHANCEMENT CENTRES", "designationCode": "C", "categoryCode": "09", "address": "120 - 2030 BRISTOL CIRCLE", "city": "OAKVILLE", "province": "ON", "country": "CA", "postalCode": "L6H0H2", "twitter": "None", "instagram": "None", "facebook": "None", "youtube": "None", "website": "None", "summary": "None", "logo": "None", "latitude": 43.51046850513589, "longitude": -79.67038882266708}, "888077468RR0001": {"name": "SENIORS ORGANISED SERVICES OF SOURIS VALLEY INC", "designationCode": "C", "categoryCode": "09", "address": "P.O. BOX 1245", "city": "SOURIS", "province": "MB", "country": "CA", "postalCode": "R0K2C0", "twitter": "None", "instagram": "None", "facebook": "None", "youtube": "None", "website": "None", "summary": "None", "logo": "None", "latitude": 49.59915625917259, "longitude": -99.8622610573006}, "899274088RR0001": {"name": "SENIORS OUTREACH PROGRAM SOCIETY", "designationCode": "C", "categoryCode": "09", "address": "BOX 1465                      160-3 AVENUE SOUTH", "city": "THREE HILLS", "province": "AB", "country": "CA", "postalCode": "T0M2A0", "twitter": "None", "instagram": "None", "facebook": "None", "youtube": "None", "website": "None", "summary": "None", "logo": "None", "latitude": 51.70286552346702, "longitude": -113.26953689305206}, "107967622RR0001": {"name": "SENIORS OUTREACH SERVICES SOCIETY", "designationCode": "C", "categoryCode": "56", "address": "115 - 2065 BENVOULIN CRT", "city": "KELOWNA", "province": "BC", "country": "CA", "postalCode": "V1W0A5", "twitter": "None", "instagram": "None", "facebook": "None", "youtube": "None", "website": "None", "summary": "None", "logo": "None", "latitude": 49.87648686242184, "longitude": -119.43981661480949}, "119145381RR0001": {"name": "SENIORS PROGRESSIVE SOCIETY", "designationCode": "C", "categoryCode": "09", "address": "6260 KILLARNEY", "city": "VANCOUVER", "province": "BC", "country": "CA", "postalCode": "V5S2X7", "twitter": "None", "instagram": "None", "facebook": "None", "youtube": "None", "website": "None", "summary": "None", "logo": "None", "latitude": 49.22620641920012, "longitude": -123.04552355451237}, "136765278RR0001": {"name": "SENIORS RESOURCE CENTRE ASSOCIATION OF NEWFOUNDLAND & LABRADOR INC.", "designationCode": "C", "categoryCode": "56", "address": "110 - 243 TOPSAIL RD", "city": "ST. JOHN'S", "province": "NL", "country": "CA", "postalCode": "A1E0G5", "twitter": "None", "instagram": "None", "facebook": "None", "youtube": "None", "website": "None", "summary": "None", "logo": "None", "latitude": 47.53948792449084, "longitude": -52.73733777725212}, "894375666RR0001": {"name": "SENIORS SECRET SERVICE SOCIETY", "designationCode": "C", "categoryCode": "09", "address": "300 - 160 QUARRY PARK ROAD", "city": "CALGARY", "province": "AB", "country": "CA", "postalCode": "T2C3G3", "twitter": "None", "instagram": "None", "facebook": "None", "youtube": "None", "website": "None", "summary": "None", "logo": "None", "latitude": 50.960301731833894, "longitude": -114.00718254578504}, "801388547RR0001": {"name": "SENIORS SERVICES SOCIETY OF BC", "designationCode": "C", "categoryCode": "09", "address": "750 CARNARVON ST", "city": "NEW WESTMINSTER", "province": "BC", "country": "CA", "postalCode": "V3M1E7", "twitter": "None", "instagram": "None", "facebook": "None", "youtube": "None", "website": "None", "summary": "None", "logo": "None", "latitude": 49.20216956473988, "longitude": -122.9122273475574}, "119145399RR0001": {"name": "SENIORS SERVING SENIORS ASSOCIATION OF BRITISH COLUMBIA", "designationCode": "C", "categoryCode": "59", "address": "#109-1022 PANDORA AVE", "city": "VICTORIA", "province": "BC", "country": "CA", "postalCode": "V8V3P6", "twitter": "None", "instagram": "None", "facebook": "None", "youtube": "None", "website": "None", "summary": "None", "logo": "None", "latitude": 48.42728346047074, "longitude": -123.35466813765944}, "119005700RR0001": {"name": "SENIORS' COMMUNITY CENTRE", "designationCode": "C", "categoryCode": "09", "address": "101 - 540 SEYMOUR STREET", "city": "KAMLOOPS", "province": "BC", "country": "CA", "postalCode": "V2C2G9", "twitter": "None", "instagram": "None", "facebook": "None", "youtube": "None", "website": "None", "summary": "None", "logo": "None", "latitude": 50.67497753318127, "longitude": -120.32849241618096}, "133724070RR0001": {"name": "SENIORS' PERFORMING ARTS CANADA", "designationCode": "C", "categoryCode": "22", "address": "88 WESTPOINT GDNS SW", "city": "CALGARY", "province": "AB", "country": "CA", "postalCode": "T3H4M4", "twitter": "None", "instagram": "None", "facebook": "None", "youtube": "None", "website": "None", "summary": "None", "logo": "None", "latitude": 51.061050503462454, "longitude": -114.18914241618097}, "891732042RR0001": {"name": "SENIORS' RESOURCE CENTRE", "designationCode": "C", "categoryCode": "56", "address": "39 KING ST.", "city": "SAINT JOHN", "province": "NB", "country": "CA", "postalCode": "E2L4W3", "twitter": "None", "instagram": "None", "facebook": "None", "youtube": "None", "website": "None", "summary": "None", "logo": "None", "latitude": 45.27306328893755, "longitude": -66.06129501471517}, "836848077RR0001": {"name": "SENIORS' SAFETY PROGRAM ASSOCIATION OF HANTS COUNTY", "designationCode": "C", "categoryCode": "09", "address": "PO BOX 3357", "city": "WINDSOR", "province": "NS", "country": "CA", "postalCode": "B0N2T0", "twitter": "None", "instagram": "None", "facebook": "None", "youtube": "None", "website": "None", "summary": "None", "logo": "None", "latitude": 44.990170000000035, "longitude": -64.12904999999995}, "888936663RR0001": {"name": "SENIORS' SERVICES OF THE TURTLE MOUNTAIN AREA (SSTMA) INC.", "designationCode": "C", "categoryCode": "09", "address": "BOX 962", "city": "BOISSEVAIN", "province": "MB", "country": "CA", "postalCode": "R0K0E0", "twitter": "None", "instagram": "None", "facebook": "None", "youtube": "None", "website": "None", "summary": "None", "logo": "None", "latitude": 49.23156000000006, "longitude": -100.05945999999994}, "833586142RR0001": {"name": "SENNEVILLE PARTAGE/SENNEVILLE SHARES", "designationCode": "A", "categoryCode": "53", "address": "34 MUIR PARC CIRCLE AVE", "city": "SENNEVILLE", "province": "QC", "country": "CA", "postalCode": "H9X1T8", "twitter": "None", "instagram": "None", "facebook": "None", "youtube": "None", "website": "None", "summary": "None", "logo": "None", "latitude": 45.41139868687771, "longitude": -73.95441110853905}, "107967721RR0001": {"name": "SENSENBRENNER HOSPITAL", "designationCode": "C", "categoryCode": "10", "address": "101 PROGRESS CRESCENT", "city": "KAPUSKASING", "province": "ON", "country": "CA", "postalCode": "P5N3H5", "twitter": "None", "instagram": "None", "facebook": "None", "youtube": "None", "website": "None", "summary": "None", "logo": "None", "latitude": 49.4248713776114, "longitude": -82.4290556781458}, "865632970RR0001": {"name": "SENSENBRENNER HOSPITAL AUXILIARY INC", "designationCode": "C", "categoryCode": "19", "address": "101 PROGRESS CRESCENT", "city": "KAPUSKASING", "province": "ON", "country": "CA", "postalCode": "P5N3H5", "twitter": "None", "instagram": "None", "facebook": "None", "youtube": "None", "website": "None", "summary": "None", "logo": "None", "latitude": 49.4248713776114, "longitude": -82.4290556781458}, "802874545RR0001": {"name": "SENSIBLE ACTION", "designationCode": "C", "categoryCode": "03", "address": "1636, MONTGOMERY", "city": "ST-HUBERT", "province": "QC", "country": "CA", "postalCode": "J4T1J7", "twitter": "None", "instagram": "None", "facebook": "None", "youtube": "None", "website": "None", "summary": "None", "logo": "None", "latitude": 45.49518253675931, "longitude": -73.46417668898968}, "133444166RR0001": {"name": "SENTIER MASSAWIPI", "designationCode": "C", "categoryCode": "52", "address": "C.P. 1502", "city": "AYER'S CLIFF", "province": "QC", "country": "CA", "postalCode": "J0B1C0", "twitter": "None", "instagram": "None", "facebook": "None", "youtube": "None", "website": "None", "summary": "None", "logo": "None", "latitude": 45.19443601737697, "longitude": -72.05329095165459}, "867867822RR0001": {"name": "SENTIER URBAIN", "designationCode": "C", "categoryCode": "59", "address": "3.10,1710 RUE BEAUDRY", "city": "MONTREAL", "province": "QC", "country": "CA", "postalCode": "H2L3E7", "twitter": "None", "instagram": "None", "facebook": "None", "youtube": "None", "website": "None", "summary": "None", "logo": "None", "latitude": 45.5203528956374, "longitude": -73.55927210658429}, "141824243RR0001": {"name": "SENTIERS FRONTALIERS INC", "designationCode": "C", "categoryCode": "56", "address": "C.P 23", "city": "LAC MEGANTIC", "province": "QC", "country": "CA", "postalCode": "G6B2S5", "twitter": "None", "instagram": "None", "facebook": "None", "youtube": "None", "website": "None", "summary": "None", "logo": "None", "latitude": 45.574557000000055, "longitude": -70.88209099999993}, "119145480RR0001": {"name": "SENTINEL SCHOLARSHIP FUND", "designationCode": "C", "categoryCode": "25", "address": "1250 CHARTWELL DRIVE", "city": "WEST VANCOUVER", "province": "BC", "country": "CA", "postalCode": "V7S2R2", "twitter": "None", "instagram": "None", "facebook": "None", "youtube": "None", "website": "None", "summary": "None", "logo": "None", "latitude": 49.34624521098802, "longitude": -123.14952034322417}, "849179742RR0001": {"name": "SENVILLE FOUNDATION INC.", "designationCode": "A", "categoryCode": "03", "address": "483 OTTAWA ST S", "city": "KITCHENER", "province": "ON", "country": "CA", "postalCode": "N2M5H1", "twitter": "None", "instagram": "None", "facebook": "None", "youtube": "None", "website": "None", "summary": "None", "logo": "None", "latitude": 43.43023539462779, "longitude": -80.48102150118342}, "106716467RR0001": {"name": "SEP (SERVICE D'ENTRAIDE PASSERELLE)", "designationCode": "C", "categoryCode": "09", "address": "303 - 469 RUE JEAN-TALON O", "city": "MONTREAL", "province": "QC", "country": "CA", "postalCode": "H3N1R4", "twitter": "None", "instagram": "None", "facebook": "None", "youtube": "None", "website": "None", "summary": "None", "logo": "None", "latitude": 45.52880036291907, "longitude": -73.62317347366287}, "889974770RR0001": {"name": "SEPHARDI ASSOCIATION OF OTTAWA/ASSOCIATION SEPHARADE D'OTTAWA", "designationCode": "C", "categoryCode": "42", "address": "3781 STRANDHERD DR            PO BOX 34032", "city": "OTTAWA", "province": "ON", "country": "CA", "postalCode": "K2J5B1", "twitter": "None", "instagram": "None", "facebook": "None", "youtube": "None", "website": "None", "summary": "None", "logo": "None", "latitude": 45.268378566997725, "longitude": -75.75170136161941}, "119145514RR0001": {"name": "SEPHARDIC EDUCATIONAL FOUNDATION OF TORONTO", "designationCode": "C", "categoryCode": "20", "address": "7026 BATHURST ST", "city": "THORNHILL", "province": "ON", "country": "CA", "postalCode": "L4J8K3", "twitter": "None", "instagram": "None", "facebook": "None", "youtube": "None", "website": "None", "summary": "None", "logo": "None", "latitude": 43.79461578322474, "longitude": -79.44626688796176}, "847405651RR0001": {"name": "SEQUOIA COMMUNITY CHURCH", "designationCode": "C", "categoryCode": "31", "address": "255 TARTAN DR", "city": "NEPEAN", "province": "ON", "country": "CA", "postalCode": "K2J3T1", "twitter": "None", "instagram": "None", "facebook": "None", "youtube": "None", "website": "None", "summary": "None", "logo": "None", "latitude": 45.26178542431797, "longitude": -75.76587134952996}, "873582449RR0001": {"name": "SERAPH EVANGELICAL FREE CHURCH INC.", "designationCode": "C", "categoryCode": "39", "address": "56 THATCHER DRIVE", "city": "WINNIPEG", "province": "MB", "country": "CA", "postalCode": "R3T4K4", "twitter": "None", "instagram": "None", "facebook": "None", "youtube": "None", "website": "None", "summary": "None", "logo": "None", "latitude": 49.817787244243725, "longitude": -97.14506044015832}, "126074517RR0001": {"name": "SERBIAN BROTHERS HELP OF CANADA INC", "designationCode": "C", "categoryCode": "09", "address": "2520 DIXIE RD", "city": "MISSISSAUGA", "province": "ON", "country": "CA", "postalCode": "L4P2A5", "twitter": "None", "instagram": "None", "facebook": "None", "youtube": "None", "website": "None", "summary": "None", "logo": "None", "latitude": 43.607984826793356, "longitude": -79.58204809106105}, "891213431RR0001": {"name": "SERBIAN HERITAGE MUSEUM OF WINDSOR", "designationCode": "C", "categoryCode": "50", "address": "6770 TECUMSEH ROAD EAST", "city": "WINDSOR", "province": "ON", "country": "CA", "postalCode": "N8T1E6", "twitter": "None", "instagram": "None", "facebook": "None", "youtube": "None", "website": "None", "summary": "None", "logo": "None", "latitude": 42.312094759732844, "longitude": -82.94374070184195}, "107968018RR0001": {"name": "SERBIAN ORTHODOX CHURCH AND SCHOOL CONGREGATION OF ST. DIMITRIJE IN WINDSOR", "designationCode": "C", "categoryCode": "39", "address": "53 QUEENSWAY STREET", "city": "ESSEX", "province": "ON", "country": "CA", "postalCode": "N8M3C3", "twitter": "None", "instagram": "None", "facebook": "None", "youtube": "None", "website": "None", "summary": "None", "logo": "None", "latitude": 42.170775677555895, "longitude": -82.8319667067458}, "892462367RR0001": {"name": "SERBIAN ORTHODOX CHURCH OF ST ARSENIJE SREMAC", "designationCode": "C", "categoryCode": "39", "address": "508 BYRON ST S", "city": "WHITBY", "province": "ON", "country": "CA", "postalCode": "L1N4R3", "twitter": "None", "instagram": "None", "facebook": "None", "youtube": "None", "website": "None", "summary": "None", "logo": "None", "latitude": 43.87461563030185, "longitude": -78.94136351904301}, "119145563RR0001": {"name": "SERBIAN ORTHODOX CHURCH-SCHOOL CONGREGATION OF SAINT SAVA, IN EDMONTON, ALBERTA, CANADA", "designationCode": "C", "categoryCode": "39", "address": "12904 - 112 STREET", "city": "EDMONTON", "province": "AB", "country": "CA", "postalCode": "T5E6J1", "twitter": "None", "instagram": "None", "facebook": "None", "youtube": "None", "website": "None", "summary": "None", "logo": "None", "latitude": 53.58789916763806, "longitude": -113.51364028368607}, "119145589RR0001": {"name": "SERBIAN ORTHODOX HOLY TRINITY CHURCH, REGINA", "designationCode": "C", "categoryCode": "39", "address": "928 11TH AVE", "city": "REGINA", "province": "SK", "country": "CA", "postalCode": "S4N0K7", "twitter": "None", "instagram": "None", "facebook": "None", "youtube": "None", "website": "None", "summary": "None", "logo": "None", "latitude": 50.45044470234004, "longitude": -104.59435345797196}, "839359445RR0001": {"name": "SERBIAN SCHOOL NIKOLA TESLA INC.", "designationCode": "C", "categoryCode": "20", "address": "6205 BELAIRE AVE,", "city": "NIAGARA FALLS", "province": "ON", "country": "CA", "postalCode": "L2H1V1", "twitter": "None", "instagram": "None", "facebook": "None", "youtube": "None", "website": "None", "summary": "None", "logo": "None", "latitude": 43.08390791035259, "longitude": -79.134701592042}, "899994354RR0001": {"name": "SERCAN", "designationCode": "C", "categoryCode": "09", "address": "50 RUE CH\u00c9NIER", "city": "SAINT-EUSTACHE", "province": "QC", "country": "CA", "postalCode": "J7R1X1", "twitter": "None", "instagram": "None", "facebook": "None", "youtube": "None", "website": "None", "summary": "None", "logo": "None", "latitude": 45.55497499307511, "longitude": -73.89007981975288}, "119145597RR0001": {"name": "SERCOVIE INC.", "designationCode": "C", "categoryCode": "56", "address": "300 RUE CONSEIL", "city": "SHERBROOKE", "province": "QC", "country": "CA", "postalCode": "J1G1J4", "twitter": "None", "instagram": "None", "facebook": "None", "youtube": "None", "website": "None", "summary": "None", "logo": "None", "latitude": 45.403349629984746, "longitude": -71.87979665055694}, "887728269RR0001": {"name": "SERENA (REGIONAL) DE QUEBEC", "designationCode": "C", "categoryCode": "11", "address": "2455 RUE DU NEPTUNE", "city": "QU\u00c9BEC", "province": "QC", "country": "CA", "postalCode": "G2E6A3", "twitter": "None", "instagram": "None", "facebook": "None", "youtube": "None", "website": "None", "summary": "None", "logo": "None", "latitude": 46.80252716734961, "longitude": -71.33912719069178}, "890064280RR0001": {"name": "SERENA (REGIONAL) METROPOLITAIN", "designationCode": "C", "categoryCode": "11", "address": "6646 RUE SAINT-DENIS", "city": "MONTREAL", "province": "QC", "country": "CA", "postalCode": "H2S2R9", "twitter": "None", "instagram": "None", "facebook": "None", "youtube": "None", "website": "None", "summary": "None", "logo": "None", "latitude": 45.53514682234995, "longitude": -73.6076328773442}, "131872970RR0001": {"name": "SERENA ALBERTA", "designationCode": "A", "categoryCode": "09", "address": "131 TWIN BROOKS COVE NW", "city": "EDMONTON", "province": "AB", "country": "CA", "postalCode": "T6J6T1", "twitter": "None", "instagram": "None", "facebook": "None", "youtube": "None", "website": "None", "summary": "None", "logo": "None", "latitude": 53.440075205926576, "longitude": -113.5302091118071}, "119145621RR0001": {"name": "SERENA CANADA", "designationCode": "C", "categoryCode": "13", "address": "151 HOLLAND AVE", "city": "OTTAWA", "province": "ON", "country": "CA", "postalCode": "K1Y0Y2", "twitter": "None", "instagram": "None", "facebook": "None", "youtube": "None", "website": "None", "summary": "None", "logo": "None", "latitude": 45.398598662790626, "longitude": -75.73128426002678}, "119145639RR0001": {"name": "SERENA FAMILY PLANNING SOCIETY OF BRITISH COLUMBIA", "designationCode": "C", "categoryCode": "09", "address": "1210 HAMMOND AVE", "city": "COQUITLAM", "province": "BC", "country": "CA", "postalCode": "V3K2P1", "twitter": "None", "instagram": "None", "facebook": "None", "youtube": "None", "website": "None", "summary": "None", "logo": "None", "latitude": 49.24367154674263, "longitude": -122.85845002553523}, "107968158RR0001": {"name": "SERENA MANITOBA INC.", "designationCode": "C", "categoryCode": "09", "address": "99 CORNISH AVE                317 MERC", "city": "WINNIPEG", "province": "MB", "country": "CA", "postalCode": "R3C1A2", "twitter": "None", "instagram": "None", "facebook": "None", "youtube": "None", "website": "None", "summary": "None", "logo": "None", "latitude": 49.878933955037134, "longitude": -97.16045983714248}, "119145654RR0001": {"name": "SERENA ONTARIO", "designationCode": "C", "categoryCode": "09", "address": "151 HOLLAND AVENUE", "city": "OTTAWA", "province": "ON", "country": "CA", "postalCode": "K1Y0Y2", "twitter": "None", "instagram": "None", "facebook": "None", "youtube": "None", "website": "None", "summary": "None", "logo": "None", "latitude": 45.398598662790626, "longitude": -75.73128426002678}, "119145662RR0001": {"name": "SERENA OTTAWA", "designationCode": "C", "categoryCode": "09", "address": "151 HOLLAND AVENUE", "city": "OTTAWA", "province": "ON", "country": "CA", "postalCode": "K1Y0Y2", "twitter": "None", "instagram": "None", "facebook": "None", "youtube": "None", "website": "None", "summary": "None", "logo": "None", "latitude": 45.398598662790626, "longitude": -75.73128426002678}, "887961480RR0001": {"name": "SERENA QUEBEC", "designationCode": "C", "categoryCode": "11", "address": "6646 RUE SAINT-DENIS", "city": "MONTREAL", "province": "QC", "country": "CA", "postalCode": "H2S2R9", "twitter": "None", "instagram": "None", "facebook": "None", "youtube": "None", "website": "None", "summary": "None", "logo": "None", "latitude": 45.53514682234995, "longitude": -73.6076328773442}, "889135844RR0001": {"name": "SERENA SASKATCHEWAN", "designationCode": "C", "categoryCode": "09", "address": "BOX 7375", "city": "SASKATOON", "province": "SK", "country": "CA", "postalCode": "S7K4J3", "twitter": "None", "instagram": "None", "facebook": "None", "youtube": "None", "website": "None", "summary": "None", "logo": "None", "latitude": 52.13049000000005, "longitude": -106.65926449999994}, "139767784RR0001": {"name": "SERENATA CHOIR INC.", "designationCode": "C", "categoryCode": "22", "address": "P.O. BOX 345", "city": "MIDLAND", "province": "ON", "country": "CA", "postalCode": "L4R4L1", "twitter": "None", "instagram": "None", "facebook": "None", "youtube": "None", "website": "None", "summary": "None", "logo": "None", "latitude": 44.74989600000005, "longitude": -79.88850349999993}, "107968208RR0001": {"name": "SERENDIPITY CHILD DEVELOPMENT SOCIETY", "designationCode": "C", "categoryCode": "01", "address": "PO BOX 1610", "city": "SECHELT", "province": "BC", "country": "CA", "postalCode": "V0N3A0", "twitter": "None", "instagram": "None", "facebook": "None", "youtube": "None", "website": "None", "summary": "None", "logo": "None", "latitude": 49.473460000000046, "longitude": -123.75460999999996}, "133509315RR0001": {"name": "SERENDIPITY PARENTS ASSOCIATION OF THE HANDICAPPED", "designationCode": "C", "categoryCode": "09", "address": "R R 3", "city": "LACOMBE", "province": "AB", "country": "CA", "postalCode": "T4L2N3", "twitter": "None", "instagram": "None", "facebook": "None", "youtube": "None", "website": "None", "summary": "None", "logo": "None", "latitude": 52.463094000000055, "longitude": -113.73671149999993}, "864603352RR0001": {"name": "SERENITY HOUSE HOSPICE INC.", "designationCode": "C", "categoryCode": "01", "address": "20 FLORA ST", "city": "ST THOMAS", "province": "ON", "country": "CA", "postalCode": "N5P2X4", "twitter": "None", "instagram": "None", "facebook": "None", "youtube": "None", "website": "None", "summary": "None", "logo": "None", "latitude": 42.77978285700277, "longitude": -81.18896445630105}, "107968232RR0001": {"name": "SERENITY HOUSE INC.", "designationCode": "C", "categoryCode": "57", "address": "536 BRUNEL ST", "city": "OTTAWA", "province": "ON", "country": "CA", "postalCode": "K1K2G6", "twitter": "None", "instagram": "None", "facebook": "None", "youtube": "None", "website": "None", "summary": "None", "logo": "None", "latitude": 45.44853932861103, "longitude": -75.63184255886073}, "119145787RR0001": {"name": "SERENITY RENEWAL FOR FAMILIES CORPORATION", "designationCode": "C", "categoryCode": "57", "address": "202-2255 ST-LAURENT BLVD", "city": "OTTAWA", "province": "ON", "country": "CA", "postalCode": "K1G4K3", "twitter": "None", "instagram": "None", "facebook": "None", "youtube": "None", "website": "None", "summary": "None", "logo": "None", "latitude": 45.38738297504171, "longitude": -75.61614450132765}, "886287481RR0001": {"name": "SERGEANT DEREK C. BURKHOLDER MEMORIAL TRUST", "designationCode": "C", "categoryCode": "21", "address": "84 DUFFERIN STREET", "city": "BRIDGEWATER", "province": "NS", "country": "CA", "postalCode": "B4V2G3", "twitter": "None", "instagram": "None", "facebook": "None", "youtube": "None", "website": "None", "summary": "None", "logo": "None", "latitude": 44.37365454400131, "longitude": -64.51930306330412}, "890075047RR0001": {"name": "SERGEANT LARRY YOUNG MEMORIAL SCHOLARSHIP", "designationCode": "C", "categoryCode": "21", "address": "3585 GRAVELEY STREET", "city": "VANCOUVER", "province": "BC", "country": "CA", "postalCode": "V5K5J5", "twitter": "None", "instagram": "None", "facebook": "None", "youtube": "None", "website": "None", "summary": "None", "logo": "None", "latitude": 49.2702894838416, "longitude": -123.02619372300768}, "120777776RR0001": {"name": "SERLAN", "designationCode": "C", "categoryCode": "59", "address": "957, RAOUL CHARRETTE", "city": "JOLIETTE", "province": "QC", "country": "CA", "postalCode": "J6E4S8", "twitter": "None", "instagram": "None", "facebook": "None", "youtube": "None", "website": "None", "summary": "None", "logo": "None", "latitude": 46.01127156950788, "longitude": -73.4366763353917}, "890285570RR0001": {"name": "SERRA CLUB OF VANCOUVER", "designationCode": "C", "categoryCode": "49", "address": "4885 SAINT JOHN PAUL II WAY", "city": "VANCOUVER", "province": "BC", "country": "CA", "postalCode": "V5Z0G3", "twitter": "None", "instagram": "None", "facebook": "None", "youtube": "None", "website": "None", "summary": "None", "logo": "None", "latitude": 49.23885300000006, "longitude": -123.12055249999993}, "862376050RR0001": {"name": "SERRA FOUNDATION OF CANADA", "designationCode": "C", "categoryCode": "49", "address": "205-788 BEATTY STREET", "city": "VANCOUVER", "province": "BC", "country": "CA", "postalCode": "V6B2M1", "twitter": "None", "instagram": "None", "facebook": "None", "youtube": "None", "website": "None", "summary": "None", "logo": "None", "latitude": 49.27775979542976, "longitude": -123.1137066079406}, "898215884RR0001": {"name": "SERVANTS ANONYMOUS SOCIETY OF CALGARY", "designationCode": "C", "categoryCode": "57", "address": "260 - 7220 FISHER ST SE", "city": "CALGARY", "province": "AB", "country": "CA", "postalCode": "T2H2H8", "twitter": "None", "instagram": "None", "facebook": "None", "youtube": "None", "website": "None", "summary": "None", "logo": "None", "latitude": 50.988176276992334, "longitude": -114.06958938799136}, "864377759RR0001": {"name": "SERVANTS OF CHRIST MINISTRIES", "designationCode": "C", "categoryCode": "39", "address": "71 GROVER STREET", "city": "TORONTO", "province": "ON", "country": "CA", "postalCode": "M1C4V9", "twitter": "None", "instagram": "None", "facebook": "None", "youtube": "None", "website": "None", "summary": "None", "logo": "None", "latitude": 43.796313513734226, "longitude": -79.17835481476122}, "119145845RR0001": {"name": "SERVANTS OF GOD COMMUNITY (OTTAWA)", "designationCode": "C", "categoryCode": "39", "address": "47 INVERNESS AVE", "city": "NEPEAN", "province": "ON", "country": "CA", "postalCode": "K2E6N6", "twitter": "None", "instagram": "None", "facebook": "None", "youtube": "None", "website": "None", "summary": "None", "logo": "None", "latitude": 45.35710535111648, "longitude": -75.71786688175894}, "824465959RR0001": {"name": "SERVANTS TO ASIA'S URBAN POOR", "designationCode": "C", "categoryCode": "47", "address": "CHINATOWN                     PO BOX 88195", "city": "VANCOUVER", "province": "BC", "country": "CA", "postalCode": "V6A4A5", "twitter": "None", "instagram": "None", "facebook": "None", "youtube": "None", "website": "None", "summary": "None", "logo": "None", "latitude": 49.279930000000036, "longitude": -123.09971999999999}, "134655125RR0001": {"name": "SERVICE A L'ENFANCE ALADIN CHILDCARE SERVICES INC.", "designationCode": "C", "categoryCode": "21", "address": "2240 RUSSELL RD", "city": "OTTAWA", "province": "ON", "country": "CA", "postalCode": "K1G1B3", "twitter": "None", "instagram": "None", "facebook": "None", "youtube": "None", "website": "None", "summary": "None", "logo": "None", "latitude": 45.39567743793662, "longitude": -75.61376604180828}, "106915671RR0001": {"name": "SERVICE A LA FAMILLE CHINOISE DU GRAND MONTREAL INC.-CHINESE FAMILY SERVICE OF GREATER MONTREAL INC.", "designationCode": "C", "categoryCode": "09", "address": "987 RUE COTE                  4E ETAGE", "city": "MONTREAL", "province": "QC", "country": "CA", "postalCode": "H2Z1L1", "twitter": "None", "instagram": "None", "facebook": "None", "youtube": "None", "website": "None", "summary": "None", "logo": "None", "latitude": 45.506068301431036, "longitude": -73.56090266942708}, "896850690RR0001": {"name": "SERVICE ALIMENTAIRE \"LA RECETTE\"", "designationCode": "C", "categoryCode": "09", "address": "216 RUE DES OBLATS O", "city": "CHICOUTIMI", "province": "QC", "country": "CA", "postalCode": "G7J2B1", "twitter": "None", "instagram": "None", "facebook": "None", "youtube": "None", "website": "None", "summary": "None", "logo": "None", "latitude": 48.41747974963943, "longitude": -71.07630275258227}, "891887374RR0001": {"name": "SERVICE ALIMENTAIRE ET D'AIDE BUDGETAIRE CHARLEVOIX-EST INC", "designationCode": "C", "categoryCode": "09", "address": "135, RUE DOUCET", "city": "LA MALBAIE", "province": "QC", "country": "CA", "postalCode": "G5A1R7", "twitter": "None", "instagram": "None", "facebook": "None", "youtube": "None", "website": "None", "summary": "None", "logo": "None", "latitude": 47.65187396032652, "longitude": -70.15151533094829}, "104790001RR0001": {"name": "SERVICE ALTERNATIF D'INT\u00c9GRATION ET DE MAINTIEN EN EMPLOI", "designationCode": "C", "categoryCode": "59", "address": "183, RUE SAINT-GERMAIN O", "city": "RIMOUSKI", "province": "QC", "country": "CA", "postalCode": "G5L4B8", "twitter": "None", "instagram": "None", "facebook": "None", "youtube": "None", "website": "None", "summary": "None", "logo": "None"}, "107968968RR0001": {"name": "SERVICE AMICAL BASSE-VILLE INC.", "designationCode": "C", "categoryCode": "09", "address": "570 RUE SAINT-FRANCOIS EST", "city": "QUEBEC", "province": "QC", "country": "CA", "postalCode": "G1K2Z5", "twitter": "None", "instagram": "None", "facebook": "None", "youtube": "None", "website": "None", "summary": "None", "logo": "None", "latitude": 46.815317546689435, "longitude": -71.2226007599703}, "119145902RR0001": {"name": "SERVICE ANIMATION JEUNESSE DE L'OUTAOUAIS INC.", "designationCode": "C", "categoryCode": "01", "address": "67, MONTEE ST-ANDRE", "city": "ST-SIXTE", "province": "QC", "country": "CA", "postalCode": "J0X3B0", "twitter": "None", "instagram": "None", "facebook": "None", "youtube": "None", "website": "None", "summary": "None", "logo": "None", "latitude": 45.68962942829908, "longitude": -75.1232659640441}, "104790290RR0001": {"name": "SERVICE BENEVOLE COMTE L'ASSOMPTION", "designationCode": "C", "categoryCode": "09", "address": "50 RUE THOUIN LOCAL 108", "city": "REPENTIGNY", "province": "QC", "country": "CA", "postalCode": "J6A4J4", "twitter": "None", "instagram": "None", "facebook": "None", "youtube": "None", "website": "None", "summary": "None", "logo": "None", "latitude": 45.73416390891028, "longitude": -73.45014598687135}, "119145936RR0001": {"name": "SERVICE BENEVOLE D'ENTRAIDE ANJOU INC.", "designationCode": "C", "categoryCode": "09", "address": "107 7800 BOUL DE CHATEAUNEUF", "city": "ANJOU MONTREAL", "province": "QC", "country": "CA", "postalCode": "H1K4J4", "twitter": "None", "instagram": "None", "facebook": "None", "youtube": "None", "website": "None", "summary": "None", "logo": "None", "latitude": 45.60457440299499, "longitude": -73.55883300799276}}