{"118935436RR0001": {"name": "CENTRE DE LA PETITES ENFANCE DES PETITES FLEURS", "designationCode": "C", "categoryCode": "01", "address": "5080 WEST BROADWAY", "city": "MONTREAL", "province": "QC", "country": "CA", "postalCode": "H4V1Z9", "twitter": "None", "instagram": "None", "facebook": "None", "youtube": "None", "website": "None", "summary": "None", "logo": "None", "latitude": 45.45965651982243, "longitude": -73.6483035945235}, "107416679RR0001": {"name": "CENTRE DE LA PETITES ENFANCE NID DES PETITS ST-RAYMOND INC.", "designationCode": "C", "categoryCode": "20", "address": "400 RUE ST-CYRILLE", "city": "SAINT-RAYMOND", "province": "QC", "country": "CA", "postalCode": "G3L1T6", "twitter": "None", "instagram": "None", "facebook": "None", "youtube": "None", "website": "None", "summary": "None", "logo": "None", "latitude": 46.89035902663176, "longitude": -71.83112765777031}, "875359713RR0001": {"name": "CENTRE DE LEADERSHIP POUR LA JEUNESSE DON BOSCO / DON BOSCO YOUTH LEADERSHIP CENTER", "designationCode": "C", "categoryCode": "09", "address": "11991, PIERRE BAILLARGEON", "city": "MONTREAL", "province": "QC", "country": "CA", "postalCode": "H1E2E5", "twitter": "None", "instagram": "None", "facebook": "None", "youtube": "None", "website": "None", "summary": "None", "logo": "None", "latitude": 45.64103650265439, "longitude": -73.57619208364615}, "118845817RR0001": {"name": "CENTRE DE LECTURE ET D'ECRITURE (CLE MONTREAL)", "designationCode": "C", "categoryCode": "21", "address": "4450 RUE ST-HUBERT            LOCAL 217", "city": "MONTREAL", "province": "QC", "country": "CA", "postalCode": "H2J2W9", "twitter": "None", "instagram": "None", "facebook": "None", "youtube": "None", "website": "None", "summary": "None", "logo": "None", "latitude": 45.52513365803011, "longitude": -73.58025329450612}, "118856848RR0001": {"name": "CENTRE DE LITTERATURE CHRETIENNE/CHRISTIAN LITERATURE CENTRE", "designationCode": "C", "categoryCode": "47", "address": "650 BOUL GOUIN E", "city": "MONTREAL", "province": "QC", "country": "CA", "postalCode": "H2C1A6", "twitter": "None", "instagram": "None", "facebook": "None", "youtube": "None", "website": "None", "summary": "None", "logo": "None", "latitude": 45.557381661665445, "longitude": -73.6693827234117}, "106901440RR0001": {"name": "CENTRE DE LOISIRS MONSEIGNEUR PIGEON", "designationCode": "C", "categoryCode": "56", "address": "5550 ANGERS", "city": "MONTREAL", "province": "QC", "country": "CA", "postalCode": "H4E4A5", "twitter": "None", "instagram": "None", "facebook": "None", "youtube": "None", "website": "None", "summary": "None", "logo": "None", "latitude": 45.462904428530216, "longitude": -73.58467215399074}, "868176967RR0001": {"name": "CENTRE DE MEDITATION AGGA / AGGA MEDITATION CENTER", "designationCode": "C", "categoryCode": "35", "address": "7494 L\u00c9VESQUE E.", "city": "LAVAL", "province": "QC", "country": "CA", "postalCode": "H7A1R8", "twitter": "None", "instagram": "None", "facebook": "None", "youtube": "None", "website": "None", "summary": "None", "logo": "None", "latitude": 45.6518105950431, "longitude": -73.60236897028118}, "890646706RR0001": {"name": "CENTRE DE MEDITATION JOLICOEUR", "designationCode": "C", "categoryCode": "35", "address": "2922 RUE JOLICOEUR", "city": "MONTREAL", "province": "QC", "country": "CA", "postalCode": "H4E1Z3", "twitter": "None", "instagram": "None", "facebook": "None", "youtube": "None", "website": "None", "summary": "None", "logo": "None", "latitude": 45.455888725489174, "longitude": -73.60092743421437}, "100882703RR0001": {"name": "CENTRE DE MEDITATION SIDDHA DE MONTREAL", "designationCode": "C", "categoryCode": "20", "address": "220 - 911 RUE JEAN-TALON E", "city": "MONTREAL", "province": "QC", "country": "CA", "postalCode": "H2R1V5", "twitter": "None", "instagram": "None", "facebook": "None", "youtube": "None", "website": "None", "summary": "None", "logo": "None", "latitude": 45.5414044671877, "longitude": -73.61281527972645}, "121030647RR0001": {"name": "CENTRE DE MUSIQUE ET DE DANSE DE VAL D'OR INC", "designationCode": "B", "categoryCode": "22", "address": "88 RUE ALLARD                 C.P. 1685", "city": "VAL-D'OR", "province": "QC", "country": "CA", "postalCode": "J9P2Y1", "twitter": "None", "instagram": "None", "facebook": "None", "youtube": "None", "website": "None", "summary": "None", "logo": "None", "latitude": 48.09551019952127, "longitude": -77.77503373974301}, "898912944RR0001": {"name": "CENTRE DE NUTRITION BON SECOURS BAHON", "designationCode": "C", "categoryCode": "09", "address": "CP 222 SUCC. JEAN-TALON", "city": "MONTR\u00c9AL", "province": "QC", "country": "CA", "postalCode": "H1S2Z2", "twitter": "None", "instagram": "None", "facebook": "None", "youtube": "None", "website": "None", "summary": "None", "logo": "None", "latitude": 45.58218820629318, "longitude": -73.58052829407441}, "876546508RR0001": {"name": "CENTRE DE PAIX DE MONTREAL", "designationCode": "C", "categoryCode": "50", "address": "1 RUE DES BOULEAUX", "city": "SAINT-SAUVEUR", "province": "QC", "country": "CA", "postalCode": "J0R1R4", "twitter": "None", "instagram": "None", "facebook": "None", "youtube": "None", "website": "None", "summary": "None", "logo": "None", "latitude": 45.88673055369619, "longitude": -74.17522335455028}, "899955967RR0001": {"name": "CENTRE DE PAIX DE SAINT-HENRI", "designationCode": "C", "categoryCode": "09", "address": "109 RUE ALLEN", "city": "ST-HENRI", "province": "QC", "country": "CA", "postalCode": "G0R3E0", "twitter": "None", "instagram": "None", "facebook": "None", "youtube": "None", "website": "None", "summary": "None", "logo": "None", "latitude": 46.68998354954124, "longitude": -71.06620851471517}, "130520737RR0001": {"name": "CENTRE DE PARTAGE COMMUNAUTAIRE JOHANNAIS (C P C J )", "designationCode": "C", "categoryCode": "09", "address": "280 RUE MERCIER", "city": "ST-JEAN-SUR-RICHELIEU", "province": "QC", "country": "CA", "postalCode": "J3B6H4", "twitter": "None", "instagram": "None", "facebook": "None", "youtube": "None", "website": "None", "summary": "None", "logo": "None", "latitude": 45.3081149686364, "longitude": -73.25789201696554}, "892263906RR0001": {"name": "CENTRE DE PASTORALE \"SEL ET LUMIERE\"", "designationCode": "C", "categoryCode": "47", "address": "6 - 3333 RUE DU CARREFOUR", "city": "QUEBEC", "province": "QC", "country": "CA", "postalCode": "G1C5R9", "twitter": "None", "instagram": "None", "facebook": "None", "youtube": "None", "website": "None", "summary": "None", "logo": "None"}, "128027745RR0001": {"name": "CENTRE DE PLEIN AIR DU LAC DOLE INC.", "designationCode": "C", "categoryCode": "56", "address": "50-D RANG BEAUSEJOUR", "city": "SAINT-LOUIS DU HA HA", "province": "QC", "country": "CA", "postalCode": "G0L3S0", "twitter": "None", "instagram": "None", "facebook": "None", "youtube": "None", "website": "None", "summary": "None", "logo": "None", "latitude": 47.644119344999645, "longitude": -68.9740082048014}, "100883842RR0001": {"name": "CENTRE DE PLEIN AIR DU LAC FLAVRIAN", "designationCode": "C", "categoryCode": "56", "address": "100 CHEMIN DR LEMAY", "city": "ROUYN NORANDA", "province": "QC", "country": "CA", "postalCode": "J9X5T2", "twitter": "None", "instagram": "None", "facebook": "None", "youtube": "None", "website": "None", "summary": "None", "logo": "None", "latitude": 48.22450800000006, "longitude": -79.02230299999994}, "118846062RR0001": {"name": "CENTRE DE PLEIN AIR L'ESTACADE", "designationCode": "C", "categoryCode": "56", "address": "64, 13E AVENUE", "city": "ST-PAUL-ILE-AUX-NOIX", "province": "QC", "country": "CA", "postalCode": "J0J1G0", "twitter": "None", "instagram": "None", "facebook": "None", "youtube": "None", "website": "None", "summary": "None", "logo": "None", "latitude": 45.07738650678069, "longitude": -73.32838199999999}, "118846047RR0001": {"name": "CENTRE DE PLEIN AIR LASALLIEN INCORPOREE", "designationCode": "C", "categoryCode": "56", "address": "78 CHEMIN DU BR\u00dbL\u00c9            C.P. 1053", "city": "LAC-BEAUPORT", "province": "QC", "country": "CA", "postalCode": "G3B2J8", "twitter": "None", "instagram": "None", "facebook": "None", "youtube": "None", "website": "None", "summary": "None", "logo": "None", "latitude": 46.94477089803134, "longitude": -71.30442551543568}, "136403649RR0001": {"name": "CENTRE DE PR\u00c9VENTION DE LA VIOLENCE FAMILIALE GENERATIONS", "designationCode": "C", "categoryCode": "59", "address": "C.P. 186                      SUCC. PLACE D'ARMES", "city": "MONTR\u00c9AL", "province": "QC", "country": "CA", "postalCode": "H2Y3G7", "twitter": "None", "instagram": "None", "facebook": "None", "youtube": "None", "website": "None", "summary": "None", "logo": "None", "latitude": 45.50475000000006, "longitude": -73.55678999999998}, "106902166RR0001": {"name": "CENTRE DE PR\u00c9VENTION DU SUICIDE C.P.S.", "designationCode": "C", "categoryCode": "09", "address": "1310 1\u00c8RE AVENUE", "city": "QU\u00c9BEC", "province": "QC", "country": "CA", "postalCode": "G1L3L1", "twitter": "None", "instagram": "None", "facebook": "None", "youtube": "None", "website": "None", "summary": "None", "logo": "None", "latitude": 46.82729410796929, "longitude": -71.235016135986}, "885233155RR0001": {"name": "CENTRE DE PR\u00c9VENTION DU SUICIDE DE CHARLEVOIX", "designationCode": "C", "categoryCode": "09", "address": "367 ST-ETIENNE                BUR. 115", "city": "LA MALBAIE", "province": "QC", "country": "CA", "postalCode": "G5A1M3", "twitter": "None", "instagram": "None", "facebook": "None", "youtube": "None", "website": "None", "summary": "None", "logo": "None", "latitude": 47.65423718847008, "longitude": -70.14977797108924}, "106957251RR0001": {"name": "CENTRE DE PR\u00c9VENTION DU SUICIDE DE LA VALL\u00c9E-DE-L'OR INC.", "designationCode": "C", "categoryCode": "59", "address": "851, 5E AVENUE, BUREAU 209,   C.P. 178", "city": "VAL-D'OR", "province": "QC", "country": "CA", "postalCode": "J9P4P3", "twitter": "None", "instagram": "None", "facebook": "None", "youtube": "None", "website": "None", "summary": "None", "logo": "None", "latitude": 48.10474525725682, "longitude": -77.7880535742684}, "892713926RR0001": {"name": "CENTRE DE PREVENTION DE LA VIOLENCE DANS KENT INC./KENT CENTRE FOR PREVENTION OF VIOLENCE INC.", "designationCode": "C", "categoryCode": "09", "address": "7714 ROUTE 134", "city": "SAINTE-ANNE-DE-KENT", "province": "NB", "country": "CA", "postalCode": "E4S1H5", "twitter": "None", "instagram": "None", "facebook": "None", "youtube": "None", "website": "None", "summary": "None", "logo": "None", "latitude": 46.55590585422881, "longitude": -64.7772997114536}, "896482536RR0001": {"name": "CENTRE DE PREVENTION DES AGRESSIONS DE MONTREAL/MONTREAL ASSAULT PREVENTION CENTRE", "designationCode": "C", "categoryCode": "09", "address": "C.P. 60106, CSP SAINT-DENIS", "city": "MONTREAL", "province": "QC", "country": "CA", "postalCode": "H2J4E1", "twitter": "None", "instagram": "None", "facebook": "None", "youtube": "None", "website": "None", "summary": "None", "logo": "None", "latitude": 45.5263118591819, "longitude": -73.58805745076155}, "870464278RR0001": {"name": "CENTRE DE PREVENTION DU DECROCHAGE SCOLAIRE OMEGA", "designationCode": "C", "categoryCode": "09", "address": "421B BOUL DU CURE-LABELLE", "city": "BLAINVILLE", "province": "QC", "country": "CA", "postalCode": "J7C2H4", "twitter": "None", "instagram": "None", "facebook": "None", "youtube": "None", "website": "None", "summary": "None", "logo": "None", "latitude": 45.6521069083551, "longitude": -73.84709598221582}, "893004952RR0001": {"name": "CENTRE DE PREVENTION DU SUICIDE DE LA HAUTE YAMASKA INC", "designationCode": "C", "categoryCode": "59", "address": "220 - 328 RUE PRINCIPALE", "city": "GRANBY", "province": "QC", "country": "CA", "postalCode": "J2G2W4", "twitter": "None", "instagram": "None", "facebook": "None", "youtube": "None", "website": "None", "summary": "None", "logo": "None", "latitude": 45.4017478289864, "longitude": -72.73099540345635}, "100884188RR0001": {"name": "CENTRE DE PREVENTION DU SUICIDE DE MALARTIC INC.", "designationCode": "C", "categoryCode": "09", "address": "205-550 4IEME AVENUE", "city": "MALARTIC", "province": "QC", "country": "CA", "postalCode": "J0Y1Z0", "twitter": "None", "instagram": "None", "facebook": "None", "youtube": "None", "website": "None", "summary": "None", "logo": "None", "latitude": 48.140910754371276, "longitude": -78.12246283706514}, "132143157RR0001": {"name": "CENTRE DE PREVENTION DU SUICIDE DE ROUYN-NORANDA (C P S R N)", "designationCode": "C", "categoryCode": "59", "address": "C.P. 1023", "city": "ROUYN-NORANDA", "province": "QC", "country": "CA", "postalCode": "J9X5C8", "twitter": "None", "instagram": "None", "facebook": "None", "youtube": "None", "website": "None", "summary": "None", "logo": "None", "latitude": 48.237252000000055, "longitude": -79.01455399999993}, "133065110RR0001": {"name": "CENTRE DE PREVENTION DU SUICIDE ET D'INTERVENTION DE CRISE DU BAS ST-LAURENT", "designationCode": "C", "categoryCode": "09", "address": "CP 215 SUCC A", "city": "RIMOUSKI", "province": "QC", "country": "CA", "postalCode": "G5L7C1", "twitter": "None", "instagram": "None", "facebook": "None", "youtube": "None", "website": "None", "summary": "None", "logo": "None", "latitude": 48.44933700000006, "longitude": -68.52474349999993}, "106902174RR0001": {"name": "CENTRE DE PREVENTION DU SUICIDE REGION 02 INC.", "designationCode": "C", "categoryCode": "09", "address": "CP 8208 SUCC. RACINE", "city": "CHICOUTIMI", "province": "QC", "country": "CA", "postalCode": "G7H5G4", "twitter": "None", "instagram": "None", "facebook": "None", "youtube": "None", "website": "None", "summary": "None", "logo": "None", "latitude": 48.42794086469511, "longitude": -71.05630255036941}, "106990856RR0001": {"name": "CENTRE DE PREVENTION ET D'INTERVENTION POUR LES VICTIMES D'AGRESSION SEXUELLE (CPIVAS) INC.", "designationCode": "C", "categoryCode": "09", "address": "27543 FRANCHISE PONT-VIAU", "city": "LAVAL", "province": "QC", "country": "CA", "postalCode": "H7G4Y2", "twitter": "None", "instagram": "None", "facebook": "None", "youtube": "None", "website": "None", "summary": "None", "logo": "None", "latitude": 45.55759904695873, "longitude": -73.6765086555508}, "138995402RR0001": {"name": "CENTRE DE PREVENTION SUICIDE DU HAUT SAINT-MAURICE", "designationCode": "C", "categoryCode": "09", "address": "4 - 608 RUE CASTELNAU", "city": "LA TUQUE", "province": "QC", "country": "CA", "postalCode": "G9X2P1", "twitter": "None", "instagram": "None", "facebook": "None", "youtube": "None", "website": "None", "summary": "None", "logo": "None", "latitude": 47.43750600000001, "longitude": -72.77935990937164}, "118846112RR0001": {"name": "CENTRE DE PRIERE LA VIGNE", "designationCode": "C", "categoryCode": "49", "address": "1650, BOUL. DES HAUTEURS", "city": "SAINTE-SOPHIE", "province": "QC", "country": "CA", "postalCode": "J5J2L4", "twitter": "None", "instagram": "None", "facebook": "None", "youtube": "None", "website": "None", "summary": "None", "logo": "None", "latitude": 45.84807000734693, "longitude": -74.02462103291924}, "120312822RR0001": {"name": "CENTRE DE PROMOTION COMMUNAUTAIRE LE PHARE INC", "designationCode": "C", "categoryCode": "01", "address": "12585 AVE.NICOLAS-JOLY", "city": "MONTREAL", "province": "QC", "country": "CA", "postalCode": "H1E1V1", "twitter": "None", "instagram": "None", "facebook": "None", "youtube": "None", "website": "None", "summary": "None", "logo": "None", "latitude": 45.6373319192394, "longitude": -73.60067024311856}, "100884329RR0001": {"name": "CENTRE DE PSYCHOLOGIE GOUIN INC.", "designationCode": "C", "categoryCode": "59", "address": "39 OUEST BOUL GOUIN", "city": "MONTREAL", "province": "QC", "country": "CA", "postalCode": "H3L1H9", "twitter": "None", "instagram": "None", "facebook": "None", "youtube": "None", "website": "None", "summary": "None", "logo": "None", "latitude": 45.550794403023666, "longitude": -73.67522947117521}, "118846138RR0001": {"name": "CENTRE DE READAPTATION CONSTANCE-LETHBRIDGE/CONSTANCE-LETHBRIDGE REHABILITATION CENTRE", "designationCode": "C", "categoryCode": "11", "address": "7005 BOUL. DE MAISONNEUVE O.", "city": "MONTR\u00c9AL", "province": "QC", "country": "CA", "postalCode": "H4B1T3", "twitter": "None", "instagram": "None", "facebook": "None", "youtube": "None", "website": "None", "summary": "None", "logo": "None", "latitude": 45.458039795198616, "longitude": -73.63381719250945}, "118846179RR0001": {"name": "CENTRE DE RECHERCHE DE L'HOPITAL DOUGLAS - DOUGLAS HOSPITAL RESEARCH CENTRE", "designationCode": "C", "categoryCode": "11", "address": "6875 BOUL LASALLE", "city": "VERDUN", "province": "QC", "country": "CA", "postalCode": "H4H1R3", "twitter": "None", "instagram": "None", "facebook": "None", "youtube": "None", "website": "None", "summary": "None", "logo": "None", "latitude": 45.44093910547881, "longitude": -73.57937923037674}, "131869265RR0002": {"name": "CENTRE DE RECHERCHE DE LA TABLE REGIONALE DES ORGANISMES VOLONTAIRES EN EDUCATION POPULAIRE DE LA MONTEREGIE", "designationCode": "C", "categoryCode": "29", "address": "7500, CHEMIN DE CHAMBLY", "city": "ST-HUBERT", "province": "QC", "country": "CA", "postalCode": "J3Y3S6", "twitter": "None", "instagram": "None", "facebook": "None", "youtube": "None", "website": "None", "summary": "None", "logo": "None", "latitude": 45.49046609383101, "longitude": -73.38926876184445}, "131161523RR0001": {"name": "CENTRE DE RECHERCHE ET D'AIDE POUR NARCOMANES DE MONTREAL CRAN INC", "designationCode": "C", "categoryCode": "09", "address": "110 RUE PRINCE ARTHUR OUEST", "city": "MONTREAL", "province": "QC", "country": "CA", "postalCode": "H2X1S7", "twitter": "None", "instagram": "None", "facebook": "None", "youtube": "None", "website": "None", "summary": "None", "logo": "None", "latitude": 45.512399776848085, "longitude": -73.57381829265978}, "100884584RR0001": {"name": "CENTRE DE RECHERCHE ET DE DESIGN EN IMPRESSION TEXTILE DE MONTREAL", "designationCode": "C", "categoryCode": "20", "address": "326-4710 RUE SAINT-AMBROISE", "city": "MONTREAL", "province": "QC", "country": "CA", "postalCode": "H4C2C7", "twitter": "None", "instagram": "None", "facebook": "None", "youtube": "None", "website": "None", "summary": "None", "logo": "None", "latitude": 45.47060151592728, "longitude": -73.58572256532429}, "890777949RR0001": {"name": "CENTRE DE RECHERCHE ET DE TRAITEMENT DE MONTREAL POUR LES HABILETES ET LES TROUBLES D'APPRENTISSAGE/MONTREA RESEARCH AND", "designationCode": "C", "categoryCode": "11", "address": "1212 AVENUE DES PINS # 1807", "city": "MONTREAL", "province": "QC", "country": "CA", "postalCode": "H3G1A9", "twitter": "None", "instagram": "None", "facebook": "None", "youtube": "None", "website": "None", "summary": "None", "logo": "None", "latitude": 45.50271277018299, "longitude": -73.58359541046815}, "118846237RR0001": {"name": "CENTRE DE RECHERCHE MEDICALE DE L'UNIVERSITE DE SHERBROOKE MEDICAL RESEARCH CENTRE OF THE UNINVERSITY OF SHERBROOKE", "designationCode": "B", "categoryCode": "13", "address": "3001 12E AVENUE NORD 6213", "city": "FLEURIMONT", "province": "QC", "country": "CA", "postalCode": "J1H5N4", "twitter": "None", "instagram": "None", "facebook": "None", "youtube": "None", "website": "None", "summary": "None", "logo": "None", "latitude": 45.44612968765278, "longitude": -71.86449888198075}, "877880922RR0001": {"name": "CENTRE DE RECHERCHE SUR L'ATELIER DE L'ARCHE ET SON EPOQUE 1900-1925", "designationCode": "C", "categoryCode": "22", "address": "382 RUE DALP\u00c9", "city": "VERCH\u00c8RES", "province": "QC", "country": "CA", "postalCode": "J0L2R0", "twitter": "None", "instagram": "None", "facebook": "None", "youtube": "None", "website": "None", "summary": "None", "logo": "None", "latitude": 45.770772824860124, "longitude": -73.36296721980503}, "118846252RR0001": {"name": "CENTRE DE REEDUCATION COR JESU DE TIMMINS INCORPOREE", "designationCode": "C", "categoryCode": "57", "address": "140 JUBILEE STREET WEST", "city": "TIMMINS", "province": "ON", "country": "CA", "postalCode": "P4N4M9", "twitter": "None", "instagram": "None", "facebook": "None", "youtube": "None", "website": "None", "summary": "None", "logo": "None", "latitude": 48.48708218740769, "longitude": -81.3390639046004}, "106895840RR0001": {"name": "CENTRE DE REFERENCE DU GRAND MONTREAL-INFORMATION AND REFERRAL CENTER OF GREATER MONTREAL", "designationCode": "C", "categoryCode": "09", "address": "101-3155 RUE HOCHELAGA", "city": "MONTREAL", "province": "QC", "country": "CA", "postalCode": "H1W1G4", "twitter": "None", "instagram": "None", "facebook": "None", "youtube": "None", "website": "None", "summary": "None", "logo": "None", "latitude": 45.542420024986974, "longitude": -73.55416159259026}, "866233331RR0001": {"name": "CENTRE DE REFERENCE SUR LA NUTRITION HUMAINE EXTENSO", "designationCode": "C", "categoryCode": "11", "address": "2405 CH COTE STE-CATHERINE", "city": "MONTREAL", "province": "QC", "country": "CA", "postalCode": "H3T1A8", "twitter": "None", "instagram": "None", "facebook": "None", "youtube": "None", "website": "None", "summary": "None", "logo": "None", "latitude": 45.508893778521546, "longitude": -73.61826585957058}, "894112358RR0001": {"name": "CENTRE DE REHABILITATION LE NICHOIR INC.", "designationCode": "C", "categoryCode": "54", "address": "637 MAIN ROAD", "city": "HUDSON", "province": "QC", "country": "CA", "postalCode": "J0P1H0", "twitter": "None", "instagram": "None", "facebook": "None", "youtube": "None", "website": "None", "summary": "None", "logo": "None", "latitude": 45.467024902478016, "longitude": -74.15900283636505}, "890169972RR0001": {"name": "CENTRE DE REHABILITATION POUR OISEAUX BLESSES DE LA MONTEREGIE", "designationCode": "C", "categoryCode": "54", "address": "1357, CH. OZIAS LEDUC", "city": "OTTERBURN PARK", "province": "QC", "country": "CA", "postalCode": "J3G4S6", "twitter": "None", "instagram": "None", "facebook": "None", "youtube": "None", "website": "None", "summary": "None", "logo": "None", "latitude": 45.531852072767855, "longitude": -73.20486494301426}, "871714895RR0001": {"name": "CENTRE DE RELATION D'AIDE LE LEVIER", "designationCode": "C", "categoryCode": "09", "address": "6865 CHRISTOPHE-COLOMB        SUITE 312", "city": "MONTREAL", "province": "QC", "country": "CA", "postalCode": "H2S2H3", "twitter": "None", "instagram": "None", "facebook": "None", "youtube": "None", "website": "None", "summary": "None", "logo": "None", "latitude": 45.540244287004306, "longitude": -73.60692887411288}, "106895873RR0001": {"name": "CENTRE DE RELEVEMENT ET D'INFORMATION SOCIALE VICTORIAVILLE INC.", "designationCode": "C", "categoryCode": "09", "address": "59 RUE MONFETTE               BUREAU 007", "city": "VICTORIAVILLE", "province": "QC", "country": "CA", "postalCode": "G6P1J8", "twitter": "None", "instagram": "None", "facebook": "None", "youtube": "None", "website": "None", "summary": "None", "logo": "None", "latitude": 46.06164779188039, "longitude": -71.9668892342031}, "131935652RR0001": {"name": "CENTRE DE RENCONTRE ARC-EN-CIEL LTEE", "designationCode": "C", "categoryCode": "09", "address": "448 RUE DE POINTE GATINEAU", "city": "GATINEAU", "province": "QC", "country": "CA", "postalCode": "J8T2B7", "twitter": "None", "instagram": "None", "facebook": "None", "youtube": "None", "website": "None", "summary": "None", "logo": "None", "latitude": 45.46683251731227, "longitude": -75.69899950276996}, "867197881RR0001": {"name": "CENTRE DE RENOUVEAU AULNEAU RENEWAL CENTRE INC", "designationCode": "C", "categoryCode": "09", "address": "228 HAMEL AVENUE", "city": "WINNIPEG", "province": "MB", "country": "CA", "postalCode": "R2H0K6", "twitter": "None", "instagram": "None", "facebook": "None", "youtube": "None", "website": "None", "summary": "None", "logo": "None", "latitude": 49.88824051399405, "longitude": -97.11843380682672}, "859240434RR0001": {"name": "CENTRE DE REPIT PHILOU", "designationCode": "C", "categoryCode": "01", "address": "3165 JEAN BRILLANT", "city": "MONTREAL", "province": "QC", "country": "CA", "postalCode": "H3T1N7", "twitter": "None", "instagram": "None", "facebook": "None", "youtube": "None", "website": "None", "summary": "None", "logo": "None", "latitude": 45.49914964891219, "longitude": -73.61876847005004}, "897963096RR0001": {"name": "CENTRE DE REPIT-DEPANNAGE AUX QUATRE POCHES INC.", "designationCode": "C", "categoryCode": "01", "address": "560 CHEMIN DU LAC", "city": "BOUCHERVILLE", "province": "QC", "country": "CA", "postalCode": "J4B6X3", "twitter": "None", "instagram": "None", "facebook": "None", "youtube": "None", "website": "None", "summary": "None", "logo": "None", "latitude": 45.60602773076931, "longitude": -73.4455621549717}, "833552474RR0001": {"name": "CENTRE DE RESSOURCEMENT ATTITUDE / ATTITUDE RESOURCE CENTER", "designationCode": "C", "categoryCode": "09", "address": "19 AV. DE LA GARE LOCAL I", "city": "SAINT-SAUVEUR", "province": "QC", "country": "CA", "postalCode": "J0R1R0", "twitter": "None", "instagram": "None", "facebook": "None", "youtube": "None", "website": "None", "summary": "None", "logo": "None", "latitude": 45.89395305601678, "longitude": -74.1569752565204}, "138026356RR0001": {"name": "CENTRE DE RESSOURCEMENT DE REINSERTION ET D'INTERVENTION", "designationCode": "C", "categoryCode": "09", "address": "28-37 RUE CHRETIEN            C.P. 6147", "city": "GASPE", "province": "QC", "country": "CA", "postalCode": "G4X2R6", "twitter": "None", "instagram": "None", "facebook": "None", "youtube": "None", "website": "None", "summary": "None", "logo": "None", "latitude": 48.83405322453688, "longitude": -64.48124186081135}, "131843369RR0001": {"name": "CENTRE DE RESSOURCEMENT POUR LA FAMILLE DE L'OUTAOUAIS", "designationCode": "C", "categoryCode": "59", "address": "973 BLVD HURTUBISE", "city": "GATINEAU", "province": "QC", "country": "CA", "postalCode": "J8P1Z9", "twitter": "None", "instagram": "None", "facebook": "None", "youtube": "None", "website": "None", "summary": "None", "logo": "None", "latitude": 45.476407318367905, "longitude": -75.59895681141434}, "118869023RR0001": {"name": "CENTRE DE RESSOURCEMENT SPIRITUEL ET SOCIAL PAIX-DIEU", "designationCode": "C", "categoryCode": "38", "address": "EDIFICE MARIE-GUYART-1ER ETAGE675 BOUL RENE LEVESQUE EST", "city": "QUEBEC", "province": "QC", "country": "CA", "postalCode": "G1R5X9", "twitter": "None", "instagram": "None", "facebook": "None", "youtube": "None", "website": "None", "summary": "None", "logo": "None", "latitude": 46.80865000000006, "longitude": -71.21818999999994}, "878576826RR0001": {"name": "CENTRE DE RESSOURCES COMMUNAUTAIRE ST-ANTOINE DE PADOUE", "designationCode": "C", "categoryCode": "09", "address": "10 - 6600 AV VICTORIA", "city": "MONTREAL", "province": "QC", "country": "CA", "postalCode": "H3W3G8", "twitter": "None", "instagram": "None", "facebook": "None", "youtube": "None", "website": "None", "summary": "None", "logo": "None", "latitude": 45.49601415001001, "longitude": -73.64153299387684}, "888812484RR0001": {"name": "CENTRE DE RESSOURCES COMMUNAUTAIRES DE COTE-DES-NEIGES", "designationCode": "C", "categoryCode": "09", "address": "6767 CH DE LA COTE-DES-NEIGES PORTE 103", "city": "MONTREAL", "province": "QC", "country": "CA", "postalCode": "H3S2T6", "twitter": "None", "instagram": "None", "facebook": "None", "youtube": "None", "website": "None", "summary": "None", "logo": "None", "latitude": 45.50313226868245, "longitude": -73.63713869926147}, "887563054RR0001": {"name": "CENTRE DE RESSOURCES CONNEXIONS / CONNEXIONS RESOURCE CENTER", "designationCode": "C", "categoryCode": "09", "address": "80 RUE DANIEL-JOHNSON", "city": "GATINEAU", "province": "QC", "country": "CA", "postalCode": "J8Z1S3", "twitter": "None", "instagram": "None", "facebook": "None", "youtube": "None", "website": "None", "summary": "None", "logo": "None", "latitude": 45.465696626723826, "longitude": -75.7490336257142}, "118846336RR0001": {"name": "CENTRE DE RESSOURCES DE LA TROISIEME AVENUE INC./THIRD AVENUE RESOURCE CENTRE INC.", "designationCode": "C", "categoryCode": "21", "address": "3535 AVENUE DU PARC", "city": "MONTREAL", "province": "QC", "country": "CA", "postalCode": "H2X2H8", "twitter": "None", "instagram": "None", "facebook": "None", "youtube": "None", "website": "None", "summary": "None", "logo": "None", "latitude": 45.509816261469076, "longitude": -73.57433087411289}, "885246850RR0001": {"name": "CENTRE DE RESSOURCES EDUCATIVES ET COMMUNAUTAIRES POUR ADULTES", "designationCode": "C", "categoryCode": "09", "address": "10770 CHAMBORD", "city": "MONTREAL", "province": "QC", "country": "CA", "postalCode": "H2C2R8", "twitter": "None", "instagram": "None", "facebook": "None", "youtube": "None", "website": "None", "summary": "None", "logo": "None", "latitude": 45.56195007908719, "longitude": -73.66547071816024}, "895786028RR0001": {"name": "CENTRE DE RESSOURCES ET D'INTERVENTION POUR HOMMES ABUSES SEXUELLEMENT DANS LEUR ENFANCE (CRIPHASE)", "designationCode": "C", "categoryCode": "09", "address": "8105 AV. DE GASP\u00c9, BUREAU 100", "city": "MONTR\u00c9AL", "province": "QC", "country": "CA", "postalCode": "H2P2J9", "twitter": "None", "instagram": "None", "facebook": "None", "youtube": "None", "website": "None", "summary": "None", "logo": "None", "latitude": 45.540834768031175, "longitude": -73.63041410746828}, "107619884RR0001": {"name": "CENTRE DE RESSOURCES FAMILIALES DE L'ESTRIE", "designationCode": "C", "categoryCode": "01", "address": "1500, BOUL. HOLY CROSS", "city": "CORNWALL", "province": "ON", "country": "CA", "postalCode": "K6H2X1", "twitter": "None", "instagram": "None", "facebook": "None", "youtube": "None", "website": "None", "summary": "None", "logo": "None", "latitude": 45.03575244993916, "longitude": -74.70102480544173}, "891301947RR0001": {"name": "CENTRE DE RESSOURCES FAMILIALES DUHAUT ST-LAURENT", "designationCode": "C", "categoryCode": "01", "address": "16 RUE KING", "city": "HUNTINGDON", "province": "QC", "country": "CA", "postalCode": "J0S1H0", "twitter": "None", "instagram": "None", "facebook": "None", "youtube": "None", "website": "None", "summary": "None", "logo": "None", "latitude": 45.08845736167672, "longitude": -74.17371667239858}, "894968254RR0001": {"name": "CENTRE DE RESSOURCES FAMILIALES MADAWASKA/VICTORIA FAMILY RESOURCE CENTRE INC.", "designationCode": "C", "categoryCode": "09", "address": "475 TERRACE ST                UNIT E", "city": "GRAND FALLS", "province": "NB", "country": "CA", "postalCode": "E3Z1B3", "twitter": "None", "instagram": "None", "facebook": "None", "youtube": "None", "website": "None", "summary": "None", "logo": "None", "latitude": 47.047860808471505, "longitude": -67.75208076120927}, "895120541RR0001": {"name": "CENTRE DE RESSOURCES FAMILIALES STURGEON FALLS FAMILY RESOURCE CENTRE", "designationCode": "C", "categoryCode": "01", "address": "PO BOX 6228                   155 SALTER STREET", "city": "STURGEON FALLS", "province": "ON", "country": "CA", "postalCode": "P2B3K6", "twitter": "None", "instagram": "None", "facebook": "None", "youtube": "None", "website": "None", "summary": "None", "logo": "None", "latitude": 46.36376147100232, "longitude": -79.92170958090485}, "830516548RR0001": {"name": "CENTRE DE RESSOURCES FAMILIALES 4 KORNERS/4 KORNERS FAMILY RESOURCE CENTER", "designationCode": "C", "categoryCode": "09", "address": "200 RUE HENRI-DUNANT", "city": "DEUX-MONTAGNES", "province": "QC", "country": "CA", "postalCode": "J7R2Z9", "twitter": "None", "instagram": "None", "facebook": "None", "youtube": "None", "website": "None", "summary": "None", "logo": "None", "latitude": 45.547411097957294, "longitude": -73.89182390657302}, "896602042RR0001": {"name": "CENTRE DE RESSOURCES POUR LA NAISSANCE REGION MAURICIE INC.", "designationCode": "C", "categoryCode": "11", "address": "690 BOUL. DES R\u00c9COLLETS", "city": "TROIS-RIVI\u00c8RES", "province": "QC", "country": "CA", "postalCode": "G8Z3V9", "twitter": "None", "instagram": "None", "facebook": "None", "youtube": "None", "website": "None", "summary": "None", "logo": "None", "latitude": 46.36163736444668, "longitude": -72.56827145259355}, "896849890RR0001": {"name": "CENTRE DE RESSOURCES POUR LES FAMILLES DE MILITAIRES DE BAGOTVILLE / BAGOTVILLE MILITARY FAMILY RESOURCE CENTRE", "designationCode": "C", "categoryCode": "09", "address": "1775 LUCIEN LECOMPTE          C.P. 280", "city": "ALOUETTE", "province": "QC", "country": "CA", "postalCode": "G0V1A0", "twitter": "None", "instagram": "None", "facebook": "None", "youtube": "None", "website": "None", "summary": "None", "logo": "None", "latitude": 48.33830400000005, "longitude": -70.98872299999994}, "896721933RR0001": {"name": "CENTRE DE RESSOURCES POUR LES FAMILLES DES MILITAIRES DE LA REGION DE MONTREAL/MILITARY FAMILY RESOURCE CENTRE MONTREAL REGION", "designationCode": "C", "categoryCode": "09", "address": "TANDEM (SH)  BFC MONTREAL", "city": "RICHELAIN", "province": "QC", "country": "CA", "postalCode": "J0J1R0", "twitter": "None", "instagram": "None", "facebook": "None", "youtube": "None", "website": "None", "summary": "None", "logo": "None", "latitude": 45.04602300000006, "longitude": -72.80493649999994}, "898253158RR0001": {"name": "CENTRE DE RESSOURCES POUR PARENTS DU RESTIGOUCHE INC.", "designationCode": "C", "categoryCode": "09", "address": "CP 863", "city": "CAMPBELLTON", "province": "NB", "country": "CA", "postalCode": "E3N3H3", "twitter": "None", "instagram": "None", "facebook": "None", "youtube": "None", "website": "None", "summary": "None", "logo": "None", "latitude": 47.99757300000006, "longitude": -66.66103249999993}, "136770385RR0001": {"name": "CENTRE DE RESTAURATION CHRETIENNE INTERNATIONAL/CHRISTIAN RESTORATION CENTER INTERNATIONAL", "designationCode": "C", "categoryCode": "49", "address": "6767 CH DE LA COTE-SAINT-LUC  APP 421", "city": "COTE SAINT-LUC", "province": "QC", "country": "CA", "postalCode": "H4V2Z6", "twitter": "None", "instagram": "None", "facebook": "None", "youtube": "None", "website": "None", "summary": "None", "logo": "None", "latitude": 45.469302317242736, "longitude": -73.65002501904301}, "852360163RR0001": {"name": "CENTRE DE RESTAURATION ET REVEIL POUR LES NATIONS / CENTRO RESTAURACION Y AVIVAMIENTO PARA LAS NACIONES", "designationCode": "C", "categoryCode": "39", "address": "40 RUE FAIRFIELD", "city": "GRANBY", "province": "QC", "country": "CA", "postalCode": "J2G2B2", "twitter": "None", "instagram": "None", "facebook": "None", "youtube": "None", "website": "None", "summary": "None", "logo": "None", "latitude": 45.40534603468183, "longitude": -72.71703035362664}, "126956804RR0001": {"name": "CENTRE DE SANTE COMMUNAUTAIRE DE L'ESTRIE ONTARIO", "designationCode": "C", "categoryCode": "11", "address": "6 - 841 SYDNEY ST", "city": "CORNWALL", "province": "ON", "country": "CA", "postalCode": "K6H3J7", "twitter": "None", "instagram": "None", "facebook": "None", "youtube": "None", "website": "None", "summary": "None", "logo": "None", "latitude": 45.029327899304135, "longitude": -74.73247759721653}, "138100029RR0001": {"name": "CENTRE DE SANTE COMMUNAUTAIRE DE SUDBURY", "designationCode": "C", "categoryCode": "11", "address": "19 RUE FROOD", "city": "SUDBURY", "province": "ON", "country": "CA", "postalCode": "P3C4Y9", "twitter": "None", "instagram": "None", "facebook": "None", "youtube": "None", "website": "None", "summary": "None", "logo": "None", "latitude": 46.49380031359654, "longitude": -80.99824872924725}, "898573951RR0001": {"name": "CENTRE DE SANTE COMMUNAUTAIRE HAMILTON-WENTWORTH-NIAGARA INC.", "designationCode": "C", "categoryCode": "11", "address": "810 EST MAIN STREET", "city": "WELLAND", "province": "ON", "country": "CA", "postalCode": "L3B3Y4", "twitter": "None", "instagram": "None", "facebook": "None", "youtube": "None", "website": "None", "summary": "None", "logo": "None", "latitude": 42.99357312426318, "longitude": -79.23150162426317}, "118846344RR0001": {"name": "CENTRE DE SANTE DES FEMMES DE LA MAURICIE", "designationCode": "C", "categoryCode": "11", "address": "889 RUE DU HAUT BOC", "city": "TROIS-RIVI\u00c8RES", "province": "QC", "country": "CA", "postalCode": "G9A4W7", "twitter": "None", "instagram": "None", "facebook": "None", "youtube": "None", "website": "None", "summary": "None", "logo": "None", "latitude": 46.34599620537831, "longitude": -72.54152608214558}, "118846351RR0001": {"name": "CENTRE DE SANTE DES FEMMES DE MONTREAL INC.", "designationCode": "C", "categoryCode": "11", "address": "3409 AVE DE LORIMIER", "city": "MONTR\u00c9AL", "province": "QC", "country": "CA", "postalCode": "H2K3X5", "twitter": "None", "instagram": "None", "facebook": "None", "youtube": "None", "website": "None", "summary": "None", "logo": "None", "latitude": 45.530955973368265, "longitude": -73.56344727003875}, "130104466RR0001": {"name": "CENTRE DE SANTE ET DE SERVICES SOCIAUX CAVENDISH", "designationCode": "C", "categoryCode": "11", "address": "6484 MONKLAND AVENUE", "city": "MONTREAL", "province": "QC", "country": "CA", "postalCode": "H4B1H3", "twitter": "None", "instagram": "None", "facebook": "None", "youtube": "None", "website": "None", "summary": "None", "logo": "None", "latitude": 45.465672636678484, "longitude": -73.63176535994596}, "106945827RR0001": {"name": "CENTRE DE SANTE ET DE SERVICES SOCIAUX DE LA MONTAGNE", "designationCode": "C", "categoryCode": "11", "address": "6484 AV DE MONKLAND", "city": "MONTREAL", "province": "QC", "country": "CA", "postalCode": "H4B1H3", "twitter": "None", "instagram": "None", "facebook": "None", "youtube": "None", "website": "None", "summary": "None", "logo": "None", "latitude": 45.465672636678484, "longitude": -73.63176535994596}, "106898505RR0002": {"name": "CENTRE DE SANTE ET DE SERVICES SOCIAUX DU ROCHER-PERCE", "designationCode": "C", "categoryCode": "01", "address": "451 MGR ROSS EST              CP 3300", "city": "CHANDLER", "province": "QC", "country": "CA", "postalCode": "G0C1K0", "twitter": "None", "instagram": "None", "facebook": "None", "youtube": "None", "website": "None", "summary": "None", "logo": "None", "latitude": 48.35404770468824, "longitude": -64.67171926402565}, "132835232RR0001": {"name": "CENTRE DE SANTE MENTALE L'ARRIMAGE", "designationCode": "C", "categoryCode": "01", "address": "1230 BOUL WALLBERG            SUITE 310", "city": "DOLBEAU-MISTASSINI", "province": "QC", "country": "CA", "postalCode": "G8L1H2", "twitter": "None", "instagram": "None", "facebook": "None", "youtube": "None", "website": "None", "summary": "None", "logo": "None", "latitude": 48.877771494864106, "longitude": -72.22686960061168}, "870092152RR0001": {"name": "CENTRE DE SANTE SAINT-BONIFACE INC/SAINT-BONIFACE HEALTH CENTRE INC", "designationCode": "C", "categoryCode": "10", "address": "170 GOULET ST", "city": "WINNIPEG", "province": "MB", "country": "CA", "postalCode": "R2H0R7", "twitter": "None", "instagram": "None", "facebook": "None", "youtube": "None", "website": "None", "summary": "None", "logo": "None", "latitude": 49.882374546742625, "longitude": -97.12130035928213}, "895691681RR0001": {"name": "CENTRE DE SERVICES \u00c0 LA FAMILLE/ REGION DE LA CAPITALE NATIONALE", "designationCode": "C", "categoryCode": "49", "address": "107 - 5460 CANOTEK RD", "city": "GLOUCESTER", "province": "ON", "country": "CA", "postalCode": "K1J9H1", "twitter": "None", "instagram": "None", "facebook": "None", "youtube": "None", "website": "None", "summary": "None", "logo": "None", "latitude": 45.458839020889336, "longitude": -75.58281326545112}, "120831227RR0001": {"name": "CENTRE DE SERVICES COMMUNAUTAIRES JUSTICE ET FO1", "designationCode": "C", "categoryCode": "59", "address": "590 RUE SAINT-JOSEPH ESR", "city": "QUEBEC", "province": "QC", "country": "CA", "postalCode": "G1K3B8", "twitter": "None", "instagram": "None", "facebook": "None", "youtube": "None", "website": "None", "summary": "None", "logo": "None", "latitude": 46.81484084098895, "longitude": -71.22257853179629}, "855800736RR0001": {"name": "CENTRE DE SERVICES DE JUSTICE REPARATRICE", "designationCode": "C", "categoryCode": "59", "address": "7333, RUE SAINT-DENIS", "city": "MONTR\u00c9AL", "province": "QC", "country": "CA", "postalCode": "H2R2E5", "twitter": "None", "instagram": "None", "facebook": "None", "youtube": "None", "website": "None", "summary": "None", "logo": "None", "latitude": 45.53926088816424, "longitude": -73.6174749822264}, "118846419RR0001": {"name": "CENTRE DE SERVICES DU MIEUX-VIVRE DE BEGIN, SHIPSHAW, ST-CHARLES ET ST-AMBROISE", "designationCode": "C", "categoryCode": "09", "address": "74 RUE BRASSARD", "city": "SAINT-AMBROISE", "province": "QC", "country": "CA", "postalCode": "G7P2J1", "twitter": "None", "instagram": "None", "facebook": "None", "youtube": "None", "website": "None", "summary": "None", "logo": "None", "latitude": 48.55951968884546, "longitude": -71.32676638802}, "106896335RR0001": {"name": "CENTRE DE SERVICES EDUCATIFS POPULAIRES DU HAUT ST-FRANCOIS", "designationCode": "C", "categoryCode": "21", "address": "90 RUE ANGUS N", "city": "EAST ANGUS", "province": "QC", "country": "CA", "postalCode": "J0B1R0", "twitter": "None", "instagram": "None", "facebook": "None", "youtube": "None", "website": "None", "summary": "None", "logo": "None", "latitude": 45.48615589410978, "longitude": -71.66002822502536}, "873619803RR0001": {"name": "CENTRE DE SERVICES PREVENTIFS A L'ENFANCE DE COTE DES NEIGES", "designationCode": "A", "categoryCode": "09", "address": "6555 CH DE COTE-DES-NEIGES    SUITE 300", "city": "MONTREAL", "province": "QC", "country": "CA", "postalCode": "H3S2A6", "twitter": "None", "instagram": "None", "facebook": "None", "youtube": "None", "website": "None", "summary": "None", "logo": "None", "latitude": 45.50235426536422, "longitude": -73.63542183746917}, "119172047RR0001": {"name": "CENTRE DE SERVICES PROFESSIONNELS COMMUNAUTAIRES STE-ANNE INC.", "designationCode": "C", "categoryCode": "11", "address": "500 OLD ST-PATRICK ST", "city": "OTTAWA", "province": "ON", "country": "CA", "postalCode": "K1N9G4", "twitter": "None", "instagram": "None", "facebook": "None", "youtube": "None", "website": "None", "summary": "None", "logo": "None", "latitude": 45.43441664360339, "longitude": -75.68438085870521}, "107718959RR0001": {"name": "CENTRE DE SOINS PROLONGES GRACE DART/GRACE DART EXTENDED CARE CENTRE", "designationCode": "C", "categoryCode": "10", "address": "5155 ST-CATHERINE EST", "city": "MONTREAL", "province": "QC", "country": "CA", "postalCode": "H1V2A5", "twitter": "None", "instagram": "None", "facebook": "None", "youtube": "None", "website": "None", "summary": "None", "logo": "None", "latitude": 45.55897315874205, "longitude": -73.52792406058246}, "140684747RR0001": {"name": "CENTRE DE SOIR DENISE MASSE", "designationCode": "C", "categoryCode": "09", "address": "1713 RUE AMHERST", "city": "MONTREAL", "province": "QC", "country": "CA", "postalCode": "H2L3L4", "twitter": "None", "instagram": "None", "facebook": "None", "youtube": "None", "website": "None", "summary": "None", "logo": "None", "latitude": 45.51915318096827, "longitude": -73.56060790062907}, "118782721RR0001": {"name": "CENTRE DE SOLIDARIT\u00c9 INTERNATIONALE CORCOVADO INC.", "designationCode": "C", "categoryCode": "09", "address": "83 RUE GAMBLE OUEST", "city": "ROUYN-NORANDA", "province": "QC", "country": "CA", "postalCode": "J9X2R3", "twitter": "None", "instagram": "None", "facebook": "None", "youtube": "None", "website": "None", "summary": "None", "logo": "None", "latitude": 48.23989051399403, "longitude": -79.022412}, "118846542RR0001": {"name": "CENTRE DE SOLIDARITE INTERNATIONALE DU SAGUENAY-LAC-SAINT-JEAN INC.", "designationCode": "C", "categoryCode": "21", "address": "27, RUE SAINT-JOSEPH C.P.2127", "city": "ALMA", "province": "QC", "country": "CA", "postalCode": "G8B5V8", "twitter": "None", "instagram": "None", "facebook": "None", "youtube": "None", "website": "None", "summary": "None", "logo": "None", "latitude": 48.551075590628365, "longitude": -71.65135301009889}, "106896681RR0001": {"name": "CENTRE DE SOUS-TRAITANCE BEAUCE (C.S.T.B.) INC.", "designationCode": "C", "categoryCode": "09", "address": "9050 22E AVENUE", "city": "ST-GEORGES", "province": "QC", "country": "CA", "postalCode": "G5Y7R6", "twitter": "None", "instagram": "None", "facebook": "None", "youtube": "None", "website": "None", "summary": "None", "logo": "None", "latitude": 46.142260378267835, "longitude": -70.67816762868573}, "138201173RR0001": {"name": "CENTRE DE SOUTIEN ENTR'AIDANTS", "designationCode": "C", "categoryCode": "09", "address": "1688 RUE GUSTAVE-D\u00c9SOURDY", "city": "SAINT-HUBERT", "province": "QC", "country": "CA", "postalCode": "J4T1Y6", "twitter": "None", "instagram": "None", "facebook": "None", "youtube": "None", "website": "None", "summary": "None", "logo": "None", "latitude": 45.49992163890019, "longitude": -73.47182687203542}, "892692278RR0001": {"name": "CENTRE DE SPIRITUALITE IGNACIENNE MONTREAL/IGNATIAN SPIRITUALITY CENTRE MONTREAL", "designationCode": "C", "categoryCode": "46", "address": "4567 WEST BROADWAY", "city": "MONTREAL", "province": "QC", "country": "CA", "postalCode": "H4B2A7", "twitter": "None", "instagram": "None", "facebook": "None", "youtube": "None", "website": "None", "summary": "None", "logo": "None", "latitude": 45.457871603958566, "longitude": -73.64362211988583}}