{"800523193RR0001": {"name": "Bethel Romanian Pentecostal Church of Calgary", "designationCode": "C", "categoryCode": "39", "address": "20 CROCUS RIDGE PL", "city": "CALGARY", "province": "AB", "country": "CA", "postalCode": "T3Z1G6", "twitter": "None", "instagram": "None", "facebook": "None", "youtube": "None", "website": "None", "summary": "None", "logo": "None", "latitude": 51.102063000000015, "longitude": -114.31762972525898}, "819773086RR0001": {"name": "Bethel South Asian Church", "designationCode": "C", "categoryCode": "39", "address": "6 PERSONNA CIRCLE,", "city": "BRAMPTON", "province": "ON", "country": "CA", "postalCode": "L6X0P2", "twitter": "None", "instagram": "None", "facebook": "None", "youtube": "None", "website": "None", "summary": "None", "logo": "None", "latitude": 43.66904512210755, "longitude": -79.80700183432384}, "815969621RR0001": {"name": "Bethel United Community Church", "designationCode": "B", "categoryCode": "39", "address": "23 CHARLES ST", "city": "CORNER BROOK", "province": "NL", "country": "CA", "postalCode": "A2H5M2", "twitter": "None", "instagram": "None", "facebook": "None", "youtube": "None", "website": "None", "summary": "None", "logo": "None", "latitude": 48.939109490709185, "longitude": -57.94913935830118}, "867050890RR0001": {"name": "Bethel United Reformed Church", "designationCode": "C", "categoryCode": "39", "address": "3938 COUNTY 26 RD             RR 2", "city": "BROCKVILLE", "province": "ON", "country": "CA", "postalCode": "K6V5T2", "twitter": "None", "instagram": "None", "facebook": "None", "youtube": "None", "website": "None", "summary": "None", "logo": "None", "latitude": 44.64555375272651, "longitude": -75.6745487682784}, "840285068RR0001": {"name": "Bethel World Outreach Ministries", "designationCode": "C", "categoryCode": "39", "address": "#67-7518 138TH STREET", "city": "SURREY", "province": "BC", "country": "CA", "postalCode": "V3W1S1", "twitter": "None", "instagram": "None", "facebook": "None", "youtube": "None", "website": "None", "summary": "None", "logo": "None", "latitude": 49.139280000000014, "longitude": -122.83998996944445}, "106789118RR0001": {"name": "Bethel-Maidstone United Church", "designationCode": "C", "categoryCode": "44", "address": "3902 MANNING RD               RR 1", "city": "MAIDSTONE", "province": "ON", "country": "CA", "postalCode": "N0R1K0", "twitter": "None", "instagram": "None", "facebook": "None", "youtube": "None", "website": "None", "summary": "None", "logo": "None", "latitude": 42.1908202940454, "longitude": -82.87666308023329}, "140038167RR0001": {"name": "Bethell Hospice", "designationCode": "C", "categoryCode": "01", "address": "15835 MCLAUGHLIN ROAD", "city": "INGLEWOOD", "province": "ON", "country": "CA", "postalCode": "L7C1H4", "twitter": "None", "instagram": "None", "facebook": "None", "youtube": "None", "website": "None", "summary": "None", "logo": "None", "latitude": 43.799577405403724, "longitude": -79.93765115073593}, "857100812RR0001": {"name": "Bethesda Care Home Society - 2006", "designationCode": "C", "categoryCode": "09", "address": "P.O. BOX 1096                 701-3A STREET SOUTH", "city": "PICTURE BUTTE", "province": "AB", "country": "CA", "postalCode": "T0K1V0", "twitter": "None", "instagram": "None", "facebook": "None", "youtube": "None", "website": "None", "summary": "None", "logo": "None", "latitude": 49.86611545535037, "longitude": -112.77781440648198}, "106789993RR0001": {"name": "Bethesda Evangelical Lutheran Church of Kenora", "designationCode": "C", "categoryCode": "32", "address": "401 SIXTH AVENUE SOUTH", "city": "KENORA", "province": "ON", "country": "CA", "postalCode": "P9N2C2", "twitter": "None", "instagram": "None", "facebook": "None", "youtube": "None", "website": "None", "summary": "None", "logo": "None", "latitude": 49.76115131170282, "longitude": -94.48199051817762}, "843099771RR0001": {"name": "Bethesda International Ministries", "designationCode": "C", "categoryCode": "39", "address": "12 WINROW GATE", "city": "AJAX", "province": "ON", "country": "CA", "postalCode": "L1T0G3", "twitter": "None", "instagram": "None", "facebook": "None", "youtube": "None", "website": "None", "summary": "None", "logo": "None", "latitude": 43.88832446350052, "longitude": -79.0282966988861}, "801975889RR0001": {"name": "Bethesda Karen Baptist Church", "designationCode": "C", "categoryCode": "39", "address": "6251 141A STREET", "city": "SURREY", "province": "BC", "country": "CA", "postalCode": "V3X0B2", "twitter": "None", "instagram": "None", "facebook": "None", "youtube": "None", "website": "None", "summary": "None", "logo": "None", "latitude": 49.11621837523809, "longitude": -122.83065341384369}, "840637094RR0001": {"name": "Bethesda Revival Centre Inc.", "designationCode": "C", "categoryCode": "39", "address": "32 VISART STREET", "city": "SAINT JOHN", "province": "NB", "country": "CA", "postalCode": "E2K1N4", "twitter": "None", "instagram": "None", "facebook": "None", "youtube": "None", "website": "None", "summary": "None", "logo": "None", "latitude": 45.279920536211044, "longitude": -66.07619013044608}, "856132055RR0001": {"name": "Bethesda Wellness Inc.", "designationCode": "C", "categoryCode": "19", "address": "316 HENRY AVE", "city": "STEINBACH", "province": "MB", "country": "CA", "postalCode": "R5G0P9", "twitter": "None", "instagram": "None", "facebook": "None", "youtube": "None", "website": "None", "summary": "None", "logo": "None", "latitude": 49.52979556972012, "longitude": -96.67947928286685}, "866989833RR0001": {"name": "Bethlehem Apostolic Church Inc.", "designationCode": "C", "categoryCode": "39", "address": "3500 REGINA AVENUE", "city": "REGINA", "province": "SK", "country": "CA", "postalCode": "S4S0H4", "twitter": "None", "instagram": "None", "facebook": "None", "youtube": "None", "website": "None", "summary": "None", "logo": "None", "latitude": 50.43492650432784, "longitude": -104.63140155107045}, "831212907RR0001": {"name": "Better Homeland (Toronto) Worship Choir", "designationCode": "C", "categoryCode": "47", "address": "8 ELSPETH PLACE", "city": "THORNHILL", "province": "ON", "country": "CA", "postalCode": "L3T1C4", "twitter": "None", "instagram": "None", "facebook": "None", "youtube": "None", "website": "None", "summary": "None", "logo": "None", "latitude": 43.80345937471848, "longitude": -79.40095137272792}, "845755875RR0001": {"name": "Better Life Integration & Support Society", "designationCode": "C", "categoryCode": "09", "address": "320 - 2860 TRETHEWEY ST", "city": "ABBOTSFORD", "province": "BC", "country": "CA", "postalCode": "V2T0G5", "twitter": "None", "instagram": "None", "facebook": "None", "youtube": "None", "website": "None", "summary": "None", "logo": "None", "latitude": 49.05435646683882, "longitude": -122.32674215860327}, "107029720RR0001": {"name": "Better Living at Thompson House", "designationCode": "C", "categoryCode": "01", "address": "1 OVERLAND DR", "city": "NORTH YORK", "province": "ON", "country": "CA", "postalCode": "M3C2C3", "twitter": "None", "instagram": "None", "facebook": "None", "youtube": "None", "website": "None", "summary": "None", "logo": "None", "latitude": 43.73270495195931, "longitude": -79.34721427029855}, "118818491RR0115": {"name": "Better Living Centre; Lillooet Seventh-day Adventist Company", "designationCode": "C", "categoryCode": "41", "address": "BOX 1000", "city": "ABBOTSFORD", "province": "BC", "country": "CA", "postalCode": "V2S4P5", "twitter": "None", "instagram": "None", "facebook": "None", "youtube": "None", "website": "None", "summary": "None", "logo": "None", "latitude": 49.03851300000005, "longitude": -122.29441549999993}, "822605135RR0001": {"name": "Better Tomorrow Health Foundation", "designationCode": "C", "categoryCode": "11", "address": "36 MARACA DR", "city": "RICHMOND HILL", "province": "ON", "country": "CA", "postalCode": "L4S0A3", "twitter": "None", "instagram": "None", "facebook": "None", "youtube": "None", "website": "None", "summary": "None", "logo": "None", "latitude": 43.89327448404406, "longitude": -79.39852620910055}, "854375615RR0001": {"name": "Betty Lou Cowper Charitable Trust", "designationCode": "B", "categoryCode": "05", "address": "540-1002 SHERBROOKE ST. WEST", "city": "MONTREAL", "province": "QC", "country": "CA", "postalCode": "H3A3L6", "twitter": "None", "instagram": "None", "facebook": "None", "youtube": "None", "website": "None", "summary": "None", "logo": "None", "latitude": 45.502789852876845, "longitude": -73.57558716772498}, "883410425RR0001": {"name": "Beulah Burman Memorial Animal Shelter Society", "designationCode": "C", "categoryCode": "54", "address": "528 SANDYPOINT ROAD           P.O. BOX 267", "city": "SHELBURNE", "province": "NS", "country": "CA", "postalCode": "B0T1W0", "twitter": "None", "instagram": "None", "facebook": "None", "youtube": "None", "website": "None", "summary": "None", "logo": "None", "latitude": 43.73797521954525, "longitude": -65.31156821446665}, "787342286RR0001": {"name": "Beutel Goodman Charitable Foundation / Fondation Beutel Goodman", "designationCode": "B", "categoryCode": "03", "address": "20 EGLINTON AVENUE WEST       SUITE 2000", "city": "TORONTO", "province": "ON", "country": "CA", "postalCode": "M4R1K8", "twitter": "None", "instagram": "None", "facebook": "None", "youtube": "None", "website": "None", "summary": "None", "logo": "None", "latitude": 43.70661117236991, "longitude": -79.39906987844073}, "119288918RR0343": {"name": "Beverly Congregation of Jehovah's Witnesses, Edmonton, Alberta", "designationCode": "C", "categoryCode": "61", "address": "12311 48 ST NW", "city": "EDMONTON", "province": "AB", "country": "CA", "postalCode": "T5W5H5", "twitter": "None", "instagram": "None", "facebook": "None", "youtube": "None", "website": "None", "summary": "None", "logo": "None", "latitude": 53.57880900000001, "longitude": -113.41525676348923}, "132542887RR0001": {"name": "Beverly Day Care Society & Family Resource Centre", "designationCode": "C", "categoryCode": "01", "address": "11809-48 STREET", "city": "EDMONTON", "province": "AB", "country": "CA", "postalCode": "T5W2Y4", "twitter": "None", "instagram": "None", "facebook": "None", "youtube": "None", "website": "None", "summary": "None", "logo": "None", "latitude": 53.57124000000002, "longitude": -113.41527426406614}, "858798127RR0001": {"name": "Beyond Abilities Centre", "designationCode": "C", "categoryCode": "59", "address": "UNIT 1, SUITE 267             1111 DAVIS DR", "city": "NEWMARKET", "province": "ON", "country": "CA", "postalCode": "L3Y9E5", "twitter": "None", "instagram": "None", "facebook": "None", "youtube": "None", "website": "None", "summary": "None", "logo": "None", "latitude": 44.06604516573349, "longitude": -79.43088971097555}, "823954797RR0001": {"name": "Beyond Classrooms Kingston", "designationCode": "C", "categoryCode": "21", "address": "203A - 837 PRINCESS ST", "city": "KINGSTON", "province": "ON", "country": "CA", "postalCode": "K7L1G8", "twitter": "None", "instagram": "None", "facebook": "None", "youtube": "None", "website": "None", "summary": "None", "logo": "None", "latitude": 44.240131414103494, "longitude": -76.50912338325949}, "818198798RR0001": {"name": "Beyond Disability Society", "designationCode": "C", "categoryCode": "09", "address": "1250-1500 GEORGIA W ST        PO BOX 62", "city": "VANCOUVER", "province": "BC", "country": "CA", "postalCode": "V6G2Z6", "twitter": "None", "instagram": "None", "facebook": "None", "youtube": "None", "website": "None", "summary": "None", "logo": "None", "latitude": 49.29013479542975, "longitude": -123.1300069287031}, "809143175RR0001": {"name": "Beyond The Waters Edge Ministries Inc.", "designationCode": "C", "categoryCode": "39", "address": "39 DANIEL CRESCENT", "city": "RED DEER", "province": "AB", "country": "CA", "postalCode": "T4R3M4", "twitter": "None", "instagram": "None", "facebook": "None", "youtube": "None", "website": "None", "summary": "None", "logo": "None", "latitude": 52.257766506780676, "longitude": -113.74822264640201}, "859874828RR0001": {"name": "BeCause Foundation", "designationCode": "A", "categoryCode": "03", "address": "1500 WEST GEORGIE STREET      SUITE 1250   BOX 62", "city": "VANCOUVER", "province": "BC", "country": "CA", "postalCode": "V6G2Z6", "twitter": "None", "instagram": "None", "facebook": "None", "youtube": "None", "website": "None", "summary": "None", "logo": "None"}, "821828597RR0001": {"name": "BeFit Victoria Society", "designationCode": "C", "categoryCode": "11", "address": "800 - 730 VIEW ST", "city": "VICTORIA", "province": "BC", "country": "CA", "postalCode": "V8W3Y7", "twitter": "None", "instagram": "None", "facebook": "None", "youtube": "None", "website": "None", "summary": "None", "logo": "None", "latitude": 48.425354431617315, "longitude": -123.36382033651687}, "816363592RR0001": {"name": "Bhadrapala Buddhist Cultural Center", "designationCode": "C", "categoryCode": "35", "address": "7450 BOUL HENRI-BOURASSA O", "city": "SAINT-LAURENT", "province": "QC", "country": "CA", "postalCode": "H4S2B2", "twitter": "None", "instagram": "None", "facebook": "None", "youtube": "None", "website": "None", "summary": "None", "logo": "None", "latitude": 45.507054363033056, "longitude": -73.73704220370486}, "846732014RR0001": {"name": "Bhagwan Shree Lakshmi Narayan Dham", "designationCode": "C", "categoryCode": "48", "address": "42 EPSOM DOWNS DRIVE", "city": "BRAMPTON", "province": "ON", "country": "CA", "postalCode": "L6T1Y8", "twitter": "None", "instagram": "None", "facebook": "None", "youtube": "None", "website": "None", "summary": "None", "logo": "None", "latitude": 43.72070144434192, "longitude": -79.70369697694628}, "831190640RR0001": {"name": "Bhai Kahan Singh Nabha Foundation (2012) Inc.", "designationCode": "A", "categoryCode": "23", "address": "59 FIRBRIDGE CRESCENT", "city": "WINNIPEG", "province": "MB", "country": "CA", "postalCode": "R3T5X5", "twitter": "None", "instagram": "None", "facebook": "None", "youtube": "None", "website": "None", "summary": "None", "logo": "None", "latitude": 49.79233709908247, "longitude": -97.16002815912663}, "837076892RR0001": {"name": "Bhalaee Foundation", "designationCode": "B", "categoryCode": "03", "address": "14927-72 AVENUE", "city": "SURREY", "province": "BC", "country": "CA", "postalCode": "V3S2E9", "twitter": "None", "instagram": "None", "facebook": "None", "youtube": "None", "website": "None", "summary": "None", "logo": "None", "latitude": 49.13377545657562, "longitude": -122.80893202553523}, "787149087RR0001": {"name": "Bhalwani Family Charitable Foundation", "designationCode": "B", "categoryCode": "03", "address": "3930 - 161 BAY STREET", "city": "TORONTO", "province": "ON", "country": "CA", "postalCode": "M5J2S1", "twitter": "None", "instagram": "None", "facebook": "None", "youtube": "None", "website": "None", "summary": "None", "logo": "None", "latitude": 43.64640116209816, "longitude": -79.3792674731667}, "118807478RR0001": {"name": "Bharat Sevashram Sangha Canada", "designationCode": "C", "categoryCode": "39", "address": "2107 CODLIN CRESCENT", "city": "REXDALE", "province": "ON", "country": "CA", "postalCode": "M9W5K7", "twitter": "None", "instagram": "None", "facebook": "None", "youtube": "None", "website": "None", "summary": "None", "logo": "None", "latitude": 43.74939273270254, "longitude": -79.6360191751399}, "819552381RR0001": {"name": "Bhaskara Prakasha Ashram", "designationCode": "C", "categoryCode": "48", "address": "16 INGLEBOROUGH DR", "city": "BRAMPTON", "province": "ON", "country": "CA", "postalCode": "L6X0X8", "twitter": "None", "instagram": "None", "facebook": "None", "youtube": "None", "website": "None", "summary": "None", "logo": "None", "latitude": 43.660820304200975, "longitude": -79.80017822635456}, "826085888RR0001": {"name": "Bhuvaneshwar Mandir And Culture Centre", "designationCode": "C", "categoryCode": "48", "address": "62 EDDYSTONE AVE", "city": "NORTH YORK", "province": "ON", "country": "CA", "postalCode": "M3N1H4", "twitter": "None", "instagram": "None", "facebook": "None", "youtube": "None", "website": "None", "summary": "None", "logo": "None", "latitude": 43.74887067967877, "longitude": -79.5170023440118}, "810510578RR0001": {"name": "Bible Baptist Church of Metro Toronto", "designationCode": "C", "categoryCode": "31", "address": "PO BOX 47667 RPO DON MILLS", "city": "NORTH YORK", "province": "ON", "country": "CA", "postalCode": "M3C3S7", "twitter": "None", "instagram": "None", "facebook": "None", "youtube": "None", "website": "None", "summary": "None", "logo": "None", "latitude": 43.70566232484685, "longitude": -79.33386344904338}, "859187890RR0001": {"name": "Bible Baptist Ministries of Canada", "designationCode": "C", "categoryCode": "31", "address": "16 BEECHNUT CRES", "city": "COURTICE", "province": "ON", "country": "CA", "postalCode": "L1E1Y5", "twitter": "None", "instagram": "None", "facebook": "None", "youtube": "None", "website": "None", "summary": "None", "logo": "None", "latitude": 43.90219955092622, "longitude": -78.79365599114186}, "854906617RR0001": {"name": "Bible Basics International of Canada", "designationCode": "C", "categoryCode": "31", "address": "1000 STORMONT ST", "city": "OTTAWA", "province": "ON", "country": "CA", "postalCode": "K2C0M9", "twitter": "None", "instagram": "None", "facebook": "None", "youtube": "None", "website": "None", "summary": "None", "logo": "None", "latitude": 45.3590037568528, "longitude": -75.70326241796998}, "828526251RR0001": {"name": "Bible Faith Church of Durham", "designationCode": "C", "categoryCode": "39", "address": "34-1730 MCPHERSON CRT", "city": "PICKERING", "province": "ON", "country": "CA", "postalCode": "L1W3E6", "twitter": "None", "instagram": "None", "facebook": "None", "youtube": "None", "website": "None", "summary": "None", "logo": "None", "latitude": 43.8215311302436, "longitude": -79.06070678798525}, "839767019RR0001": {"name": "Bibles for Canada Society", "designationCode": "C", "categoryCode": "47", "address": "3508 BENTON DRIVE NW", "city": "CALGARY", "province": "AB", "country": "CA", "postalCode": "T2L1W8", "twitter": "None", "instagram": "None", "facebook": "None", "youtube": "None", "website": "None", "summary": "None", "logo": "None", "latitude": 51.10299180183505, "longitude": -114.13658499971154}, "139151518RR0001": {"name": "Biblica Canada", "designationCode": "C", "categoryCode": "47", "address": "1450 RUE CITY COUNCILLORS     BUREAU 520", "city": "MONTREAL", "province": "QC", "country": "CA", "postalCode": "H3A2E6", "twitter": "None", "instagram": "None", "facebook": "None", "youtube": "None", "website": "None", "summary": "None", "logo": "None", "latitude": 45.50517696834794, "longitude": -73.56927370442602}, "825636657RR0001": {"name": "Bibliodigit Lettres & Sciences", "designationCode": "B", "categoryCode": "50", "address": "46-8275, RUE SHERBROOKE EST", "city": "MONTR\u00c9AL", "province": "QC", "country": "CA", "postalCode": "H1L1A6", "twitter": "None", "instagram": "None", "facebook": "None", "youtube": "None", "website": "None", "summary": "None", "logo": "None", "latitude": 45.599948658682194, "longitude": -73.53304576567645}, "869515601RR0001": {"name": "Biblioth\u00e8que et Archives nationales du Qu\u00e9bec (BAnQ)", "designationCode": "C", "categoryCode": "50", "address": "2275 RUE HOLT", "city": "MONTREAL", "province": "QC", "country": "CA", "postalCode": "H2G3H1", "twitter": "None", "instagram": "None", "facebook": "None", "youtube": "None", "website": "None", "summary": "None", "logo": "None", "latitude": 45.543219306970954, "longitude": -73.58511493034788}, "821265147RR0001": {"name": "Biblioth\u00e8que Tach\u00e9 Library", "designationCode": "C", "categoryCode": "50", "address": "PO BOX 16", "city": "LORETTE", "province": "MB", "country": "CA", "postalCode": "R0A0Y0", "twitter": "None", "instagram": "None", "facebook": "None", "youtube": "None", "website": "None", "summary": "None", "logo": "None", "latitude": 49.739720000000034, "longitude": -96.87469999999996}, "834858573RR0001": {"name": "Bidii Children's Charity", "designationCode": "C", "categoryCode": "09", "address": "57 CHATTERSON STREET", "city": "WHITBY", "province": "ON", "country": "CA", "postalCode": "L1R0B3", "twitter": "None", "instagram": "None", "facebook": "None", "youtube": "None", "website": "None", "summary": "None", "logo": "None", "latitude": 43.918513815713524, "longitude": -78.93000843086749}, "795085893RR0001": {"name": "Bield Ladies Club-Bield and District Cemetery Fund", "designationCode": "C", "categoryCode": "59", "address": "PO BOX 6, RR 2                SW2 26 27 W", "city": "ROBLIN", "province": "MB", "country": "CA", "postalCode": "R0L1P0", "twitter": "None", "instagram": "None", "facebook": "None", "youtube": "None", "website": "None", "summary": "None", "logo": "None", "latitude": 51.23141533627045, "longitude": -101.35923931018803}, "809666050RR0001": {"name": "Bienfaisance Foundation of Canada", "designationCode": "C", "categoryCode": "59", "address": "207 - 314 CORDOVA ST W", "city": "VANCOUVER", "province": "BC", "country": "CA", "postalCode": "V6B1E8", "twitter": "None", "instagram": "None", "facebook": "None", "youtube": "None", "website": "None", "summary": "None", "logo": "None", "latitude": 49.283559295387356, "longitude": -123.10933699663431}, "849665435RR0001": {"name": "Biennale de Montr\u00e9al/Montr\u00e9al Biennale", "designationCode": "C", "categoryCode": "22", "address": "CP 39074 CSP SAINT-ALEXANDRE", "city": "MONTREAL", "province": "QC", "country": "CA", "postalCode": "H3B0B2", "twitter": "None", "instagram": "None", "facebook": "None", "youtube": "None", "website": "None", "summary": "None", "logo": "None", "latitude": 45.50483615538746, "longitude": -73.56662885029222}, "810207530RR0001": {"name": "Bienvenue \u00e0 Notre-Dame-de-Gr\u00e2ce", "designationCode": "C", "categoryCode": "09", "address": "5964 AV NOTRE-DAME-DE-GRACE", "city": "MONTREAL", "province": "QC", "country": "CA", "postalCode": "H4A1N1", "twitter": "None", "instagram": "None", "facebook": "None", "youtube": "None", "website": "None", "summary": "None", "logo": "None", "latitude": 45.469622410756614, "longitude": -73.62215713693828}, "106793581RR0001": {"name": "Big Brothers Big Sisters of the Fraser Valley", "designationCode": "C", "categoryCode": "09", "address": "SUITE 200-2445 WEST RAILWAY ST", "city": "ABBOTSFORD", "province": "BC", "country": "CA", "postalCode": "V2S2E3", "twitter": "None", "instagram": "None", "facebook": "None", "youtube": "None", "website": "None", "summary": "None", "logo": "None", "latitude": 49.04632833637266, "longitude": -122.2866282556407}, "118808831RR0001": {"name": "Big Brothers Big Sisters of the Okanagan Society", "designationCode": "C", "categoryCode": "09", "address": "102-151 COMMERCIAL DRIVE", "city": "KELOWNA", "province": "BC", "country": "CA", "postalCode": "V1X7W2", "twitter": "None", "instagram": "None", "facebook": "None", "youtube": "None", "website": "None", "summary": "None", "logo": "None", "latitude": 49.91566249899041, "longitude": -119.38773389315591}, "847406535RR0001": {"name": "Big Brothers Big Sisters of Canada Foundation", "designationCode": "A", "categoryCode": "05", "address": "113E-3228 SOUTH SERVICE RD", "city": "BURLINGTON", "province": "ON", "country": "CA", "postalCode": "L7N3H8", "twitter": "None", "instagram": "None", "facebook": "None", "youtube": "None", "website": "None", "summary": "None", "logo": "None", "latitude": 43.35828006907519, "longitude": -79.79639314565219}, "106793292RR0001": {"name": "Big Brothers Big Sisters of Cape Breton", "designationCode": "C", "categoryCode": "09", "address": "700 VICTORIA ROAD", "city": "SYDNEY", "province": "NS", "country": "CA", "postalCode": "B1N1J2", "twitter": "None", "instagram": "None", "facebook": "None", "youtube": "None", "website": "None", "summary": "None", "logo": "None", "latitude": 46.15484765612554, "longitude": -60.182425782388}, "106793243RR0001": {"name": "Big Brothers Big Sisters of Fredericton and Oromocto, Inc.", "designationCode": "C", "categoryCode": "09", "address": "473 KING ST", "city": "FREDRICTON", "province": "NB", "country": "CA", "postalCode": "E3B1E5", "twitter": "None", "instagram": "None", "facebook": "None", "youtube": "None", "website": "None", "summary": "None", "logo": "None", "latitude": 45.96127631585774, "longitude": -66.64212840354325}, "118809318RR0001": {"name": "Big Brothers Big Sisters of North Wellington", "designationCode": "C", "categoryCode": "09", "address": "BOX 1311", "city": "MOUNT FOREST", "province": "ON", "country": "CA", "postalCode": "N0G2L0", "twitter": "None", "instagram": "None", "facebook": "None", "youtube": "None", "website": "None", "summary": "None", "logo": "None", "latitude": 44.031723000000056, "longitude": -81.09871549999994}, "119113827RR0001": {"name": "Big Brothers Big Sisters of Regina and Area Inc.", "designationCode": "C", "categoryCode": "09", "address": "2333 ALBERT ST", "city": "REGINA", "province": "SK", "country": "CA", "postalCode": "S4P2V8", "twitter": "None", "instagram": "None", "facebook": "None", "youtube": "None", "website": "None", "summary": "None", "logo": "None", "latitude": 50.441751723007684, "longitude": -104.6180568647934}, "118808476RR0001": {"name": "Big Brothers Big Sisters of Sault Ste. Marie Inc.", "designationCode": "C", "categoryCode": "09", "address": "46 BOSTON AVE", "city": "SAULT STE. MARIE", "province": "ON", "country": "CA", "postalCode": "P6B3J6", "twitter": "None", "instagram": "None", "facebook": "None", "youtube": "None", "website": "None", "summary": "None", "logo": "None", "latitude": 46.51268416763807, "longitude": -84.30071360877734}, "129450433RR0001": {"name": "Big Brothers Big Sisters of South - West Durham and Northumberland", "designationCode": "C", "categoryCode": "09", "address": "1735 BAYLY STREET             UNIT 7C", "city": "PICKERING", "province": "ON", "country": "CA", "postalCode": "L1W3G7", "twitter": "None", "instagram": "None", "facebook": "None", "youtube": "None", "website": "None", "summary": "None", "logo": "None", "latitude": 43.83345268931204, "longitude": -79.065445791216}, "106793151RR0001": {"name": "Big Brothers Big Sisters Association of the City of Greater Sudbury", "designationCode": "C", "categoryCode": "09", "address": "224 PINE ST", "city": "SUDBURY", "province": "ON", "country": "CA", "postalCode": "P3C1X5", "twitter": "None", "instagram": "None", "facebook": "None", "youtube": "None", "website": "None", "summary": "None", "logo": "None", "latitude": 46.494032529863055, "longitude": -81.00394225145709}, "814925608RR0001": {"name": "Big Brothers Big Sisters Nova Scotia Foundation", "designationCode": "A", "categoryCode": "09", "address": "208-5880 SPRING GARDEN ROAD", "city": "HALIFAX", "province": "NS", "country": "CA", "postalCode": "B3H1Y1", "twitter": "None", "instagram": "None", "facebook": "None", "youtube": "None", "website": "None", "summary": "None", "logo": "None", "latitude": 44.64130404692263, "longitude": -63.583383812309556}, "139220164RR0001": {"name": "Big Brothers/Big Sisters of Leeds and Grenville", "designationCode": "C", "categoryCode": "09", "address": "36 GEORGE ST.", "city": "BROCKVILLE", "province": "ON", "country": "CA", "postalCode": "K6V3V5", "twitter": "None", "instagram": "None", "facebook": "None", "youtube": "None", "website": "None", "summary": "None", "logo": "None", "latitude": 44.58934395526449, "longitude": -75.68697151964533}, "889699468RR0001": {"name": "Big Country Regional Recycling Society", "designationCode": "C", "categoryCode": "59", "address": "BOX 1893", "city": "HANNA", "province": "AB", "country": "CA", "postalCode": "T0J1P0", "twitter": "None", "instagram": "None", "facebook": "None", "youtube": "None", "website": "None", "summary": "None", "logo": "None", "latitude": 51.64780345530559, "longitude": -111.93814762829588}, "823526777RR0001": {"name": "Big Dreams Preschool Inc.", "designationCode": "C", "categoryCode": "20", "address": "POST OFFICE BOX 1838", "city": "SWIFT CURRENT", "province": "SK", "country": "CA", "postalCode": "S9H4M6", "twitter": "None", "instagram": "None", "facebook": "None", "youtube": "None", "website": "None", "summary": "None", "logo": "None", "latitude": 50.292744000000056, "longitude": -107.80056349999994}, "832858310RR0001": {"name": "Big Hearted Mavericks Foundation", "designationCode": "A", "categoryCode": "03", "address": "816-13 AVENUE SW", "city": "CALGARY", "province": "AB", "country": "CA", "postalCode": "T2R0L2", "twitter": "None", "instagram": "None", "facebook": "None", "youtube": "None", "website": "None", "summary": "None", "logo": "None", "latitude": 51.04094152596791, "longitude": -114.08004938773155}, "815478136RR0001": {"name": "Big Hearts Charitable Foundation", "designationCode": "A", "categoryCode": "03", "address": "401A - 9426 51 AVE NW", "city": "EDMONTON", "province": "AB", "country": "CA", "postalCode": "T6E5A6", "twitter": "None", "instagram": "None", "facebook": "None", "youtube": "None", "website": "None", "summary": "None", "logo": "None", "latitude": 53.48819648831365, "longitude": -113.47406099999999}, "819103961RR0001": {"name": "Big Hearts Small City Inc.", "designationCode": "C", "categoryCode": "09", "address": "12 ANGUS LANE", "city": "RIVERVIEW", "province": "NB", "country": "CA", "postalCode": "E1B5L9", "twitter": "None", "instagram": "None", "facebook": "None", "youtube": "None", "website": "None", "summary": "None", "logo": "None", "latitude": 46.040872274222366, "longitude": -64.78313519291349}, "822523288RR0001": {"name": "Big Life Foundation Canada", "designationCode": "C", "categoryCode": "54", "address": "17474 HUMBER STATION ROAD", "city": "CALEDON", "province": "ON", "country": "CA", "postalCode": "L7E0Z2", "twitter": "None", "instagram": "None", "facebook": "None", "youtube": "None", "website": "None", "summary": "None", "logo": "None", "latitude": 43.93688467343871, "longitude": -79.864369341478}, "856968458RR0001": {"name": "Big On Beagles Rescue", "designationCode": "C", "categoryCode": "54", "address": "3240 OLD SCUGOG RD", "city": "BOWMANVILLE", "province": "ON", "country": "CA", "postalCode": "L1C4H1", "twitter": "None", "instagram": "None", "facebook": "None", "youtube": "None", "website": "None", "summary": "None", "logo": "None", "latitude": 43.936068806461954, "longitude": -78.71425519704164}, "837095108RR0001": {"name": "Biggar and District Health Services Foundation Inc.", "designationCode": "A", "categoryCode": "13", "address": "PO BOX 1003", "city": "BIGGAR", "province": "SK", "country": "CA", "postalCode": "S0K0M0", "twitter": "None", "instagram": "None", "facebook": "None", "youtube": "None", "website": "None", "summary": "None", "logo": "None", "latitude": 52.065150000000074, "longitude": -107.99375999999995}, "856913298RR0001": {"name": "Bikes Without Borders / Bicyclettes sans frontieres", "designationCode": "C", "categoryCode": "09", "address": "25 HAVELOCK ST.", "city": "TORONTO", "province": "ON", "country": "CA", "postalCode": "M6H3B3", "twitter": "None", "instagram": "None", "facebook": "None", "youtube": "None", "website": "None", "summary": "None", "logo": "None", "latitude": 43.654066312799316, "longitude": -79.42983023048085}, "808923494RR0001": {"name": "Bill and Vicky Blair Foundation", "designationCode": "B", "categoryCode": "05", "address": "75 SUPERIOR BLVD", "city": "MISSISSAUGA", "province": "ON", "country": "CA", "postalCode": "L5T2X9", "twitter": "None", "instagram": "None", "facebook": "None", "youtube": "None", "website": "None", "summary": "None", "logo": "None", "latitude": 43.6428231934904, "longitude": -79.6976434063992}, "806395992RR0001": {"name": "Binche Keyoh Bu Society", "designationCode": "C", "categoryCode": "59", "address": "PO BOX 847", "city": "FORT ST. JAMES", "province": "BC", "country": "CA", "postalCode": "V0J1P0", "twitter": "None", "instagram": "None", "facebook": "None", "youtube": "None", "website": "None", "summary": "None", "logo": "None", "latitude": 54.44540000000006, "longitude": -124.25099999999998}, "801431503RR0001": {"name": "Binefit Canada Foundation / Fondation Binefit Canada", "designationCode": "A", "categoryCode": "03", "address": "408 RUE MCGILL", "city": "MONTREAL", "province": "QC", "country": "CA", "postalCode": "H2Y2G1", "twitter": "None", "instagram": "None", "facebook": "None", "youtube": "None", "website": "None", "summary": "None", "logo": "None", "latitude": 45.5002435964281, "longitude": -73.55750390426441}, "799200092RR0001": {"name": "Binyonim Lemoisdai Hachinuch", "designationCode": "C", "categoryCode": "45", "address": "155 WELLINGTON ST W", "city": "TORONTO", "province": "ON", "country": "CA", "postalCode": "M5V3J7", "twitter": "None", "instagram": "None", "facebook": "None", "youtube": "None", "website": "None", "summary": "None", "logo": "None", "latitude": 43.64596585316531, "longitude": -79.38574575644876}, "895187763RR0001": {"name": "Biodiversity Conservancy International", "designationCode": "C", "categoryCode": "59", "address": "94 FOUR SEASONS DRIVE", "city": "OTTAWA", "province": "ON", "country": "CA", "postalCode": "K2E7S1", "twitter": "None", "instagram": "None", "facebook": "None", "youtube": "None", "website": "None", "summary": "None", "logo": "None", "latitude": 45.35202769856898, "longitude": -75.71716105285945}, "814568499RR0001": {"name": "Biological Survey of Canada / Commission biologique du Canada", "designationCode": "C", "categoryCode": "29", "address": "3972 TUDOR AVE", "city": "VICTORIA", "province": "BC", "country": "CA", "postalCode": "V8N4L6", "twitter": "None", "instagram": "None", "facebook": "None", "youtube": "None", "website": "None", "summary": "None", "logo": "None", "latitude": 48.454572802123515, "longitude": -123.27081060355454}, "846946085RR0001": {"name": "Birch Hills Charitable Trust", "designationCode": "B", "categoryCode": "39", "address": "3425 2ND AVENUE SOUTH", "city": "LETHBRIDGE", "province": "AB", "country": "CA", "postalCode": "T1J4V1", "twitter": "None", "instagram": "None", "facebook": "None", "youtube": "None", "website": "None", "summary": "None", "logo": "None", "latitude": 49.696839530439966, "longitude": -112.78914308381903}, "837857572RR0001": {"name": "Bird Ecology and Conservation Ontario", "designationCode": "C", "categoryCode": "54", "address": "307 - 114 VAUGHAN ROAD", "city": "TORONTO", "province": "ON", "country": "CA", "postalCode": "M6C2M1", "twitter": "None", "instagram": "None", "facebook": "None", "youtube": "None", "website": "None", "summary": "None", "logo": "None"}, "898705009RR0001": {"name": "Birdland Theatre Inc.", "designationCode": "C", "categoryCode": "22", "address": "305 - 777 STEELS AVENUE WEST", "city": "TORONTO", "province": "ON", "country": "CA", "postalCode": "M2R3Y4", "twitter": "None", "instagram": "None", "facebook": "None", "youtube": "None", "website": "None", "summary": "None", "logo": "None", "latitude": 43.79279886369689, "longitude": -79.44392577517465}, "827946666RR0001": {"name": "Birdline Canada Ltd.", "designationCode": "B", "categoryCode": "54", "address": "BOX 90027 MADIGAN RPO", "city": "CALGARY", "province": "AB", "country": "CA", "postalCode": "T2A7Y8", "twitter": "None", "instagram": "None", "facebook": "None", "youtube": "None", "website": "None", "summary": "None", "logo": "None", "latitude": 51.0600285, "longitude": -113.939244}, "837821883RR0001": {"name": "Birthplace NHA/NHL Museum", "designationCode": "C", "categoryCode": "50", "address": "249 RAGLAN ST S,", "city": "RENFREW", "province": "ON", "country": "CA", "postalCode": "K7V1R3", "twitter": "None", "instagram": "None", "facebook": "None", "youtube": "None", "website": "None", "summary": "None", "logo": "None", "latitude": 45.47101442670507, "longitude": -76.68286583291385}, "818874562RR0001": {"name": "Birthright of Vaughan", "designationCode": "C", "categoryCode": "09", "address": "108 - 2780 HIGHWAY 7", "city": "CONCORD", "province": "ON", "country": "CA", "postalCode": "L4K3R9", "twitter": "None", "instagram": "None", "facebook": "None", "youtube": "None", "website": "None", "summary": "None", "logo": "None", "latitude": 43.795936080794846, "longitude": -79.51710318941434}, "880192729RR0001": {"name": "Birthright Brampton", "designationCode": "C", "categoryCode": "09", "address": "60 WEST DR                    LL 1", "city": "BRAMPTON", "province": "ON", "country": "CA", "postalCode": "L6T3T6", "twitter": "None", "instagram": "None", "facebook": "None", "youtube": "None", "website": "None", "summary": "None", "logo": "None", "latitude": 43.70337138767425, "longitude": -79.72483183781495}, "807286117RR0001": {"name": "Biserica Ortodoxa Romana Sf. Stefan Cel Mare", "designationCode": "C", "categoryCode": "39", "address": "261 BLOOR STREET EAST", "city": "OSHAWA", "province": "ON", "country": "CA", "postalCode": "L1H3M3", "twitter": "None", "instagram": "None", "facebook": "None", "youtube": "None", "website": "None", "summary": "None", "logo": "None", "latitude": 43.88254881536774, "longitude": -78.84627797887951}, "119039477RR0001": {"name": "Bishop Budka Eparchial Stewardship Society Inc.", "designationCode": "C", "categoryCode": "20", "address": "214 AVENUE M S", "city": "SASKATOON", "province": "SK", "country": "CA", "postalCode": "S7M2K4", "twitter": "None", "instagram": "None", "facebook": "None", "youtube": "None", "website": "None", "summary": "None", "logo": "None", "latitude": 52.127081245628716, "longitude": -106.68879926501845}, "124297813RR0001": {"name": "Bishop Carroll Music Society", "designationCode": "C", "categoryCode": "22", "address": "4624 RICHARD RD SW", "city": "CALGARY", "province": "AB", "country": "CA", "postalCode": "T3E6L1", "twitter": "None", "instagram": "None", "facebook": "None", "youtube": "None", "website": "None", "summary": "None", "logo": "None", "latitude": 51.013233597553274, "longitude": -114.12106027739635}, "106877616RR0001": {"name": "Bishop O'Byrne Housing Association", "designationCode": "C", "categoryCode": "09", "address": "510 - 1540 NORTHMOUNT DRIVE NW", "city": "CALGARY", "province": "AB", "country": "CA", "postalCode": "T2L0G6", "twitter": "None", "instagram": "None", "facebook": "None", "youtube": "None", "website": "None", "summary": "None", "logo": "None", "latitude": 51.096051533181274, "longitude": -114.1397325}, "856807334RR0001": {"name": "Bishop Velychkovsky Martyr's Shrine Inc.", "designationCode": "C", "categoryCode": "49", "address": "250 JEFFERSON AVENUE", "city": "WINNIPEG", "province": "MB", "country": "CA", "postalCode": "R2V0M6", "twitter": "None", "instagram": "None", "facebook": "None", "youtube": "None", "website": "None", "summary": "None", "logo": "None", "latitude": 49.93454811457705, "longitude": -97.12222266726269}, "823651153RR0001": {"name": "Black Family Foundation", "designationCode": "B", "categoryCode": "03", "address": "1705-1550 DRESDEN ROW", "city": "HALIFAX", "province": "NS", "country": "CA", "postalCode": "B3J4A2", "twitter": "None", "instagram": "None", "facebook": "None", "youtube": "None", "website": "None", "summary": "None", "logo": "None", "latitude": 44.64380204495361, "longitude": -63.57839504985835}, "815175674RR0001": {"name": "Black Health Alliance", "designationCode": "C", "categoryCode": "11", "address": "1 VALENTINE DRIVE", "city": "TORONTO", "province": "ON", "country": "CA", "postalCode": "M3A3J5", "twitter": "None", "instagram": "None", "facebook": "None", "youtube": "None", "website": "None", "summary": "None", "logo": "None", "latitude": 43.757374106584294, "longitude": -79.34144837728688}, "853686962RR0001": {"name": "Black History Ottawa Corporation", "designationCode": "C", "categoryCode": "21", "address": "111 ALBERT STREET             SUITE 108 P.O. BOX 81081", "city": "OTTAWA", "province": "ON", "country": "CA", "postalCode": "K1P1A5", "twitter": "None", "instagram": "None", "facebook": "None", "youtube": "None", "website": "None", "summary": "None", "logo": "None", "latitude": 45.42121227647271, "longitude": -75.69740251321463}, "806039467RR0001": {"name": "Black Pearls Scholarship Fund", "designationCode": "C", "categoryCode": "21", "address": "24 WINDLE DR", "city": "AJAX", "province": "ON", "country": "CA", "postalCode": "L1T4P1", "twitter": "None", "instagram": "None", "facebook": "None", "youtube": "None", "website": "None", "summary": "None", "logo": "None", "latitude": 43.86563795752789, "longitude": -79.06113852112047}, "856282090RR0001": {"name": "Blackandblue Dance projects", "designationCode": "C", "categoryCode": "22", "address": "15 ALBERT FRANCK PLACE", "city": "TORONTO", "province": "ON", "country": "CA", "postalCode": "M5A4B3", "twitter": "None", "instagram": "None", "facebook": "None", "youtube": "None", "website": "None", "summary": "None", "logo": "None", "latitude": 43.64768726172888, "longitude": -79.36865915777031}, "847413507RR0001": {"name": "Blackburn Hamlet Community Church", "designationCode": "C", "categoryCode": "30", "address": "2598 INNES ROAD", "city": "OTTAWA", "province": "ON", "country": "CA", "postalCode": "K1B4Z6", "twitter": "None", "instagram": "None", "facebook": "None", "youtube": "None", "website": "None", "summary": "None", "logo": "None", "latitude": 45.43148652256371, "longitude": -75.5650204193263}, "106693047RR0052": {"name": "Blackfalds Company of the Seventh-day Adventist Church", "designationCode": "C", "categoryCode": "41", "address": "5816 HIGHWAY, 2A", "city": "LACOMBE", "province": "AB", "country": "CA", "postalCode": "T4L2G5", "twitter": "None", "instagram": "None", "facebook": "None", "youtube": "None", "website": "None", "summary": "None", "logo": "None", "latitude": 52.474063600197404, "longitude": -113.71692568401835}, "763781895RR0001": {"name": "Blackfalds Food Bank Society", "designationCode": "C", "categoryCode": "09", "address": "PO BOX 220", "city": "BLACKFALDS", "province": "AB", "country": "CA", "postalCode": "T0M0J0", "twitter": "None", "instagram": "None", "facebook": "None", "youtube": "None", "website": "None", "summary": "None", "logo": "None", "latitude": 52.37008281578276, "longitude": -113.79281997964283}, "839781788RR0001": {"name": "Blackfalds Pentecostal Church", "designationCode": "C", "categoryCode": "36", "address": "155 CEDAR SQ", "city": "BLACKFALDS", "province": "AB", "country": "CA", "postalCode": "T4M0A4", "twitter": "None", "instagram": "None", "facebook": "None", "youtube": "None", "website": "None", "summary": "None", "logo": "None", "latitude": 52.38951661694822, "longitude": -113.77437080296322}}