{"889803771RR0001": {"name": "FONDATION ANNETTE CIMON LEBEL INC", "designationCode": "C", "categoryCode": "09", "address": "54 RUE AMYOT", "city": "RIVIERE-DU-LOUP", "province": "QC", "country": "CA", "postalCode": "G5R3E9", "twitter": "None", "instagram": "None", "facebook": "None", "youtube": "None", "website": "None", "summary": "None", "logo": "None", "latitude": 47.83282955508116, "longitude": -69.53715901431114}, "863416764RR0001": {"name": "FONDATION ANNIE CARON", "designationCode": "C", "categoryCode": "21", "address": "390, ROUTE 138                C.P. 28", "city": "ST-AUGUSTIN", "province": "QC", "country": "CA", "postalCode": "G3A1V9", "twitter": "None", "instagram": "None", "facebook": "None", "youtube": "None", "website": "None", "summary": "None", "logo": "None", "latitude": 46.74254118601186, "longitude": -71.46458038495588}, "118920560RR0001": {"name": "FONDATION ANTOINE DUMANI", "designationCode": "B", "categoryCode": "03", "address": "2359 ROBERT-PEARY", "city": "SAINT-LAURENT", "province": "QC", "country": "CA", "postalCode": "H4R2S4", "twitter": "None", "instagram": "None", "facebook": "None", "youtube": "None", "website": "None", "summary": "None", "logo": "None", "latitude": 45.5111092445322, "longitude": -73.7049169346184}, "892108325RR0001": {"name": "FONDATION ANTOINE-TURMEL/ANTOINE-TURMEL FOUNDATION", "designationCode": "B", "categoryCode": "03", "address": "12-215 RUE ST-JACQUES", "city": "MONTREAL", "province": "QC", "country": "CA", "postalCode": "H2Y1M6", "twitter": "None", "instagram": "None", "facebook": "None", "youtube": "None", "website": "None", "summary": "None", "logo": "None", "latitude": 45.50397289454089, "longitude": -73.55839764351649}, "863744413RR0001": {"name": "FONDATION ARCLEN BLAKELY", "designationCode": "B", "categoryCode": "05", "address": "1195, RUE AUGER", "city": "CARIGNAN", "province": "QC", "country": "CA", "postalCode": "J3L3P9", "twitter": "None", "instagram": "None", "facebook": "None", "youtube": "None", "website": "None", "summary": "None", "logo": "None", "latitude": 45.435983480885476, "longitude": -73.37648367605745}, "141400531RR0001": {"name": "FONDATION ARMAND GLADU POUR LA REHABILITATION DES ALCOOLIQUES ET DES TOXICOMANES", "designationCode": "C", "categoryCode": "57", "address": "CASE POSTAL 215", "city": "MARIEVILLE", "province": "QC", "country": "CA", "postalCode": "J3M1N2", "twitter": "None", "instagram": "None", "facebook": "None", "youtube": "None", "website": "None", "summary": "None", "logo": "None", "latitude": 45.431169000000054, "longitude": -73.15945099999993}, "895560118RR0001": {"name": "FONDATION ARMAND MARTEL", "designationCode": "A", "categoryCode": "03", "address": "273 RUE DU PLEIN-AIR", "city": "ROUYN-NORANDA", "province": "QC", "country": "CA", "postalCode": "J9Y0J6", "twitter": "None", "instagram": "None", "facebook": "None", "youtube": "None", "website": "None", "summary": "None", "logo": "None", "latitude": 48.1972947485429, "longitude": -78.91216027041412}, "861322170RR0001": {"name": "FONDATION ARMAND-VAILLANCOURT", "designationCode": "C", "categoryCode": "22", "address": "4211 AVENUE DE L'ESPLANADE", "city": "MONTR\u00c9AL", "province": "QC", "country": "CA", "postalCode": "H2W1T1", "twitter": "None", "instagram": "None", "facebook": "None", "youtube": "None", "website": "None", "summary": "None", "logo": "None", "latitude": 45.516396257573945, "longitude": -73.58349824311856}, "831716816RR0001": {"name": "FONDATION ARTE MUSICA", "designationCode": "C", "categoryCode": "22", "address": "300 - 1130 RUE SHERBROOKE O", "city": "MONTREAL", "province": "QC", "country": "CA", "postalCode": "H3A2M8", "twitter": "None", "instagram": "None", "facebook": "None", "youtube": "None", "website": "None", "summary": "None", "logo": "None", "latitude": 45.50420051526984, "longitude": -73.57425178965626}, "883210627RR0001": {"name": "FONDATION ARTQUIMEDIA", "designationCode": "C", "categoryCode": "22", "address": "55 RUE DU CARREFOUR SPORTIF", "city": "AMQUI", "province": "QC", "country": "CA", "postalCode": "G5J3E6", "twitter": "None", "instagram": "None", "facebook": "None", "youtube": "None", "website": "None", "summary": "None", "logo": "None", "latitude": 48.46250090559209, "longitude": -67.43586405585961}, "107391427RR0001": {"name": "FONDATION ASSELIN DU C\u00c9GEP DE JONQUI\u00c8RE INC.", "designationCode": "A", "categoryCode": "21", "address": "2505, RUE ST-HUBERT", "city": "JONQUIERE", "province": "QC", "country": "CA", "postalCode": "G7X7W2", "twitter": "None", "instagram": "None", "facebook": "None", "youtube": "None", "website": "None", "summary": "None", "logo": "None", "latitude": 48.40616406688214, "longitude": -71.24896503935638}, "856182084RR0001": {"name": "FONDATION ASSELIN-CHICOBI", "designationCode": "A", "categoryCode": "03", "address": "29 AV CARIGNAN", "city": "LA SARRE", "province": "QC", "country": "CA", "postalCode": "J9Z3R6", "twitter": "None", "instagram": "None", "facebook": "None", "youtube": "None", "website": "None", "summary": "None", "logo": "None", "latitude": 48.796357590599705, "longitude": -79.21651569623171}, "118920610RR0001": {"name": "FONDATION ATHLETAS INC.", "designationCode": "A", "categoryCode": "23", "address": "2500 BOUL DE L'UNIVERSIT\u00c9", "city": "SHERBROOKE", "province": "QC", "country": "CA", "postalCode": "J1K2R1", "twitter": "None", "instagram": "None", "facebook": "None", "youtube": "None", "website": "None", "summary": "None", "logo": "None", "latitude": 45.381356656245536, "longitude": -71.93111333807403}, "795291095RR0001": {"name": "FONDATION ATLM (AIDER TOUT LE MONDE) FONDATION ATLM", "designationCode": "C", "categoryCode": "09", "address": "11538 BOUL SAINTE-COLETTE", "city": "MONTREAL-NORD", "province": "QC", "country": "CA", "postalCode": "H1G4T7", "twitter": "None", "instagram": "None", "facebook": "None", "youtube": "None", "website": "None", "summary": "None", "logo": "None", "latitude": 45.60642432832257, "longitude": -73.62514329312113}, "141399287RR0001": {"name": "FONDATION ATOUT VOIR DU QUEBEC INC", "designationCode": "A", "categoryCode": "03", "address": "4765, 1ER AVENUE #210", "city": "CHARLESBOURG", "province": "QC", "country": "CA", "postalCode": "G1H2T3", "twitter": "None", "instagram": "None", "facebook": "None", "youtube": "None", "website": "None", "summary": "None", "logo": "None", "latitude": 46.845665708004034, "longitude": -71.25221754584764}, "107391435RR0001": {"name": "FONDATION AUBE NOUVELLE", "designationCode": "B", "categoryCode": "49", "address": "179,RUE DU SEMINAIRE", "city": "ST-VICTOR BEAUCE", "province": "QC", "country": "CA", "postalCode": "G0M2B0", "twitter": "None", "instagram": "None", "facebook": "None", "youtube": "None", "website": "None", "summary": "None", "logo": "None", "latitude": 46.15312165304644, "longitude": -70.9140320452193}, "863536728RR0001": {"name": "FONDATION AUDREY LEHOUX INC", "designationCode": "C", "categoryCode": "21", "address": "180 DU BAS ST-OLIVIER", "city": "SAINT-ELZEAR", "province": "QC", "country": "CA", "postalCode": "G0S2J0", "twitter": "None", "instagram": "None", "facebook": "None", "youtube": "None", "website": "None", "summary": "None", "logo": "None", "latitude": 46.41906740306307, "longitude": -71.10851083631634}, "892961962RR0001": {"name": "FONDATION AUR\u00c8LE-DAOUST DU COLL\u00c8GE VILLE-MARIE", "designationCode": "C", "categoryCode": "23", "address": "2850, RUE SHERBROOKE EST", "city": "MONTR\u00c9AL", "province": "QC", "country": "CA", "postalCode": "H2K1H3", "twitter": "None", "instagram": "None", "facebook": "None", "youtube": "None", "website": "None", "summary": "None", "logo": "None", "latitude": 45.539666004991666, "longitude": -73.55933052715133}, "894302025RR0001": {"name": "FONDATION AUTISME LAURENTIDES", "designationCode": "A", "categoryCode": "19", "address": "474 RUE LAVIOLETTE", "city": "SAINT-JEROME", "province": "QC", "country": "CA", "postalCode": "J7Y2T7", "twitter": "None", "instagram": "None", "facebook": "None", "youtube": "None", "website": "None", "summary": "None", "logo": "None", "latitude": 45.780850403831714, "longitude": -74.00681212963802}, "137156360RR0001": {"name": "FONDATION B\u00c9ATI", "designationCode": "A", "categoryCode": "03", "address": "100 - 785 CH DE CHAMBLY", "city": "LONGUEUIL", "province": "QC", "country": "CA", "postalCode": "J4H3M2", "twitter": "None", "instagram": "None", "facebook": "None", "youtube": "None", "website": "None", "summary": "None", "logo": "None", "latitude": 45.536360374141545, "longitude": -73.49807134817362}, "896469921RR0001": {"name": "FONDATION B'NAI LEVY/B'NAI LEVY FOUNDATION", "designationCode": "C", "categoryCode": "49", "address": "2 BETH HALEVY", "city": "BOISBRIAND", "province": "QC", "country": "CA", "postalCode": "J7E4H4", "twitter": "None", "instagram": "None", "facebook": "None", "youtube": "None", "website": "None", "summary": "None", "logo": "None", "latitude": 45.615018531767646, "longitude": -73.87231926415211}, "134034164RR0001": {"name": "FONDATION BAILLAIRG\u00c9", "designationCode": "C", "categoryCode": "09", "address": "999, RUE DU CONSEIL", "city": "SHERBROOKE", "province": "QC", "country": "CA", "postalCode": "J1G1M1", "twitter": "None", "instagram": "None", "facebook": "None", "youtube": "None", "website": "None", "summary": "None", "logo": "None", "latitude": 45.403770456575614, "longitude": -71.86737149999999}, "118920644RR0001": {"name": "FONDATION BAXTER & ALMA RICARD/BAXTER & ALMA RICARD FOUNDATION", "designationCode": "B", "categoryCode": "23", "address": "144 PINE STREET               P.O.BOX 700", "city": "SUDBURY", "province": "ON", "country": "CA", "postalCode": "P3E4R6", "twitter": "None", "instagram": "None", "facebook": "None", "youtube": "None", "website": "None", "summary": "None", "logo": "None", "latitude": 42.37846815071698, "longitude": -71.45555089754905}, "889247938RR0001": {"name": "FONDATION BEAUDOIN-DESROSIERS", "designationCode": "B", "categoryCode": "01", "address": "880 BOULEVARD PATRICK", "city": "DRUMMONDVILLE", "province": "QC", "country": "CA", "postalCode": "J2E0B9", "twitter": "None", "instagram": "None", "facebook": "None", "youtube": "None", "website": "None", "summary": "None", "logo": "None", "latitude": 45.91405935137629, "longitude": -72.5355435007794}, "889009858RR0001": {"name": "FONDATION BEAULIEU-BLONDIN", "designationCode": "C", "categoryCode": "09", "address": "6100 BOUL HENRI-BOURASSA EST", "city": "MONTR\u00c9AL-NORD", "province": "QC", "country": "CA", "postalCode": "H1G5X3", "twitter": "None", "instagram": "None", "facebook": "None", "youtube": "None", "website": "None", "summary": "None", "logo": "None", "latitude": 45.607979297218776, "longitude": -73.6157704840154}, "897977740RR0001": {"name": "FONDATION BEBE MAXIME INC.", "designationCode": "C", "categoryCode": "09", "address": "C.P.71", "city": "MONT-JOLI", "province": "QC", "country": "CA", "postalCode": "G5H3K8", "twitter": "None", "instagram": "None", "facebook": "None", "youtube": "None", "website": "None", "summary": "None", "logo": "None", "latitude": 48.580980000000054, "longitude": -68.17849549999994}, "136545522RR0001": {"name": "FONDATION BEL ENVIRON D'EAST HEREFORD", "designationCode": "C", "categoryCode": "52", "address": "448 ROUTE 253", "city": "EAST HEREFORD", "province": "QC", "country": "CA", "postalCode": "J0B1S0", "twitter": "None", "instagram": "None", "facebook": "None", "youtube": "None", "website": "None", "summary": "None", "logo": "None", "latitude": 45.08262122782939, "longitude": -71.4912233768266}, "862852688RR0001": {"name": "FONDATION BEL ESSOR", "designationCode": "C", "categoryCode": "23", "address": "1250 CHEMIN DU TREMBLAY", "city": "LONGUEUIL", "province": "QC", "country": "CA", "postalCode": "J4N1A4", "twitter": "None", "instagram": "None", "facebook": "None", "youtube": "None", "website": "None", "summary": "None", "logo": "None", "latitude": 45.54046227223181, "longitude": -73.45833477540579}, "850338740RR0001": {"name": "FONDATION BERGERON-JETTE", "designationCode": "B", "categoryCode": "03", "address": "333, RUE DORCHESTER", "city": "BROMONT", "province": "QC", "country": "CA", "postalCode": "J2L1P9", "twitter": "None", "instagram": "None", "facebook": "None", "youtube": "None", "website": "None", "summary": "None", "logo": "None", "latitude": 45.29559382918723, "longitude": -72.62738414086229}, "875229387RR0001": {"name": "FONDATION BERNARD BOLDUC DES MALADIES DU REIN", "designationCode": "C", "categoryCode": "19", "address": "226 TURCOTTE OUEST", "city": "THETFORD MINES", "province": "QC", "country": "CA", "postalCode": "G6G1G3", "twitter": "None", "instagram": "None", "facebook": "None", "youtube": "None", "website": "None", "summary": "None", "logo": "None", "latitude": 46.104037083530585, "longitude": -71.31933586329285}, "118929025RR0001": {"name": "FONDATION BERTRAND FABI INC.", "designationCode": "B", "categoryCode": "13", "address": "209, RUE BELVEDERE NORD", "city": "SHERBROOKE", "province": "QC", "country": "CA", "postalCode": "J1H4A7", "twitter": "None", "instagram": "None", "facebook": "None", "youtube": "None", "website": "None", "summary": "None", "logo": "None", "latitude": 45.401185079923884, "longitude": -71.89857749420028}, "891745374RR0001": {"name": "FONDATION BOB FIFE INC", "designationCode": "C", "categoryCode": "09", "address": "507 RUE VICTORIA", "city": "EDMUNDSTON", "province": "NB", "country": "CA", "postalCode": "E3V2K9", "twitter": "None", "instagram": "None", "facebook": "None", "youtube": "None", "website": "None", "summary": "None", "logo": "None", "latitude": 47.37938680656693, "longitude": -68.33422119285618}, "122704802RR0001": {"name": "FONDATION BOLSAHAY-BOLSAHAY FOUNDATION", "designationCode": "C", "categoryCode": "01", "address": "2855 VICTOR DORE STREET", "city": "MONTREAL", "province": "QC", "country": "CA", "postalCode": "H3M1S7", "twitter": "None", "instagram": "None", "facebook": "None", "youtube": "None", "website": "None", "summary": "None", "logo": "None", "latitude": 45.53258454345307, "longitude": -73.69262964547838}, "868826009RR0001": {"name": "FONDATION BON MATIN JEANNINE COSSETTE", "designationCode": "C", "categoryCode": "09", "address": "1420 RUE M.-FORGET", "city": "TERREBONNE", "province": "QC", "country": "CA", "postalCode": "J6W3M6", "twitter": "None", "instagram": "None", "facebook": "None", "youtube": "None", "website": "None", "summary": "None", "logo": "None", "latitude": 45.69416461613493, "longitude": -73.64796943865777}, "875880627RR0001": {"name": "FONDATION BORDEN LADNER GERVAIS/BORDEN LADNER GERVAIS FOUNDATION", "designationCode": "B", "categoryCode": "03", "address": "1000 RUE DE LA GAUCHETIERE    BUR. 900", "city": "MONTREAL", "province": "QC", "country": "CA", "postalCode": "H3B5H4", "twitter": "None", "instagram": "None", "facebook": "None", "youtube": "None", "website": "None", "summary": "None", "logo": "None", "latitude": 45.49846698248619, "longitude": -73.56698518102652}, "851538769RR0001": {"name": "FONDATION BOREALE", "designationCode": "C", "categoryCode": "20", "address": "302 RUE STRICKLAND", "city": "WHITEHORSE", "province": "YT", "country": "CA", "postalCode": "Y1A2K1", "twitter": "None", "instagram": "None", "facebook": "None", "youtube": "None", "website": "None", "summary": "None", "logo": "None", "latitude": 60.722260438253734, "longitude": -135.05740756287142}, "118920735RR0001": {"name": "FONDATION BOUCHARD INC.", "designationCode": "C", "categoryCode": "21", "address": "100, 4E AVENUE", "city": "LA POCATIERE", "province": "QC", "country": "CA", "postalCode": "G0R1Z0", "twitter": "None", "instagram": "None", "facebook": "None", "youtube": "None", "website": "None", "summary": "None", "logo": "None", "latitude": 47.36699289757065, "longitude": -70.03980789130864}, "144579117RR0001": {"name": "FONDATION BOULE DE R\u00caVE", "designationCode": "C", "categoryCode": "11", "address": "68 CH. COTE-STE-CATHERINE", "city": "OUTREMONT", "province": "QC", "country": "CA", "postalCode": "H2V2A3", "twitter": "None", "instagram": "None", "facebook": "None", "youtube": "None", "website": "None", "summary": "None", "logo": "None", "latitude": 45.515880180651145, "longitude": -73.59248344988184}, "801760158RR0001": {"name": "FONDATION BOURBEAU", "designationCode": "B", "categoryCode": "03", "address": "470, CHEMIN DU COLL\u00c8GE", "city": "DUNHAM", "province": "QC", "country": "CA", "postalCode": "J0E1M0", "twitter": "None", "instagram": "None", "facebook": "None", "youtube": "None", "website": "None", "summary": "None", "logo": "None", "latitude": 45.123984711091126, "longitude": -72.77946483190058}, "118920743RR0001": {"name": "FONDATION BOURGET", "designationCode": "C", "categoryCode": "03", "address": "12227 RUE GRENET", "city": "MONTREAL", "province": "QC", "country": "CA", "postalCode": "H4J0A2", "twitter": "None", "instagram": "None", "facebook": "None", "youtube": "None", "website": "None", "summary": "None", "logo": "None", "latitude": 45.529911110796554, "longitude": -73.71643498493904}, "881535363RR0001": {"name": "FONDATION BOURSI\u00c8RE DE L'ENTREPRENEURSHIP DE ROCHER PERC\u00c9", "designationCode": "C", "categoryCode": "21", "address": "306 AV LEFEBVRE", "city": "CHANDLER", "province": "QC", "country": "CA", "postalCode": "G0C1K0", "twitter": "None", "instagram": "None", "facebook": "None", "youtube": "None", "website": "None", "summary": "None", "logo": "None", "latitude": 48.347371446015366, "longitude": -64.66375096378896}, "830935128RR0001": {"name": "FONDATION BRADLEY & BRADLEY", "designationCode": "B", "categoryCode": "03", "address": "10230 RUE LAVERDURE", "city": "MONTR\u00c9AL", "province": "QC", "country": "CA", "postalCode": "H3L2L3", "twitter": "None", "instagram": "None", "facebook": "None", "youtube": "None", "website": "None", "summary": "None", "logo": "None", "latitude": 45.54973815901107, "longitude": -73.66233172926874}, "844807966RR0001": {"name": "FONDATION BROMIS", "designationCode": "C", "categoryCode": "01", "address": "CP 64 SUCC BUREAU-CHEF", "city": "BROMONT", "province": "QC", "country": "CA", "postalCode": "J2L1A9", "twitter": "None", "instagram": "None", "facebook": "None", "youtube": "None", "website": "None", "summary": "None", "logo": "None", "latitude": 45.31648200000005, "longitude": -72.66235399999994}, "893964536RR0001": {"name": "FONDATION BROUSSEAU-DARGIS INC.", "designationCode": "C", "categoryCode": "13", "address": "1141 ROYALE", "city": "MALARTIC", "province": "QC", "country": "CA", "postalCode": "J0Y1Z0", "twitter": "None", "instagram": "None", "facebook": "None", "youtube": "None", "website": "None", "summary": "None", "logo": "None", "latitude": 48.14150358090484, "longitude": -78.12724164360246}, "865627517RR0001": {"name": "FONDATION BRUNY SURIN", "designationCode": "C", "categoryCode": "21", "address": "512 - 4001 RUE ELSA-TRIOLET", "city": "LAVAL", "province": "QC", "country": "CA", "postalCode": "H7P0K2", "twitter": "None", "instagram": "None", "facebook": "None", "youtube": "None", "website": "None", "summary": "None", "logo": "None", "latitude": 45.571830987794996, "longitude": -73.77253368610415}, "891166977RR0001": {"name": "FONDATION BUERGER", "designationCode": "C", "categoryCode": "19", "address": "1228 CH DE CHAMBLY", "city": "LONGUEUIL", "province": "QC", "country": "CA", "postalCode": "J4J3W6", "twitter": "None", "instagram": "None", "facebook": "None", "youtube": "None", "website": "None", "summary": "None", "logo": "None", "latitude": 45.53260069135561, "longitude": -73.48948277950248}, "894234061RR0001": {"name": "FONDATION BUHRLE INC.", "designationCode": "B", "categoryCode": "21", "address": "139 BOUL DESJARDINS", "city": "MANIWAKI", "province": "QC", "country": "CA", "postalCode": "J9E2C9", "twitter": "None", "instagram": "None", "facebook": "None", "youtube": "None", "website": "None", "summary": "None", "logo": "None", "latitude": 46.38318309463907, "longitude": -75.98303046791524}, "131910457RR0001": {"name": "FONDATION BUTTERS-BUTTERS FOUNDATION", "designationCode": "A", "categoryCode": "13", "address": "127 PRINCIPALE", "city": "COWANSVILLE", "province": "QC", "country": "CA", "postalCode": "J2K1J3", "twitter": "None", "instagram": "None", "facebook": "None", "youtube": "None", "website": "None", "summary": "None", "logo": "None", "latitude": 45.20770304527071, "longitude": -72.74698908133753}, "880967666RR0001": {"name": "FONDATION BYAS INC.", "designationCode": "C", "categoryCode": "11", "address": "286, RUE PINDER OUEST", "city": "ROUYN-NORANDA", "province": "QC", "country": "CA", "postalCode": "J9X2Y7", "twitter": "None", "instagram": "None", "facebook": "None", "youtube": "None", "website": "None", "summary": "None", "logo": "None", "latitude": 48.23456453318129, "longitude": -79.02874286081135}, "120780143RR0001": {"name": "FONDATION C.-A.-L.", "designationCode": "C", "categoryCode": "21", "address": "216 BOUL MARC-AURELE-FORTI", "city": "SAINTE-ROSE", "province": "QC", "country": "CA", "postalCode": "H7L1Z5", "twitter": "None", "instagram": "None", "facebook": "None", "youtube": "None", "website": "None", "summary": "None", "logo": "None", "latitude": 45.60644858612765, "longitude": -73.78394643184843}, "873278303RR0001": {"name": "FONDATION C.A.R.M.E.N.", "designationCode": "C", "categoryCode": "10", "address": "253 RUE BELLEHUMEUR", "city": "GATINEAU", "province": "QC", "country": "CA", "postalCode": "J8T8N8", "twitter": "None", "instagram": "None", "facebook": "None", "youtube": "None", "website": "None", "summary": "None", "logo": "None", "latitude": 45.481130484620984, "longitude": -75.69390683031311}, "134269539RR0001": {"name": "FONDATION C\u00c9GEP DE SHERBROOKE", "designationCode": "A", "categoryCode": "21", "address": "475, RUE DU CEGEP", "city": "SHERBROOKE", "province": "QC", "country": "CA", "postalCode": "J1E4K1", "twitter": "None", "instagram": "None", "facebook": "None", "youtube": "None", "website": "None", "summary": "None", "logo": "None", "latitude": 45.41149537298773, "longitude": -71.88561362551174}, "891024523RR0001": {"name": "FONDATION C\u00c9GEP JOHN ABBOTT COLL\u00c8GE / CEGEP JOHN ABBOTT COLLEGE", "designationCode": "A", "categoryCode": "23", "address": "21275 RUE LAKESHORE", "city": "SAINTE-ANNE-DE-BELLEVUE", "province": "QC", "country": "CA", "postalCode": "H9X3L9", "twitter": "None", "instagram": "None", "facebook": "None", "youtube": "None", "website": "None", "summary": "None", "logo": "None", "latitude": 45.40671656116935, "longitude": -73.9418480836748}, "891515421RR0001": {"name": "FONDATION C\u00c9LINE DION/C\u00c9LINE DION FOUNDATION", "designationCode": "B", "categoryCode": "03", "address": "2540, BOUL. DANIEL-JOHNSON    BUREAU 755", "city": "LAVAL", "province": "QC", "country": "CA", "postalCode": "H7T2S3", "twitter": "None", "instagram": "None", "facebook": "None", "youtube": "None", "website": "None", "summary": "None", "logo": "None", "latitude": 45.567061785446434, "longitude": -73.75546153915388}, "888012069RR0001": {"name": "FONDATION CAECITAS INC", "designationCode": "A", "categoryCode": "13", "address": "140 RUE DE L'ATHYRIUM", "city": "STE-CATHERINE-DE-LA-J-CARTIER", "province": "QC", "country": "CA", "postalCode": "G3N3A1", "twitter": "None", "instagram": "None", "facebook": "None", "youtube": "None", "website": "None", "summary": "None", "logo": "None", "latitude": 46.84814588533698, "longitude": -71.56642337771957}, "862314754RR0001": {"name": "FONDATION CAMBI INC.", "designationCode": "A", "categoryCode": "03", "address": "485 BOUL. RENAULT             C.P. 5128", "city": "BEAUCEVILLE", "province": "QC", "country": "CA", "postalCode": "G5X3P5", "twitter": "None", "instagram": "None", "facebook": "None", "youtube": "None", "website": "None", "summary": "None", "logo": "None", "latitude": 46.21879810655565, "longitude": -70.78739720402199}, "118920784RR0001": {"name": "FONDATION CAMBRIAN FOUNDATION", "designationCode": "A", "categoryCode": "23", "address": "1400 BARRYDOWNE ROAD", "city": "SUDBURY", "province": "ON", "country": "CA", "postalCode": "P3A3V8", "twitter": "None", "instagram": "None", "facebook": "None", "youtube": "None", "website": "None", "summary": "None", "logo": "None", "latitude": 46.52841979899614, "longitude": -80.94403247628598}, "873572465RR0001": {"name": "FONDATION CAMMAC/CAMMAC FOUNDATION", "designationCode": "A", "categoryCode": "03", "address": "48 RIDGEVALE DR", "city": "NORTH YORK", "province": "ON", "country": "CA", "postalCode": "M6A1L1", "twitter": "None", "instagram": "None", "facebook": "None", "youtube": "None", "website": "None", "summary": "None", "logo": "None", "latitude": 43.72502411408612, "longitude": -79.43634618096827}, "883283202RR0001": {"name": "FONDATION CAMPAGNE DES 500 JOURS", "designationCode": "C", "categoryCode": "09", "address": "411 RUE HOTEL-DIEU", "city": "CHICOUTIMI", "province": "QC", "country": "CA", "postalCode": "G7H7Z5", "twitter": "None", "instagram": "None", "facebook": "None", "youtube": "None", "website": "None", "summary": "None", "logo": "None", "latitude": 48.42734250043269, "longitude": -71.05533205689883}, "120815196RR0001": {"name": "FONDATION CAMPUS NOTRE-DAME-DE-FOY", "designationCode": "A", "categoryCode": "23", "address": "5000, RUE CLEMENT-LOCKQUELL", "city": "SAINT-AUGUSTIN-DE-DESMAURES", "province": "QC", "country": "CA", "postalCode": "G3A1B3", "twitter": "None", "instagram": "None", "facebook": "None", "youtube": "None", "website": "None", "summary": "None", "logo": "None", "latitude": 46.737437903081904, "longitude": -71.39924824274318}, "118832963RR0001": {"name": "FONDATION CANADIAN GRENADIER GUARDS - CANADIAN GRENADIER GUARDS FOUNDATION", "designationCode": "C", "categoryCode": "51", "address": "294 RUE FLORIAN", "city": "ROSEMERE", "province": "QC", "country": "CA", "postalCode": "J7A2N6", "twitter": "None", "instagram": "None", "facebook": "None", "youtube": "None", "website": "None", "summary": "None", "logo": "None", "latitude": 45.63491396753989, "longitude": -73.80322653814427}, "132617010RR0001": {"name": "FONDATION CANADIENNE DE L'INSEAD/CANADIAN INSEAD FOUNDATION", "designationCode": "C", "categoryCode": "21", "address": "2814, RUE LEPAILLEUR", "city": "MONTREAL", "province": "QC", "country": "CA", "postalCode": "H1L6G2", "twitter": "None", "instagram": "None", "facebook": "None", "youtube": "None", "website": "None", "summary": "None", "logo": "None", "latitude": 45.59266311904911, "longitude": -73.52895940412017}, "136712114RR0001": {"name": "FONDATION CANADIENNE DE LA VID\u00c9O RELIGIEUSE", "designationCode": "A", "categoryCode": "43", "address": "1340 EST, BOUL. S-JOSEPH", "city": "MONTREAL", "province": "QC", "country": "CA", "postalCode": "H2J1M3", "twitter": "None", "instagram": "None", "facebook": "None", "youtube": "None", "website": "None", "summary": "None", "logo": "None", "latitude": 45.53279700000006, "longitude": -73.58165449999993}, "891115842RR0001": {"name": "FONDATION CANADIENNE FRANCAISE D AIDE CULTURELLE DE LA COLOMBIE BRITANNIQUE", "designationCode": "C", "categoryCode": "21", "address": "402 - 200 DOUGLAS ST", "city": "VICTORIA", "province": "BC", "country": "CA", "postalCode": "V8V2P2", "twitter": "None", "instagram": "None", "facebook": "None", "youtube": "None", "website": "None", "summary": "None", "logo": "None", "latitude": 48.4127839797449, "longitude": -123.36767251168543}, "871795365RR0001": {"name": "FONDATION CANADIENNE LOUIS PASTEUR/CANADIAN LOUIS PASTEUR FOUNDATION", "designationCode": "C", "categoryCode": "21", "address": "1001 SQUARE-VICTORIA          BLOC E, 8E ETAGE", "city": "MONTREAL", "province": "QC", "country": "CA", "postalCode": "H2Z2B7", "twitter": "None", "instagram": "None", "facebook": "None", "youtube": "None", "website": "None", "summary": "None", "logo": "None", "latitude": 45.50210700000005, "longitude": -73.56242599999993}, "106903925RR0001": {"name": "FONDATION CANADIENNE POUR L'ENSEIGNEMENT ET LA RECHERCHE EN OSTEOPATHIE DE MONTREAL INC.", "designationCode": "C", "categoryCode": "19", "address": "5637 RUE STIRLING", "city": "MONTREAL", "province": "QC", "country": "CA", "postalCode": "H3T1R7", "twitter": "None", "instagram": "None", "facebook": "None", "youtube": "None", "website": "None", "summary": "None", "logo": "None", "latitude": 45.50837327589581, "longitude": -73.61761952732422}, "866578545RR0001": {"name": "FONDATION CANADIENNE POUR LES JEUNES NOIRS/CANADIAN FOUNDATION FOR THE BLACK YOUTH", "designationCode": "C", "categoryCode": "09", "address": "3 - 4723 RUE FULTON", "city": "MONTREAL", "province": "QC", "country": "CA", "postalCode": "H3W1V1", "twitter": "None", "instagram": "None", "facebook": "None", "youtube": "None", "website": "None", "summary": "None", "logo": "None", "latitude": 45.49004015044139, "longitude": -73.62600514573818}, "890415391RR0001": {"name": "FONDATION CANADO-HAITIENNE POUR LA PROMOTION DE L'EXCELLENCE EN EDUCATION", "designationCode": "C", "categoryCode": "21", "address": "1157 CH LUCERNE", "city": "MONT-ROYAL", "province": "QC", "country": "CA", "postalCode": "H3R2H7", "twitter": "None", "instagram": "None", "facebook": "None", "youtube": "None", "website": "None", "summary": "None", "logo": "None", "latitude": 45.50397197198327, "longitude": -73.64912390132156}, "899946115RR0001": {"name": "FONDATION CANIMEX", "designationCode": "B", "categoryCode": "03", "address": "285, RUE ST-GEORGES", "city": "DRUMMONDVILLE", "province": "QC", "country": "CA", "postalCode": "J2C4H3", "twitter": "None", "instagram": "None", "facebook": "None", "youtube": "None", "website": "None", "summary": "None", "logo": "None", "latitude": 45.883887462692456, "longitude": -72.49630114617086}, "834154528RR0001": {"name": "FONDATION CAP DIAMANT VOU\u00c9E AU MAINTIEN \u00c0 DOMICILE DES PERSONNES A\u00ceN\u00c9ES D\u00c9MUNIES FINANCI\u00c8REMENT", "designationCode": "C", "categoryCode": "09", "address": "110 - 240 CH SAINTE-FOY", "city": "QUEBEC", "province": "QC", "country": "CA", "postalCode": "G1R1T3", "twitter": "None", "instagram": "None", "facebook": "None", "youtube": "None", "website": "None", "summary": "None", "logo": "None", "latitude": 46.80447038914519, "longitude": -71.2313537251138}, "859807646RR0001": {"name": "FONDATION CAPITALE DES JEUNES JUIFS DE CHOMEDEY/YOUNG ISRAEL OF CHOMEDEY CAPITAL FOUNDATION", "designationCode": "A", "categoryCode": "03", "address": "4880 BOUL NOTRE-DAME", "city": "LAVAL", "province": "QC", "country": "CA", "postalCode": "H7W1V4", "twitter": "None", "instagram": "None", "facebook": "None", "youtube": "None", "website": "None", "summary": "None", "logo": "None", "latitude": 45.53431869799207, "longitude": -73.77006088464447}, "101835783RR0001": {"name": "FONDATION CARDIO-MONTEREGIENNE (FOCAM)", "designationCode": "C", "categoryCode": "11", "address": "1750 BOUL. MARIE-VICTORIN     BUREAU 230", "city": "LONGUEUIL", "province": "QC", "country": "CA", "postalCode": "J4G1A5", "twitter": "None", "instagram": "None", "facebook": "None", "youtube": "None", "website": "None", "summary": "None", "logo": "None", "latitude": 45.56857686730358, "longitude": -73.48702764550796}, "880611140RR0001": {"name": "FONDATION CARL HERZ", "designationCode": "C", "categoryCode": "21", "address": "C.P. 8888 ISM, UQAM 4215I0715 SUCCURSALE CENTRE-VILLE", "city": "MONTREAL", "province": "QC", "country": "CA", "postalCode": "H3C3P8", "twitter": "None", "instagram": "None", "facebook": "None", "youtube": "None", "website": "None", "summary": "None", "logo": "None", "latitude": 45.49833600000005, "longitude": -73.55148649999994}, "824749147RR0001": {"name": "FONDATION CARMAND NORMAND", "designationCode": "B", "categoryCode": "03", "address": "1155, RUE DE LA MONTAGNE      BUREAU 609", "city": "MONTREAL", "province": "QC", "country": "CA", "postalCode": "H3G0C7", "twitter": "None", "instagram": "None", "facebook": "None", "youtube": "None", "website": "None", "summary": "None", "logo": "None", "latitude": 45.49706572296804, "longitude": -73.57309391605622}, "895552149RR0001": {"name": "FONDATION CARMEL-ROY DU CENTRE HOSPITALIER ST-JOSEPH DE LA MALBAIE", "designationCode": "C", "categoryCode": "19", "address": "555, BOUL.DE COMPORTE", "city": "LA MALBAIE", "province": "QC", "country": "CA", "postalCode": "G5A1W3", "twitter": "None", "instagram": "None", "facebook": "None", "youtube": "None", "website": "None", "summary": "None", "logo": "None", "latitude": 47.65401471495762, "longitude": -70.14841335945502}, "118920875RR0001": {"name": "FONDATION CAROLINE DURAND", "designationCode": "B", "categoryCode": "13", "address": "1600-2000 AV. MCGILL COLLEGE", "city": "MONTREAL", "province": "QC", "country": "CA", "postalCode": "H3A3H3", "twitter": "None", "instagram": "None", "facebook": "None", "youtube": "None", "website": "None", "summary": "None", "logo": "None", "latitude": 45.502789414749586, "longitude": -73.5731644067988}, "844784348RR0001": {"name": "FONDATION CARR\u00c9 SAINT-LOUIS DE JOLIETTE", "designationCode": "A", "categoryCode": "03", "address": "390 RUE ST-LOUIS              SUITE E", "city": "JOLIETTE", "province": "QC", "country": "CA", "postalCode": "J6E2Y6", "twitter": "None", "instagram": "None", "facebook": "None", "youtube": "None", "website": "None", "summary": "None", "logo": "None", "latitude": 46.026678204570246, "longitude": -73.440856386231}, "892803966RR0001": {"name": "FONDATION CARREFOUR DE LA MIS\u00c9RICORDE INC.", "designationCode": "C", "categoryCode": "09", "address": "355, RUE LAVIOLETTE", "city": "GATINEAU", "province": "QC", "country": "CA", "postalCode": "J8P5Z1", "twitter": "None", "instagram": "None", "facebook": "None", "youtube": "None", "website": "None", "summary": "None", "logo": "None", "latitude": 45.48962467415894, "longitude": -75.66075272165136}, "897099453RR0001": {"name": "FONDATION CARREFOUR NOUVEAU MONDE", "designationCode": "C", "categoryCode": "09", "address": "6970 15E AVENUE", "city": "MONTR\u00c9AL", "province": "QC", "country": "CA", "postalCode": "H2A2T7", "twitter": "None", "instagram": "None", "facebook": "None", "youtube": "None", "website": "None", "summary": "None", "logo": "None", "latitude": 45.56027017011958, "longitude": -73.59224935304972}, "141528620RR0001": {"name": "FONDATION CARREFOUR POUR ELLE INC.", "designationCode": "A", "categoryCode": "01", "address": "C.P. 21115                    SUCC, JACQUES CARTIER", "city": "LONGUEUIL", "province": "QC", "country": "CA", "postalCode": "J4J5J4", "twitter": "None", "instagram": "None", "facebook": "None", "youtube": "None", "website": "None", "summary": "None", "logo": "None", "latitude": 45.54261600000005, "longitude": -73.49538049999994}, "867037236RR0001": {"name": "FONDATION CARRIER-FECTEAU", "designationCode": "C", "categoryCode": "21", "address": "561, RUE SAINT-PATRICK", "city": "THETFORD MINES", "province": "QC", "country": "CA", "postalCode": "G6G5W1", "twitter": "None", "instagram": "None", "facebook": "None", "youtube": "None", "website": "None", "summary": "None", "logo": "None", "latitude": 46.08528724340701, "longitude": -71.29038155245543}, "850258765RR0001": {"name": "FONDATION CASCADE/FUNDACION CASCADA", "designationCode": "B", "categoryCode": "09", "address": "2325 STE-CUNEGONDE APP 210", "city": "MONTREAL", "province": "QC", "country": "CA", "postalCode": "H3J2X1", "twitter": "None", "instagram": "None", "facebook": "None", "youtube": "None", "website": "None", "summary": "None", "logo": "None", "latitude": 45.48264963087876, "longitude": -73.5723067825609}, "823224548RR0001": {"name": "FONDATION CATHEDRALE ST-SAUVEUR/ST-SAUVEUR CATHEDRAL TRUST", "designationCode": "A", "categoryCode": "45", "address": "10025 BOUL. DE L'ACADIE", "city": "MONTREAL", "province": "QC", "country": "CA", "postalCode": "H4N2S1", "twitter": "None", "instagram": "None", "facebook": "None", "youtube": "None", "website": "None", "summary": "None", "logo": "None", "latitude": 45.5347652023772, "longitude": -73.67196864920064}, "854287273RR0001": {"name": "FONDATION CATHERINE CHENEL", "designationCode": "B", "categoryCode": "09", "address": "14 RUE AUDET", "city": "AMQUI", "province": "QC", "country": "CA", "postalCode": "G5J1H3", "twitter": "None", "instagram": "None", "facebook": "None", "youtube": "None", "website": "None", "summary": "None", "logo": "None"}, "120588611RR0001": {"name": "FONDATION CATHERINE DE LONGPRE", "designationCode": "A", "categoryCode": "13", "address": "1140, 20E RUE", "city": "SAINT-GEORGES", "province": "QC", "country": "CA", "postalCode": "G5Y7M1", "twitter": "None", "instagram": "None", "facebook": "None", "youtube": "None", "website": "None", "summary": "None", "logo": "None", "latitude": 46.10947225271049, "longitude": -70.68264420627835}, "869076117RR0001": {"name": "FONDATION CAVELIER-DE-LASALLE", "designationCode": "C", "categoryCode": "21", "address": "9199, RUE CENTRALE", "city": "LASALLE", "province": "QC", "country": "CA", "postalCode": "H8R2J9", "twitter": "None", "instagram": "None", "facebook": "None", "youtube": "None", "website": "None", "summary": "None", "logo": "None", "latitude": 45.41719123238449, "longitude": -73.64085613540908}, "886406636RR0001": {"name": "FONDATION CEIM", "designationCode": "A", "categoryCode": "21", "address": "759 VICTORIA SQUARE,5TH FLOOR SANPALO INVESTMENTS CORPORATIO", "city": "MONTREAL", "province": "QC", "country": "CA", "postalCode": "H2Y2J7", "twitter": "None", "instagram": "None", "facebook": "None", "youtube": "None", "website": "None", "summary": "None", "logo": "None", "latitude": 45.501684000000054, "longitude": -73.56132799999993}, "118920909RR0001": {"name": "FONDATION CENTRAIDE DU GRAND MONTR\u00c9AL", "designationCode": "A", "categoryCode": "03", "address": "493 RUE SHERBROOKE OUEST", "city": "MONTREAL", "province": "QC", "country": "CA", "postalCode": "H3A1B6", "twitter": "None", "instagram": "None", "facebook": "None", "youtube": "None", "website": "None", "summary": "None", "logo": "None", "latitude": 45.50642027644407, "longitude": -73.5725132317789}, "897188835RR0001": {"name": "FONDATION CENTRE D'ACCUEIL CONTRECOEUR", "designationCode": "C", "categoryCode": "19", "address": "4700 MARIE VICTORIN           ATT: JACQUES MALO", "city": "CONTRECOEUR", "province": "QC", "country": "CA", "postalCode": "J0L1C0", "twitter": "None", "instagram": "None", "facebook": "None", "youtube": "None", "website": "None", "summary": "None", "logo": "None", "latitude": 45.85883100000005, "longitude": -73.22702299999993}, "844665851RR0001": {"name": "FONDATION CENTRE D'ACCUEIL PONTIAC", "designationCode": "A", "categoryCode": "13", "address": "290 RUE MARION", "city": "SHAWVILLE", "province": "QC", "country": "CA", "postalCode": "J0X2Y0", "twitter": "None", "instagram": "None", "facebook": "None", "youtube": "None", "website": "None", "summary": "None", "logo": "None", "latitude": 45.60604650026355, "longitude": -76.48845699567804}, "103190187RR0001": {"name": "FONDATION CENTRE DE R\u00c9ADAPTATION ESTRIE INC.", "designationCode": "C", "categoryCode": "09", "address": "300 RUE KING EST              BUREAU 200", "city": "SHERBROOKE", "province": "QC", "country": "CA", "postalCode": "J1G1B1", "twitter": "None", "instagram": "None", "facebook": "None", "youtube": "None", "website": "None", "summary": "None", "logo": "None", "latitude": 45.40733802135164, "longitude": -71.88118761806817}, "101835148RR0001": {"name": "FONDATION CENTRE DE SANT\u00c9 SAINTE-FAMILLE INC.", "designationCode": "A", "categoryCode": "19", "address": "22 NOTRE-DAME NORD", "city": "VILLE-MARIE", "province": "QC", "country": "CA", "postalCode": "J9V1W8", "twitter": "None", "instagram": "None", "facebook": "None", "youtube": "None", "website": "None", "summary": "None", "logo": "None"}, "891108946RR0001": {"name": "FONDATION CENTRE HISTORIQUE JOSEPH MORRIN / JOSEPH MORRIN HISTORICAL CENTRE FOUNDATION", "designationCode": "C", "categoryCode": "52", "address": "44 CHAUSSEE DES ECOSSAIS", "city": "QUEBEC", "province": "QC", "country": "CA", "postalCode": "G1R4H3", "twitter": "None", "instagram": "None", "facebook": "None", "youtube": "None", "website": "None", "summary": "None", "logo": "None", "latitude": 46.812719494027405, "longitude": -71.21037283487209}, "898228820RR0001": {"name": "FONDATION CENTRE MEDICO-SOCIAL DESALABERRY INC. DESALABERRY HEALTH CENTRE FOUNDATION INC.", "designationCode": "A", "categoryCode": "03", "address": "P.O. BOX 320", "city": "ST. PIERRE-JOLYS", "province": "MB", "country": "CA", "postalCode": "R0A1V0", "twitter": "None", "instagram": "None", "facebook": "None", "youtube": "None", "website": "None", "summary": "None", "logo": "None", "latitude": 49.44078600000006, "longitude": -96.98513299999993}, "794253120RR0001": {"name": "FONDATION CENTRE RAYONS DE FEMMES", "designationCode": "A", "categoryCode": "03", "address": "781 RUE THIBAULT", "city": "SAINTE-THERESE", "province": "QC", "country": "CA", "postalCode": "J7E4B9", "twitter": "None", "instagram": "None", "facebook": "None", "youtube": "None", "website": "None", "summary": "None", "logo": "None", "latitude": 45.6513609108722, "longitude": -73.86246623561672}, "890664550RR0001": {"name": "FONDATION CHAMPAGNAT INC", "designationCode": "A", "categoryCode": "21", "address": "675 BOUL. AUGER O", "city": "ALMA", "province": "QC", "country": "CA", "postalCode": "G8B2B7", "twitter": "None", "instagram": "None", "facebook": "None", "youtube": "None", "website": "None", "summary": "None", "logo": "None", "latitude": 48.54423504512577, "longitude": -71.65463081428082}, "887881860RR0001": {"name": "FONDATION CHAMPLAIN-LENNOXVILLE INC.", "designationCode": "C", "categoryCode": "21", "address": "2580 RUE COLLEGE", "city": "SHERBROOKE", "province": "QC", "country": "CA", "postalCode": "J1M2A1", "twitter": "None", "instagram": "None", "facebook": "None", "youtube": "None", "website": "None", "summary": "None", "logo": "None", "latitude": 45.366550892550336, "longitude": -71.84482026438327}, "897776951RR0001": {"name": "FONDATION CHANOINE LAVOIE INC.", "designationCode": "C", "categoryCode": "09", "address": "1295 BLVD. SACRE-COEUR        C.P. 5135", "city": "ST-FELICIEN", "province": "QC", "country": "CA", "postalCode": "G8K2P8", "twitter": "None", "instagram": "None", "facebook": "None", "youtube": "None", "website": "None", "summary": "None", "logo": "None", "latitude": 48.65525275047616, "longitude": -72.44889079687205}, "864470265RR0001": {"name": "FONDATION CHANTALE DUMAS", "designationCode": "B", "categoryCode": "03", "address": "4412, ROUTE 201", "city": "ST-ANTOINE-ABBE", "province": "QC", "country": "CA", "postalCode": "J0S1N0", "twitter": "None", "instagram": "None", "facebook": "None", "youtube": "None", "website": "None", "summary": "None", "logo": "None", "latitude": 45.05554609245837, "longitude": -73.89034959490711}, "892737362RR0001": {"name": "FONDATION CHANTE PLUME", "designationCode": "C", "categoryCode": "21", "address": "104 BOUL DE LA MARINE", "city": "VARENNES", "province": "QC", "country": "CA", "postalCode": "J3X1Z5", "twitter": "None", "instagram": "None", "facebook": "None", "youtube": "None", "website": "None", "summary": "None", "logo": "None", "latitude": 45.66394150594397, "longitude": -73.43198939456954}}