{"118991306RR0001": {"name": "LA FABRIQUE DE LA PAROISSE BIENHEUREUSE MARIE-ROSE DUROCHER", "designationCode": "C", "categoryCode": "38", "address": "131 RUE NOTRE DAME", "city": "L'EPIPHANIE", "province": "QC", "country": "CA", "postalCode": "J5X2V8", "twitter": "None", "instagram": "None", "facebook": "None", "youtube": "None", "website": "None", "summary": "None", "logo": "None", "latitude": 45.848832044145546, "longitude": -73.48557639635855}, "118990894RR0002": {"name": "LA FABRIQUE DE LA PAROISSE BIENHEUREUSE-MARIE-CATHERINE-DE-SAINT-AUGUSTIN", "designationCode": "C", "categoryCode": "38", "address": "2315 AV ROYALE", "city": "QUEBEC", "province": "QC", "country": "CA", "postalCode": "G1C1R1", "twitter": "None", "instagram": "None", "facebook": "None", "youtube": "None", "website": "None", "summary": "None", "logo": "None", "latitude": 46.88497372248807, "longitude": -71.15802476149774}, "897124103RR0001": {"name": "LA FABRIQUE DE LA PAROISSE BIENHEUREUSE-MARIE-ROSE-DUROCHER", "designationCode": "C", "categoryCode": "38", "address": "80, BOULEVARD CHURCHILL", "city": "GREENFIELD PARK", "province": "QC", "country": "CA", "postalCode": "J4V2L9", "twitter": "None", "instagram": "None", "facebook": "None", "youtube": "None", "website": "None", "summary": "None", "logo": "None", "latitude": 45.49030736167674, "longitude": -73.48946828175283}, "129584173RR0001": {"name": "LA FABRIQUE DE LA PAROISSE BIENHEUREUX FRAN\u00c7OIS DE MONTMORENCY-LAVAL", "designationCode": "C", "categoryCode": "38", "address": "231 AVE DES SABLES", "city": "LAVAL", "province": "QC", "country": "CA", "postalCode": "H7G3V9", "twitter": "None", "instagram": "None", "facebook": "None", "youtube": "None", "website": "None", "summary": "None", "logo": "None", "latitude": 45.57279983568017, "longitude": -73.67982732996734}, "890778772RR0001": {"name": "LA FABRIQUE DE LA PAROISSE BON PASTEUR", "designationCode": "C", "categoryCode": "38", "address": "138, RUE BARRETTE", "city": "LAC-DES-\u00c9CORCES", "province": "QC", "country": "CA", "postalCode": "J0W1H0", "twitter": "None", "instagram": "None", "facebook": "None", "youtube": "None", "website": "None", "summary": "None", "logo": "None", "latitude": 46.50741773366178, "longitude": -75.35341264835048}, "118990613RR0001": {"name": "LA FABRIQUE DE LA PAROISSE D'ARMAGH", "designationCode": "C", "categoryCode": "38", "address": "80 RUE PRINCIPALE", "city": "ARMAGH", "province": "QC", "country": "CA", "postalCode": "G0R1A0", "twitter": "None", "instagram": "None", "facebook": "None", "youtube": "None", "website": "None", "summary": "None", "logo": "None", "latitude": 46.743887703110474, "longitude": -70.58879166527255}, "130121080RR0001": {"name": "LA FABRIQUE DE LA PAROISSE D'INVERNESS", "designationCode": "C", "categoryCode": "38", "address": "1852 RUE DUBLIN", "city": "INVERNESS", "province": "QC", "country": "CA", "postalCode": "G0S1K0", "twitter": "None", "instagram": "None", "facebook": "None", "youtube": "None", "website": "None", "summary": "None", "logo": "None", "latitude": 46.25818894944917, "longitude": -71.51839333267905}, "118905058RR0001": {"name": "LA FABRIQUE DE LA PAROISSE DE BAIE-TRINITE", "designationCode": "C", "categoryCode": "38", "address": "23, ROUTE 138E                CP 27", "city": "BAIE-TRINITE", "province": "QC", "country": "CA", "postalCode": "G0H1A0", "twitter": "None", "instagram": "None", "facebook": "None", "youtube": "None", "website": "None", "summary": "None", "logo": "None", "latitude": 49.29193525561205, "longitude": -67.89747496624274}, "864744404RR0001": {"name": "LA FABRIQUE DE LA PAROISSE DE BIENHEUREUSE MARIE-ANNE BLONDIN", "designationCode": "C", "categoryCode": "38", "address": "2065, RUE JACQUES-CARTIER", "city": "TERREBONNE", "province": "QC", "country": "CA", "postalCode": "J6X2T2", "twitter": "None", "instagram": "None", "facebook": "None", "youtube": "None", "website": "None", "summary": "None", "logo": "None", "latitude": 45.724004497085815, "longitude": -73.66776161890488}, "829089341RR0001": {"name": "LA FABRIQUE DE LA PAROISSE DE BON PASTEUR / THE FABRIQUE OF THE PARISH OF GOOD SHEPHERD", "designationCode": "C", "categoryCode": "38", "address": "7900, RUE NAPLES              ARRONDISSEMENT BROSSARD", "city": "LONGUEUIL", "province": "QC", "country": "CA", "postalCode": "J4Y1Z9", "twitter": "None", "instagram": "None", "facebook": "None", "youtube": "None", "website": "None", "summary": "None", "logo": "None", "latitude": 45.44975103802871, "longitude": -73.46532233140965}, "889503645RR0001": {"name": "LA FABRIQUE DE LA PAROISSE DE BON-PASTEUR", "designationCode": "C", "categoryCode": "38", "address": "1365 AV. DE LA RIVIERE-JAUNE", "city": "QUEBEC", "province": "QC", "country": "CA", "postalCode": "G2N1R8", "twitter": "None", "instagram": "None", "facebook": "None", "youtube": "None", "website": "None", "summary": "None", "logo": "None", "latitude": 46.911690388828085, "longitude": -71.33996210603604}, "131809196RR0001": {"name": "LA FABRIQUE DE LA PAROISSE DE BOUCHETTE", "designationCode": "C", "categoryCode": "38", "address": "20 PRINCIPALE CP. 89", "city": "BOUCHETTE COMTE GATINEAU", "province": "QC", "country": "CA", "postalCode": "J0X1E0", "twitter": "None", "instagram": "None", "facebook": "None", "youtube": "None", "website": "None", "summary": "None", "logo": "None", "latitude": 46.17817800000006, "longitude": -75.92431849999993}, "107357881RR0001": {"name": "LA FABRIQUE DE LA PAROISSE DE CAP SAINT-IGNACE", "designationCode": "C", "categoryCode": "38", "address": "15, RUE JACOB", "city": "CAP-SAINT-IGNACE", "province": "QC", "country": "CA", "postalCode": "G0R1H0", "twitter": "None", "instagram": "None", "facebook": "None", "youtube": "None", "website": "None", "summary": "None", "logo": "None", "latitude": 47.037754526544845, "longitude": -70.45609347016561}, "130030539RR0001": {"name": "LA FABRIQUE DE LA PAROISSE DE CAP-SANTE", "designationCode": "C", "categoryCode": "38", "address": "105 RUE DE L'EGLISE", "city": "DONNACONA", "province": "QC", "country": "CA", "postalCode": "G3M1X8", "twitter": "None", "instagram": "None", "facebook": "None", "youtube": "None", "website": "None", "summary": "None", "logo": "None", "latitude": 46.67400097723221, "longitude": -71.74004571803594}, "118990811RR0001": {"name": "LA FABRIQUE DE LA PAROISSE DE CHARNY", "designationCode": "C", "categoryCode": "38", "address": "3324, PLACE DE L'EGLISE", "city": "LEVIS", "province": "QC", "country": "CA", "postalCode": "G6X3L8", "twitter": "None", "instagram": "None", "facebook": "None", "youtube": "None", "website": "None", "summary": "None", "logo": "None", "latitude": 46.71347281626178, "longitude": -71.2728258408447}, "107358418RR0001": {"name": "LA FABRIQUE DE LA PAROISSE DE CHIBOUGAMAU", "designationCode": "C", "categoryCode": "38", "address": "200 RUE DES OBLATS", "city": "CHIBOUGAMAU", "province": "QC", "country": "CA", "postalCode": "G8P1G8", "twitter": "None", "instagram": "None", "facebook": "None", "youtube": "None", "website": "None", "summary": "None", "logo": "None", "latitude": 49.91622917822696, "longitude": -74.37272608081793}, "118990910RR0001": {"name": "LA FABRIQUE DE LA PAROISSE DE DESCHAMBAULT", "designationCode": "C", "categoryCode": "38", "address": "115 RUE DE L'EGLISE           C.P. 129", "city": "DESCHAMBAULT", "province": "QC", "country": "CA", "postalCode": "G0A1S0", "twitter": "None", "instagram": "None", "facebook": "None", "youtube": "None", "website": "None", "summary": "None", "logo": "None", "latitude": 46.64804960802697, "longitude": -71.92833531407854}, "890483548RR0002": {"name": "LA FABRIQUE DE LA PAROISSE DE HOLY NAME OF JESUS", "designationCode": "C", "categoryCode": "38", "address": "899 CHOMEDEY BOULEVARD", "city": "LAVAL", "province": "QC", "country": "CA", "postalCode": "H7V2X1", "twitter": "None", "instagram": "None", "facebook": "None", "youtube": "None", "website": "None", "summary": "None", "logo": "None", "latitude": 45.545598670004, "longitude": -73.74014267288952}, "118991009RR0001": {"name": "LA FABRIQUE DE LA PAROISSE DE HONFLEUR", "designationCode": "C", "categoryCode": "38", "address": "235, RUE DE L'EGLISE", "city": "HONFLEUR", "province": "QC", "country": "CA", "postalCode": "G0R1N0", "twitter": "None", "instagram": "None", "facebook": "None", "youtube": "None", "website": "None", "summary": "None", "logo": "None", "latitude": 46.95673630321204, "longitude": -69.78355089317874}, "130639917RR0001": {"name": "LA FABRIQUE DE LA PAROISSE DE L'ANCIENNE-LORETTE", "designationCode": "C", "categoryCode": "38", "address": "1625 RUE NOTRE DAME", "city": "L ANCIENNE LORETTE", "province": "QC", "country": "CA", "postalCode": "G2E3B4", "twitter": "None", "instagram": "None", "facebook": "None", "youtube": "None", "website": "None", "summary": "None", "logo": "None", "latitude": 46.80058508162599, "longitude": -71.35974492218317}, "118991181RR0001": {"name": "LA FABRIQUE DE LA PAROISSE DE L'ANGE-GARDIEN", "designationCode": "C", "categoryCode": "38", "address": "6357 AVENUE ROYALE", "city": "L'ANGE GARDIEN", "province": "QC", "country": "CA", "postalCode": "G0A2K0", "twitter": "None", "instagram": "None", "facebook": "None", "youtube": "None", "website": "None", "summary": "None", "logo": "None", "latitude": 46.915689516013266, "longitude": -71.0942535}, "107814592RR0001": {"name": "LA FABRIQUE DE LA PAROISSE DE L'ANNONCIATION-DE-NOTRE-DAME /FABRIQUE OF THE PARISH OF THE ANNUNCIATION", "designationCode": "C", "categoryCode": "38", "address": "75 ROOSEVELT AVE", "city": "MONT-ROYAL", "province": "QC", "country": "CA", "postalCode": "H3R2G9", "twitter": "None", "instagram": "None", "facebook": "None", "youtube": "None", "website": "None", "summary": "None", "logo": "None", "latitude": 45.514604336112846, "longitude": -73.64157345963402}, "107361024RR0001": {"name": "LA FABRIQUE DE LA PAROISSE DE L'ASCENSION DE PATAPEDIA", "designationCode": "C", "categoryCode": "38", "address": "66 RUE PRINCIPALE", "city": "L'ASCENSION DE PATAPEDIA", "province": "QC", "country": "CA", "postalCode": "G0J1R0", "twitter": "None", "instagram": "None", "facebook": "None", "youtube": "None", "website": "None", "summary": "None", "logo": "None", "latitude": 47.933704443065785, "longitude": -67.24955369706984}, "118991231RR0001": {"name": "LA FABRIQUE DE LA PAROISSE DE L'ASSOMPTION", "designationCode": "C", "categoryCode": "38", "address": "12375 BOULEVARD LACROIX", "city": "SAINT-GEORGES", "province": "QC", "country": "CA", "postalCode": "G5Y1L8", "twitter": "None", "instagram": "None", "facebook": "None", "youtube": "None", "website": "None", "summary": "None", "logo": "None", "latitude": 46.1207059232463, "longitude": -70.66702977341026}, "130196603RR0001": {"name": "LA FABRIQUE DE LA PAROISSE DE L'ASSOMPTION DE LA STE-VIERGE, ARCHDIOSE DE MONTREAL", "designationCode": "C", "categoryCode": "38", "address": "153 RUE DU PORTAGE", "city": "L'ASSOMPTION", "province": "QC", "country": "CA", "postalCode": "J5W3G3", "twitter": "None", "instagram": "None", "facebook": "None", "youtube": "None", "website": "None", "summary": "None", "logo": "None", "latitude": 45.82508159951518, "longitude": -73.42443471146649}, "857529960RR0001": {"name": "LA FABRIQUE DE LA PAROISSE DE L'ASSOMPTION-DE-MARIE", "designationCode": "C", "categoryCode": "39", "address": "326 RUE DU COUVENT", "city": "MANIWAKI", "province": "QC", "country": "CA", "postalCode": "J9E1H4", "twitter": "None", "instagram": "None", "facebook": "None", "youtube": "None", "website": "None", "summary": "None", "logo": "None", "latitude": 46.37999292148976, "longitude": -75.97013059827441}, "118909092RR0001": {"name": "LA FABRIQUE DE LA PAROISSE DE L'ESPRIT-SAINT", "designationCode": "C", "categoryCode": "38", "address": "7, RUE DES ERABLES", "city": "ESPRIT-SAINT", "province": "QC", "country": "CA", "postalCode": "G0K1A0", "twitter": "None", "instagram": "None", "facebook": "None", "youtube": "None", "website": "None", "summary": "None", "logo": "None", "latitude": 48.035836507905216, "longitude": -68.61070663723348}, "856778931RR0001": {"name": "LA FABRIQUE DE LA PAROISSE DE L'IMMACULEE-CONCEPTION", "designationCode": "C", "categoryCode": "38", "address": "1855 RUE RACHEL EST", "city": "MONTREAL", "province": "QC", "country": "CA", "postalCode": "H2H1P5", "twitter": "None", "instagram": "None", "facebook": "None", "youtube": "None", "website": "None", "summary": "None", "logo": "None", "latitude": 45.530834403860396, "longitude": -73.56924859172489}, "118998376RR0001": {"name": "LA FABRIQUE DE LA PAROISSE DE L'IMMACULEE-CONCEPTION DE BELLERIVE", "designationCode": "C", "categoryCode": "38", "address": "285 RUE DANIS", "city": "SALABERRY-DE-VALLEYFIELD", "province": "QC", "country": "CA", "postalCode": "J6S1L8", "twitter": "None", "instagram": "None", "facebook": "None", "youtube": "None", "website": "None", "summary": "None", "logo": "None", "latitude": 45.262873622280445, "longitude": -74.13912067972751}, "118993351RR0001": {"name": "LA FABRIQUE DE LA PAROISSE DE LA BIENHEUREUSE MARIE-ANNE BLONDIN", "designationCode": "C", "categoryCode": "38", "address": "4565, NOTRE-DAME OUEST", "city": "MONTR\u00c9AL", "province": "QC", "country": "CA", "postalCode": "H4C1S3", "twitter": "None", "instagram": "None", "facebook": "None", "youtube": "None", "website": "None", "summary": "None", "logo": "None", "latitude": 45.47400052706444, "longitude": -73.58769591355524}, "118991116RR0001": {"name": "LA FABRIQUE DE LA PAROISSE DE LA DURANTAYE", "designationCode": "C", "categoryCode": "38", "address": "1, RUE FUROIS", "city": "LA DURANTAYE", "province": "QC", "country": "CA", "postalCode": "G0R1W0", "twitter": "None", "instagram": "None", "facebook": "None", "youtube": "None", "website": "None", "summary": "None", "logo": "None", "latitude": 46.834605147642776, "longitude": -70.85743290954453}, "107358053RR0001": {"name": "LA FABRIQUE DE LA PAROISSE DE LA NATIVITE-DE-LA-SAINTE-VIERGE", "designationCode": "C", "categoryCode": "38", "address": "2-A RUE PRINCIPALE EST", "city": "BIENCOURT", "province": "QC", "country": "CA", "postalCode": "G0K1T0", "twitter": "None", "instagram": "None", "facebook": "None", "youtube": "None", "website": "None", "summary": "None", "logo": "None", "latitude": 47.936998088002646, "longitude": -68.60480734488407}, "132182684RR0001": {"name": "LA FABRIQUE DE LA PAROISSE DE LA RESURRECTION", "designationCode": "C", "categoryCode": "38", "address": "5811 AV AUTEUIL", "city": "BROSSARD", "province": "QC", "country": "CA", "postalCode": "J4Z1M9", "twitter": "None", "instagram": "None", "facebook": "None", "youtube": "None", "website": "None", "summary": "None", "logo": "None", "latitude": 45.473554643372246, "longitude": -73.45622043883066}, "107359689RR0001": {"name": "LA FABRIQUE DE LA PAROISSE DE LA VISITATION", "designationCode": "C", "categoryCode": "38", "address": "11900 RUE NOTRE-DAME OUEST", "city": "TROIS RIVIERES", "province": "QC", "country": "CA", "postalCode": "G9B6W8", "twitter": "None", "instagram": "None", "facebook": "None", "youtube": "None", "website": "None", "summary": "None", "logo": "None", "latitude": 46.287866016994215, "longitude": -72.68763341517136}, "861359834RR0001": {"name": "LA FABRIQUE DE LA PAROISSE DE LA VISITATION", "designationCode": "C", "categoryCode": "38", "address": "1545 BOUL. JACQUES-CARTIER EST", "city": "LONGUEUIL", "province": "QC", "country": "CA", "postalCode": "J4M2B5", "twitter": "None", "instagram": "None", "facebook": "None", "youtube": "None", "website": "None", "summary": "None", "logo": "None", "latitude": 45.53895788565409, "longitude": -73.45661130313312}, "107358442RR0001": {"name": "LA FABRIQUE DE LA PAROISSE DE LA VISITATION DE L'ILE DU PAS", "designationCode": "C", "categoryCode": "38", "address": "121 RUE DE L'EGLISE", "city": "ILE DU PAS", "province": "QC", "country": "CA", "postalCode": "J0K2P0", "twitter": "None", "instagram": "None", "facebook": "None", "youtube": "None", "website": "None", "summary": "None", "logo": "None", "latitude": 46.13200094061968, "longitude": -73.51250896751122}, "846245942RR0001": {"name": "LA FABRIQUE DE LA PAROISSE DE LE BON PASTEUR", "designationCode": "C", "categoryCode": "39", "address": "700, PREFONTAINE", "city": "LONGUEUIL", "province": "QC", "country": "CA", "postalCode": "J4K3V9", "twitter": "None", "instagram": "None", "facebook": "None", "youtube": "None", "website": "None", "summary": "None", "logo": "None", "latitude": 45.52265495862442, "longitude": -73.5099779536614}, "118991363RR0001": {"name": "LA FABRIQUE DE LA PAROISSE DE MARIE MEDIATRICE", "designationCode": "C", "categoryCode": "38", "address": "2290 RUE GALT OUEST", "city": "SHERBROOKE", "province": "QC", "country": "CA", "postalCode": "J1K1K8", "twitter": "None", "instagram": "None", "facebook": "None", "youtube": "None", "website": "None", "summary": "None", "logo": "None", "latitude": 45.3869209051032, "longitude": -71.92843448905772}, "118991389RR0001": {"name": "LA FABRIQUE DE LA PAROISSE DE MARIE REINE", "designationCode": "C", "categoryCode": "38", "address": "280 RUE DU CONSEIL", "city": "SHERBROOKE", "province": "QC", "country": "CA", "postalCode": "J1G1J4", "twitter": "None", "instagram": "None", "facebook": "None", "youtube": "None", "website": "None", "summary": "None", "logo": "None", "latitude": 45.40330861166286, "longitude": -71.88016034373024}, "118991397RR0001": {"name": "LA FABRIQUE DE LA PAROISSE DE MARSOUI", "designationCode": "C", "categoryCode": "38", "address": "1, DES ECOLIERS CP. 160", "city": "MARSOUI", "province": "QC", "country": "CA", "postalCode": "G0E1S0", "twitter": "None", "instagram": "None", "facebook": "None", "youtube": "None", "website": "None", "summary": "None", "logo": "None", "latitude": 49.21449980988514, "longitude": -66.06974676155598}, "131534059RR0001": {"name": "LA FABRIQUE DE LA PAROISSE DE NOTRE DAME DE L'ASSOMPTION BERTHIER", "designationCode": "C", "categoryCode": "38", "address": "29 EST, PRINCIPALE", "city": "BERTHIER-SUR-MER", "province": "QC", "country": "CA", "postalCode": "G0R1E0", "twitter": "None", "instagram": "None", "facebook": "None", "youtube": "None", "website": "None", "summary": "None", "logo": "None", "latitude": 46.92758420824268, "longitude": -70.73012105859071}, "131640849RR0001": {"name": "LA FABRIQUE DE LA PAROISSE DE NOTRE DAME DE L'ETERNITE", "designationCode": "C", "categoryCode": "38", "address": "410 RUE PRINCIPALE", "city": "RIVIERE-ETERNITE", "province": "QC", "country": "CA", "postalCode": "G0V1P0", "twitter": "None", "instagram": "None", "facebook": "None", "youtube": "None", "website": "None", "summary": "None", "logo": "None", "latitude": 48.25609733711231, "longitude": -70.4146001537401}, "130917149RR0001": {"name": "LA FABRIQUE DE LA PAROISSE DE NOTRE DAME DE POMPEI, ARCHIDIOCESE DE MONTREAL", "designationCode": "C", "categoryCode": "38", "address": "2875 RUE SAUVE EST", "city": "MONTREAL", "province": "QC", "country": "CA", "postalCode": "H2B1C6", "twitter": "None", "instagram": "None", "facebook": "None", "youtube": "None", "website": "None", "summary": "None", "logo": "None", "latitude": 45.576145958653065, "longitude": -73.63911644881398}, "131908253RR0001": {"name": "LA FABRIQUE DE LA PAROISSE DE NOTRE DAME DES CHAMPS ARCHIDIOCESE DE MONTREAL", "designationCode": "C", "categoryCode": "38", "address": "187 BOUL IBERVILLE", "city": "REPENTIGNY", "province": "QC", "country": "CA", "postalCode": "J6A1Z1", "twitter": "None", "instagram": "None", "facebook": "None", "youtube": "None", "website": "None", "summary": "None", "logo": "None", "latitude": 45.72089155372485, "longitude": -73.4701339091405}, "887326593RR0001": {"name": "LA FABRIQUE DE LA PAROISSE DE NOTRE DE LOURDES ARCHIDIOCESE DE MONTREAL", "designationCode": "C", "categoryCode": "38", "address": "4949 RUE DE VERDUN", "city": "VERDUN", "province": "QC", "country": "CA", "postalCode": "H4G1N4", "twitter": "None", "instagram": "None", "facebook": "None", "youtube": "None", "website": "None", "summary": "None", "logo": "None", "latitude": 45.45657889508916, "longitude": -73.57195956139954}, "107640344RR0001": {"name": "LA FABRIQUE DE LA PAROISSE DE NOTRE-DAME ARCHIDIOCESE DE MONTREAL", "designationCode": "C", "categoryCode": "38", "address": "4601 CH. COTE-DES-NEIGES", "city": "MONTREAL", "province": "QC", "country": "CA", "postalCode": "H3V1E7", "twitter": "None", "instagram": "None", "facebook": "None", "youtube": "None", "website": "None", "summary": "None", "logo": "None", "latitude": 45.4959961906918, "longitude": -73.60857701511921}, "107361057RR0001": {"name": "LA FABRIQUE DE LA PAROISSE DE NOTRE-DAME DE BONSECOURS", "designationCode": "C", "categoryCode": "38", "address": "15 DES PIONNIERS EST", "city": "L'ISLET SUR MER", "province": "QC", "country": "CA", "postalCode": "G0R2B0", "twitter": "None", "instagram": "None", "facebook": "None", "youtube": "None", "website": "None", "summary": "None", "logo": "None", "latitude": 47.127429659183946, "longitude": -70.37230402902632}, "107361438RR0001": {"name": "LA FABRIQUE DE LA PAROISSE DE NOTRE-DAME DE L'EAU VIVE", "designationCode": "C", "categoryCode": "38", "address": "30 RUE ST-ONGE", "city": "GATINEAU", "province": "QC", "country": "CA", "postalCode": "J8Y5T6", "twitter": "None", "instagram": "None", "facebook": "None", "youtube": "None", "website": "None", "summary": "None", "logo": "None", "latitude": 45.451796857608706, "longitude": -75.74863729831527}, "107362741RR0001": {"name": "LA FABRIQUE DE LA PAROISSE DE NOTRE-DAME DE PASPEBIAC", "designationCode": "C", "categoryCode": "38", "address": "5A GERARD-D. LEVESQUE E       C.P 400", "city": "PASP\u00c9BIAC", "province": "QC", "country": "CA", "postalCode": "G0C2K0", "twitter": "None", "instagram": "None", "facebook": "None", "youtube": "None", "website": "None", "summary": "None", "logo": "None", "latitude": 48.02936863246085, "longitude": -65.24808717969208}, "118991793RR0001": {"name": "LA FABRIQUE DE LA PAROISSE DE NOTRE-DAME DU FOYER ARCHIDIOCESE DE MONTREAL", "designationCode": "C", "categoryCode": "38", "address": "5999, 40E AVENUE", "city": "MONTREAL", "province": "QC", "country": "CA", "postalCode": "H1T2V6", "twitter": "None", "instagram": "None", "facebook": "None", "youtube": "None", "website": "None", "summary": "None", "logo": "None", "latitude": 45.571573935916476, "longitude": -73.56606250386648}, "107362782RR0001": {"name": "LA FABRIQUE DE LA PAROISSE DE NOTRE-DAME DU LAC-ST-JEAN", "designationCode": "C", "categoryCode": "38", "address": "485 BOUL. SAINT-JOSEPH", "city": "ROBERVAL", "province": "QC", "country": "CA", "postalCode": "G8H2K5", "twitter": "None", "instagram": "None", "facebook": "None", "youtube": "None", "website": "None", "summary": "None", "logo": "None", "latitude": 48.50952496029785, "longitude": -72.21891850744358}, "118992049RR0001": {"name": "LA FABRIQUE DE LA PAROISSE DE NOTRE-DAME DU ST-ROSAIRE", "designationCode": "C", "categoryCode": "38", "address": "388 CH DES ANGLAIS", "city": "MASCOUCHE", "province": "QC", "country": "CA", "postalCode": "J7L3R1", "twitter": "None", "instagram": "None", "facebook": "None", "youtube": "None", "website": "None", "summary": "None", "logo": "None", "latitude": 45.73262246514528, "longitude": -73.6509689576148}, "118991785RR0001": {"name": "LA FABRIQUE DE LA PAROISSE DE NOTRE-DAME-D'ANJOU", "designationCode": "C", "categoryCode": "38", "address": "8200 PLACE DE L'EGLISE", "city": "ANJOU", "province": "QC", "country": "CA", "postalCode": "H1K2B3", "twitter": "None", "instagram": "None", "facebook": "None", "youtube": "None", "website": "None", "summary": "None", "logo": "None", "latitude": 45.60175900473185, "longitude": -73.54381631303046}, "107361818RR0001": {"name": "LA FABRIQUE DE LA PAROISSE DE NOTRE-DAME-D'HEBERTVILLE", "designationCode": "C", "categoryCode": "38", "address": "251 RUE TURGEON", "city": "HEBERTVILLE", "province": "QC", "country": "CA", "postalCode": "G8N1S2", "twitter": "None", "instagram": "None", "facebook": "None", "youtube": "None", "website": "None", "summary": "None", "logo": "None", "latitude": 48.39179346462569, "longitude": -71.6797588748627}, "107361248RR0001": {"name": "LA FABRIQUE DE LA PAROISSE DE NOTRE-DAME-DE-BON-DESIR", "designationCode": "C", "categoryCode": "38", "address": "300 RUE DE LA RIVIERE", "city": "BERGERONNES", "province": "QC", "country": "CA", "postalCode": "G0T1G0", "twitter": "None", "instagram": "None", "facebook": "None", "youtube": "None", "website": "None", "summary": "None", "logo": "None", "latitude": 48.24562043104038, "longitude": -69.54612636816893}, "118991660RR0001": {"name": "LA FABRIQUE DE LA PAROISSE DE NOTRE-DAME-DE-FATIMA DE POINTE-LEBEL", "designationCode": "C", "categoryCode": "38", "address": "758 GRANIER", "city": "POINTE-LEBEL CTE SAGUENAY", "province": "QC", "country": "CA", "postalCode": "G0H1N0", "twitter": "None", "instagram": "None", "facebook": "None", "youtube": "None", "website": "None", "summary": "None", "logo": "None", "latitude": 49.1596205683827, "longitude": -68.19835289370415}, "107361305RR0001": {"name": "LA FABRIQUE DE LA PAROISSE DE NOTRE-DAME-DE-FOY", "designationCode": "C", "categoryCode": "38", "address": "3155 QUATRE-BOURGEOIS", "city": "SAINTE-FOY", "province": "QC", "country": "CA", "postalCode": "G1W4X7", "twitter": "None", "instagram": "None", "facebook": "None", "youtube": "None", "website": "None", "summary": "None", "logo": "None", "latitude": 46.76808495527755, "longitude": -71.30891448981512}, "107362659RR0001": {"name": "LA FABRIQUE DE LA PAROISSE DE NOTRE-DAME-DE-GRACE ARCHIDIOCESE DE MONTREAL", "designationCode": "C", "categoryCode": "38", "address": "5333 AV. NOTRE-DAME-DE-GRACE", "city": "MONTREAL", "province": "QC", "country": "CA", "postalCode": "H4A1L2", "twitter": "None", "instagram": "None", "facebook": "None", "youtube": "None", "website": "None", "summary": "None", "logo": "None", "latitude": 45.47673389566606, "longitude": -73.61583469308637}, "107359804RR0001": {"name": "LA FABRIQUE DE LA PAROISSE DE NOTRE-DAME-DE-L'ESP\u00c9RANCE", "designationCode": "C", "categoryCode": "38", "address": "60 RUE PRINCIPALE", "city": "NOTRE-DAME-DU-LAUS", "province": "QC", "country": "CA", "postalCode": "J0X2M0", "twitter": "None", "instagram": "None", "facebook": "None", "youtube": "None", "website": "None", "summary": "None", "logo": "None", "latitude": 46.08754904025041, "longitude": -75.62163724242606}, "130722267RR0001": {"name": "LA FABRIQUE DE LA PAROISSE DE NOTRE-DAME-DE-LA-CONSOLATION", "designationCode": "C", "categoryCode": "38", "address": "23 RUE PRINCIPALE             CP 172", "city": "MONTPELLIER", "province": "QC", "country": "CA", "postalCode": "J0V1M0", "twitter": "None", "instagram": "None", "facebook": "None", "youtube": "None", "website": "None", "summary": "None", "logo": "None", "latitude": 45.8553519804398, "longitude": -75.16319826077195}, "130173487RR0001": {"name": "LA FABRIQUE DE LA PAROISSE DE NOTRE-DAME-DE-LA-DORE", "designationCode": "C", "categoryCode": "38", "address": "4983 DES PEUPLIERS", "city": "LA DORE", "province": "QC", "country": "CA", "postalCode": "G8J1E7", "twitter": "None", "instagram": "None", "facebook": "None", "youtube": "None", "website": "None", "summary": "None", "logo": "None", "latitude": 48.71337046724329, "longitude": -72.64910144783876}, "864144209RR0001": {"name": "LA FABRIQUE DE LA PAROISSE DE NOTRE-DAME-DE-LA-PAIX", "designationCode": "C", "categoryCode": "38", "address": "2227, RUE DE MONTFORT", "city": "JONQUIERE", "province": "QC", "country": "CA", "postalCode": "G7X4P6", "twitter": "None", "instagram": "None", "facebook": "None", "youtube": "None", "website": "None", "summary": "None", "logo": "None", "latitude": 48.413010971406365, "longitude": -71.2383650447807}, "887839868RR0001": {"name": "LA FABRIQUE DE LA PAROISSE DE NOTRE-DAME-DE-LA-PAIX", "designationCode": "C", "categoryCode": "38", "address": "256 RUE NOTRE-DAME", "city": "NOTRE-DAME-DE-LA-PAIX", "province": "QC", "country": "CA", "postalCode": "J0V1P0", "twitter": "None", "instagram": "None", "facebook": "None", "youtube": "None", "website": "None", "summary": "None", "logo": "None", "latitude": 45.80866755063776, "longitude": -74.96757316916728}, "129881819RR0001": {"name": "LA FABRIQUE DE LA PAROISSE DE NOTRE-DAME-DE-LA-PRESENTATION", "designationCode": "C", "categoryCode": "38", "address": "825, AV. OZIAS-LEDUC", "city": "SHAWINIGAN", "province": "QC", "country": "CA", "postalCode": "G9P1E1", "twitter": "None", "instagram": "None", "facebook": "None", "youtube": "None", "website": "None", "summary": "None", "logo": "None", "latitude": 46.52769290853064, "longitude": -72.75071992975516}, "107359788RR0001": {"name": "LA FABRIQUE DE LA PAROISSE DE NOTRE-DAME-DE-LA-PROVIDENCE", "designationCode": "C", "categoryCode": "38", "address": "2770, 1ERE AVENUE", "city": "NOTRE-DAME-DES-PINS", "province": "QC", "country": "CA", "postalCode": "G0M1K0", "twitter": "None", "instagram": "None", "facebook": "None", "youtube": "None", "website": "None", "summary": "None", "logo": "None", "latitude": 46.18351531669446, "longitude": -70.7138787250269}, "131789885RR0001": {"name": "LA FABRIQUE DE LA PAROISSE DE NOTRE-DAME-DE-LA-SALETTE", "designationCode": "C", "categoryCode": "38", "address": "49 DES SAULES                 CP 69", "city": "NOTRE DAME DE LA SALETTE", "province": "QC", "country": "CA", "postalCode": "J0X2L0", "twitter": "None", "instagram": "None", "facebook": "None", "youtube": "None", "website": "None", "summary": "None", "logo": "None", "latitude": 45.76666724202203, "longitude": -75.58319226449885}, "107361503RR0001": {"name": "LA FABRIQUE DE LA PAROISSE DE NOTRE-DAME-DE-LA-SALETTE ARCHIDIOCESE DE MONTREAL", "designationCode": "C", "categoryCode": "38", "address": "3535 AVENUE DU PARC", "city": "MONTREAL", "province": "QC", "country": "CA", "postalCode": "H2X2H8", "twitter": "None", "instagram": "None", "facebook": "None", "youtube": "None", "website": "None", "summary": "None", "logo": "None", "latitude": 45.509816261469076, "longitude": -73.57433087411289}, "107361560RR0001": {"name": "LA FABRIQUE DE LA PAROISSE DE NOTRE-DAME-DE-LA-VISITATION DEHAVRE-AUBERT", "designationCode": "C", "categoryCode": "38", "address": "300 CHEMIN D'EN-HAUT", "city": "HAVRE-AUBERT", "province": "QC", "country": "CA", "postalCode": "G4T9A8", "twitter": "None", "instagram": "None", "facebook": "None", "youtube": "None", "website": "None", "summary": "None", "logo": "None", "latitude": 47.237096852588394, "longitude": -61.85072639895563}, "131440000RR0001": {"name": "LA FABRIQUE DE LA PAROISSE DE NOTRE-DAME-DE-LATERRIERE", "designationCode": "C", "categoryCode": "38", "address": "6167 RUE NOTRE-DAME", "city": "LATERRIERE", "province": "QC", "country": "CA", "postalCode": "G7N1P7", "twitter": "None", "instagram": "None", "facebook": "None", "youtube": "None", "website": "None", "summary": "None", "logo": "None", "latitude": 48.30888944904513, "longitude": -71.10841625489088}, "131877243RR0001": {"name": "LA FABRIQUE DE LA PAROISSE DE NOTRE-DAME-DE-LIESSE", "designationCode": "C", "categoryCode": "38", "address": "102, RUE DE L'EGLISE          C.P. 9", "city": "RIVIERE-OUELLE", "province": "QC", "country": "CA", "postalCode": "G0L2C0", "twitter": "None", "instagram": "None", "facebook": "None", "youtube": "None", "website": "None", "summary": "None", "logo": "None", "latitude": 47.43296212101103, "longitude": -70.01523251402268}, "107361628RR0001": {"name": "LA FABRIQUE DE LA PAROISSE DE NOTRE-DAME-DE-LOURDES", "designationCode": "C", "categoryCode": "38", "address": "163 RUE PRINCIPALE            C.P. 1220", "city": "GIRARDVILLE", "province": "QC", "country": "CA", "postalCode": "G0W1R0", "twitter": "None", "instagram": "None", "facebook": "None", "youtube": "None", "website": "None", "summary": "None", "logo": "None", "latitude": 49.0030965137629, "longitude": -72.5470986836809}, "118991520RR0001": {"name": "LA FABRIQUE DE LA PAROISSE DE NOTRE-DAME-DE-LOURDES", "designationCode": "C", "categoryCode": "38", "address": "900, PRINCIPALE", "city": "NOTRE DAME DE LOURDES", "province": "QC", "country": "CA", "postalCode": "G0S1T0", "twitter": "None", "instagram": "None", "facebook": "None", "youtube": "None", "website": "None", "summary": "None", "logo": "None", "latitude": 46.326445535634114, "longitude": -71.81693294324539}, "118991538RR0001": {"name": "LA FABRIQUE DE LA PAROISSE DE NOTRE-DAME-DE-LOURDES DE MONT-JOLI", "designationCode": "C", "categoryCode": "38", "address": "CP 214                        23, DE LA GROTTE", "city": "MONT-JOLI", "province": "QC", "country": "CA", "postalCode": "G5H3L1", "twitter": "None", "instagram": "None", "facebook": "None", "youtube": "None", "website": "None", "summary": "None", "logo": "None", "latitude": 48.58728155508115, "longitude": -68.18623720869653}, "129764742RR0001": {"name": "LA FABRIQUE DE LA PAROISSE DE NOTRE-DAME-DE-PROTECTION", "designationCode": "C", "categoryCode": "38", "address": "2050, RUE GALT E", "city": "SHERBROOKE", "province": "QC", "country": "CA", "postalCode": "J1G3J1", "twitter": "None", "instagram": "None", "facebook": "None", "youtube": "None", "website": "None", "summary": "None", "logo": "None", "latitude": 45.407423953249136, "longitude": -71.85202881462162}, "107361685RR0001": {"name": "LA FABRIQUE DE LA PAROISSE DE NOTRE-DAME-DE-QU\u00c9BEC", "designationCode": "C", "categoryCode": "38", "address": "16 RUE DE BUADE", "city": "QUEBEC", "province": "QC", "country": "CA", "postalCode": "G1R4A1", "twitter": "None", "instagram": "None", "facebook": "None", "youtube": "None", "website": "None", "summary": "None", "logo": "None", "latitude": 46.81358939107843, "longitude": -71.20603913183106}, "130120017RR0001": {"name": "LA FABRIQUE DE LA PAROISSE DE NOTRE-DAME-DES-AM\u00c9RIQUES", "designationCode": "C", "categoryCode": "38", "address": "527 13E AVENUE", "city": "LA-GUADELOUPE BCE-SUD", "province": "QC", "country": "CA", "postalCode": "G0M1G0", "twitter": "None", "instagram": "None", "facebook": "None", "youtube": "None", "website": "None", "summary": "None", "logo": "None", "latitude": 45.962117162357956, "longitude": -70.93929131989711}, "107359606RR0001": {"name": "LA FABRIQUE DE LA PAROISSE DE NOTRE-DAME-DES-CHAMPS", "designationCode": "C", "categoryCode": "38", "address": "1256, CH. DE L'\u00c9GLISE", "city": "ST-POLYCARPE", "province": "QC", "country": "CA", "postalCode": "J0P1X0", "twitter": "None", "instagram": "None", "facebook": "None", "youtube": "None", "website": "None", "summary": "None", "logo": "None", "latitude": 45.301896, "longitude": -74.30268682685234}, "107817595RR0001": {"name": "LA FABRIQUE DE LA PAROISSE DE NOTRE-DAME-DES-HONGROIS, ARCHIDIOCESE DE MONTREAL", "designationCode": "C", "categoryCode": "38", "address": "90 RUE GUIZOT OUEST", "city": "MONTREAL", "province": "QC", "country": "CA", "postalCode": "H2P1L4", "twitter": "None", "instagram": "None", "facebook": "None", "youtube": "None", "website": "None", "summary": "None", "logo": "None", "latitude": 45.538688368572984, "longitude": -73.63510191892227}, "860540558RR0001": {"name": "LA FABRIQUE DE LA PAROISSE DE NOTRE-DAME-DES-MONTS", "designationCode": "C", "categoryCode": "38", "address": "148, CHEMIN WATCHORN", "city": "MORIN-HEIGHTS", "province": "QC", "country": "CA", "postalCode": "J0R1H0", "twitter": "None", "instagram": "None", "facebook": "None", "youtube": "None", "website": "None", "summary": "None", "logo": "None", "latitude": 45.90658409406215, "longitude": -74.25458019556788}, "107361149RR0001": {"name": "LA FABRIQUE DE LA PAROISSE DE NOTRE-DAME-DES-NEIGES", "designationCode": "C", "categoryCode": "38", "address": "391 RUE DE L'EGLISE", "city": "CHARETTE", "province": "QC", "country": "CA", "postalCode": "G0X1E0", "twitter": "None", "instagram": "None", "facebook": "None", "youtube": "None", "website": "None", "summary": "None", "logo": "None", "latitude": 46.44404393147308, "longitude": -72.91988890706303}, "107362766RR0001": {"name": "LA FABRIQUE DE LA PAROISSE DE NOTRE-DAME-DES-NEIGES ARCHIDIOCESE DE MONTREAL", "designationCode": "C", "categoryCode": "38", "address": "5366 CH DE LA COTE-DES-NEIGES", "city": "MONTREAL", "province": "QC", "country": "CA", "postalCode": "H3T1Y2", "twitter": "None", "instagram": "None", "facebook": "None", "youtube": "None", "website": "None", "summary": "None", "logo": "None", "latitude": 45.49653978902445, "longitude": -73.62281502723731}, "118905413RR0001": {"name": "LA FABRIQUE DE LA PAROISSE DE NOTRE-DAME-DU-LAC", "designationCode": "C", "categoryCode": "38", "address": "25 RUE DU CHANOINE-BLANCHET", "city": "T\u00c9MISCOUATA-SUR-LE-LAC", "province": "QC", "country": "CA", "postalCode": "G0L1X0", "twitter": "None", "instagram": "None", "facebook": "None", "youtube": "None", "website": "None", "summary": "None", "logo": "None", "latitude": 47.6123241260917, "longitude": -68.7965724765844}, "131459935RR0001": {"name": "LA FABRIQUE DE LA PAROISSE DE NOTRE-DAME-DU-MONT-CARMEL", "designationCode": "C", "categoryCode": "38", "address": "1621 RUE PRINCIPALE", "city": "N.D. MONT CARMEL", "province": "QC", "country": "CA", "postalCode": "G0X3J0", "twitter": "None", "instagram": "None", "facebook": "None", "youtube": "None", "website": "None", "summary": "None", "logo": "None", "latitude": 46.48827376496019, "longitude": -72.65697058246272}, "136219540RR0001": {"name": "LA FABRIQUE DE LA PAROISSE DE NOTRE-DAME-DU-MONT-CARMEL", "designationCode": "C", "categoryCode": "38", "address": "27 RUE DE L'EGLISE NORD", "city": "LACOLLE", "province": "QC", "country": "CA", "postalCode": "J0J1J0", "twitter": "None", "instagram": "None", "facebook": "None", "youtube": "None", "website": "None", "summary": "None", "logo": "None", "latitude": 45.083293564804684, "longitude": -73.37307840527401}, "138251038RR0001": {"name": "LA FABRIQUE DE LA PAROISSE DE NOTRE-DAME-DU-MONT-CARMEL", "designationCode": "C", "categoryCode": "38", "address": "1900 RUE PRINCIPALE           CP 111", "city": "DUHAMEL", "province": "QC", "country": "CA", "postalCode": "J0V1G0", "twitter": "None", "instagram": "None", "facebook": "None", "youtube": "None", "website": "None", "summary": "None", "logo": "None", "latitude": 46.02397246378897, "longitude": -75.08112277990651}, "107362618RR0001": {"name": "LA FABRIQUE DE LA PAROISSE DE NOTRE-DAME-DU-MOUNT-CARMEL", "designationCode": "C", "categoryCode": "38", "address": "11B RUE DE LA FABRIQUE", "city": "MONT-CARMEL", "province": "QC", "country": "CA", "postalCode": "G0L1W0", "twitter": "None", "instagram": "None", "facebook": "None", "youtube": "None", "website": "None", "summary": "None", "logo": "None", "latitude": 47.44199053688794, "longitude": -69.85540415911613}, "118991694RR0001": {"name": "LA FABRIQUE DE LA PAROISSE DE NOTRE-DAME-DU-PORTAGE", "designationCode": "C", "categoryCode": "38", "address": "531 ROUTE DU FLEUVE", "city": "NOTRE DAME DU PORTAGE", "province": "QC", "country": "CA", "postalCode": "G0L1Y0", "twitter": "None", "instagram": "None", "facebook": "None", "youtube": "None", "website": "None", "summary": "None", "logo": "None", "latitude": 47.76859859700502, "longitude": -69.6094445424721}, "131814634RR0002": {"name": "LA FABRIQUE DE LA PAROISSE DE NOTRE-DAME-DU-ROSAIRE", "designationCode": "C", "categoryCode": "38", "address": "CP 99", "city": "NOTRE-DAME-DU-ROSAIRE", "province": "QC", "country": "CA", "postalCode": "G0R2H0", "twitter": "None", "instagram": "None", "facebook": "None", "youtube": "None", "website": "None", "summary": "None", "logo": "None", "latitude": 46.82669000000004, "longitude": -70.39408999999995}, "107587511RR0001": {"name": "LA FABRIQUE DE LA PAROISSE DE NOTRE-DAME-DU-ROSAIRE-DE FATIMA", "designationCode": "C", "categoryCode": "38", "address": "709 CHEMIN DES CAPS", "city": "FATIMA", "province": "QC", "country": "CA", "postalCode": "G4T2S9", "twitter": "None", "instagram": "None", "facebook": "None", "youtube": "None", "website": "None", "summary": "None", "logo": "None", "latitude": 47.40448518339246, "longitude": -61.89913154463648}, "118992056RR0001": {"name": "LA FABRIQUE DE LA PAROISSE DE PARISVILLE", "designationCode": "C", "categoryCode": "38", "address": "985 PRINCIPALE OUEST", "city": "PARISVILLE", "province": "QC", "country": "CA", "postalCode": "G0S1X0", "twitter": "None", "instagram": "None", "facebook": "None", "youtube": "None", "website": "None", "summary": "None", "logo": "None", "latitude": 46.51831758770687, "longitude": -72.06549687868105}, "858613037RR0001": {"name": "LA FABRIQUE DE LA PAROISSE DE PERE-FREDERIC-JANSSOONE", "designationCode": "C", "categoryCode": "38", "address": "575, RUE GUILBERT", "city": "TROIS-RIVIERES", "province": "QC", "country": "CA", "postalCode": "G8T1R9", "twitter": "None", "instagram": "None", "facebook": "None", "youtube": "None", "website": "None", "summary": "None", "logo": "None", "latitude": 46.387765193461746, "longitude": -72.54687651722534}, "131797623RR0001": {"name": "LA FABRIQUE DE LA PAROISSE DE SAINT ALEXANDRE", "designationCode": "C", "categoryCode": "38", "address": "692 ROUTE 289", "city": "ST-ALEXANDRE KAMOURASKA", "province": "QC", "country": "CA", "postalCode": "G0L2G0", "twitter": "None", "instagram": "None", "facebook": "None", "youtube": "None", "website": "None", "summary": "None", "logo": "None", "latitude": 47.682017892514445, "longitude": -69.62273880191913}, "128896800RR0001": {"name": "LA FABRIQUE DE LA PAROISSE DE SAINT AMBROISE ARCHIDIOCESE DE MONTREAL", "designationCode": "C", "categoryCode": "38", "address": "1215 RUE BEAUBIEN EST", "city": "MONTR\u00c9AL", "province": "QC", "country": "CA", "postalCode": "H2S1T8", "twitter": "None", "instagram": "None", "facebook": "None", "youtube": "None", "website": "None", "summary": "None", "logo": "None", "latitude": 45.538994691384275, "longitude": -73.60044664824834}, "888242799RR0002": {"name": "LA FABRIQUE DE LA PAROISSE DE SAINT ANTOINE ILE AUX GRUES", "designationCode": "C", "categoryCode": "38", "address": "238, CHEMIN-DU-ROI", "city": "ISLE-AUX-GRUES", "province": "QC", "country": "CA", "postalCode": "G0R1P0", "twitter": "None", "instagram": "None", "facebook": "None", "youtube": "None", "website": "None", "summary": "None", "logo": "None", "latitude": 47.06791301610016, "longitude": -70.54279815015292}, "132389370RR0001": {"name": "LA FABRIQUE DE LA PAROISSE DE SAINT BARTHELEMY ARCHIDIOCESE DE MONTREAL", "designationCode": "C", "categoryCode": "38", "address": "7100 SAGARD", "city": "MONTREAL", "province": "QC", "country": "CA", "postalCode": "H2E2S5", "twitter": "None", "instagram": "None", "facebook": "None", "youtube": "None", "website": "None", "summary": "None", "logo": "None", "latitude": 45.550902793496526, "longitude": -73.60317445726808}, "130945447RR0001": {"name": "LA FABRIQUE DE LA PAROISSE DE SAINT BENOIT ARCHIDIOCESE DE MONTREAL", "designationCode": "C", "categoryCode": "38", "address": "10530, WAVERLY", "city": "MONTR\u00c9AL", "province": "QC", "country": "CA", "postalCode": "H3L2W6", "twitter": "None", "instagram": "None", "facebook": "None", "youtube": "None", "website": "None", "summary": "None", "logo": "None", "latitude": 45.54741211515399, "longitude": -73.66987972205538}, "129467825RR0001": {"name": "LA FABRIQUE DE LA PAROISSE DE SAINT BONAVENTURE ARCHIDIOCESE DE MONTREAL", "designationCode": "C", "categoryCode": "38", "address": "5205 RUE SAINT-ZOTIQUE E", "city": "MONTREAL", "province": "QC", "country": "CA", "postalCode": "H1T1N6", "twitter": "None", "instagram": "None", "facebook": "None", "youtube": "None", "website": "None", "summary": "None", "logo": "None", "latitude": 45.574771388856725, "longitude": -73.57396668391111}, "130721673RR0001": {"name": "LA FABRIQUE DE LA PAROISSE DE SAINT BRUNO ARCHIDIOCESE DE MONTREAL", "designationCode": "C", "categoryCode": "38", "address": "2287 RUE ALADIN", "city": "LAVAL", "province": "QC", "country": "CA", "postalCode": "H7K2T6", "twitter": "None", "instagram": "None", "facebook": "None", "youtube": "None", "website": "None", "summary": "None", "logo": "None", "latitude": 45.61924408661764, "longitude": -73.72943556621831}, "129881454RR0001": {"name": "LA FABRIQUE DE LA PAROISSE DE SAINT ELZEAR ARCHIDIOCESE DE MONTREAL", "designationCode": "C", "categoryCode": "38", "address": "16 BOUL SAINT-ELZEAR EST", "city": "LAVAL", "province": "QC", "country": "CA", "postalCode": "H7M1C2", "twitter": "None", "instagram": "None", "facebook": "None", "youtube": "None", "website": "None", "summary": "None", "logo": "None", "latitude": 45.603541205926575, "longitude": -73.72787122534496}, "129748604RR0001": {"name": "LA FABRIQUE DE LA PAROISSE DE SAINT ETIENNE ARCHIDIOCESE DE MONTREAL", "designationCode": "C", "categoryCode": "38", "address": "6001 CHRISTOPHE-COLOMB", "city": "MONTREAL", "province": "QC", "country": "CA", "postalCode": "H2S2G3", "twitter": "None", "instagram": "None", "facebook": "None", "youtube": "None", "website": "None", "summary": "None", "logo": "None", "latitude": 45.53599514490145, "longitude": -73.59740840394728}}