{"119180636RR0001": {"name": "ST JOHN'S EVANGELICAL LUTHERAN CHURCH", "designationCode": "C", "categoryCode": "32", "address": "448 TALBOT ST W", "city": "AYLMER", "province": "ON", "country": "CA", "postalCode": "N5H1L1", "twitter": "None", "instagram": "None", "facebook": "None", "youtube": "None", "website": "None", "summary": "None", "logo": "None", "latitude": 42.773115153212224, "longitude": -80.99536365321224}, "119180669RR0001": {"name": "ST JOHN'S EVANGELICAL LUTHERAN CHURCH", "designationCode": "C", "categoryCode": "32", "address": "POST OFFICE BOX 60", "city": "ALBERTA BEACH", "province": "AB", "country": "CA", "postalCode": "T0E0A0", "twitter": "None", "instagram": "None", "facebook": "None", "youtube": "None", "website": "None", "summary": "None", "logo": "None", "latitude": 53.67729000000003, "longitude": -114.35111999999998}, "131549339RR0001": {"name": "ST JOHN'S EVANGELICAL LUTHERAN CHURCH", "designationCode": "C", "categoryCode": "32", "address": "146 SLIGO ROAD WEST", "city": "MOUNT FOREST", "province": "ON", "country": "CA", "postalCode": "N0G2L1", "twitter": "None", "instagram": "None", "facebook": "None", "youtube": "None", "website": "None", "summary": "None", "logo": "None", "latitude": 43.98541376129618, "longitude": -80.742731868977}, "134869353RR0001": {"name": "ST JOHN'S EVANGELICAL LUTHERAN CHURCH", "designationCode": "C", "categoryCode": "32", "address": "5514-55 STREET", "city": "WETASKIWIN", "province": "AB", "country": "CA", "postalCode": "T9A1A7", "twitter": "None", "instagram": "None", "facebook": "None", "youtube": "None", "website": "None", "summary": "None", "logo": "None", "latitude": 52.97529353259637, "longitude": -113.38432067819788}, "890763592RR0001": {"name": "ST JOHN'S EVANGELICAL LUTHERAN CHURCH CARRICK TOWNSHIP", "designationCode": "C", "categoryCode": "32", "address": "736 CONCESSION 12 E           RR 5", "city": "MILDMAY", "province": "ON", "country": "CA", "postalCode": "N0G2J0", "twitter": "None", "instagram": "None", "facebook": "None", "youtube": "None", "website": "None", "summary": "None", "logo": "None", "latitude": 44.08277209188839, "longitude": -81.10613205561607}, "871198941RR0001": {"name": "ST JOHN'S EVANGELICAL LUTHERAN CHURCH GERMANICUS, ONTARIO", "designationCode": "C", "categoryCode": "32", "address": "1986 LAKE DORE RD", "city": "GOLDEN LAKE", "province": "ON", "country": "CA", "postalCode": "K0J1X0", "twitter": "None", "instagram": "None", "facebook": "None", "youtube": "None", "website": "None", "summary": "None", "logo": "None", "latitude": 45.61300558378264, "longitude": -77.19407056430441}, "875450124RR0001": {"name": "ST JOHN'S EVANGELICAL LUTHERAN CHURCH, AUGSBURG, ONTARIO", "designationCode": "C", "categoryCode": "39", "address": "PO BOX 382", "city": "EGANVILLE", "province": "ON", "country": "CA", "postalCode": "K0J1T0", "twitter": "None", "instagram": "None", "facebook": "None", "youtube": "None", "website": "None", "summary": "None", "logo": "None", "latitude": 45.57147000000006, "longitude": -77.04741949999993}, "119180560RR0001": {"name": "ST JOHN'S EVANGELICAL LUTHERAN CHURCH, BONNECHERE", "designationCode": "C", "categoryCode": "32", "address": "2874 LAKE DORE RD             RR 1", "city": "GOLDEN LAKE", "province": "ON", "country": "CA", "postalCode": "K0J1X0", "twitter": "None", "instagram": "None", "facebook": "None", "youtube": "None", "website": "None", "summary": "None", "logo": "None", "latitude": 45.59214040556945, "longitude": -77.22866697205355}, "135465490RR0001": {"name": "ST JOHN'S INDEPENDENT SCHOOL INC", "designationCode": "C", "categoryCode": "20", "address": "58 PATRICK ST", "city": "ST JOHN'S", "province": "NL", "country": "CA", "postalCode": "A1E2S7", "twitter": "None", "instagram": "None", "facebook": "None", "youtube": "None", "website": "None", "summary": "None", "logo": "None", "latitude": 47.553803977263385, "longitude": -52.71757057726949}, "132494345RR0001": {"name": "ST JOHN'S INSTITUTE", "designationCode": "C", "categoryCode": "01", "address": "11024-82 AVENUE", "city": "EDMONTON", "province": "AB", "country": "CA", "postalCode": "T6G0T2", "twitter": "None", "instagram": "None", "facebook": "None", "youtube": "None", "website": "None", "summary": "None", "logo": "None", "latitude": 53.51819646047074, "longitude": -113.51634202553522}, "890301575RR0001": {"name": "ST JOHN'S KIWANIS RECREATION ASSOCIATION", "designationCode": "C", "categoryCode": "56", "address": "P.O. BOX 99", "city": "GOULDS", "province": "NL", "country": "CA", "postalCode": "A1S1G3", "twitter": "None", "instagram": "None", "facebook": "None", "youtube": "None", "website": "None", "summary": "None", "logo": "None", "latitude": 47.45377500000005, "longitude": -52.77189049999993}, "119180792RR0001": {"name": "ST JOHN'S LATVIAN LUTERAN CHURCH", "designationCode": "C", "categoryCode": "32", "address": "1359 CAWTHORPE ST", "city": "SUDBURY", "province": "ON", "country": "CA", "postalCode": "P3G1C1", "twitter": "None", "instagram": "None", "facebook": "None", "youtube": "None", "website": "None", "summary": "None", "logo": "None", "latitude": 46.42576953563411, "longitude": -80.94697136081135}, "119180826RR0001": {"name": "ST JOHN'S LUTHERAN CHURCH", "designationCode": "C", "categoryCode": "32", "address": "3594 RUE JEANNE-MANCE", "city": "MONTREAL", "province": "QC", "country": "CA", "postalCode": "H2X2K3", "twitter": "None", "instagram": "None", "facebook": "None", "youtube": "None", "website": "None", "summary": "None", "logo": "None", "latitude": 45.51101189174228, "longitude": -73.5748052781175}, "119180834RR0001": {"name": "ST JOHN'S LUTHERAN CHURCH", "designationCode": "C", "categoryCode": "32", "address": "147 PASCH ROAD", "city": "LADYSMITH", "province": "QC", "country": "CA", "postalCode": "J0X2A0", "twitter": "None", "instagram": "None", "facebook": "None", "youtube": "None", "website": "None", "summary": "None", "logo": "None", "latitude": 45.75397200305842, "longitude": -76.37442633441076}, "119180917RR0001": {"name": "ST JOHN'S LUTHERAN CHURCH", "designationCode": "C", "categoryCode": "32", "address": "BOX 303", "city": "WAPELLA", "province": "SK", "country": "CA", "postalCode": "S0G4Z0", "twitter": "None", "instagram": "None", "facebook": "None", "youtube": "None", "website": "None", "summary": "None", "logo": "None", "latitude": 50.260980000000075, "longitude": -101.96996999999999}, "119180933RR0001": {"name": "ST JOHN'S LUTHERAN CHURCH", "designationCode": "C", "categoryCode": "32", "address": "PO BOX 185", "city": "SHELLBROOK", "province": "SK", "country": "CA", "postalCode": "S0J2E0", "twitter": "None", "instagram": "None", "facebook": "None", "youtube": "None", "website": "None", "summary": "None", "logo": "None", "latitude": 53.22621000000004, "longitude": -106.39020999999997}, "119180974RR0001": {"name": "ST JOHN'S LUTHERAN CHURCH", "designationCode": "C", "categoryCode": "32", "address": "PO BOX 101", "city": "NEW SAREPTA", "province": "AB", "country": "CA", "postalCode": "T0B3M0", "twitter": "None", "instagram": "None", "facebook": "None", "youtube": "None", "website": "None", "summary": "None", "logo": "None", "latitude": 53.270970000000034, "longitude": -113.14737999999994}, "119180990RR0001": {"name": "ST JOHN'S LUTHERAN CHURCH", "designationCode": "C", "categoryCode": "32", "address": "1533 PARKLAND DR", "city": "PARKLAND COUNTY", "province": "AB", "country": "CA", "postalCode": "T7Y2T6", "twitter": "None", "instagram": "None", "facebook": "None", "youtube": "None", "website": "None", "summary": "None", "logo": "None", "latitude": 53.542273916700566, "longitude": -114.14756801684997}, "119181006RR0001": {"name": "ST JOHN'S LUTHERAN CHURCH", "designationCode": "C", "categoryCode": "32", "address": "BOX 4425", "city": "BARRHEAD", "province": "AB", "country": "CA", "postalCode": "T7N1A3", "twitter": "None", "instagram": "None", "facebook": "None", "youtube": "None", "website": "None", "summary": "None", "logo": "None", "latitude": 54.12098400000005, "longitude": -114.40600999999992}, "119181014RR0001": {"name": "ST JOHN'S LUTHERAN CHURCH", "designationCode": "C", "categoryCode": "32", "address": "PO BOX 339", "city": "WEMBLEY", "province": "AB", "country": "CA", "postalCode": "T0H3S0", "twitter": "None", "instagram": "None", "facebook": "None", "youtube": "None", "website": "None", "summary": "None", "logo": "None", "latitude": 55.15416000000005, "longitude": -119.14110999999997}, "119181022RR0001": {"name": "ST JOHN'S LUTHERAN CHURCH", "designationCode": "C", "categoryCode": "32", "address": "PO BOX 571", "city": "MAGRATH", "province": "AB", "country": "CA", "postalCode": "T0K1J0", "twitter": "None", "instagram": "None", "facebook": "None", "youtube": "None", "website": "None", "summary": "None", "logo": "None", "latitude": 49.41887400000001, "longitude": -112.86699300000001}, "119181063RR0001": {"name": "ST JOHN'S LUTHERAN CHURCH", "designationCode": "C", "categoryCode": "32", "address": "PO BOX 912 STN MAIN", "city": "NELSON", "province": "BC", "country": "CA", "postalCode": "V1L6A5", "twitter": "None", "instagram": "None", "facebook": "None", "youtube": "None", "website": "None", "summary": "None", "logo": "None", "latitude": 49.49754900000005, "longitude": -117.28882249999992}, "119181071RR0001": {"name": "ST JOHN'S LUTHERAN CHURCH", "designationCode": "C", "categoryCode": "32", "address": "5151 ALAIN ROAD", "city": "VERNON", "province": "BC", "country": "CA", "postalCode": "V1B3K6", "twitter": "None", "instagram": "None", "facebook": "None", "youtube": "None", "website": "None", "summary": "None", "logo": "None", "latitude": 50.28423635939935, "longitude": -119.24960313064739}, "131452328RR0001": {"name": "ST JOHN'S LUTHERAN CHURCH", "designationCode": "C", "categoryCode": "32", "address": "PO BOX 126", "city": "VISCOUNT", "province": "SK", "country": "CA", "postalCode": "S0K4M0", "twitter": "None", "instagram": "None", "facebook": "None", "youtube": "None", "website": "None", "summary": "None", "logo": "None", "latitude": 51.94915000000003, "longitude": -105.64071999999999}, "131934721RR0001": {"name": "ST JOHN'S LUTHERAN CHURCH", "designationCode": "C", "categoryCode": "32", "address": "52233 RGE RD 221", "city": "SHERWOOD PARK", "province": "AB", "country": "CA", "postalCode": "T8E1C9", "twitter": "None", "instagram": "None", "facebook": "None", "youtube": "None", "website": "None", "summary": "None", "logo": "None", "latitude": 53.489609832361936, "longitude": -113.12312779623781}, "132152885RR0001": {"name": "ST JOHN'S LUTHERAN CHURCH", "designationCode": "C", "categoryCode": "32", "address": "BOX 448", "city": "TROCHU", "province": "AB", "country": "CA", "postalCode": "T0M2C0", "twitter": "None", "instagram": "None", "facebook": "None", "youtube": "None", "website": "None", "summary": "None", "logo": "None", "latitude": 51.82281000000001, "longitude": -113.23290741784133}, "888051190RR0001": {"name": "ST JOHN'S LUTHERAN CHURCH", "designationCode": "C", "categoryCode": "32", "address": "7 MAIN STREET N,              P.O. BOX 266", "city": "MILVERTON", "province": "ON", "country": "CA", "postalCode": "N0K1M0", "twitter": "None", "instagram": "None", "facebook": "None", "youtube": "None", "website": "None", "summary": "None", "logo": "None", "latitude": 43.56607201442672, "longitude": -80.92194495002607}, "891460388RR0001": {"name": "ST JOHN'S LUTHERAN CHURCH OF NORTHMARK", "designationCode": "C", "categoryCode": "32", "address": "76404 RGE RD 70", "city": "SADDLE HILLS COUNTY", "province": "AB", "country": "CA", "postalCode": "T0H3V0", "twitter": "None", "instagram": "None", "facebook": "None", "youtube": "None", "website": "None", "summary": "None", "logo": "None", "latitude": 55.60704268931703, "longitude": -118.92918350161327}, "119181105RR0001": {"name": "ST JOHN'S MINSTER & ASSOCIATED CHURCHES", "designationCode": "C", "categoryCode": "30", "address": "4709 49 AVENUE", "city": "LLOYDMINSTER", "province": "SK", "country": "CA", "postalCode": "S9V0T3", "twitter": "None", "instagram": "None", "facebook": "None", "youtube": "None", "website": "None", "summary": "None", "logo": "None", "latitude": 53.2808065389942, "longitude": -110.00341250965556}, "847150927RR0001": {"name": "ST JOHN'S PARISH", "designationCode": "C", "categoryCode": "38", "address": "BOX 370", "city": "ROCKGLEN", "province": "SK", "country": "CA", "postalCode": "S0H3R0", "twitter": "None", "instagram": "None", "facebook": "None", "youtube": "None", "website": "None", "summary": "None", "logo": "None", "latitude": 49.180150000000026, "longitude": -105.94999999999999}, "133503334RR0001": {"name": "ST JOHN'S PASTORAL CHARGE", "designationCode": "C", "categoryCode": "44", "address": "PO BOX 131", "city": "PORT HOOD", "province": "NS", "country": "CA", "postalCode": "B0E2W0", "twitter": "None", "instagram": "None", "facebook": "None", "youtube": "None", "website": "None", "summary": "None", "logo": "None", "latitude": 46.01594000000006, "longitude": -61.530809999999974}, "892069188RR0001": {"name": "ST JOHN'S POLISH LUTHERAN CHURCH", "designationCode": "C", "categoryCode": "32", "address": "1424 DAVENPORT RD", "city": "TORONTO", "province": "ON", "country": "CA", "postalCode": "M6H2H8", "twitter": "None", "instagram": "None", "facebook": "None", "youtube": "None", "website": "None", "summary": "None", "logo": "None", "latitude": 43.67267613240797, "longitude": -79.44250914821967}, "119181279RR0001": {"name": "ST JOHN'S PRESBYTERIAN CHURCH", "designationCode": "C", "categoryCode": "37", "address": "RR4", "city": "NEW GLASGOW", "province": "NS", "country": "CA", "postalCode": "B2H5C7", "twitter": "None", "instagram": "None", "facebook": "None", "youtube": "None", "website": "None", "summary": "None", "logo": "None", "latitude": 45.55645800000005, "longitude": -62.59835599999994}, "119181287RR0001": {"name": "ST JOHN'S PRESBYTERIAN CHURCH", "designationCode": "C", "categoryCode": "37", "address": "2794 GARFIELD RD", "city": "BELFAST", "province": "PE", "country": "CA", "postalCode": "C0A1A0", "twitter": "None", "instagram": "None", "facebook": "None", "youtube": "None", "website": "None", "summary": "None", "logo": "None", "latitude": 46.07830985429049, "longitude": -62.878339625021724}, "119181352RR0001": {"name": "ST JOHN'S PRESBYTERIAN CHURCH", "designationCode": "C", "categoryCode": "37", "address": "2360 MIDDLE ROAD", "city": "KINGSTON", "province": "ON", "country": "CA", "postalCode": "K7L4V3", "twitter": "None", "instagram": "None", "facebook": "None", "youtube": "None", "website": "None", "summary": "None", "logo": "None", "latitude": 44.30463048268774, "longitude": -76.3361331648681}, "119181428RR0001": {"name": "ST JOHN'S PRESBYTERIAN CHURCH", "designationCode": "C", "categoryCode": "37", "address": "RR #2", "city": "WARDSVILLE", "province": "ON", "country": "CA", "postalCode": "N0L2N0", "twitter": "None", "instagram": "None", "facebook": "None", "youtube": "None", "website": "None", "summary": "None", "logo": "None", "latitude": 42.66207500083672, "longitude": -81.74562124895408}, "119181451RR0001": {"name": "ST JOHN'S PRESBYTERIAN CHURCH", "designationCode": "C", "categoryCode": "37", "address": "504 2ND STREET SE", "city": "MEDICINE HAT", "province": "AB", "country": "CA", "postalCode": "T1A0C6", "twitter": "None", "instagram": "None", "facebook": "None", "youtube": "None", "website": "None", "summary": "None", "logo": "None", "latitude": 50.03992983319866, "longitude": -110.67832254094289}, "119181469RR0001": {"name": "ST JOHN'S PRESBYTERIAN CHURCH", "designationCode": "C", "categoryCode": "37", "address": "1480 GEORGE ST", "city": "WHITE ROCK", "province": "BC", "country": "CA", "postalCode": "V4B4A3", "twitter": "None", "instagram": "None", "facebook": "None", "youtube": "None", "website": "None", "summary": "None", "logo": "None", "latitude": 49.02885883236195, "longitude": -122.79975955658172}, "130361983RR0001": {"name": "ST JOHN'S PRESBYTERIAN CHURCH", "designationCode": "C", "categoryCode": "37", "address": "402-238 COXWELL AVENUE        MS. NANCY STEPHENSON", "city": "TORONTO", "province": "ON", "country": "CA", "postalCode": "M4K3B2", "twitter": "None", "instagram": "None", "facebook": "None", "youtube": "None", "website": "None", "summary": "None", "logo": "None", "latitude": 43.67235066749383, "longitude": -79.31908393285805}, "131636813RR0001": {"name": "ST JOHN'S PRESBYTERIAN CHURCH", "designationCode": "C", "categoryCode": "37", "address": "709 COTTON MILL ST", "city": "CORNWALL", "province": "ON", "country": "CA", "postalCode": "K6H7K7", "twitter": "None", "instagram": "None", "facebook": "None", "youtube": "None", "website": "None", "summary": "None", "logo": "None", "latitude": 45.01649199469122, "longitude": -74.70950514888351}, "131924441RR0001": {"name": "ST JOHN'S PRESBYTERIAN CHURCH", "designationCode": "C", "categoryCode": "37", "address": "71 HIERLIHY ROAD", "city": "TABUSINTAC", "province": "NB", "country": "CA", "postalCode": "E9H1Y6", "twitter": "None", "instagram": "None", "facebook": "None", "youtube": "None", "website": "None", "summary": "None", "logo": "None", "latitude": 47.33047115117471, "longitude": -65.01953773290319}, "138722178RR0001": {"name": "ST JOHN'S PRESBYTERIAN CHURCH", "designationCode": "C", "categoryCode": "37", "address": "NEW LONDON BOX 8036 RR #6", "city": "KENSINGTON", "province": "PE", "country": "CA", "postalCode": "C0B1M0", "twitter": "None", "instagram": "None", "facebook": "None", "youtube": "None", "website": "None", "summary": "None", "logo": "None", "latitude": 46.53816900000005, "longitude": -63.71270899999993}, "888057791RR0001": {"name": "ST JOHN'S PRESBYTERIAN CHURCH", "designationCode": "C", "categoryCode": "37", "address": "238 COLBORNE STREET           GROUP BOX", "city": "PORT STANLEY", "province": "ON", "country": "CA", "postalCode": "N5L1B9", "twitter": "None", "instagram": "None", "facebook": "None", "youtube": "None", "website": "None", "summary": "None", "logo": "None", "latitude": 42.66731083132559, "longitude": -81.2125714035094}, "889141867RR0001": {"name": "ST JOHN'S PRESBYTERIAN CHURCH", "designationCode": "C", "categoryCode": "37", "address": "97 CRESSWELL RD", "city": "MANILLA", "province": "ON", "country": "CA", "postalCode": "K0M2J0", "twitter": "None", "instagram": "None", "facebook": "None", "youtube": "None", "website": "None", "summary": "None", "logo": "None", "latitude": 44.287535187373564, "longitude": -78.96722938954922}, "119264174RR0035": {"name": "ST JOHN'S R C CHURCH", "designationCode": "C", "categoryCode": "38", "address": "PO BOX 429", "city": "RED LAKE", "province": "ON", "country": "CA", "postalCode": "P0V2M0", "twitter": "None", "instagram": "None", "facebook": "None", "youtube": "None", "website": "None", "summary": "None", "logo": "None", "latitude": 51.017789973887886, "longitude": -93.82652994835257}, "887416063RR0001": {"name": "ST JOHN'S R C CHURCH", "designationCode": "C", "categoryCode": "38", "address": "BOX 86", "city": "BALCARRES", "province": "SK", "country": "CA", "postalCode": "S0G0C0", "twitter": "None", "instagram": "None", "facebook": "None", "youtube": "None", "website": "None", "summary": "None", "logo": "None", "latitude": 50.80006000000003, "longitude": -103.55101999999994}, "119181543RR0001": {"name": "ST JOHN'S ROMANIAN ORTHODOX CHURCH SHELL VALLEY", "designationCode": "C", "categoryCode": "39", "address": "BPX 1241", "city": "ROBLIN", "province": "MB", "country": "CA", "postalCode": "R0L1P0", "twitter": "None", "instagram": "None", "facebook": "None", "youtube": "None", "website": "None", "summary": "None", "logo": "None", "latitude": 49.190279167158614, "longitude": -97.95109399875118}, "119181576RR0001": {"name": "ST JOHN'S SENIOR CITIZENS' HOME", "designationCode": "C", "categoryCode": "01", "address": "100 ALLEN ST E SUITE 500", "city": "WATERLOO", "province": "ON", "country": "CA", "postalCode": "N2J1V5", "twitter": "None", "instagram": "None", "facebook": "None", "youtube": "None", "website": "None", "summary": "None", "logo": "None", "latitude": 43.464176945351525, "longitude": -80.51492337598788}, "873388334RR0001": {"name": "ST JOHN'S UKRAINIAN CATHOLIC CEMETERY ASSOCIATION", "designationCode": "C", "categoryCode": "59", "address": "P.O. BOX 202", "city": "MAYERTHORPE", "province": "AB", "country": "CA", "postalCode": "T0E1N0", "twitter": "None", "instagram": "None", "facebook": "None", "youtube": "None", "website": "None", "summary": "None", "logo": "None", "latitude": 53.952450000000056, "longitude": -115.13884999999999}, "892576661RR0001": {"name": "ST JOHN'S UKRAINIAN INSTITUTE FOUNDATION", "designationCode": "A", "categoryCode": "25", "address": "11024-82 AVENUE", "city": "EDMONTON", "province": "AB", "country": "CA", "postalCode": "T6G0T2", "twitter": "None", "instagram": "None", "facebook": "None", "youtube": "None", "website": "None", "summary": "None", "logo": "None", "latitude": 53.51819646047074, "longitude": -113.51634202553522}, "119181675RR0001": {"name": "ST JOHN'S UNITED CHURCH", "designationCode": "C", "categoryCode": "44", "address": "74 BREAKWATER ST              PO BOX 3922", "city": "PORT MORIEN", "province": "NS", "country": "CA", "postalCode": "B1B1A9", "twitter": "None", "instagram": "None", "facebook": "None", "youtube": "None", "website": "None", "summary": "None", "logo": "None"}, "119181683RR0001": {"name": "ST JOHN'S UNITED CHURCH", "designationCode": "C", "categoryCode": "44", "address": "MRS. ANNABEL J. MACLEAN       RR #2, STRATHLORNE", "city": "INVERNESS COUNTY", "province": "NS", "country": "CA", "postalCode": "B0E1N0", "twitter": "None", "instagram": "None", "facebook": "None", "youtube": "None", "website": "None", "summary": "None", "logo": "None", "latitude": 46.19549400000005, "longitude": -61.28634049999994}, "119181717RR0001": {"name": "ST JOHN'S UNITED CHURCH", "designationCode": "C", "categoryCode": "44", "address": "6199 CHEBUCTO RD", "city": "HALIFAX", "province": "NS", "country": "CA", "postalCode": "B3L1K7", "twitter": "None", "instagram": "None", "facebook": "None", "youtube": "None", "website": "None", "summary": "None", "logo": "None", "latitude": 44.64993414351647, "longitude": -63.59753741799863}, "119181782RR0001": {"name": "ST JOHN'S UNITED CHURCH", "designationCode": "C", "categoryCode": "44", "address": "32 PARK ST", "city": "BROCKVILLE", "province": "ON", "country": "CA", "postalCode": "K6V2G4", "twitter": "None", "instagram": "None", "facebook": "None", "youtube": "None", "website": "None", "summary": "None", "logo": "None", "latitude": 44.59231628253223, "longitude": -75.68055951208945}, "119181824RR0001": {"name": "ST JOHN'S UNITED CHURCH", "designationCode": "C", "categoryCode": "44", "address": "262 RANDALL ST", "city": "OAKVILLE", "province": "ON", "country": "CA", "postalCode": "L6J1P9", "twitter": "None", "instagram": "None", "facebook": "None", "youtube": "None", "website": "None", "summary": "None", "logo": "None", "latitude": 43.44770255813957, "longitude": -79.66869057548048}, "119181873RR0001": {"name": "ST JOHN'S UNITED CHURCH", "designationCode": "C", "categoryCode": "44", "address": "241 CEDAR ST", "city": "CAMBRIDGE", "province": "ON", "country": "CA", "postalCode": "N1S1W7", "twitter": "None", "instagram": "None", "facebook": "None", "youtube": "None", "website": "None", "summary": "None", "logo": "None", "latitude": 43.35086572491228, "longitude": -80.3327887256334}, "119181980RR0001": {"name": "ST JOHN'S UNITED CHURCH", "designationCode": "C", "categoryCode": "44", "address": "10990 WEST SAANICH RD", "city": "NORTH SAANICH", "province": "BC", "country": "CA", "postalCode": "V8L5R9", "twitter": "None", "instagram": "None", "facebook": "None", "youtube": "None", "website": "None", "summary": "None", "logo": "None", "latitude": 48.68042369608747, "longitude": -123.45782264204459}, "119181998RR0001": {"name": "ST JOHN'S UNITED CHURCH", "designationCode": "C", "categoryCode": "44", "address": "49 GAMBLE ROAD", "city": "SOUTH BRANCH", "province": "NB", "country": "CA", "postalCode": "E4W3E9", "twitter": "None", "instagram": "None", "facebook": "None", "youtube": "None", "website": "None", "summary": "None", "logo": "None", "latitude": 46.53479862156758, "longitude": -64.9115238726807}, "883812182RR0001": {"name": "ST JOHN'S UNITED CHURCH", "designationCode": "C", "categoryCode": "44", "address": "BOX 147", "city": "SPRINGFIELD", "province": "ON", "country": "CA", "postalCode": "N0L2J0", "twitter": "None", "instagram": "None", "facebook": "None", "youtube": "None", "website": "None", "summary": "None", "logo": "None", "latitude": 42.82684652200631, "longitude": -80.93122710731751}, "889446597RR0001": {"name": "ST JOHN'S UNITED CHURCH", "designationCode": "C", "categoryCode": "44", "address": "52 CARIBOU RD", "city": "THOMPSON", "province": "MB", "country": "CA", "postalCode": "R8N0L1", "twitter": "None", "instagram": "None", "facebook": "None", "youtube": "None", "website": "None", "summary": "None", "logo": "None", "latitude": 55.74300023617617, "longitude": -97.86088765362545}, "119181634RR0001": {"name": "ST JOHN'S UNITED CHURCH MCKENZIE CORNER", "designationCode": "C", "categoryCode": "44", "address": "4 GREEN ROAD", "city": "GREEN ROAD", "province": "NB", "country": "CA", "postalCode": "E7N2H3", "twitter": "None", "instagram": "None", "facebook": "None", "youtube": "None", "website": "None", "summary": "None", "logo": "None", "latitude": 46.09090760199667, "longitude": -67.75553999549835}, "872931530RR0001": {"name": "ST JOHN'S VINEYARD CHURCH INC", "designationCode": "C", "categoryCode": "39", "address": "312 NEWFOUNDLAND DRIVE", "city": "ST. JOHN'S", "province": "NL", "country": "CA", "postalCode": "A1A3R7", "twitter": "None", "instagram": "None", "facebook": "None", "youtube": "None", "website": "None", "summary": "None", "logo": "None", "latitude": 47.59979732084942, "longitude": -52.700603565064476}, "853502169RR0001": {"name": "ST JOHN'S-KILMARNOCK SCHOOL FOUNDATION", "designationCode": "A", "categoryCode": "23", "address": "2201 SHANTZ STATION ROAD", "city": "BRESLAU", "province": "ON", "country": "CA", "postalCode": "N0B1M0", "twitter": "None", "instagram": "None", "facebook": "None", "youtube": "None", "website": "None", "summary": "None", "logo": "None", "latitude": 43.50793367969698, "longitude": -80.38591480082637}, "119181477RR0001": {"name": "ST JOHN'S-RAVENSCOURT PARENTS' ASSOCIATION", "designationCode": "A", "categoryCode": "25", "address": "400 SOUTH DRIVE", "city": "WINNIPEG", "province": "MB", "country": "CA", "postalCode": "R3T3K5", "twitter": "None", "instagram": "None", "facebook": "None", "youtube": "None", "website": "None", "summary": "None", "logo": "None", "latitude": 49.842842030246054, "longitude": -97.12379529402598}, "119181493RR0001": {"name": "ST JOHN'S-RAVENSCOURT SCHOOL", "designationCode": "C", "categoryCode": "20", "address": "400 SOUTH DRIVE", "city": "WINNIPEG", "province": "MB", "country": "CA", "postalCode": "R3T3K5", "twitter": "None", "instagram": "None", "facebook": "None", "youtube": "None", "website": "None", "summary": "None", "logo": "None", "latitude": 49.842842030246054, "longitude": -97.12379529402598}, "119181485RR0001": {"name": "ST JOHN'S-RAVENSCOURT SCHOOL FOUNDATION INC", "designationCode": "A", "categoryCode": "23", "address": "400 SOUTH DRIVE", "city": "WINNIPEG", "province": "MB", "country": "CA", "postalCode": "R3T3K5", "twitter": "None", "instagram": "None", "facebook": "None", "youtube": "None", "website": "None", "summary": "None", "logo": "None", "latitude": 49.842842030246054, "longitude": -97.12379529402598}, "119179299RR0001": {"name": "ST JOHNS ANGLICAN CHURCH", "designationCode": "C", "categoryCode": "30", "address": "12125 YONGE ST", "city": "RICHMOND HILL", "province": "ON", "country": "CA", "postalCode": "L4E3M4", "twitter": "None", "instagram": "None", "facebook": "None", "youtube": "None", "website": "None", "summary": "None", "logo": "None", "latitude": 43.92273427116393, "longitude": -79.44948553774024}, "119179141RR0002": {"name": "ST JOHNS ANGLICAN CHURCH AUGHRIM ONTARIO", "designationCode": "C", "categoryCode": "30", "address": "RR #4", "city": "ALVINSTON", "province": "ON", "country": "CA", "postalCode": "N0N1A0", "twitter": "None", "instagram": "None", "facebook": "None", "youtube": "None", "website": "None", "summary": "None", "logo": "None", "latitude": 42.879960099102135, "longitude": -81.83353792200379}, "119179547RR0001": {"name": "ST JOHNS BURSARY FUND", "designationCode": "C", "categoryCode": "21", "address": "322 FAIRVIEW DRIVE", "city": "BRANTFORD", "province": "ON", "country": "CA", "postalCode": "N3T5M8", "twitter": "None", "instagram": "None", "facebook": "None", "youtube": "None", "website": "None", "summary": "None", "logo": "None", "latitude": 43.17072320229123, "longitude": -80.2579933988114}, "119180388RR0001": {"name": "ST JOHNS CHURCH", "designationCode": "C", "categoryCode": "30", "address": "BOX 1371", "city": "UNITY", "province": "SK", "country": "CA", "postalCode": "S0K4L0", "twitter": "None", "instagram": "None", "facebook": "None", "youtube": "None", "website": "None", "summary": "None", "logo": "None", "latitude": 52.437110000000075, "longitude": -109.14557999999994}, "119180586RR0001": {"name": "ST JOHNS EVANGELICAL LUTHERAN CHURCH OF PETAWAWA", "designationCode": "C", "categoryCode": "32", "address": "605 BLACK BAY RD", "city": "PETAWAWA", "province": "ON", "country": "CA", "postalCode": "K8H2W8", "twitter": "None", "instagram": "None", "facebook": "None", "youtube": "None", "website": "None", "summary": "None", "logo": "None", "latitude": 45.866583015754394, "longitude": -77.28131369216366}, "119180719RR0001": {"name": "ST JOHNS HILLSIDE", "designationCode": "C", "categoryCode": "39", "address": "BOX 221", "city": "BJORKDALE", "province": "SK", "country": "CA", "postalCode": "S0E0E0", "twitter": "None", "instagram": "None", "facebook": "None", "youtube": "None", "website": "None", "summary": "None", "logo": "None", "latitude": 52.716710000000035, "longitude": -103.65096999999997}, "119180842RR0001": {"name": "ST JOHNS LUTHERAN CHURCH", "designationCode": "C", "categoryCode": "32", "address": "3837 NETHERBY RD", "city": "STEVENSVILLE", "province": "ON", "country": "CA", "postalCode": "L0S1S0", "twitter": "None", "instagram": "None", "facebook": "None", "youtube": "None", "website": "None", "summary": "None", "logo": "None", "latitude": 42.96364849899039, "longitude": -79.06001383236193}, "890557598RR0001": {"name": "ST JOHNS PRESBYTERIAN CHURCH", "designationCode": "C", "categoryCode": "37", "address": "2960 DE LA CONCORDE BLVD E.", "city": "LAVAL", "province": "QC", "country": "CA", "postalCode": "H7E2B6", "twitter": "None", "instagram": "None", "facebook": "None", "youtube": "None", "website": "None", "summary": "None", "logo": "None", "latitude": 45.59190139990793, "longitude": -73.6692054551333}, "119181709RR0001": {"name": "ST JOHNS UNITED CHURCH", "designationCode": "C", "categoryCode": "44", "address": "PO BOX 117", "city": "SHERBROOKE", "province": "NS", "country": "CA", "postalCode": "B0J3C0", "twitter": "None", "instagram": "None", "facebook": "None", "youtube": "None", "website": "None", "summary": "None", "logo": "None", "latitude": 44.62486683013651, "longitude": -64.54661386209058}, "119181766RR0001": {"name": "ST JOHNS UNITED CHURCH", "designationCode": "C", "categoryCode": "44", "address": "3230 LAKE DORE ROAD           P.O. BOX 252", "city": "GOLDEN LAKE", "province": "ON", "country": "CA", "postalCode": "K0J1X0", "twitter": "None", "instagram": "None", "facebook": "None", "youtube": "None", "website": "None", "summary": "None", "logo": "None", "latitude": 45.582246961451695, "longitude": -77.23959863532217}, "119181931RR0001": {"name": "ST JOHNS UNITED CHURCH", "designationCode": "C", "categoryCode": "44", "address": "PO BOX 342", "city": "LUSELAND", "province": "SK", "country": "CA", "postalCode": "S0L2A0", "twitter": "None", "instagram": "None", "facebook": "None", "youtube": "None", "website": "None", "summary": "None", "logo": "None", "latitude": 52.08343000000008, "longitude": -109.40149999999994}, "890505183RR0001": {"name": "ST JOHNS UNITED CHURCH", "designationCode": "C", "categoryCode": "44", "address": "THIRD AVE BOX 120", "city": "LEVACK", "province": "ON", "country": "CA", "postalCode": "P0M2C0", "twitter": "None", "instagram": "None", "facebook": "None", "youtube": "None", "website": "None", "summary": "None", "logo": "None", "latitude": 46.642272648617606, "longitude": -81.39156550491168}, "119181626RR0001": {"name": "ST JOHNS UNITED CHURCH BOTANY", "designationCode": "C", "categoryCode": "44", "address": "RR 6", "city": "THAMESVILLE", "province": "ON", "country": "CA", "postalCode": "N0P2K0", "twitter": "None", "instagram": "None", "facebook": "None", "youtube": "None", "website": "None", "summary": "None", "logo": "None", "latitude": 42.55171260557405, "longitude": -81.97398245026721}, "889482592RR0001": {"name": "ST JOHNS UNITED CHURCH OF CANADA", "designationCode": "C", "categoryCode": "44", "address": "5502 HWY 332", "city": "MIDDLE LA HAVE", "province": "NS", "country": "CA", "postalCode": "B4V3E2", "twitter": "None", "instagram": "None", "facebook": "None", "youtube": "None", "website": "None", "summary": "None", "logo": "None", "latitude": 44.3221472062793, "longitude": -64.41080882882143}, "119182624RR0001": {"name": "ST JOSAPHAT'S CATHEDRAL", "designationCode": "C", "categoryCode": "38", "address": "143 FRANKLIN AVE", "city": "TORONTO", "province": "ON", "country": "CA", "postalCode": "M6P3Y9", "twitter": "None", "instagram": "None", "facebook": "None", "youtube": "None", "website": "None", "summary": "None", "logo": "None", "latitude": 43.66355103442204, "longitude": -79.45347983164079}, "119182640RR0001": {"name": "ST JOSAPHAT'S UKRAINIAN CATHOLIC PARISH", "designationCode": "C", "categoryCode": "38", "address": "590 ALVERSTONE ST.", "city": "WINNIPEG", "province": "MB", "country": "CA", "postalCode": "R3G2B9", "twitter": "None", "instagram": "None", "facebook": "None", "youtube": "None", "website": "None", "summary": "None", "logo": "None", "latitude": 49.894858540106185, "longitude": -97.17005343522398}, "119182657RR0001": {"name": "ST JOSAPHAT'S UKRAINIAN CATHOLIC PARISH", "designationCode": "C", "categoryCode": "38", "address": "P.O.BOX 20064 R.P.O.SHOPPERS, NORTH", "city": "VERNON", "province": "BC", "country": "CA", "postalCode": "V1T9L4", "twitter": "None", "instagram": "None", "facebook": "None", "youtube": "None", "website": "None", "summary": "None", "logo": "None", "latitude": 50.26567200000005, "longitude": -119.27378149999993}, "866493281RR0001": {"name": "ST JOSEPH AND AREA HISTORICAL SOCIETY", "designationCode": "C", "categoryCode": "50", "address": "R R #2", "city": "ZURICH", "province": "ON", "country": "CA", "postalCode": "N0M2T0", "twitter": "None", "instagram": "None", "facebook": "None", "youtube": "None", "website": "None", "summary": "None", "logo": "None", "latitude": 43.42118566561705, "longitude": -81.62476383734574}, "130532807RR0001": {"name": "ST JOSEPH CHURCH", "designationCode": "C", "categoryCode": "38", "address": "BOX 2130", "city": "CANORA", "province": "SK", "country": "CA", "postalCode": "S0A0L0", "twitter": "None", "instagram": "None", "facebook": "None", "youtube": "None", "website": "None", "summary": "None", "logo": "None", "latitude": 51.62535661313478, "longitude": -102.4443087080291}, "891632127RR0001": {"name": "ST JOSEPH DAMASCENE ANTIOCHIAN ORTHODOX CHURCH", "designationCode": "C", "categoryCode": "39", "address": "1308 EWEN AVENUE", "city": "NEW WESTMINSTER", "province": "BC", "country": "CA", "postalCode": "V3M5E7", "twitter": "None", "instagram": "None", "facebook": "None", "youtube": "None", "website": "None", "summary": "None", "logo": "None", "latitude": 49.18271851650419, "longitude": -122.95514877156796}, "119182723RR0001": {"name": "ST JOSEPH ISLAND FREE METHODIST CHURCH", "designationCode": "C", "categoryCode": "39", "address": "R.R. #1", "city": "HILTON BEACH", "province": "ON", "country": "CA", "postalCode": "P0R1G0", "twitter": "None", "instagram": "None", "facebook": "None", "youtube": "None", "website": "None", "summary": "None", "logo": "None", "latitude": 46.255971902464935, "longitude": -83.88968214337984}, "131703100RR0001": {"name": "ST JOSEPH ISLAND PASTORAL CHARGE", "designationCode": "C", "categoryCode": "44", "address": "PO BOX 216", "city": "RICHARDS LANDING", "province": "ON", "country": "CA", "postalCode": "P0R1J0", "twitter": "None", "instagram": "None", "facebook": "None", "youtube": "None", "website": "None", "summary": "None", "logo": "None", "latitude": 46.283998418832695, "longitude": -84.03190314670739}, "886342484RR0001": {"name": "ST JOSEPH LUTHERAN CHURCH", "designationCode": "C", "categoryCode": "32", "address": "90-50450 RANGE RD 233", "city": "LEDUC COUNTY", "province": "AB", "country": "CA", "postalCode": "T4X0L4", "twitter": "None", "instagram": "None", "facebook": "None", "youtube": "None", "website": "None", "summary": "None", "logo": "None", "latitude": 53.34920964687455, "longitude": -113.30267197541451}, "130117542RR0001": {"name": "ST JOSEPH NON-PROFIT HOUSING (PEMBROKE) CORPORATION", "designationCode": "C", "categoryCode": "09", "address": "1151 PEMBROKE STREET WEST", "city": "PEMBROKE", "province": "ON", "country": "CA", "postalCode": "K8A6Y6", "twitter": "None", "instagram": "None", "facebook": "None", "youtube": "None", "website": "None", "summary": "None", "logo": "None", "latitude": 45.83186151817885, "longitude": -77.14426400690077}, "132188616RR0001": {"name": "ST JOSEPH OF ARIMATHEA ORTHODOX PARISH", "designationCode": "C", "categoryCode": "39", "address": "510 WHITEVALE ROAD", "city": "WHITEVALE", "province": "ON", "country": "CA", "postalCode": "L0H1M0", "twitter": "None", "instagram": "None", "facebook": "None", "youtube": "None", "website": "None", "summary": "None", "logo": "None", "latitude": 43.888499716270694, "longitude": -79.15703393906288}, "119182798RR0001": {"name": "ST JOSEPH PARISH", "designationCode": "C", "categoryCode": "38", "address": "4609 50 AVE", "city": "ST PAUL", "province": "AB", "country": "CA", "postalCode": "T0A3A3", "twitter": "None", "instagram": "None", "facebook": "None", "youtube": "None", "website": "None", "summary": "None", "logo": "None", "latitude": 53.99135148730496, "longitude": -111.28695202553523}, "131851156RR0001": {"name": "ST JOSEPH PARISH", "designationCode": "C", "categoryCode": "38", "address": "4609 50 AVE", "city": "ST PAUL", "province": "AB", "country": "CA", "postalCode": "T0A3A3", "twitter": "None", "instagram": "None", "facebook": "None", "youtube": "None", "website": "None", "summary": "None", "logo": "None", "latitude": 53.99135148730496, "longitude": -111.28695202553523}, "888536794RR0001": {"name": "ST JOSEPH PARISH", "designationCode": "C", "categoryCode": "38", "address": "10404 102 ST", "city": "GRANDE PRAIRIE", "province": "AB", "country": "CA", "postalCode": "T8V2W3", "twitter": "None", "instagram": "None", "facebook": "None", "youtube": "None", "website": "None", "summary": "None", "logo": "None", "latitude": 55.1745725029142, "longitude": -118.80133858889667}, "119183242RR0001": {"name": "ST JOSEPH SENIORS CLUB INC", "designationCode": "C", "categoryCode": "56", "address": "BOX 248", "city": "ST LOUIS", "province": "SK", "country": "CA", "postalCode": "S0J2C0", "twitter": "None", "instagram": "None", "facebook": "None", "youtube": "None", "website": "None", "summary": "None", "logo": "None", "latitude": 52.92279000000008, "longitude": -105.80526999999995}, "119184471RR0001": {"name": "ST JOSEPH THE WORKER PARISH", "designationCode": "C", "categoryCode": "38", "address": "BOX 776", "city": "RUSSELL", "province": "MB", "country": "CA", "postalCode": "R0J1W0", "twitter": "None", "instagram": "None", "facebook": "None", "youtube": "None", "website": "None", "summary": "None", "logo": "None", "latitude": 50.69676379161792, "longitude": -101.40612232134879}, "119184497RR0001": {"name": "ST JOSEPH THE WORKER SCHOOL INC", "designationCode": "C", "categoryCode": "20", "address": "505 BREWSTER STREET", "city": "WINNIPEG", "province": "MB", "country": "CA", "postalCode": "R2C2W6", "twitter": "None", "instagram": "None", "facebook": "None", "youtube": "None", "website": "None", "summary": "None", "logo": "None", "latitude": 49.89710696863639, "longitude": -97.02097366172276}, "889331773RR0001": {"name": "ST JOSEPH'S A MCKAY HOME AND SCHOOL ASSOCIATION", "designationCode": "C", "categoryCode": "21", "address": "5389 RUSSELL STREET", "city": "HALIFAX", "province": "NS", "country": "CA", "postalCode": "B3K1W8", "twitter": "None", "instagram": "None", "facebook": "None", "youtube": "None", "website": "None", "summary": "None", "logo": "None", "latitude": 44.662347858185626, "longitude": -63.59598004567475}, "119182863RR0001": {"name": "ST JOSEPH'S CATHOLIC CHURCH", "designationCode": "C", "categoryCode": "38", "address": "PO BOX 720", "city": "OXBOW", "province": "SK", "country": "CA", "postalCode": "S0C2B0", "twitter": "None", "instagram": "None", "facebook": "None", "youtube": "None", "website": "None", "summary": "None", "logo": "None", "latitude": 49.23346331645773, "longitude": -102.17827573496838}, "892261249RR0001": {"name": "ST JOSEPH'S CHAPEL", "designationCode": "C", "categoryCode": "38", "address": "27 GROGAN", "city": "SHANNON", "province": "QC", "country": "CA", "postalCode": "G0A4N0", "twitter": "None", "instagram": "None", "facebook": "None", "youtube": "None", "website": "None", "summary": "None", "logo": "None", "latitude": 46.91411194474597, "longitude": -71.54411964449743}}