{"119069680RR0001": {"name": "L'ORDRE DE SAINT-JEAN CONSEIL DU QUEBEC-THE ORDER OF ST. JOHN QUEBEC COUNCIL", "designationCode": "C", "categoryCode": "11", "address": "400 - 529 RUE JARRY EST", "city": "MONTREAL", "province": "QC", "country": "CA", "postalCode": "H2P1V4", "twitter": "None", "instagram": "None", "facebook": "None", "youtube": "None", "website": "None", "summary": "None", "logo": "None", "latitude": 45.54350099999999, "longitude": -73.62867374999999}, "132003526RR0001": {"name": "L'ORDRE DES DOMINICAINS OU FRERES PRECHEURS AU CANADA", "designationCode": "C", "categoryCode": "46", "address": "2715 CH COTE-SAINTE-CATHERINE BUREAU APD", "city": "MONTREAL", "province": "QC", "country": "CA", "postalCode": "H3T1B6", "twitter": "None", "instagram": "None", "facebook": "None", "youtube": "None", "website": "None", "summary": "None", "logo": "None", "latitude": 45.50668659703366, "longitude": -73.62023772932606}, "119024529RR0001": {"name": "L'ORDRE DU MERITE NORD-COTIER INC.", "designationCode": "C", "categoryCode": "99", "address": "700 BOUL LAURE LOCAL 190-2", "city": "SEPT-ILES", "province": "QC", "country": "CA", "postalCode": "G4R1Y1", "twitter": "None", "instagram": "None", "facebook": "None", "youtube": "None", "website": "None", "summary": "None", "logo": "None", "latitude": 50.21871468391111, "longitude": -66.38253154405956}, "107803108RR0001": {"name": "L'ORDRE HOSPITALIER DE SAINT-JEAN-DE-DIEU", "designationCode": "C", "categoryCode": "46", "address": "200 EST BOUL GOUIN", "city": "MONTREAL", "province": "QC", "country": "CA", "postalCode": "H3L1A8", "twitter": "None", "instagram": "None", "facebook": "None", "youtube": "None", "website": "None", "summary": "None", "logo": "None", "latitude": 45.55326723674192, "longitude": -73.67345785426183}, "134232644RR0001": {"name": "L'ORGANISATION DE LA JEUNESSE CHABAD LOUBAVITCH/CHABAD LUBAVITCH YOUTH ORGANIZATION", "designationCode": "C", "categoryCode": "39", "address": "6687 TRANS ISLAND", "city": "MONTR\u00c9AL", "province": "QC", "country": "CA", "postalCode": "H3W3B8", "twitter": "None", "instagram": "None", "facebook": "None", "youtube": "None", "website": "None", "summary": "None", "logo": "None", "latitude": 45.49235530864439, "longitude": -73.64638943629184}, "119024644RR0001": {"name": "L'ORGANISATION SAUF-CONDUIT INC.", "designationCode": "C", "categoryCode": "57", "address": "908 PLACE GUILLAUME COUTURE", "city": "BOUCHERVILLE", "province": "QC", "country": "CA", "postalCode": "J4B7R9", "twitter": "None", "instagram": "None", "facebook": "None", "youtube": "None", "website": "None", "summary": "None", "logo": "None", "latitude": 45.60502755785113, "longitude": -73.4247755044434}, "140424482RR0001": {"name": "L'OURSON DORE INC", "designationCode": "C", "categoryCode": "22", "address": "530, RANG PRESCOTT", "city": "SAINTE-VICTOIRE-DE-SOREL", "province": "QC", "country": "CA", "postalCode": "J0G1T0", "twitter": "None", "instagram": "None", "facebook": "None", "youtube": "None", "website": "None", "summary": "None", "logo": "None", "latitude": 45.860887278251546, "longitude": -73.00171791791213}, "890239262RR0001": {"name": "L'Unit\u00e9 Toxi des Trois-Vall\u00e9es", "designationCode": "C", "categoryCode": "57", "address": "1412, RUE DEGUIRE", "city": "MONT-TREMBLANT", "province": "QC", "country": "CA", "postalCode": "J8E3C4", "twitter": "None", "instagram": "None", "facebook": "None", "youtube": "None", "website": "None", "summary": "None", "logo": "None", "latitude": 46.12254189953255, "longitude": -74.606277297363}, "141573378RR0001": {"name": "L'UNION MUSICALE DE PLESSISVILLE INC", "designationCode": "C", "categoryCode": "22", "address": "2543 RUE SAINT-JEAN", "city": "PLESSISVILLE", "province": "QC", "country": "CA", "postalCode": "G6L2Y4", "twitter": "None", "instagram": "None", "facebook": "None", "youtube": "None", "website": "None", "summary": "None", "logo": "None", "latitude": 46.230760360810194, "longitude": -71.76634287390006}, "891954539RR0001": {"name": "L'UNITE D'INTERVENTION MOBILE L'ANONYME INC", "designationCode": "C", "categoryCode": "09", "address": "5600 RUE HOCHELAGA            BUREAU 160", "city": "MONTREAL", "province": "QC", "country": "CA", "postalCode": "H1N3L7", "twitter": "None", "instagram": "None", "facebook": "None", "youtube": "None", "website": "None", "summary": "None", "logo": "None", "latitude": 45.567916561478015, "longitude": -73.53905303431645}, "107418568RR0001": {"name": "L'UNIVERS DES COPAINS", "designationCode": "C", "categoryCode": "20", "address": "290 ALLEE DES URSULINES", "city": "RIMOUSKI", "province": "QC", "country": "CA", "postalCode": "G5L2Z9", "twitter": "None", "instagram": "None", "facebook": "None", "youtube": "None", "website": "None", "summary": "None", "logo": "None", "latitude": 48.453219058341126, "longitude": -68.5130569585671}, "821363751RR0001": {"name": "La cellule jeunes et familles de Brome-Missisquoi", "designationCode": "C", "categoryCode": "09", "address": "504, RUE DU SUD", "city": "COWANSVILLE", "province": "QC", "country": "CA", "postalCode": "J2K2X8", "twitter": "None", "instagram": "None", "facebook": "None", "youtube": "None", "website": "None", "summary": "None", "logo": "None", "latitude": 45.20379214388179, "longitude": -72.74698132238751}, "118870971RR0001": {"name": "La communaut\u00e9 des Juifs Babyloniens Irakiens de Montr\u00e9al / The Community of Babylonian Iraqi Jews of Montr\u00e9al", "designationCode": "C", "categoryCode": "45", "address": "4894 SAINT KEVIN AVE", "city": "MONTREAL", "province": "QC", "country": "CA", "postalCode": "H3W1P2", "twitter": "None", "instagram": "None", "facebook": "None", "youtube": "None", "website": "None", "summary": "None", "logo": "None", "latitude": 45.48995616651289, "longitude": -73.63202667981442}, "813957693RR0001": {"name": "La compagnie des cimeti\u00e8res Catholiques de Rivi\u00e8re-du-Loup", "designationCode": "C", "categoryCode": "59", "address": "121, RUE LAFONTAINE", "city": "RIVI\u00c8RE-DU-LOUP", "province": "QC", "country": "CA", "postalCode": "G5R3A3", "twitter": "None", "instagram": "None", "facebook": "None", "youtube": "None", "website": "None", "summary": "None", "logo": "None", "latitude": 47.83671611865566, "longitude": -69.53794491268654}, "806392452RR0001": {"name": "La coop\u00e9rative de transport de ch\u00e9ticamp limit\u00e9e", "designationCode": "C", "categoryCode": "09", "address": "CP 1039, 15584 CABOT TRAIL RD", "city": "CHETICAMP", "province": "NS", "country": "CA", "postalCode": "B0E1H0", "twitter": "None", "instagram": "None", "facebook": "None", "youtube": "None", "website": "None", "summary": "None", "logo": "None", "latitude": 46.64297910684411, "longitude": -61.0016558872702}, "107584989RR0001": {"name": "La cord\u00e9e, ressource alternative en sant\u00e9 mentale", "designationCode": "C", "categoryCode": "19", "address": "305 RUE DUFFERIN", "city": "SHERBROOKE", "province": "QC", "country": "CA", "postalCode": "J1H4M5", "twitter": "None", "instagram": "None", "facebook": "None", "youtube": "None", "website": "None", "summary": "None", "logo": "None", "latitude": 45.406024397714866, "longitude": -71.89515282197458}, "837090414RR0001": {"name": "La corporation des a\u00een\u00e9s (es) de Joly", "designationCode": "C", "categoryCode": "09", "address": "679 RUE DES LOISIRS", "city": "ST-JANVIER DE JOLY", "province": "QC", "country": "CA", "postalCode": "G0S1M0", "twitter": "None", "instagram": "None", "facebook": "None", "youtube": "None", "website": "None", "summary": "None", "logo": "None", "latitude": 46.485091875930564, "longitude": -71.66402585178032}, "854523255RR0001": {"name": "La corporation des a\u00een\u00e9s de Saint-L\u00e9on-de-Standon", "designationCode": "C", "categoryCode": "09", "address": "102 RUE SAINT-PIERRE", "city": "SAINT-L\u00c9ON-DE-STANDON", "province": "QC", "country": "CA", "postalCode": "G0R4L0", "twitter": "None", "instagram": "None", "facebook": "None", "youtube": "None", "website": "None", "summary": "None", "logo": "None", "latitude": 46.47855799111319, "longitude": -70.61905994269713}, "885146555RR0001": {"name": "La corporation des amis de l'\u00e9cole du Boisjoli", "designationCode": "C", "categoryCode": "21", "address": "6403 RUE PRESIDENT KENNEDY", "city": "SHERBROOKE", "province": "QC", "country": "CA", "postalCode": "J1N2P5", "twitter": "None", "instagram": "None", "facebook": "None", "youtube": "None", "website": "None", "summary": "None", "logo": "None", "latitude": 45.35420533083272, "longitude": -71.9941895048465}, "810059097RR0001": {"name": "La corporation r\u00e9gionale du cimeti\u00e8re de Notre-Dame des Mille-Iles inc.", "designationCode": "C", "categoryCode": "59", "address": "388, CHEMIN ADOLPHE-CHAPLEAU", "city": "BOIS-DES-FILLION", "province": "QC", "country": "CA", "postalCode": "J6Z1H6", "twitter": "None", "instagram": "None", "facebook": "None", "youtube": "None", "website": "None", "summary": "None", "logo": "None", "latitude": 45.66822216400272, "longitude": -73.75641149050762}, "824273841RR0001": {"name": "La fabrique de la desserte de Saint-Thomas", "designationCode": "C", "categoryCode": "38", "address": "51 RUE COURBON                CP 190", "city": "PARENT", "province": "QC", "country": "CA", "postalCode": "G0X3P0", "twitter": "None", "instagram": "None", "facebook": "None", "youtube": "None", "website": "None", "summary": "None", "logo": "None", "latitude": 47.92124808458879, "longitude": -74.61492934548546}, "890068794RR0001": {"name": "La fabrique de la paroisse d'Immacul\u00e9e-Conception", "designationCode": "C", "categoryCode": "38", "address": "97 RUE LAVAL S", "city": "GRANBY", "province": "QC", "country": "CA", "postalCode": "J2G7G6", "twitter": "None", "instagram": "None", "facebook": "None", "youtube": "None", "website": "None", "summary": "None", "logo": "None", "latitude": 45.401601719949255, "longitude": -72.73925063959267}, "131624249RR0001": {"name": "La fabrique de la paroisse de Bienheureuse \u00c9milie-Gamelin", "designationCode": "C", "categoryCode": "38", "address": "919 12E AV", "city": "SAINT-LIN-LAURENTIDES", "province": "QC", "country": "CA", "postalCode": "J5M2W1", "twitter": "None", "instagram": "None", "facebook": "None", "youtube": "None", "website": "None", "summary": "None", "logo": "None", "latitude": 45.852358794390554, "longitude": -73.75612354131826}, "129477196RR0001": {"name": "La fabrique de la paroisse de Notre-Dame", "designationCode": "C", "categoryCode": "38", "address": "97 RUE LAVAL SUD", "city": "GRANBY", "province": "QC", "country": "CA", "postalCode": "J2G7G6", "twitter": "None", "instagram": "None", "facebook": "None", "youtube": "None", "website": "None", "summary": "None", "logo": "None", "latitude": 45.401601719949255, "longitude": -72.73925063959267}, "129372405RR0001": {"name": "La fabrique de la paroisse de Notre-Dame-des-Monts", "designationCode": "C", "categoryCode": "38", "address": "147 RUE SAINT-LOUIS", "city": "WARWICK", "province": "QC", "country": "CA", "postalCode": "J0A1M0", "twitter": "None", "instagram": "None", "facebook": "None", "youtube": "None", "website": "None", "summary": "None", "logo": "None", "latitude": 45.94709050539571, "longitude": -71.98702138738578}, "118910330RR0001": {"name": "La fabrique de la paroisse de Saint-\u00c9tienne de Franquelin", "designationCode": "C", "categoryCode": "38", "address": "9 RUE DES ERABLES             CP 29", "city": "FRANQUELIN", "province": "QC", "country": "CA", "postalCode": "G0H1E0", "twitter": "None", "instagram": "None", "facebook": "None", "youtube": "None", "website": "None", "summary": "None", "logo": "None", "latitude": 49.292570271192616, "longitude": -67.89662779851682}, "887503597RR0001": {"name": "La fabrique de la paroisse de Saint-Jean-Paul II de Weedon", "designationCode": "C", "categoryCode": "38", "address": "223 RUE SAINT-JANVIER", "city": "WEEDON", "province": "QC", "country": "CA", "postalCode": "J0B3J0", "twitter": "None", "instagram": "None", "facebook": "None", "youtube": "None", "website": "None", "summary": "None", "logo": "None", "latitude": 45.701227267557265, "longitude": -71.46493502316929}, "118996800RR0001": {"name": "La fabrique de la paroisse de Sainte-Famille", "designationCode": "C", "categoryCode": "38", "address": "800, ST-JOSEPH", "city": "VALCOURT", "province": "QC", "country": "CA", "postalCode": "J0E2L0", "twitter": "None", "instagram": "None", "facebook": "None", "youtube": "None", "website": "None", "summary": "None", "logo": "None", "latitude": 45.496862182901516, "longitude": -72.31523900585704}, "118991124RR0001": {"name": "La fabrique de la paroisse de Stigmates-de-Saint-Francois de l'Alverne", "designationCode": "C", "categoryCode": "38", "address": "51 RUE DE L'EGLISE", "city": "L'ALVERNE", "province": "QC", "country": "CA", "postalCode": "G0C1X0", "twitter": "None", "instagram": "None", "facebook": "None", "youtube": "None", "website": "None", "summary": "None", "logo": "None", "latitude": 48.14074833527613, "longitude": -66.6978136835644}, "131506651RR0001": {"name": "La fabrique de la paroisse du Bienheureux Jean-XXIII", "designationCode": "C", "categoryCode": "38", "address": "419 PRINCIPALE", "city": "DAVELUYVILLE", "province": "QC", "country": "CA", "postalCode": "G0Z1C0", "twitter": "None", "instagram": "None", "facebook": "None", "youtube": "None", "website": "None", "summary": "None", "logo": "None", "latitude": 46.203459526516184, "longitude": -72.13685503993328}, "118907039RR0001": {"name": "La fabrique de la paroisse du Bon-Pasteur", "designationCode": "C", "categoryCode": "38", "address": "1145 RUE DES QUATRE-SAISONS", "city": "SHERBROOKE", "province": "QC", "country": "CA", "postalCode": "J1E3Y5", "twitter": "None", "instagram": "None", "facebook": "None", "youtube": "None", "website": "None", "summary": "None", "logo": "None", "latitude": 45.42132598698692, "longitude": -71.86445107703837}, "131797771RR0001": {"name": "La fabrique de la paroisse Christ-Sauveur", "designationCode": "C", "categoryCode": "38", "address": "35 DU CURE-LAROCQUE", "city": "SHERBROOKE", "province": "QC", "country": "CA", "postalCode": "J1C0T2", "twitter": "None", "instagram": "None", "facebook": "None", "youtube": "None", "website": "None", "summary": "None", "logo": "None", "latitude": 45.474835640313835, "longitude": -71.94417612992648}, "107361040RR0001": {"name": "La fabrique de la paroisse Notre-Dame-de-Donnacona", "designationCode": "C", "categoryCode": "38", "address": "105 RUE DE L'EGLISE", "city": "DONNACONA", "province": "QC", "country": "CA", "postalCode": "G3M1X8", "twitter": "None", "instagram": "None", "facebook": "None", "youtube": "None", "website": "None", "summary": "None", "logo": "None", "latitude": 46.67400097723221, "longitude": -71.74004571803594}, "130748858RR0001": {"name": "La fabrique de la paroisse Notre-Dame-de-L'Alliance", "designationCode": "C", "categoryCode": "38", "address": "433, RUE DE LA MADONE", "city": "MONT-LAURIER", "province": "QC", "country": "CA", "postalCode": "J9L1S1", "twitter": "None", "instagram": "None", "facebook": "None", "youtube": "None", "website": "None", "summary": "None", "logo": "None", "latitude": 46.55177672831647, "longitude": -75.50022984834654}, "131440414RR0001": {"name": "La fabrique de la paroisse Saint-David", "designationCode": "C", "categoryCode": "38", "address": "2 RUE ST-GABRIEL", "city": "SAINT-GABRIEL", "province": "QC", "country": "CA", "postalCode": "J0K2N0", "twitter": "None", "instagram": "None", "facebook": "None", "youtube": "None", "website": "None", "summary": "None", "logo": "None", "latitude": 46.32475760092085, "longitude": -73.37177691290346}, "107359440RR0001": {"name": "La fabrique de la paroisse Saint-Fr\u00e8re-Andr\u00e9", "designationCode": "C", "categoryCode": "38", "address": "3 RUE PICOTTE", "city": "LANORAIE", "province": "QC", "country": "CA", "postalCode": "J0K1E0", "twitter": "None", "instagram": "None", "facebook": "None", "youtube": "None", "website": "None", "summary": "None", "logo": "None", "latitude": 45.95811909660099, "longitude": -73.22106968070847}, "130690274RR0001": {"name": "La fabrique de la paroisse Saint-Louis-de-France de Terrebonne", "designationCode": "C", "categoryCode": "38", "address": "825 ST-LOUIS", "city": "TERREBONNE", "province": "QC", "country": "CA", "postalCode": "J6W1J7", "twitter": "None", "instagram": "None", "facebook": "None", "youtube": "None", "website": "None", "summary": "None", "logo": "None", "latitude": 45.6948694205088, "longitude": -73.63657497169481}, "118995919RR0001": {"name": "La fabrique de la paroisse Sainte-Marguerite-Bourgeoys", "designationCode": "C", "categoryCode": "38", "address": "2290 RUE GALT OUEST", "city": "SHERBROOKE", "province": "QC", "country": "CA", "postalCode": "J1K1K8", "twitter": "None", "instagram": "None", "facebook": "None", "youtube": "None", "website": "None", "summary": "None", "logo": "None", "latitude": 45.3869209051032, "longitude": -71.92843448905772}, "861348019RR0001": {"name": "La fabrique de la paroisse Sainte-Marie de Granby", "designationCode": "C", "categoryCode": "39", "address": "97 RUE LAVAL SUD", "city": "GRANBY", "province": "QC", "country": "CA", "postalCode": "J2G7G6", "twitter": "None", "instagram": "None", "facebook": "None", "youtube": "None", "website": "None", "summary": "None", "logo": "None", "latitude": 45.401601719949255, "longitude": -72.73925063959267}, "118996677RR0001": {"name": "La fabrique de la paroisse Sainte-Trinit\u00e9", "designationCode": "C", "categoryCode": "38", "address": "189 RUE SAINTE-LOUISE", "city": "SAINT-JEAN-DE-MATHA", "province": "QC", "country": "CA", "postalCode": "J0K2S0", "twitter": "None", "instagram": "None", "facebook": "None", "youtube": "None", "website": "None", "summary": "None", "logo": "None", "latitude": 46.23042997729205, "longitude": -73.53411949939348}, "894291079RR0001": {"name": "La fabrique de la Paroisse du Bienheureux-Louis-Z\u00e9phirin-Moreau", "designationCode": "C", "categoryCode": "38", "address": "865 AV DES HIRONDELLES", "city": "B\u00c9CANCOUR", "province": "QC", "country": "CA", "postalCode": "G9H4L2", "twitter": "None", "instagram": "None", "facebook": "None", "youtube": "None", "website": "None", "summary": "None", "logo": "None", "latitude": 46.40323757455687, "longitude": -72.27559520699444}, "107367773RR0001": {"name": "La fabrique de la Paroisse Sainte-Marguerite-d'Youville", "designationCode": "C", "categoryCode": "38", "address": "7 RUE PRINCIPALE", "city": "PIERREVILLE", "province": "QC", "country": "CA", "postalCode": "J0G1J0", "twitter": "None", "instagram": "None", "facebook": "None", "youtube": "None", "website": "None", "summary": "None", "logo": "None", "latitude": 46.10801382829792, "longitude": -72.87719900919494}, "859416380RR0001": {"name": "La fondation de l'\u00e9cole Beaulieu, un quartier, une vie", "designationCode": "A", "categoryCode": "23", "address": "4565, RUE CHAMBOIS", "city": "SHERBROOKE", "province": "QC", "country": "CA", "postalCode": "J1N2B7", "twitter": "None", "instagram": "None", "facebook": "None", "youtube": "None", "website": "None", "summary": "None", "logo": "None", "latitude": 45.37346400000001, "longitude": -71.97189315243195}, "849048251RR0001": {"name": "La fondation de la maison Ren\u00e9-L\u00e9vesque", "designationCode": "C", "categoryCode": "50", "address": "4 RUE DES PETRELS", "city": "MARIA", "province": "QC", "country": "CA", "postalCode": "G0C1Y0", "twitter": "None", "instagram": "None", "facebook": "None", "youtube": "None", "website": "None", "summary": "None", "logo": "None", "latitude": 48.17853555588923, "longitude": -65.97666283259308}, "836090647RR0001": {"name": "La fondation de la Soci\u00e9t\u00e9 Internationale H2O", "designationCode": "C", "categoryCode": "09", "address": "6551 26E AV", "city": "MONTREAL", "province": "QC", "country": "CA", "postalCode": "H1T3K8", "twitter": "None", "instagram": "None", "facebook": "None", "youtube": "None", "website": "None", "summary": "None", "logo": "None", "latitude": 45.56530390259096, "longitude": -73.57865374909116}, "811451905RR0001": {"name": "La fondation de Gillian et Adrian Schauer / The Gillian and Adrian Schauer Foundation", "designationCode": "B", "categoryCode": "03", "address": "58 CH DE LAVIGNE", "city": "WESTMOUNT", "province": "QC", "country": "CA", "postalCode": "H3Y2C2", "twitter": "None", "instagram": "None", "facebook": "None", "youtube": "None", "website": "None", "summary": "None", "logo": "None", "latitude": 45.490767171793, "longitude": -73.59338053162341}, "841071640RR0001": {"name": "La fondation des amis de R\u00e9mi de la Commission scolaire du Lac-T\u00e9miscamingue", "designationCode": "C", "categoryCode": "23", "address": "4, RUE MONTFORT", "city": "VILLE-MARIE", "province": "QC", "country": "CA", "postalCode": "J9V1W2", "twitter": "None", "instagram": "None", "facebook": "None", "youtube": "None", "website": "None", "summary": "None", "logo": "None", "latitude": 47.332699993623365, "longitude": -79.4353786004388}, "814826319RR0001": {"name": "La fondation des amis du foyer Saint-Thomas de la vall\u00e9e de Memramcook Inc.", "designationCode": "C", "categoryCode": "09", "address": "100, RUE NOTRE-DAME", "city": "MEMRAMCOOK", "province": "NB", "country": "CA", "postalCode": "E4K3W3", "twitter": "None", "instagram": "None", "facebook": "None", "youtube": "None", "website": "None", "summary": "None", "logo": "None", "latitude": 45.974879173858824, "longitude": -64.5631639196544}, "828462200RR0001": {"name": "La fondation escale madavic inc.", "designationCode": "A", "categoryCode": "03", "address": "CASIER POSTALE 411", "city": "EDMUNDSTON", "province": "NB", "country": "CA", "postalCode": "E3V3L1", "twitter": "None", "instagram": "None", "facebook": "None", "youtube": "None", "website": "None", "summary": "None", "logo": "None", "latitude": 47.37372000000006, "longitude": -68.32513249999994}, "839924115RR0001": {"name": "La fondation famille Manouk Djoukhadjian / Manouk Djoukhadjian Family Foundation", "designationCode": "B", "categoryCode": "21", "address": "133 RUE ALBARETO", "city": "DOLLARD-DES-ORMEAUX", "province": "QC", "country": "CA", "postalCode": "H9G2Y7", "twitter": "None", "instagram": "None", "facebook": "None", "youtube": "None", "website": "None", "summary": "None", "logo": "None", "latitude": 45.4820278678805, "longitude": -73.82174527673251}, "843653551RR0001": {"name": "La fondation for\u00eat Boucher", "designationCode": "C", "categoryCode": "53", "address": "CP 25 PDF AYLMER", "city": "GATINEAU", "province": "QC", "country": "CA", "postalCode": "J9H5E4", "twitter": "None", "instagram": "None", "facebook": "None", "youtube": "None", "website": "None", "summary": "None", "logo": "None", "latitude": 45.403180979312346, "longitude": -75.79808429804527}, "889192860RR0001": {"name": "La fondation la Vigile", "designationCode": "A", "categoryCode": "53", "address": "2-A, RUE MGR-MARC-LECLERC", "city": "QUEBEC", "province": "QC", "country": "CA", "postalCode": "G1C2C4", "twitter": "None", "instagram": "None", "facebook": "None", "youtube": "None", "website": "None", "summary": "None", "logo": "None", "latitude": 46.87788793810952, "longitude": -71.15570464126611}, "820767887RR0001": {"name": "La fondation oublie pour un instant / Forget for a Moment Foundation", "designationCode": "C", "categoryCode": "11", "address": "CP 17012 ORL\u00c9ANS              PORTOBELLO RO", "city": "OTTAWA", "province": "ON", "country": "CA", "postalCode": "K4A4W8", "twitter": "None", "instagram": "None", "facebook": "None", "youtube": "None", "website": "None", "summary": "None", "logo": "None", "latitude": 45.46332945713529, "longitude": -75.46658646442295}, "852730209RR0001": {"name": "La fondation Acad\u00e9mie Lafontaine", "designationCode": "A", "categoryCode": "23", "address": "2171 BOULEVARD MAURICE", "city": "ST-J\u00c9R\u00d4ME", "province": "QC", "country": "CA", "postalCode": "J7Y4M7", "twitter": "None", "instagram": "None", "facebook": "None", "youtube": "None", "website": "None", "summary": "None", "logo": "None", "latitude": 45.804216388305086, "longitude": -74.00836908707872}, "801480401RR0001": {"name": "La fondation Gilead Jubilation / The Gilead Jubilation Foundation", "designationCode": "A", "categoryCode": "23", "address": "285 ALICE CARRIERE", "city": "BEACONSFIELD", "province": "QC", "country": "CA", "postalCode": "H9W6E6", "twitter": "None", "instagram": "None", "facebook": "None", "youtube": "None", "website": "None", "summary": "None", "logo": "None", "latitude": 45.43253735832987, "longitude": -73.88415640729417}, "134942028RR0001": {"name": "La fondation H\u00e9ros de tous les jours", "designationCode": "C", "categoryCode": "23", "address": "8200 RUE ROUSSELOT", "city": "MONTREAL", "province": "QC", "country": "CA", "postalCode": "H2E1Z6", "twitter": "None", "instagram": "None", "facebook": "None", "youtube": "None", "website": "None", "summary": "None", "logo": "None", "latitude": 45.55160384067183, "longitude": -73.62270196837659}, "803435353RR0001": {"name": "La fondation Jean-Guy-Laforest / Jean-Guy-Laforest Foundation", "designationCode": "B", "categoryCode": "13", "address": "81, RUE DU CENTRE", "city": "SAINT-JEAN-SUR-RICHELIEU", "province": "QC", "country": "CA", "postalCode": "J2W1G4", "twitter": "None", "instagram": "None", "facebook": "None", "youtube": "None", "website": "None", "summary": "None", "logo": "None", "latitude": 45.34571352986307, "longitude": -73.30132358381903}, "703010926RR0001": {"name": "La fondation Le jardin de l'arbre de vie / The Garden of the Tree of Life Foundation", "designationCode": "B", "categoryCode": "11", "address": "264B CH DE SENNEVILLE", "city": "SENNEVILLE", "province": "QC", "country": "CA", "postalCode": "H9X3X4", "twitter": "None", "instagram": "None", "facebook": "None", "youtube": "None", "website": "None", "summary": "None", "logo": "None", "latitude": 45.44108837557695, "longitude": -73.96166346689932}, "840225528RR0001": {"name": "La fondation Mano", "designationCode": "A", "categoryCode": "23", "address": "52,RUE BABIN", "city": "GRANBY", "province": "QC", "country": "CA", "postalCode": "J2H1W5", "twitter": "None", "instagram": "None", "facebook": "None", "youtube": "None", "website": "None", "summary": "None", "logo": "None", "latitude": 45.41968074937963, "longitude": -72.71581794174485}, "815860838RR0001": {"name": "La fondation Mirador", "designationCode": "B", "categoryCode": "03", "address": "214-4700, DE LA SAVANE", "city": "MONTREAL", "province": "QC", "country": "CA", "postalCode": "H4P1T7", "twitter": "None", "instagram": "None", "facebook": "None", "youtube": "None", "website": "None", "summary": "None", "logo": "None", "latitude": 45.50043167441873, "longitude": -73.65128590729417}, "825695034RR0001": {"name": "La fondation Pierre Brise-Bois", "designationCode": "B", "categoryCode": "13", "address": "1986 RUE JACQUES-HERTEL", "city": "MONTR\u00c9AL", "province": "QC", "country": "CA", "postalCode": "H4E1R1", "twitter": "None", "instagram": "None", "facebook": "None", "youtube": "None", "website": "None", "summary": "None", "logo": "None", "latitude": 45.45947151067582, "longitude": -73.59142511518263}, "868715285RR0001": {"name": "La fondation Roger Lebeuf / The Roger Lebeuf Foundation", "designationCode": "C", "categoryCode": "23", "address": "10555 BOUL.OLYMPIA", "city": "MONTR\u00c9AL", "province": "QC", "country": "CA", "postalCode": "H2C2W4", "twitter": "None", "instagram": "None", "facebook": "None", "youtube": "None", "website": "None", "summary": "None", "logo": "None", "latitude": 45.56307893202132, "longitude": -73.661095598794}, "875299877RR0001": {"name": "La garderie de l'Arche des amis de Russell", "designationCode": "C", "categoryCode": "01", "address": "CP 324 SUCC MAIN", "city": "RUSSELL", "province": "ON", "country": "CA", "postalCode": "K4R1C8", "twitter": "None", "instagram": "None", "facebook": "None", "youtube": "None", "website": "None", "summary": "None", "logo": "None", "latitude": 45.25810800000005, "longitude": -75.35879449999993}, "836973222RR0001": {"name": "La grande guignol\u00e9e des m\u00e9dias de la Rive-Sud (Montr\u00e9al)", "designationCode": "A", "categoryCode": "03", "address": "1476 RUE GAUTHIER", "city": "SAINT-HUBERT", "province": "QC", "country": "CA", "postalCode": "J4T3R1", "twitter": "None", "instagram": "None", "facebook": "None", "youtube": "None", "website": "None", "summary": "None", "logo": "None", "latitude": 45.49396865722206, "longitude": -73.45844774825444}, "830475562RR0001": {"name": "La halte spirituelle des Galeries d'Anjou", "designationCode": "C", "categoryCode": "49", "address": "7999 BOUL LES GALERIES D'ANJOUSUITE 2201", "city": "ANJOU", "province": "QC", "country": "CA", "postalCode": "H1M1W9", "twitter": "None", "instagram": "None", "facebook": "None", "youtube": "None", "website": "None", "summary": "None", "logo": "None", "latitude": 45.59918574522282, "longitude": -73.56876998952121}, "123613523RR0081": {"name": "La ligue des cadets de l'air du Canada - Escadron 881 St-Joseph de Beauce", "designationCode": "C", "categoryCode": "29", "address": "CP 5052", "city": "SAINT-JOSEPH-DE-BEAUCE", "province": "QC", "country": "CA", "postalCode": "G0S2V0", "twitter": "None", "instagram": "None", "facebook": "None", "youtube": "None", "website": "None", "summary": "None", "logo": "None", "latitude": 46.30849006390973, "longitude": -70.88096007660562}, "830706008RR0001": {"name": "La maison \u00e9cho du coeur", "designationCode": "C", "categoryCode": "11", "address": "940 BOUL RAYMOND", "city": "QU\u00c9BEC", "province": "QC", "country": "CA", "postalCode": "G1B1J7", "twitter": "None", "instagram": "None", "facebook": "None", "youtube": "None", "website": "None", "summary": "None", "logo": "None", "latitude": 46.90124332584107, "longitude": -71.19120175419839}, "874458755RR0001": {"name": "La maison de la famille Kateri", "designationCode": "C", "categoryCode": "09", "address": "200 RUE BALMORAL", "city": "LA PRAIRIE", "province": "QC", "country": "CA", "postalCode": "J5R4L5", "twitter": "None", "instagram": "None", "facebook": "None", "youtube": "None", "website": "None", "summary": "None", "logo": "None", "latitude": 45.42371696683208, "longitude": -73.48694437141074}, "822950838RR0001": {"name": "La maison de la francophonie de Toronto", "designationCode": "C", "categoryCode": "59", "address": "4400 - 181 BAY ST", "city": "TORONTO", "province": "ON", "country": "CA", "postalCode": "M5J2T3", "twitter": "None", "instagram": "None", "facebook": "None", "youtube": "None", "website": "None", "summary": "None", "logo": "None", "latitude": 43.64715434416293, "longitude": -79.37959157588452}, "878483122RR0001": {"name": "La maison de r\u00e9pit La Ressource", "designationCode": "C", "categoryCode": "09", "address": "208-2651 CR\u00c9MAZIE EST", "city": "MONTR\u00c9AL", "province": "QC", "country": "CA", "postalCode": "H1Z2H6", "twitter": "None", "instagram": "None", "facebook": "None", "youtube": "None", "website": "None", "summary": "None", "logo": "None", "latitude": 45.559413762450035, "longitude": -73.61078679465035}, "821156692RR0001": {"name": "La maison de Dieu en Christ - \u00c9glise \u00c9vang\u00e9lique des Mille-\u00celes", "designationCode": "C", "categoryCode": "39", "address": "8717 DE LERY", "city": "LAVAL", "province": "QC", "country": "CA", "postalCode": "H7A3J3", "twitter": "None", "instagram": "None", "facebook": "None", "youtube": "None", "website": "None", "summary": "None", "logo": "None", "latitude": 45.675141726066116, "longitude": -73.5741431759766}, "888372513RR0001": {"name": "La maison de Marthe", "designationCode": "C", "categoryCode": "11", "address": "75 BOUL. CHAREST EST          CASE POSTALE 55004", "city": "QUEBEC", "province": "QC", "country": "CA", "postalCode": "G1K9A4", "twitter": "None", "instagram": "None", "facebook": "None", "youtube": "None", "website": "None", "summary": "None", "logo": "None", "latitude": 46.811627184546296, "longitude": -71.22968204910855}, "828456079RR0001": {"name": "La maison des a\u00een\u00e9s carr\u00e9 N\u00e9r\u00e9e", "designationCode": "C", "categoryCode": "09", "address": "1213, AVENUE DU ROCHER", "city": "NORMANDIN", "province": "QC", "country": "CA", "postalCode": "G8M3X4", "twitter": "None", "instagram": "None", "facebook": "None", "youtube": "None", "website": "None", "summary": "None", "logo": "None", "latitude": 48.83822901690823, "longitude": -72.52655427364544}, "896581618RR0001": {"name": "La maison des greff\u00e9s Lina Cyr", "designationCode": "C", "categoryCode": "10", "address": "1989 RUE SHERBROOKE EST", "city": "MONTR\u00c9AL", "province": "QC", "country": "CA", "postalCode": "H2K1B8", "twitter": "None", "instagram": "None", "facebook": "None", "youtube": "None", "website": "None", "summary": "None", "logo": "None", "latitude": 45.529906578134884, "longitude": -73.56333613866904}, "894892843RR0001": {"name": "La maison des jeunes de l'\u00cele d'Orl\u00e9ans", "designationCode": "C", "categoryCode": "09", "address": "517 ROUTE DES PR\u00caTRES, #118", "city": "ST-PIERRE-DE-L'ILES D'ORL\u00c9ANS", "province": "QC", "country": "CA", "postalCode": "G0A4E0", "twitter": "None", "instagram": "None", "facebook": "None", "youtube": "None", "website": "None", "summary": "None", "logo": "None", "latitude": 46.8882700150037, "longitude": -71.07029998831452}, "878223775RR0001": {"name": "La maison des jeunes de Labelle", "designationCode": "C", "categoryCode": "09", "address": "44 RUE DE L'EGLISE", "city": "LABELLE", "province": "QC", "country": "CA", "postalCode": "J0T1H0", "twitter": "None", "instagram": "None", "facebook": "None", "youtube": "None", "website": "None", "summary": "None", "logo": "None", "latitude": 46.2785124657222, "longitude": -74.73533368362266}, "888137262RR0001": {"name": "La maison des jeunes de Pointe-Au-P\u00e8re", "designationCode": "C", "categoryCode": "09", "address": "311 RUE THOMAS-DIONNE", "city": "RIMOUSKI", "province": "QC", "country": "CA", "postalCode": "G3M1M7", "twitter": "None", "instagram": "None", "facebook": "None", "youtube": "None", "website": "None", "summary": "None", "logo": "None", "latitude": 48.51093259149375, "longitude": -68.45919572877874}, "102950466RR0001": {"name": "La maison des jeunes de Verch\u00e8res", "designationCode": "C", "categoryCode": "09", "address": "41-A MONT\u00c9E CALIXA-LAVALL\u00c9E", "city": "VERCH\u00c8RES", "province": "QC", "country": "CA", "postalCode": "J0L2R0", "twitter": "None", "instagram": "None", "facebook": "None", "youtube": "None", "website": "None", "summary": "None", "logo": "None", "latitude": 45.77429977904114, "longitude": -73.35406113840925}, "890225691RR0001": {"name": "La maison des jeunes l'Entracte", "designationCode": "C", "categoryCode": "09", "address": "164-A, RUE ST-JOSEPH", "city": "STE-MARTINE", "province": "QC", "country": "CA", "postalCode": "J0S1V0", "twitter": "None", "instagram": "None", "facebook": "None", "youtube": "None", "website": "None", "summary": "None", "logo": "None", "latitude": 45.24723172719127, "longitude": -73.80290018737357}, "121029904RR0001": {"name": "La maison des jeunes La rel\u00e8ve", "designationCode": "C", "categoryCode": "09", "address": "CP 6252", "city": "BAIE-COMEAU", "province": "QC", "country": "CA", "postalCode": "G5C0B7", "twitter": "None", "instagram": "None", "facebook": "None", "youtube": "None", "website": "None", "summary": "None", "logo": "None", "latitude": 49.22134800000006, "longitude": -68.15048299999994}, "809767916RR0001": {"name": "La maison des Jeunes R\u00e9gionale A.E.A. Inc.", "designationCode": "C", "categoryCode": "09", "address": "25, RUE HILL", "city": "EDMUNDSTON", "province": "NB", "country": "CA", "postalCode": "E3V1J8", "twitter": "None", "instagram": "None", "facebook": "None", "youtube": "None", "website": "None", "summary": "None", "logo": "None", "latitude": 47.36287555761551, "longitude": -68.32831560126682}, "783994890RR0001": {"name": "La musique \u00e0 la port\u00e9e de la jeunesse", "designationCode": "C", "categoryCode": "21", "address": "22 RUE SAINT-CYRILLE", "city": "RIVIERE-DU-LOUP", "province": "QC", "country": "CA", "postalCode": "G5R2G1", "twitter": "None", "instagram": "None", "facebook": "None", "youtube": "None", "website": "None", "summary": "None", "logo": "None", "latitude": 47.822933147382955, "longitude": -69.52889935555989}, "783533094RR0001": {"name": "La note enchant\u00e9e", "designationCode": "C", "categoryCode": "09", "address": "795 RUE OSBORNE", "city": "VERDUN", "province": "QC", "country": "CA", "postalCode": "H4H1X3", "twitter": "None", "instagram": "None", "facebook": "None", "youtube": "None", "website": "None", "summary": "None", "logo": "None", "latitude": 45.45154747489746, "longitude": -73.57527085928213}, "857460513RR0001": {"name": "La parenth\u00e8se, service droits d'acc\u00e8s", "designationCode": "C", "categoryCode": "09", "address": "152 RUE SAINT-DAMASE", "city": "DRUMMONDVILLE", "province": "QC", "country": "CA", "postalCode": "J2B6G5", "twitter": "None", "instagram": "None", "facebook": "None", "youtube": "None", "website": "None", "summary": "None", "logo": "None", "latitude": 45.87283789618567, "longitude": -72.49203142143243}, "840559421RR0001": {"name": "La paroisse catholique Nuestra Senora de la Asucion / La Parroquia Catolica Nuestra Senora de la Asuncion", "designationCode": "C", "categoryCode": "38", "address": "29 RUE DES MEURONS", "city": "WINNIPEG", "province": "MB", "country": "CA", "postalCode": "R2M2X7", "twitter": "None", "instagram": "None", "facebook": "None", "youtube": "None", "website": "None", "summary": "None", "logo": "None", "latitude": 49.86987714876795, "longitude": -97.10791219002796}, "118869833RR0001": {"name": "La paroisse de la Communaut\u00e9 chr\u00e9tienne Jean XXIII de la cit\u00e9 de Gatineau, P.Q.", "designationCode": "C", "categoryCode": "38", "address": "1194 BOUL SAINT-RENE OUEST", "city": "GATINEAU", "province": "QC", "country": "CA", "postalCode": "J8T6H3", "twitter": "None", "instagram": "None", "facebook": "None", "youtube": "None", "website": "None", "summary": "None", "logo": "None", "latitude": 45.48833753952925, "longitude": -75.70424897002138}, "136663895RR0001": {"name": "La paroisse Sainte-Famille-De-Arntfield", "designationCode": "C", "categoryCode": "38", "address": "11 RUE FUGERE", "city": "ROUYN-NORANDA", "province": "QC", "country": "CA", "postalCode": "J0Z1B0", "twitter": "None", "instagram": "None", "facebook": "None", "youtube": "None", "website": "None", "summary": "None", "logo": "None", "latitude": 47.397534463788965, "longitude": -79.19790266472387}, "842325417RR0001": {"name": "La petite bouffe des fronti\u00e8res", "designationCode": "C", "categoryCode": "09", "address": "474, RUE DES \u00c9TUDIANTS", "city": "POHENEGAMOOK", "province": "QC", "country": "CA", "postalCode": "G0L1J0", "twitter": "None", "instagram": "None", "facebook": "None", "youtube": "None", "website": "None", "summary": "None", "logo": "None", "latitude": 47.45627948516925, "longitude": -69.15215638574098}, "813160173RR0001": {"name": "La petite Mission", "designationCode": "C", "categoryCode": "09", "address": "1915, MONTEE DE LA RESERVE", "city": "NOTRE-DAME-DE-LA-MERCI", "province": "QC", "country": "CA", "postalCode": "J0T2A0", "twitter": "None", "instagram": "None", "facebook": "None", "youtube": "None", "website": "None", "summary": "None", "logo": "None", "latitude": 46.22558282598531, "longitude": -74.06038161893355}, "821343084RR0001": {"name": "La pointe du jour*Calacs Sept-\u00celes", "designationCode": "C", "categoryCode": "09", "address": "C.P.340", "city": "SEPT-\u00ceLES", "province": "QC", "country": "CA", "postalCode": "G4R4K6", "twitter": "None", "instagram": "None", "facebook": "None", "youtube": "None", "website": "None", "summary": "None", "logo": "None", "latitude": 50.209593000000055, "longitude": -66.38952049999993}, "817623671RR0001": {"name": "La popote roulante \"Les d\u00e9lices maison\"", "designationCode": "C", "categoryCode": "09", "address": "450 RUE DE LA MER", "city": "LES BERGERONNES", "province": "QC", "country": "CA", "postalCode": "G0T1G0", "twitter": "None", "instagram": "None", "facebook": "None", "youtube": "None", "website": "None", "summary": "None", "logo": "None", "latitude": 48.239214412320564, "longitude": -69.54337142407985}, "849183850RR0001": {"name": "La premi\u00e8re branche Mesifta Hutchison / First Mesifta Hutchison Branch", "designationCode": "C", "categoryCode": "42", "address": "385 BLOOMFIELD", "city": "OUTREMONT", "province": "QC", "country": "CA", "postalCode": "H2V3R7", "twitter": "None", "instagram": "None", "facebook": "None", "youtube": "None", "website": "None", "summary": "None", "logo": "None", "latitude": 45.51896530143102, "longitude": -73.60466844350519}, "870604345RR0001": {"name": "La rencontre th\u00e9\u00e2tre-ados", "designationCode": "C", "categoryCode": "22", "address": "397 BOUL. DES PRAIRIES #428", "city": "LAVAL", "province": "QC", "country": "CA", "postalCode": "H7N2W6", "twitter": "None", "instagram": "None", "facebook": "None", "youtube": "None", "website": "None", "summary": "None", "logo": "None", "latitude": 45.545539135754865, "longitude": -73.7095698612727}, "869918995RR0001": {"name": "La sant\u00e9 mentale de Grand-Sault et r\u00e9gion Inc.", "designationCode": "C", "categoryCode": "11", "address": "506 CH DE L'EGLISE", "city": "SAINT-ANDRE", "province": "NB", "country": "CA", "postalCode": "E3Y2Y6", "twitter": "None", "instagram": "None", "facebook": "None", "youtube": "None", "website": "None", "summary": "None", "logo": "None", "latitude": 47.10115875770518, "longitude": -67.76290496182544}, "880360474RR0001": {"name": "La soci\u00e9t\u00e9 de g\u00e9n\u00e9alogie Saint-Hubert", "designationCode": "C", "categoryCode": "50", "address": "3500, GRAND BOULEVARD", "city": "SAINT-HUBERT", "province": "QC", "country": "CA", "postalCode": "J4T0A1", "twitter": "None", "instagram": "None", "facebook": "None", "youtube": "None", "website": "None", "summary": "None", "logo": "None", "latitude": 45.49306202524675, "longitude": -73.47379796906908}, "831013313RR0001": {"name": "La soci\u00e9t\u00e9 de l'Ordre du bleuet", "designationCode": "C", "categoryCode": "22", "address": "1289 AV ADELARD-PLOURDE", "city": "CHICOUTIMI", "province": "QC", "country": "CA", "postalCode": "G7H6M4", "twitter": "None", "instagram": "None", "facebook": "None", "youtube": "None", "website": "None", "summary": "None", "logo": "None", "latitude": 48.406536880373956, "longitude": -71.04541815191327}, "132410671RR0538": {"name": "La soci\u00e9t\u00e9 de Saint-Vincent de Paul - Conf\u00e9rence Marie-Guyart Universit\u00e9 Laval (Qu\u00e9bec, Qu\u00e9bec)", "designationCode": "C", "categoryCode": "09", "address": "2325, RUE DE LA VIE-ETUDIANTE LOCAL 1573B", "city": "QUEBEC", "province": "QC", "country": "CA", "postalCode": "G1V0B1", "twitter": "None", "instagram": "None", "facebook": "None", "youtube": "None", "website": "None", "summary": "None", "logo": "None", "latitude": 46.7785611942698, "longitude": -71.26896915485612}, "132410671RR0508": {"name": "La soci\u00e9t\u00e9 de Saint-Vincent de Paul - Conf\u00e9rence Notre-Dame du Chemin, \u00e0 Qu\u00e9bec (Qc)", "designationCode": "C", "categoryCode": "09", "address": "110 BOULEVARD REN\u00c9 LEVESQUE OUEST C. P. 48025 B. P. CARTIER", "city": "QU\u00c9BEC", "province": "QC", "country": "CA", "postalCode": "G1R5R5", "twitter": "None", "instagram": "None", "facebook": "None", "youtube": "None", "website": "None", "summary": "None", "logo": "None", "latitude": 46.81272300000006, "longitude": -71.21930299999994}, "846212975RR0001": {"name": "La soci\u00e9t\u00e9 historique de Coin-du-Banc", "designationCode": "C", "categoryCode": "50", "address": "350, RUE DE LA PLAGE", "city": "PERC\u00c9", "province": "QC", "country": "CA", "postalCode": "G0C2L0", "twitter": "None", "instagram": "None", "facebook": "None", "youtube": "None", "website": "None", "summary": "None", "logo": "None", "latitude": 48.56015739800335, "longitude": -64.29224808855089}, "890990179RR0001": {"name": "La soci\u00e9t\u00e9 historique du comt\u00e9 d'Argenteuil / The Historical Society of Argenteuil County", "designationCode": "C", "categoryCode": "52", "address": "CP 5", "city": "LACHUTE", "province": "QC", "country": "CA", "postalCode": "J8H3W9", "twitter": "None", "instagram": "None", "facebook": "None", "youtube": "None", "website": "None", "summary": "None", "logo": "None", "latitude": 45.70007100000005, "longitude": -74.21615449999993}}