{"119124634RR0001": {"name": "ROTARY CLUB OF DRESDEN SERVICE FUND", "designationCode": "C", "categoryCode": "09", "address": "P. O. BOX 355", "city": "DRESDEN", "province": "ON", "country": "CA", "postalCode": "N0P1M0", "twitter": "None", "instagram": "None", "facebook": "None", "youtube": "None", "website": "None", "summary": "None", "logo": "None", "latitude": 42.58952000000005, "longitude": -82.17963999999995}, "890328271RR0001": {"name": "ROTARY CLUB OF DUNDAS CHARITABLE TRUST,", "designationCode": "C", "categoryCode": "65", "address": "4 BRENTWOOD DR", "city": "DUNDAS", "province": "ON", "country": "CA", "postalCode": "L9H3N3", "twitter": "None", "instagram": "None", "facebook": "None", "youtube": "None", "website": "None", "summary": "None", "logo": "None", "latitude": 43.25816709244603, "longitude": -79.967370425212}, "865744635RR0001": {"name": "ROTARY CLUB OF DUNNVILLE CHARITABLE FOUNDATION", "designationCode": "A", "categoryCode": "63", "address": "311 BROAD ST E", "city": "DUNNVILLE", "province": "ON", "country": "CA", "postalCode": "N1A1G4", "twitter": "None", "instagram": "None", "facebook": "None", "youtube": "None", "website": "None", "summary": "None", "logo": "None", "latitude": 42.903467431617294, "longitude": -79.61437164057364}, "888824448RR0001": {"name": "ROTARY CLUB OF EDMONTON COMMUNITY SERVICE TRUST FUND", "designationCode": "C", "categoryCode": "65", "address": "10111 BELLAMY HILL", "city": "EDMONTON", "province": "AB", "country": "CA", "postalCode": "T5J1N7", "twitter": "None", "instagram": "None", "facebook": "None", "youtube": "None", "website": "None", "summary": "None", "logo": "None", "latitude": 53.53934892587585, "longitude": -113.49395386176364}, "119124709RR0001": {"name": "ROTARY CLUB OF EGANVILLE, CHARITABLE TRUST", "designationCode": "C", "categoryCode": "65", "address": "P.O BOX 788", "city": "EGANVILLE", "province": "ON", "country": "CA", "postalCode": "K0J1J0", "twitter": "None", "instagram": "None", "facebook": "None", "youtube": "None", "website": "None", "summary": "None", "logo": "None", "latitude": 46.020624000000055, "longitude": -77.46429949999994}, "119124717RR0001": {"name": "ROTARY CLUB OF ENGLEHART CHARITABLE TRUST", "designationCode": "C", "categoryCode": "65", "address": "PO BOX 412", "city": "ENGLEHART", "province": "ON", "country": "CA", "postalCode": "P0J1H0", "twitter": "None", "instagram": "None", "facebook": "None", "youtube": "None", "website": "None", "summary": "None", "logo": "None", "latitude": 47.81686000000008, "longitude": -79.86639999999994}, "889922795RR0001": {"name": "ROTARY CLUB OF ESSEX FOUNDATION FUND", "designationCode": "C", "categoryCode": "63", "address": "P.O. BOX 42", "city": "ESSEX", "province": "ON", "country": "CA", "postalCode": "N8M2Y1", "twitter": "None", "instagram": "None", "facebook": "None", "youtube": "None", "website": "None", "summary": "None", "logo": "None", "latitude": 42.17281800000005, "longitude": -82.81968199999993}, "890383946RR0001": {"name": "ROTARY CLUB OF ETOBICOKE CHARITABLE TRUST", "designationCode": "A", "categoryCode": "65", "address": "1157 SPRAGG COURT", "city": "MISSISSAUGA", "province": "ON", "country": "CA", "postalCode": "L5C2Z9", "twitter": "None", "instagram": "None", "facebook": "None", "youtube": "None", "website": "None", "summary": "None", "logo": "None", "latitude": 43.55344630088277, "longitude": -79.64130771582298}, "889399796RR0001": {"name": "ROTARY CLUB OF FENELON FALLS, ONTARIO, CANADA INC, CHARITABLE TRUST", "designationCode": "A", "categoryCode": "65", "address": "BOX 862", "city": "FENELON", "province": "ON", "country": "CA", "postalCode": "K0M1N0", "twitter": "None", "instagram": "None", "facebook": "None", "youtube": "None", "website": "None", "summary": "None", "logo": "None", "latitude": 44.44674534241891, "longitude": -78.73953079292289}, "119124758RR0001": {"name": "ROTARY CLUB OF FREDERICTON NORTH INC. CHARITABLE TRUST", "designationCode": "C", "categoryCode": "65", "address": "P.O. BOX 3112                 POSTAL STATION 'B'", "city": "FREDERICTON", "province": "NB", "country": "CA", "postalCode": "E3A5G8", "twitter": "None", "instagram": "None", "facebook": "None", "youtube": "None", "website": "None", "summary": "None", "logo": "None", "latitude": 45.958638328435796, "longitude": -66.62155541090102}, "119124774RR0001": {"name": "ROTARY CLUB OF GANANOQUE CHARITABLE TRUST", "designationCode": "C", "categoryCode": "65", "address": "P.O. BOX 516", "city": "GANANOQUE", "province": "ON", "country": "CA", "postalCode": "K7G2V1", "twitter": "None", "instagram": "None", "facebook": "None", "youtube": "None", "website": "None", "summary": "None", "logo": "None", "latitude": 44.328480000000056, "longitude": -76.16426299999993}, "119124790RR0001": {"name": "ROTARY CLUB OF GORE BAY CHARITABLE TRUST", "designationCode": "C", "categoryCode": "65", "address": "279 TOBACCO LAKE RD N.", "city": "GORE BAY", "province": "ON", "country": "CA", "postalCode": "P0P1H0", "twitter": "None", "instagram": "None", "facebook": "None", "youtube": "None", "website": "None", "summary": "None", "logo": "None", "latitude": 45.8671391100104, "longitude": -82.43955557961816}, "891556847RR0001": {"name": "ROTARY CLUB OF GRAVENHURST, CHARITABLE TRUST", "designationCode": "C", "categoryCode": "65", "address": "P.O. BOX 888", "city": "GRAVENHURST", "province": "ON", "country": "CA", "postalCode": "P1P1V2", "twitter": "None", "instagram": "None", "facebook": "None", "youtube": "None", "website": "None", "summary": "None", "logo": "None", "latitude": 44.92084200000005, "longitude": -79.37371249999994}, "894398817RR0001": {"name": "ROTARY CLUB OF GUELPH CHARITABLE FOUNDATION", "designationCode": "A", "categoryCode": "63", "address": "10 ETON PLACE", "city": "GUELPH", "province": "ON", "country": "CA", "postalCode": "N1E3L5", "twitter": "None", "instagram": "None", "facebook": "None", "youtube": "None", "website": "None", "summary": "None", "logo": "None", "latitude": 43.57444859339832, "longitude": -80.26178599405604}, "119124832RR0002": {"name": "ROTARY CLUB OF GUELPH CHARITABLE TRUST", "designationCode": "A", "categoryCode": "65", "address": "17 JEAN ANDERSON CRES", "city": "GUELPH", "province": "ON", "country": "CA", "postalCode": "N1G5A6", "twitter": "None", "instagram": "None", "facebook": "None", "youtube": "None", "website": "None", "summary": "None", "logo": "None", "latitude": 43.499037623665416, "longitude": -80.20059321790045}, "863418984RR0001": {"name": "ROTARY CLUB OF GUELPH SOUTH CHARITABLE FOUNDATION INC.", "designationCode": "A", "categoryCode": "63", "address": "P.O. BOX 21060                CAMPUS DRUG MART LTD.", "city": "GUELPH", "province": "ON", "country": "CA", "postalCode": "N1G3A2", "twitter": "None", "instagram": "None", "facebook": "None", "youtube": "None", "website": "None", "summary": "None", "logo": "None", "latitude": 43.524070063909775, "longitude": -80.22228005554248}, "889543666RR0001": {"name": "ROTARY CLUB OF GUELPH TRILLIUM CHARITABLE FOUNDATION", "designationCode": "C", "categoryCode": "59", "address": "150 DOWNEY ROAD", "city": "GUELPH", "province": "ON", "country": "CA", "postalCode": "N1C1A3", "twitter": "None", "instagram": "None", "facebook": "None", "youtube": "None", "website": "None", "summary": "None", "logo": "None", "latitude": 43.49762354483803, "longitude": -80.23410733718072}, "889860466RR0001": {"name": "ROTARY CLUB OF GUELPH-WELLINGTON CHARITABLE FOUNDATION", "designationCode": "A", "categoryCode": "03", "address": "P.O. BOX 1637", "city": "GUELPH", "province": "ON", "country": "CA", "postalCode": "N1H6R7", "twitter": "None", "instagram": "None", "facebook": "None", "youtube": "None", "website": "None", "summary": "None", "logo": "None", "latitude": 43.54455300000005, "longitude": -80.24788249999993}, "890676992RR0001": {"name": "ROTARY CLUB OF HALIBURTON CHARITABLE TRUST,", "designationCode": "A", "categoryCode": "65", "address": "BOX 506", "city": "HALIBURTON", "province": "ON", "country": "CA", "postalCode": "K0M1S0", "twitter": "None", "instagram": "None", "facebook": "None", "youtube": "None", "website": "None", "summary": "None", "logo": "None", "latitude": 45.24560095765924, "longitude": -78.57868961447684}, "119124840RR0001": {"name": "ROTARY CLUB OF HALIFAX CHARITABLE TRUST", "designationCode": "A", "categoryCode": "65", "address": "1083 QUEEN ST. BOX 338", "city": "HALIFAX", "province": "NS", "country": "CA", "postalCode": "B3H0B2", "twitter": "None", "instagram": "None", "facebook": "None", "youtube": "None", "website": "None", "summary": "None", "logo": "None", "latitude": 44.636854190951595, "longitude": -63.57288090354326}, "119124857RR0001": {"name": "ROTARY CLUB OF HALIFAX NORTH WEST CHARITABLE TRUST", "designationCode": "A", "categoryCode": "65", "address": "PO BOX 44043 RPO BEDFORD", "city": "BEDFORD", "province": "NS", "country": "CA", "postalCode": "B4A3X5", "twitter": "None", "instagram": "None", "facebook": "None", "youtube": "None", "website": "None", "summary": "None", "logo": "None", "latitude": 44.74473275800495, "longitude": -63.65638700320198}, "119124865RR0001": {"name": "ROTARY CLUB OF HAMILTON EAST WENTWORTH CHARITIES", "designationCode": "A", "categoryCode": "63", "address": "152 REBECCA ST", "city": "OAKVILLE", "province": "ON", "country": "CA", "postalCode": "L6K1J5", "twitter": "None", "instagram": "None", "facebook": "None", "youtube": "None", "website": "None", "summary": "None", "logo": "None", "latitude": 43.439294190114865, "longitude": -79.6776914136708}, "892031170RR0001": {"name": "ROTARY CLUB OF HAMILTON SUNSHINE FUND", "designationCode": "C", "categoryCode": "63", "address": "123 KING STREET WEST          ART GALLERY OF HAMILTON", "city": "HAMILTON", "province": "ON", "country": "CA", "postalCode": "L8P4S8", "twitter": "None", "instagram": "None", "facebook": "None", "youtube": "None", "website": "None", "summary": "None", "logo": "None", "latitude": 43.257549941139295, "longitude": -79.87224002221697}, "885911123RR0001": {"name": "ROTARY CLUB OF HARROW CHARITABLE FUND", "designationCode": "C", "categoryCode": "63", "address": "BOX 916", "city": "HARROW", "province": "ON", "country": "CA", "postalCode": "N0R1G0", "twitter": "None", "instagram": "None", "facebook": "None", "youtube": "None", "website": "None", "summary": "None", "logo": "None", "latitude": 42.03553000000005, "longitude": -82.91788999999994}, "119124907RR0001": {"name": "ROTARY CLUB OF HAWKESBURY, CHARITABLE TRUST", "designationCode": "C", "categoryCode": "65", "address": "1750 GREENLANE ROAD WEST", "city": "HAWKESBURY", "province": "ON", "country": "CA", "postalCode": "K6A2R2", "twitter": "None", "instagram": "None", "facebook": "None", "youtube": "None", "website": "None", "summary": "None", "logo": "None", "latitude": 45.55481426518915, "longitude": -74.55467277414328}, "132184722RR0001": {"name": "ROTARY CLUB OF HEARST CHARITABLE TRUST", "designationCode": "C", "categoryCode": "65", "address": "BOX 1553", "city": "HEARST", "province": "ON", "country": "CA", "postalCode": "P0L1N0", "twitter": "None", "instagram": "None", "facebook": "None", "youtube": "None", "website": "None", "summary": "None", "logo": "None", "latitude": 49.68503700000005, "longitude": -83.65433749999994}, "891253643RR0001": {"name": "ROTARY CLUB OF INGERSOLL CHARITABLE FOUNDATION", "designationCode": "A", "categoryCode": "63", "address": "45 KING STREET W.", "city": "INGERSOLL", "province": "ON", "country": "CA", "postalCode": "N5C2J7", "twitter": "None", "instagram": "None", "facebook": "None", "youtube": "None", "website": "None", "summary": "None", "logo": "None", "latitude": 43.03715647229481, "longitude": -80.88378583071108}, "853194900RR0001": {"name": "ROTARY CLUB OF KELOWNA - OGOPOGO CHARITABLE SOCIETY", "designationCode": "A", "categoryCode": "63", "address": "PO BOX 24076                  TOWN CENTER POST OFFICE", "city": "KELOWNA", "province": "BC", "country": "CA", "postalCode": "V1Y9H2", "twitter": "None", "instagram": "None", "facebook": "None", "youtube": "None", "website": "None", "summary": "None", "logo": "None", "latitude": 49.88697900000005, "longitude": -119.49661249999994}, "889164190RR0001": {"name": "ROTARY CLUB OF KELOWNA FOUNDATION", "designationCode": "A", "categoryCode": "63", "address": "PO BOX 24076                  TOWN CENTER POST OFFICE", "city": "KELOWNA", "province": "BC", "country": "CA", "postalCode": "V1Y9H2", "twitter": "None", "instagram": "None", "facebook": "None", "youtube": "None", "website": "None", "summary": "None", "logo": "None", "latitude": 49.88697900000005, "longitude": -119.49661249999994}, "887699098RR0001": {"name": "ROTARY CLUB OF KELOWNA SUNRISE CHARITABLE SOCIETY", "designationCode": "A", "categoryCode": "63", "address": "500 - 1620 DICKSON AVE", "city": "KELOWNA", "province": "BC", "country": "CA", "postalCode": "V1Y9Y2", "twitter": "None", "instagram": "None", "facebook": "None", "youtube": "None", "website": "None", "summary": "None", "logo": "None", "latitude": 49.880640397075474, "longitude": -119.4625129012528}, "119124931RR0001": {"name": "ROTARY CLUB OF KINGSTON, ONTARIO (SERVICE FUND) INC.", "designationCode": "C", "categoryCode": "63", "address": "PO BOX 484", "city": "KINGSTON", "province": "ON", "country": "CA", "postalCode": "K7L4W5", "twitter": "None", "instagram": "None", "facebook": "None", "youtube": "None", "website": "None", "summary": "None", "logo": "None", "latitude": 44.23153200000006, "longitude": -76.47933049999993}, "138203971RR0001": {"name": "ROTARY CLUB OF KITCHENER GRAND RIVER CHARITABLE FOUNDATION", "designationCode": "A", "categoryCode": "03", "address": "706  KING STREET EAST", "city": "KITCHENER", "province": "ON", "country": "CA", "postalCode": "N2G2M5", "twitter": "None", "instagram": "None", "facebook": "None", "youtube": "None", "website": "None", "summary": "None", "logo": "None", "latitude": 43.444673998903475, "longitude": -80.47780904703107}, "863333647RR0001": {"name": "ROTARY CLUB OF KITCHENER-WESTMOUNT CHARITABLE FOUNDATION", "designationCode": "A", "categoryCode": "65", "address": "500 HALLMARK DRIVE", "city": "WATERLOO", "province": "ON", "country": "CA", "postalCode": "N2K3P5", "twitter": "None", "instagram": "None", "facebook": "None", "youtube": "None", "website": "None", "summary": "None", "logo": "None", "latitude": 43.498089060534184, "longitude": -80.51975890536185}, "130684509RR0001": {"name": "ROTARY CLUB OF LANTZVILLE SOCIETY", "designationCode": "C", "categoryCode": "05", "address": "P.O. BOX 502", "city": "LANTZVILLE", "province": "BC", "country": "CA", "postalCode": "V0R2H0", "twitter": "None", "instagram": "None", "facebook": "None", "youtube": "None", "website": "None", "summary": "None", "logo": "None", "latitude": 49.252985410367124, "longitude": -124.09511789416992}, "892108184RR0001": {"name": "ROTARY CLUB OF LEASIDE CHARITABLE FOUNDATION", "designationCode": "A", "categoryCode": "63", "address": "ONE CONCORDE PLACE #2301", "city": "TORONTO", "province": "ON", "country": "CA", "postalCode": "M3C3K6", "twitter": "None", "instagram": "None", "facebook": "None", "youtube": "None", "website": "None", "summary": "None", "logo": "None", "latitude": 43.72906082561016, "longitude": -79.32835519959104}, "863607255RR0001": {"name": "ROTARY CLUB OF LINCOLN FOUNDATION INC.", "designationCode": "C", "categoryCode": "03", "address": "P.O. BOX 730", "city": "BEAMSVILLE", "province": "ON", "country": "CA", "postalCode": "L0R1B0", "twitter": "None", "instagram": "None", "facebook": "None", "youtube": "None", "website": "None", "summary": "None", "logo": "None", "latitude": 43.16732700000006, "longitude": -79.47640249999994}, "891223042RR0001": {"name": "ROTARY CLUB OF LISTOWEL CHARITABLE FOUNDATION", "designationCode": "C", "categoryCode": "65", "address": "865 RICHMOND AVE NORTH", "city": "LISTOWEL", "province": "ON", "country": "CA", "postalCode": "N4W2Z9", "twitter": "None", "instagram": "None", "facebook": "None", "youtube": "None", "website": "None", "summary": "None", "logo": "None", "latitude": 43.73883558341501, "longitude": -80.94460870125202}, "897895496RR0001": {"name": "ROTARY CLUB OF LONDON SOUTH FOUNDATION", "designationCode": "A", "categoryCode": "63", "address": "P.O. BOX 25602", "city": "LONDON", "province": "ON", "country": "CA", "postalCode": "N6C6B3", "twitter": "None", "instagram": "None", "facebook": "None", "youtube": "None", "website": "None", "summary": "None", "logo": "None", "latitude": 42.98689500000006, "longitude": -81.24624349999993}, "119125011RR0001": {"name": "ROTARY CLUB OF MEAFORD CHARITABLE TRUST", "designationCode": "C", "categoryCode": "65", "address": "153 LAKESHORE RD              PO BOX 3259", "city": "MEAFORD", "province": "ON", "country": "CA", "postalCode": "N4L1A5", "twitter": "None", "instagram": "None", "facebook": "None", "youtube": "None", "website": "None", "summary": "None", "logo": "None", "latitude": 44.6206736250787, "longitude": -80.60720885711504}, "889979340RR0001": {"name": "ROTARY CLUB OF MIDLAND CHARITABLE FUND", "designationCode": "C", "categoryCode": "65", "address": "P.O.BOX 93", "city": "MIDLAND", "province": "ON", "country": "CA", "postalCode": "L4R4K6", "twitter": "None", "instagram": "None", "facebook": "None", "youtube": "None", "website": "None", "summary": "None", "logo": "None", "latitude": 44.74989600000005, "longitude": -79.88850349999993}, "119125029RR0001": {"name": "ROTARY CLUB OF MILTON CHARITABLE TRUST", "designationCode": "C", "categoryCode": "65", "address": "PO BOX 272", "city": "MILTON", "province": "ON", "country": "CA", "postalCode": "L9T4N9", "twitter": "None", "instagram": "None", "facebook": "None", "youtube": "None", "website": "None", "summary": "None", "logo": "None", "latitude": 43.51104600000005, "longitude": -79.88386399999993}, "886848795RR0001": {"name": "ROTARY CLUB OF MINDEN CHARITABLE TRUST", "designationCode": "C", "categoryCode": "65", "address": "P.O. BOX 504", "city": "MINDEN", "province": "ON", "country": "CA", "postalCode": "K0M2K0", "twitter": "None", "instagram": "None", "facebook": "None", "youtube": "None", "website": "None", "summary": "None", "logo": "None", "latitude": 45.00243600000006, "longitude": -78.58882699999994}, "894486422RR0001": {"name": "ROTARY CLUB OF MISSISSAUGA FOUNDATION", "designationCode": "A", "categoryCode": "65", "address": "P.O. BOX 340, STATION A", "city": "MISSISSAUGA", "province": "ON", "country": "CA", "postalCode": "L5A3A1", "twitter": "None", "instagram": "None", "facebook": "None", "youtube": "None", "website": "None", "summary": "None", "logo": "None", "latitude": 43.58690700000005, "longitude": -79.64535049999994}, "119125045RR0001": {"name": "ROTARY CLUB OF MONTAGUE CHARITABLE TRUST", "designationCode": "A", "categoryCode": "65", "address": "P. O. BOX 29", "city": "MONTAGUE", "province": "PE", "country": "CA", "postalCode": "C0A1R0", "twitter": "None", "instagram": "None", "facebook": "None", "youtube": "None", "website": "None", "summary": "None", "logo": "None", "latitude": 46.14343222329997, "longitude": -62.75594020244682}, "119125060RR0001": {"name": "ROTARY CLUB OF NANAIMO CHARITABLE SOCIETY", "designationCode": "A", "categoryCode": "63", "address": "P. O. BOX 405 STN MAIN", "city": "NANAIMO", "province": "BC", "country": "CA", "postalCode": "V9R5L3", "twitter": "None", "instagram": "None", "facebook": "None", "youtube": "None", "website": "None", "summary": "None", "logo": "None", "latitude": 49.164243000000056, "longitude": -123.93616399999993}, "119125078RR0001": {"name": "ROTARY CLUB OF NAPANEE, CHARITABLE TRUST", "designationCode": "C", "categoryCode": "65", "address": "BOX 333", "city": "NAPANEE", "province": "ON", "country": "CA", "postalCode": "K7R3M4", "twitter": "None", "instagram": "None", "facebook": "None", "youtube": "None", "website": "None", "summary": "None", "logo": "None", "latitude": 44.24834400000006, "longitude": -76.95158299999993}, "890067770RR0001": {"name": "ROTARY CLUB OF NEPEAN-KANATA SERVICE FUND", "designationCode": "A", "categoryCode": "65", "address": "PO BOX 26088 NEPEAN RPO BELLS CORNERS", "city": "OTTAWA", "province": "ON", "country": "CA", "postalCode": "K2H9R6", "twitter": "None", "instagram": "None", "facebook": "None", "youtube": "None", "website": "None", "summary": "None", "logo": "None", "latitude": 45.32269000000008, "longitude": -75.83176999999995}, "880793211RR0001": {"name": "ROTARY CLUB OF NIAGARA FALLS SUNRISE FOUNDATION", "designationCode": "A", "categoryCode": "63", "address": "PO BOX 142 STN MAIN", "city": "NIAGARA FALLS", "province": "ON", "country": "CA", "postalCode": "L2E6T3", "twitter": "None", "instagram": "None", "facebook": "None", "youtube": "None", "website": "None", "summary": "None", "logo": "None", "latitude": 43.10663100000005, "longitude": -79.06433299999993}, "130516362RR0001": {"name": "ROTARY CLUB OF NIAGARA FALLS, CANADA, CHARITABLE TRUST,", "designationCode": "C", "categoryCode": "65", "address": "CC & C PROFESSIONAL CORPORATIO3650 PORTAGE ROAD", "city": "NIAGARA FALLS", "province": "ON", "country": "CA", "postalCode": "L2J2K7", "twitter": "None", "instagram": "None", "facebook": "None", "youtube": "None", "website": "None", "summary": "None", "logo": "None", "latitude": 43.13142002438777, "longitude": -79.09710229859769}, "119125094RR0001": {"name": "ROTARY CLUB OF NORTH BAY, CANADA, CHARITABLE TRUST", "designationCode": "C", "categoryCode": "65", "address": "BOX 242", "city": "NORTH BAY", "province": "ON", "country": "CA", "postalCode": "P1B8H2", "twitter": "None", "instagram": "None", "facebook": "None", "youtube": "None", "website": "None", "summary": "None", "logo": "None", "latitude": 46.30661700000006, "longitude": -79.45993249999994}, "871334041RR0001": {"name": "ROTARY CLUB OF NORTH SYDNEY", "designationCode": "C", "categoryCode": "65", "address": "PO BOX 131", "city": "NORTH SYDNEY", "province": "NS", "country": "CA", "postalCode": "B2A3M1", "twitter": "None", "instagram": "None", "facebook": "None", "youtube": "None", "website": "None", "summary": "None", "logo": "None", "latitude": 46.20710400000006, "longitude": -60.25146199999993}, "889142840RR0001": {"name": "ROTARY CLUB OF NORTH WINNIPEG CHARITABLE TRUST", "designationCode": "A", "categoryCode": "09", "address": "219 FORT STREET", "city": "WINNIPEG", "province": "MB", "country": "CA", "postalCode": "R3B1B3", "twitter": "None", "instagram": "None", "facebook": "None", "youtube": "None", "website": "None", "summary": "None", "logo": "None", "latitude": 49.89210363864039, "longitude": -97.13818876224848}, "119125128RR0001": {"name": "ROTARY CLUB OF OAKVILLE CHARITABLE TRUST", "designationCode": "C", "categoryCode": "03", "address": "101-17 STEWART ST             ROTARY CENTENNIAL TOWERS", "city": "OAKVILLE", "province": "ON", "country": "CA", "postalCode": "L6K1X4", "twitter": "None", "instagram": "None", "facebook": "None", "youtube": "None", "website": "None", "summary": "None", "logo": "None", "latitude": 43.44483613056177, "longitude": -79.68327927003213}, "891307571RR0001": {"name": "ROTARY CLUB OF OAKVILLE TRAFALGAR FOUNDATION INC", "designationCode": "A", "categoryCode": "63", "address": "PO BOX 52104", "city": "OAKVILLE", "province": "ON", "country": "CA", "postalCode": "L6J7N5", "twitter": "None", "instagram": "None", "facebook": "None", "youtube": "None", "website": "None", "summary": "None", "logo": "None", "latitude": 43.46642400000006, "longitude": -79.69001299999994}, "892158445RR0001": {"name": "ROTARY CLUB OF OAKVILLE WEST CHARITABLE FOUNDATION", "designationCode": "C", "categoryCode": "21", "address": "520 KERR ST.                  P.O. BOX 20055", "city": "OAKVILLE", "province": "ON", "country": "CA", "postalCode": "L6K3C7", "twitter": "None", "instagram": "None", "facebook": "None", "youtube": "None", "website": "None", "summary": "None", "logo": "None", "latitude": 43.44682976152735, "longitude": -79.6871964653755}, "119125136RR0001": {"name": "ROTARY CLUB OF OSHAWA CHARITABLE FUND", "designationCode": "A", "categoryCode": "65", "address": "12 WILKINS CRES", "city": "COURTICE", "province": "ON", "country": "CA", "postalCode": "L1E3B8", "twitter": "None", "instagram": "None", "facebook": "None", "youtube": "None", "website": "None", "summary": "None", "logo": "None", "latitude": 43.902316172369915, "longitude": -78.78062579462168}, "853683340RR0001": {"name": "ROTARY CLUB OF OTTAWA CHARITY FUND", "designationCode": "C", "categoryCode": "63", "address": "P.O. BOX 9041, STATION T", "city": "OTTAWA", "province": "ON", "country": "CA", "postalCode": "K1G3T8", "twitter": "None", "instagram": "None", "facebook": "None", "youtube": "None", "website": "None", "summary": "None", "logo": "None", "latitude": 45.4075526747762, "longitude": -75.65114751410245}, "119125151RR0001": {"name": "ROTARY CLUB OF OWEN SOUND CHARITABLE TRUST", "designationCode": "C", "categoryCode": "65", "address": "PO BOX 352", "city": "OWEN SOUND", "province": "ON", "country": "CA", "postalCode": "N4K5P5", "twitter": "None", "instagram": "None", "facebook": "None", "youtube": "None", "website": "None", "summary": "None", "logo": "None", "latitude": 44.56423500000005, "longitude": -80.94243049999993}, "119125201RR0001": {"name": "ROTARY CLUB OF PICTON CHARITABLE TRUST", "designationCode": "C", "categoryCode": "65", "address": "2 - 289 MAIN STREET", "city": "PICTON", "province": "ON", "country": "CA", "postalCode": "K0K2T0", "twitter": "None", "instagram": "None", "facebook": "None", "youtube": "None", "website": "None", "summary": "None", "logo": "None", "latitude": 44.19413477900494, "longitude": -77.05045357520731}, "119125219RR0001": {"name": "ROTARY CLUB OF PICTOU, CHARITABLE TRUST", "designationCode": "C", "categoryCode": "65", "address": "P.O. BOX 10", "city": "PICTOU", "province": "NS", "country": "CA", "postalCode": "B0K1H0", "twitter": "None", "instagram": "None", "facebook": "None", "youtube": "None", "website": "None", "summary": "None", "logo": "None", "latitude": 45.67583400000005, "longitude": -62.70865099999993}, "889387049RR0001": {"name": "ROTARY CLUB OF PORT ELGIN, ONTARIO, CHARITABLE TRUST,", "designationCode": "C", "categoryCode": "65", "address": "BOX 193", "city": "PORT ELGIN", "province": "ON", "country": "CA", "postalCode": "N0H2C0", "twitter": "None", "instagram": "None", "facebook": "None", "youtube": "None", "website": "None", "summary": "None", "logo": "None", "latitude": 44.43698400000005, "longitude": -81.38664349999993}, "897793618RR0001": {"name": "ROTARY CLUB OF PORT MOODY FOUNDATION", "designationCode": "A", "categoryCode": "63", "address": "#235 - 255 NEWPORT DRIVE", "city": "PORT MOODY", "province": "BC", "country": "CA", "postalCode": "V3H5H1", "twitter": "None", "instagram": "None", "facebook": "None", "youtube": "None", "website": "None", "summary": "None", "logo": "None", "latitude": 49.283143456454134, "longitude": -122.82590128532172}, "893761122RR0001": {"name": "ROTARY CLUB OF QUALICUM BEACH SUNRISE SOCIETY", "designationCode": "C", "categoryCode": "63", "address": "211 FERN RD W", "city": "QUALICUM BEACH", "province": "BC", "country": "CA", "postalCode": "V9K1S4", "twitter": "None", "instagram": "None", "facebook": "None", "youtube": "None", "website": "None", "summary": "None", "logo": "None", "latitude": 49.346162474897476, "longitude": -124.4474235}, "891399081RR0001": {"name": "ROTARY CLUB OF RENFREW CHARITABLE TRUST", "designationCode": "C", "categoryCode": "65", "address": "620 BARNET BLVD", "city": "RENFREW", "province": "ON", "country": "CA", "postalCode": "K7V0A8", "twitter": "None", "instagram": "None", "facebook": "None", "youtube": "None", "website": "None", "summary": "None", "logo": "None", "latitude": 45.470710085261324, "longitude": -76.66054651506096}, "134176403RR0001": {"name": "ROTARY CLUB OF RICHMOND A.M. FOUNDATION", "designationCode": "A", "categoryCode": "63", "address": "208 - 4940 NO. 3 RD", "city": "RICHMOND", "province": "BC", "country": "CA", "postalCode": "V6X3A5", "twitter": "None", "instagram": "None", "facebook": "None", "youtube": "None", "website": "None", "summary": "None", "logo": "None", "latitude": 49.17798377182309, "longitude": -123.13651621362817}, "889679395RR0001": {"name": "ROTARY CLUB OF RICHMOND FOUNDATION", "designationCode": "A", "categoryCode": "63", "address": "PO BOX 94181", "city": "RICHMOND", "province": "BC", "country": "CA", "postalCode": "V6X8A3", "twitter": "None", "instagram": "None", "facebook": "None", "youtube": "None", "website": "None", "summary": "None", "logo": "None", "latitude": 49.163343000000054, "longitude": -123.13664449999993}, "119125300RR0001": {"name": "ROTARY CLUB OF RIDGETOWN SERVICE FUND", "designationCode": "C", "categoryCode": "63", "address": "16 CHURCH ST                  PO BOX 637", "city": "RIDGETOWN", "province": "ON", "country": "CA", "postalCode": "N0P2C0", "twitter": "None", "instagram": "None", "facebook": "None", "youtube": "None", "website": "None", "summary": "None", "logo": "None", "latitude": 42.43882663364872, "longitude": -81.88302140700571}, "119125318RR0001": {"name": "ROTARY CLUB OF ROTHESAY - KINGS CHARITABLE TRUST", "designationCode": "C", "categoryCode": "65", "address": "PO BOX 4496", "city": "ROTHESAY", "province": "NB", "country": "CA", "postalCode": "E2E5X2", "twitter": "None", "instagram": "None", "facebook": "None", "youtube": "None", "website": "None", "summary": "None", "logo": "None", "latitude": 45.380919929916686, "longitude": -65.99681338202436}, "889052999RR0001": {"name": "ROTARY CLUB OF SARNIA CHARITABLE FOUNDATION,", "designationCode": "A", "categoryCode": "63", "address": "PO BOX 22014 RPO TWIN LAKES", "city": "SARNIA", "province": "ON", "country": "CA", "postalCode": "N7S6J4", "twitter": "None", "instagram": "None", "facebook": "None", "youtube": "None", "website": "None", "summary": "None", "logo": "None", "latitude": 43.00425701754948, "longitude": -82.36109054594768}, "888569795RR0001": {"name": "ROTARY CLUB OF SECHELT FOUNDATION", "designationCode": "C", "categoryCode": "65", "address": "PO BOX 2071", "city": "SECHELT", "province": "BC", "country": "CA", "postalCode": "V0N3A0", "twitter": "None", "instagram": "None", "facebook": "None", "youtube": "None", "website": "None", "summary": "None", "logo": "None", "latitude": 49.473460000000046, "longitude": -123.75460999999996}, "893178764RR0001": {"name": "ROTARY CLUB OF SEMIAHMOO, (WHITE ROCK), B.C. CANADA CHARITABLE TRUST", "designationCode": "C", "categoryCode": "63", "address": "PO BOX 75361 RPO WHITE ROCK", "city": "SURREY", "province": "BC", "country": "CA", "postalCode": "V4A0B1", "twitter": "None", "instagram": "None", "facebook": "None", "youtube": "None", "website": "None", "summary": "None", "logo": "None", "latitude": 49.043630016734454, "longitude": -122.79103008165461}, "119125359RR0001": {"name": "ROTARY CLUB OF SHELBURNE CHARITABLE TRUST", "designationCode": "C", "categoryCode": "65", "address": "PO BOX 27 STN MAIN", "city": "SHELBURNE", "province": "ON", "country": "CA", "postalCode": "L9V3L8", "twitter": "None", "instagram": "None", "facebook": "None", "youtube": "None", "website": "None", "summary": "None", "logo": "None", "latitude": 44.13508148877166, "longitude": -80.33158927439862}, "119125375RR0001": {"name": "ROTARY CLUB OF SMITHS FALLS (SERVICE FUND) INC.", "designationCode": "A", "categoryCode": "63", "address": "67 COLONEL BY CRES.", "city": "SMITH FALLS", "province": "ON", "country": "CA", "postalCode": "K7A5B9", "twitter": "None", "instagram": "None", "facebook": "None", "youtube": "None", "website": "None", "summary": "None", "logo": "None", "latitude": 44.88961124779335, "longitude": -76.01082083039097}, "119125383RR0001": {"name": "ROTARY CLUB OF SOUTH EDMONTON CHARITABLE TRUST", "designationCode": "A", "categoryCode": "65", "address": "PO BOX 88102, RABBIT HILL PO", "city": "EDMONTON", "province": "AB", "country": "CA", "postalCode": "T6R0M5", "twitter": "None", "instagram": "None", "facebook": "None", "youtube": "None", "website": "None", "summary": "None", "logo": "None", "latitude": 53.44712266655038, "longitude": -113.5656225}, "141034389RR0001": {"name": "ROTARY CLUB OF SQUAMISH FOUNDATION", "designationCode": "C", "categoryCode": "63", "address": "PO BOX 391 STN MAIN", "city": "SQUAMISH", "province": "BC", "country": "CA", "postalCode": "V8B0A3", "twitter": "None", "instagram": "None", "facebook": "None", "youtube": "None", "website": "None", "summary": "None", "logo": "None", "latitude": 49.697482075978314, "longitude": -123.1570346635582}, "891227647RR0001": {"name": "ROTARY CLUB OF ST BONIFACE- ST VITAL CHARITABLE TRUST", "designationCode": "A", "categoryCode": "65", "address": "43 HEATHER ROAD", "city": "WINNIPEG", "province": "MB", "country": "CA", "postalCode": "R2J1K8", "twitter": "None", "instagram": "None", "facebook": "None", "youtube": "None", "website": "None", "summary": "None", "logo": "None", "latitude": 49.86693941909516, "longitude": -97.0758356100754}, "889665394RR0001": {"name": "ROTARY CLUB OF ST CATHARINES SOUTH CHARITABLE TRUST", "designationCode": "C", "categoryCode": "65", "address": "251 CARLTON ST", "city": "ST CATHARINES", "province": "ON", "country": "CA", "postalCode": "L2N1B6", "twitter": "None", "instagram": "None", "facebook": "None", "youtube": "None", "website": "None", "summary": "None", "logo": "None", "latitude": 43.17573472052617, "longitude": -79.23934943978294}, "889132999RR0001": {"name": "ROTARY CLUB OF ST CATHARINES-LAKESHORE CHARITABLE TRUST", "designationCode": "C", "categoryCode": "63", "address": "14 GRAMMAR AVENUE", "city": "ST. CATHARINES", "province": "ON", "country": "CA", "postalCode": "L2N3L3", "twitter": "None", "instagram": "None", "facebook": "None", "youtube": "None", "website": "None", "summary": "None", "logo": "None", "latitude": 43.20080198473655, "longitude": -79.23552400288553}, "119125417RR0001": {"name": "ROTARY CLUB OF ST. CATHARINES, CHARITABLE TRUST", "designationCode": "C", "categoryCode": "65", "address": "271 RIDLEY RD W", "city": "ST CATHARINES", "province": "ON", "country": "CA", "postalCode": "L2S0B3", "twitter": "None", "instagram": "None", "facebook": "None", "youtube": "None", "website": "None", "summary": "None", "logo": "None", "latitude": 43.14604333718072, "longitude": -79.26892201246481}, "898618434RR0001": {"name": "ROTARY CLUB OF ST. JOHN'S EAST FOUNDATION INC.", "designationCode": "A", "categoryCode": "03", "address": "P.O. BOX 21183", "city": "ST. JOHN'S", "province": "NL", "country": "CA", "postalCode": "A1A5B2", "twitter": "None", "instagram": "None", "facebook": "None", "youtube": "None", "website": "None", "summary": "None", "logo": "None", "latitude": 47.600088000000056, "longitude": -52.692861499999935}, "894355387RR0001": {"name": "ROTARY CLUB OF ST. JOHN'S ENDOWMENT FOUNDATION INC.", "designationCode": "A", "categoryCode": "63", "address": "3 CHURCH HILL", "city": "ST. JOHN'S", "province": "NL", "country": "CA", "postalCode": "A1C3Z7", "twitter": "None", "instagram": "None", "facebook": "None", "youtube": "None", "website": "None", "summary": "None", "logo": "None", "latitude": 47.564642347481154, "longitude": -52.70797516501233}, "119125441RR0001": {"name": "ROTARY CLUB OF ST. THOMAS FOUNDATION", "designationCode": "C", "categoryCode": "63", "address": "P.O. BOX 20042 RPO EDWARDS", "city": "ST THOMAS", "province": "ON", "country": "CA", "postalCode": "N5P0B5", "twitter": "None", "instagram": "None", "facebook": "None", "youtube": "None", "website": "None", "summary": "None", "logo": "None", "latitude": 42.78596231343908, "longitude": -81.1660014465738}, "119125458RR0001": {"name": "ROTARY CLUB OF SUMMERSIDE CHARITABLE TRUST", "designationCode": "A", "categoryCode": "03", "address": "PO BOX 65", "city": "SUMMERSIDE", "province": "PE", "country": "CA", "postalCode": "C1N4P6", "twitter": "None", "instagram": "None", "facebook": "None", "youtube": "None", "website": "None", "summary": "None", "logo": "None", "latitude": 46.39407900000006, "longitude": -63.791980999999936}, "893334367RR0001": {"name": "ROTARY CLUB OF SURREY FOUNDATION", "designationCode": "A", "categoryCode": "63", "address": "P.O. BOX 181", "city": "SURREY", "province": "BC", "country": "CA", "postalCode": "V3T4W8", "twitter": "None", "instagram": "None", "facebook": "None", "youtube": "None", "website": "None", "summary": "None", "logo": "None", "latitude": 49.19164800000006, "longitude": -122.85002149999994}, "891110447RR0001": {"name": "ROTARY CLUB OF SURREY-GUILDFORD FOUNDATION", "designationCode": "C", "categoryCode": "63", "address": "P.O. BOX 42042 RPO GUILDFORD", "city": "SURREY", "province": "BC", "country": "CA", "postalCode": "V3R1S5", "twitter": "None", "instagram": "None", "facebook": "None", "youtube": "None", "website": "None", "summary": "None", "logo": "None", "latitude": 49.19824255693469, "longitude": -122.79742933555187}, "119125508RR0001": {"name": "ROTARY CLUB OF THORNBURY & CLARKSBURG INC. CHARITABLE TRUST", "designationCode": "C", "categoryCode": "65", "address": "PO BOX 94", "city": "CLARKSBURG", "province": "ON", "country": "CA", "postalCode": "N0H1J0", "twitter": "None", "instagram": "None", "facebook": "None", "youtube": "None", "website": "None", "summary": "None", "logo": "None", "latitude": 38.41646000000003, "longitude": -121.52724999999998}, "119125524RR0001": {"name": "ROTARY CLUB OF TILLSONBURG CHARITABLE TRUST", "designationCode": "C", "categoryCode": "65", "address": "11 THOMAS AVE", "city": "TILLSONBURG", "province": "ON", "country": "CA", "postalCode": "N4G5K8", "twitter": "None", "instagram": "None", "facebook": "None", "youtube": "None", "website": "None", "summary": "None", "logo": "None", "latitude": 42.867799627531895, "longitude": -80.71546731447276}, "878449800RR0001": {"name": "ROTARY CLUB OF TORONTO BEACH CHARITABLE FUND", "designationCode": "A", "categoryCode": "05", "address": "2-78 HERBERT AVENUE", "city": "TORONTO", "province": "ON", "country": "CA", "postalCode": "M4L3P9", "twitter": "None", "instagram": "None", "facebook": "None", "youtube": "None", "website": "None", "summary": "None", "logo": "None", "latitude": 43.6717537127359, "longitude": -79.3058242511973}, "888542198RR0001": {"name": "ROTARY CLUB OF TORONTO CHARITABLE FOUNDATION,", "designationCode": "A", "categoryCode": "63", "address": "100 FRONT STREET WEST         H - LEVEL", "city": "TORONTO", "province": "ON", "country": "CA", "postalCode": "M5J1E4", "twitter": "None", "instagram": "None", "facebook": "None", "youtube": "None", "website": "None", "summary": "None", "logo": "None", "latitude": 43.64561723844401, "longitude": -79.38129647045406}, "890171994RR0001": {"name": "ROTARY CLUB OF TORONTO EGLINTON CHARITABLE FOUNDATION", "designationCode": "A", "categoryCode": "09", "address": "44 PRICE ST", "city": "TORONTO", "province": "ON", "country": "CA", "postalCode": "M4W1Z4", "twitter": "None", "instagram": "None", "facebook": "None", "youtube": "None", "website": "None", "summary": "None", "logo": "None", "latitude": 43.68029426008411, "longitude": -79.38863656287144}, "119125698RR0001": {"name": "ROTARY CLUB OF TORONTO HUMBER CHARITABLE TRUST", "designationCode": "A", "categoryCode": "65", "address": "135 CLANSMAN TRAIL", "city": "MISSISSAUGA", "province": "ON", "country": "CA", "postalCode": "L4Z3G9", "twitter": "None", "instagram": "None", "facebook": "None", "youtube": "None", "website": "None", "summary": "None", "logo": "None", "latitude": 43.61287329115925, "longitude": -79.6565416937502}, "883791386RR0001": {"name": "ROTARY CLUB OF TORONTO-FOREST HILL CHARITABLE TRUST", "designationCode": "C", "categoryCode": "65", "address": "1915 - 44 ST JOSEPH ST", "city": "TORONTO", "province": "ON", "country": "CA", "postalCode": "M4Y2W4", "twitter": "None", "instagram": "None", "facebook": "None", "youtube": "None", "website": "None", "summary": "None", "logo": "None", "latitude": 43.66580419790514, "longitude": -79.38697634569215}, "891800286RR0001": {"name": "ROTARY CLUB OF TORONTO-PARKDALE FOUNDATION", "designationCode": "A", "categoryCode": "63", "address": "P.O. BOX 30010,               1938 BLOOR ST WEST", "city": "TORONTO", "province": "ON", "country": "CA", "postalCode": "M6P4J2", "twitter": "None", "instagram": "None", "facebook": "None", "youtube": "None", "website": "None", "summary": "None", "logo": "None", "latitude": 43.653256081337545, "longitude": -79.4666672647873}, "888670841RR0001": {"name": "ROTARY CLUB OF TRANSCONA, WINNIPEG CHARITABLE TRUST", "designationCode": "C", "categoryCode": "65", "address": "219 FORT STREET", "city": "WINNIPEG", "province": "MB", "country": "CA", "postalCode": "R3C3A8", "twitter": "None", "instagram": "None", "facebook": "None", "youtube": "None", "website": "None", "summary": "None", "logo": "None", "latitude": 49.89210363864039, "longitude": -97.13818876224848}, "888919065RR0001": {"name": "ROTARY CLUB OF TRENTON CHARITABLE TRUST", "designationCode": "C", "categoryCode": "65", "address": "PO BOX 22065", "city": "TRENTON", "province": "ON", "country": "CA", "postalCode": "K8V6S3", "twitter": "None", "instagram": "None", "facebook": "None", "youtube": "None", "website": "None", "summary": "None", "logo": "None", "latitude": 44.101113000000055, "longitude": -77.57634049999993}, "119125615RR0001": {"name": "ROTARY CLUB OF TRURO CHARITABLE TRUST", "designationCode": "A", "categoryCode": "65", "address": "PO BOX 115", "city": "TRURO", "province": "NS", "country": "CA", "postalCode": "B2N5B6", "twitter": "None", "instagram": "None", "facebook": "None", "youtube": "None", "website": "None", "summary": "None", "logo": "None", "latitude": 45.36602700000006, "longitude": -63.289042999999936}, "815556477RR0001": {"name": "ROTARY CLUB OF TSAWWASSEN CHARITABLE SOCIETY", "designationCode": "C", "categoryCode": "63", "address": "5811 COONEY ROAD              SUITE 500 - NORTH TOWER", "city": "RICHMOND", "province": "BC", "country": "CA", "postalCode": "V6X3M1", "twitter": "None", "instagram": "None", "facebook": "None", "youtube": "None", "website": "None", "summary": "None", "logo": "None", "latitude": 49.17182510784652, "longitude": -123.13160982880858}, "119118438RR0001": {"name": "ROTARY CLUB OF VANCOUVER HEARING FOUNDATION", "designationCode": "A", "categoryCode": "13", "address": "444 VIENNA CRES", "city": "NORTH VANCOUVER", "province": "BC", "country": "CA", "postalCode": "V7N3B4", "twitter": "None", "instagram": "None", "facebook": "None", "youtube": "None", "website": "None", "summary": "None", "logo": "None", "latitude": 49.347464510416025, "longitude": -123.08106625255361}, "119125623RR0001": {"name": "ROTARY CLUB OF VANCOUVER SUNRISE FOUNDATION", "designationCode": "C", "categoryCode": "21", "address": "401-545 CLYDE AVE", "city": "WEST VANCOUVER", "province": "BC", "country": "CA", "postalCode": "V7T1C5", "twitter": "None", "instagram": "None", "facebook": "None", "youtube": "None", "website": "None", "summary": "None", "logo": "None", "latitude": 49.32829550432782, "longitude": -123.13158363918865}, "890207178RR0001": {"name": "ROTARY CLUB OF VICTORIA BRITISH COLUMBIA FOUNDATION", "designationCode": "B", "categoryCode": "63", "address": "805 GORDON ST", "city": "VICTORIA", "province": "BC", "country": "CA", "postalCode": "V8W1Z6", "twitter": "None", "instagram": "None", "facebook": "None", "youtube": "None", "website": "None", "summary": "None", "logo": "None", "latitude": 48.42290329141905, "longitude": -123.36753128888023}}