{"843209735RR0001": {"name": "SPECTRUM MOTHERS SUPPORT SOCIETY", "designationCode": "C", "categoryCode": "09", "address": "1314 29TH E ST", "city": "NORTH VANCOUVER", "province": "BC", "country": "CA", "postalCode": "V7J1T1", "twitter": "None", "instagram": "None", "facebook": "None", "youtube": "None", "website": "None", "summary": "None", "logo": "None", "latitude": 49.335279504327836, "longitude": -123.03728147155059}, "892346164RR0001": {"name": "SPECTRUM SATELLITE CLINIC INC", "designationCode": "C", "categoryCode": "09", "address": "47 NANPORT ST", "city": "BRAMPTON", "province": "ON", "country": "CA", "postalCode": "L6S4E3", "twitter": "None", "instagram": "None", "facebook": "None", "youtube": "None", "website": "None", "summary": "None", "logo": "None", "latitude": 43.72789596309647, "longitude": -79.7490314042644}, "107999054RR0001": {"name": "SPECTRUM SOCIETY FOR COMMUNITY LIVING", "designationCode": "C", "categoryCode": "11", "address": "3231 KINGSWAY", "city": "VANCOUVER", "province": "BC", "country": "CA", "postalCode": "V5R5K3", "twitter": "None", "instagram": "None", "facebook": "None", "youtube": "None", "website": "None", "summary": "None", "logo": "None", "latitude": 49.23482665486209, "longitude": -123.0371030287615}, "850960576RR0001": {"name": "SPECTRUM Waterloo Region's Rainbow Community Space", "designationCode": "C", "categoryCode": "09", "address": "210 - 283 DUKE ST W", "city": "KITCHENER", "province": "ON", "country": "CA", "postalCode": "N2H3X7", "twitter": "None", "instagram": "None", "facebook": "None", "youtube": "None", "website": "None", "summary": "None", "logo": "None", "latitude": 43.455113999999995, "longitude": -80.4963735}, "119159366RR0001": {"name": "SPEERS PIONEER MEMORIAL UNITED CHURCH", "designationCode": "C", "categoryCode": "44", "address": "BOX 91", "city": "SPEERS", "province": "SK", "country": "CA", "postalCode": "S0M2V0", "twitter": "None", "instagram": "None", "facebook": "None", "youtube": "None", "website": "None", "summary": "None", "logo": "None", "latitude": 52.716810000000066, "longitude": -107.56796999999995}, "890470198RR0001": {"name": "SPELLING BEE OF CANADA", "designationCode": "C", "categoryCode": "21", "address": "215-2428 ISLINGTON AVE", "city": "TORONTO", "province": "ON", "country": "CA", "postalCode": "M9W3X8", "twitter": "None", "instagram": "None", "facebook": "None", "youtube": "None", "website": "None", "summary": "None", "logo": "None", "latitude": 43.72366787203541, "longitude": -79.55920278746565}, "866370851RR0001": {"name": "SPENCE NEIGHBOURHOOD ASSOCIATION INC", "designationCode": "C", "categoryCode": "09", "address": "615 ELLICE AVE", "city": "WINNIPEG", "province": "MB", "country": "CA", "postalCode": "R3G0A4", "twitter": "None", "instagram": "None", "facebook": "None", "youtube": "None", "website": "None", "summary": "None", "logo": "None", "latitude": 49.893007493219336, "longitude": -97.1599499686364}, "107999161RR0001": {"name": "SPENCER HOUSE INC.", "designationCode": "C", "categoryCode": "01", "address": "302 TOWN CENTRE BLVD, 3RD FL.", "city": "MARKHAM", "province": "ON", "country": "CA", "postalCode": "L3R8B3", "twitter": "None", "instagram": "None", "facebook": "None", "youtube": "None", "website": "None", "summary": "None", "logo": "None", "latitude": 43.859573568988296, "longitude": -79.33888872909492}, "119159374RR0001": {"name": "SPENCER HOUSE SENIORS CENTRE", "designationCode": "C", "categoryCode": "59", "address": "CO-ORDINATOR                  5596 MORRIS ST", "city": "HALIFAX", "province": "NS", "country": "CA", "postalCode": "B3J1C2", "twitter": "None", "instagram": "None", "facebook": "None", "youtube": "None", "website": "None", "summary": "None", "logo": "None", "latitude": 44.64057200969486, "longitude": -63.575742678313865}, "125898668RR0001": {"name": "SPENCERVILLE AGRICULTURAL SOCIETY", "designationCode": "C", "categoryCode": "56", "address": "P.O. BOX 86", "city": "SPENCERVILLE", "province": "ON", "country": "CA", "postalCode": "K0E1X0", "twitter": "None", "instagram": "None", "facebook": "None", "youtube": "None", "website": "None", "summary": "None", "logo": "None", "latitude": 44.84255997388789, "longitude": -75.5491700455878}, "888538642RR0001": {"name": "SPENCERVILLE MILL FOUNDATION", "designationCode": "C", "categoryCode": "52", "address": "BOX 215", "city": "SPENCERVILLE", "province": "ON", "country": "CA", "postalCode": "K0E1X0", "twitter": "None", "instagram": "None", "facebook": "None", "youtube": "None", "website": "None", "summary": "None", "logo": "None", "latitude": 44.84255997388789, "longitude": -75.5491700455878}, "119159390RR0001": {"name": "SPENCERVILLE PASTORAL CHARGE", "designationCode": "C", "categoryCode": "44", "address": "BOX 29", "city": "SPENCERVILLE", "province": "ON", "country": "CA", "postalCode": "K0E1X0", "twitter": "None", "instagram": "None", "facebook": "None", "youtube": "None", "website": "None", "summary": "None", "logo": "None", "latitude": 44.84255997388789, "longitude": -75.5491700455878}, "868869108RR0001": {"name": "SPEROWAY", "designationCode": "C", "categoryCode": "02", "address": "PO BOX 1517 STN LCD 1", "city": "BURLINGTON", "province": "ON", "country": "CA", "postalCode": "L7R4L9", "twitter": "None", "instagram": "None", "facebook": "None", "youtube": "None", "website": "None", "summary": "None", "logo": "None", "latitude": 43.326195000000055, "longitude": -79.79863399999994}, "839041381RR0001": {"name": "SPES-Haiti", "designationCode": "C", "categoryCode": "21", "address": "592, RUE BOWEN SUD", "city": "SHERBROOKE", "province": "QC", "country": "CA", "postalCode": "J1G2E7", "twitter": "None", "instagram": "None", "facebook": "None", "youtube": "None", "website": "None", "summary": "None", "logo": "None", "latitude": 45.39750368027578, "longitude": -71.87915797610955}, "119159499RR0001": {"name": "SPINA BIFIDA & HYDROCEPHALUS ASSOCIATION OF P.E.I.", "designationCode": "C", "categoryCode": "11", "address": "P. O. BOX 3332", "city": "CHARLOTTETOWN", "province": "PE", "country": "CA", "postalCode": "C1A8W5", "twitter": "None", "instagram": "None", "facebook": "None", "youtube": "None", "website": "None", "summary": "None", "logo": "None", "latitude": 46.23659700000006, "longitude": -63.12815449999994}, "107999328RR0001": {"name": "SPINA BIFIDA AND HYDROCEPHALUS ASSOCIATION OF CANADA", "designationCode": "C", "categoryCode": "11", "address": "472 - 167 LOMBARD AVE", "city": "WINNIPEG", "province": "MB", "country": "CA", "postalCode": "R3B0T6", "twitter": "None", "instagram": "None", "facebook": "None", "youtube": "None", "website": "None", "summary": "None", "logo": "None", "latitude": 49.896166241762224, "longitude": -97.13701499388316}, "862738853RR0001": {"name": "SPINA BIFIDA AND HYDROCEPHALUS ASSOCIATION OF MANITOBA", "designationCode": "C", "categoryCode": "11", "address": "112 AUGUSTA DR", "city": "WINNIPEG", "province": "MB", "country": "CA", "postalCode": "R3T4V3", "twitter": "None", "instagram": "None", "facebook": "None", "youtube": "None", "website": "None", "summary": "None", "logo": "None", "latitude": 49.80660857369147, "longitude": -97.16898388069109}, "119159432RR0001": {"name": "SPINA BIFIDA AND HYDROCEPHALUS ASSOCIATION OF NEW BRUNSWICK INC.", "designationCode": "C", "categoryCode": "11", "address": "134 ISAIAH RD.", "city": "BERRY MILLS", "province": "NB", "country": "CA", "postalCode": "E1G2Y4", "twitter": "None", "instagram": "None", "facebook": "None", "youtube": "None", "website": "None", "summary": "None", "logo": "None", "latitude": 46.13849627840596, "longitude": -64.94173777728078}, "119159465RR0001": {"name": "SPINA BIFIDA AND HYDROCEPHALUS ASSOCIATION OF NORTHERN ALBERTA", "designationCode": "C", "categoryCode": "11", "address": "P.O. BOX 35025                10818 JASPER AVENUE", "city": "EDMONTON", "province": "AB", "country": "CA", "postalCode": "T5J0B7", "twitter": "None", "instagram": "None", "facebook": "None", "youtube": "None", "website": "None", "summary": "None", "logo": "None", "latitude": 53.540956464365884, "longitude": -113.50733230252754}, "132866674RR0001": {"name": "SPINA BIFIDA AND HYDROCEPHALUS ASSOCIATION OF NOVA SCOTIA", "designationCode": "C", "categoryCode": "11", "address": "6 CRYSTAL DRIVE", "city": "BEDFORD", "province": "NS", "country": "CA", "postalCode": "B4A3R4", "twitter": "None", "instagram": "None", "facebook": "None", "youtube": "None", "website": "None", "summary": "None", "logo": "None", "latitude": 44.72359200109651, "longitude": -63.68365350403936}, "119159473RR0001": {"name": "SPINA BIFIDA AND HYDROCEPHALUS ASSOCIATION OF SOUTH SASKATCHEWAN INC.", "designationCode": "C", "categoryCode": "11", "address": "P.O. BOX 37115", "city": "REGINA", "province": "SK", "country": "CA", "postalCode": "S4S7K3", "twitter": "None", "instagram": "None", "facebook": "None", "youtube": "None", "website": "None", "summary": "None", "logo": "None", "latitude": 50.448246000000054, "longitude": -104.59517299999993}, "119159481RR0001": {"name": "SPINA BIFIDA AND HYDROCEPHALUS ASSOCIATION OF SOUTHERN ALBERTA", "designationCode": "C", "categoryCode": "09", "address": "PO BOX 6837 STATION D", "city": "CALGARY", "province": "AB", "country": "CA", "postalCode": "T2P2E9", "twitter": "None", "instagram": "None", "facebook": "None", "youtube": "None", "website": "None", "summary": "None", "logo": "None", "latitude": 51.04531500000006, "longitude": -114.06301099999993}, "118835016RR0001": {"name": "SPINAL CORD INJURY ASSOCIATION ALBERTA", "designationCode": "C", "categoryCode": "11", "address": "400-11010 101 ST", "city": "EDMONTON", "province": "AB", "country": "CA", "postalCode": "T5H4B9", "twitter": "None", "instagram": "None", "facebook": "None", "youtube": "None", "website": "None", "summary": "None", "logo": "None", "latitude": 53.55741501526345, "longitude": -113.49377750452938}, "118835032RR0001": {"name": "SPINAL CORD INJURY CANADA", "designationCode": "C", "categoryCode": "11", "address": "104-720 BELFAST ROAD", "city": "OTTAWA", "province": "ON", "country": "CA", "postalCode": "K1G6M8", "twitter": "None", "instagram": "None", "facebook": "None", "youtube": "None", "website": "None", "summary": "None", "logo": "None", "latitude": 45.41468202354466, "longitude": -75.64218780685536}, "118835040RR0001": {"name": "SPINAL CORD INJURY MANITOBA INC.", "designationCode": "C", "categoryCode": "11", "address": "825 SHERBROOK STREET", "city": "WINNIPEG", "province": "MB", "country": "CA", "postalCode": "R3A1M5", "twitter": "None", "instagram": "None", "facebook": "None", "youtube": "None", "website": "None", "summary": "None", "logo": "None", "latitude": 49.90293714680605, "longitude": -97.15654520699444}, "131634529RR0001": {"name": "SPINAL CORD INJURY TREATMENT CENTRE (NORTHERN ALBERTA) SOCIETY", "designationCode": "A", "categoryCode": "13", "address": "PO BOX 76007                  SOUTHGATE", "city": "EDMONTON", "province": "AB", "country": "CA", "postalCode": "T6H5Y7", "twitter": "None", "instagram": "None", "facebook": "None", "youtube": "None", "website": "None", "summary": "None", "logo": "None", "latitude": 53.48413000000005, "longitude": -113.51408999999995}, "898442363RR0001": {"name": "SPINAL CORD SOCIETY CANADA", "designationCode": "A", "categoryCode": "11", "address": "503 - 521 RIVERSIDE DR", "city": "LONDON", "province": "ON", "country": "CA", "postalCode": "N6H5E2", "twitter": "None", "instagram": "None", "facebook": "None", "youtube": "None", "website": "None", "summary": "None", "logo": "None", "latitude": 42.976051324365784, "longitude": -81.29150062652555}, "871067500RR0001": {"name": "SPIRIT ABREAST DRAGON BOAT SOCIETY", "designationCode": "C", "categoryCode": "19", "address": "44-5469 CHINOOK ST.", "city": "CHILLIWACK", "province": "BC", "country": "CA", "postalCode": "V2R0T5", "twitter": "None", "instagram": "None", "facebook": "None", "youtube": "None", "website": "None", "summary": "None", "logo": "None", "latitude": 49.1002068030939, "longitude": -121.98957318032109}, "137447686RR0001": {"name": "SPIRIT ALIVE", "designationCode": "C", "categoryCode": "47", "address": "PO BOX 211102", "city": "THUNDER BAY", "province": "ON", "country": "CA", "postalCode": "P7A8A7", "twitter": "None", "instagram": "None", "facebook": "None", "youtube": "None", "website": "None", "summary": "None", "logo": "None", "latitude": 48.53861700000006, "longitude": -89.04822649999993}, "891490179RR0001": {"name": "SPIRIT ALIVE OUTREACH MINISTRY", "designationCode": "C", "categoryCode": "49", "address": "1057 LANG FORD STREET", "city": "OSHAWA", "province": "ON", "country": "CA", "postalCode": "L1K2V9", "twitter": "None", "instagram": "None", "facebook": "None", "youtube": "None", "website": "None", "summary": "None", "logo": "None", "latitude": 33.20707280232096, "longitude": -117.37070564758722}, "864516844RR0001": {"name": "SPIRIT ALIVE PENTECOSTAL INTERNATIONAL", "designationCode": "C", "categoryCode": "39", "address": "3650 WESTON ROAD - UNITS 27-30", "city": "TORONTO", "province": "ON", "country": "CA", "postalCode": "M9L1W2", "twitter": "None", "instagram": "None", "facebook": "None", "youtube": "None", "website": "None", "summary": "None", "logo": "None", "latitude": 43.75992079294824, "longitude": -79.54430987082333}, "855864401RR0001": {"name": "SPIRIT DANCE CENTRE FOR SPIRITUAL ECOLOGY", "designationCode": "C", "categoryCode": "49", "address": "8050 REDROOFFS ROAD", "city": "HALFMOON BAY", "province": "BC", "country": "CA", "postalCode": "V0N1Y1", "twitter": "None", "instagram": "None", "facebook": "None", "youtube": "None", "website": "None", "summary": "None", "logo": "None", "latitude": 49.51374165023999, "longitude": -123.90769409490389}, "869814905RR0001": {"name": "SPIRIT OF CHRIST MINISTRIES", "designationCode": "C", "categoryCode": "39", "address": "135 OCEANVIEW DRIVE           BOX 763", "city": "QUEEN CHARLOTTE", "province": "BC", "country": "CA", "postalCode": "V0T1S0", "twitter": "None", "instagram": "None", "facebook": "None", "youtube": "None", "website": "None", "summary": "None", "logo": "None", "latitude": 53.250212907060096, "longitude": -132.02948260634463}, "126929496RR0001": {"name": "SPIRIT OF FORMATION PERSONAL DEVELOPMENT SOCIETY", "designationCode": "C", "categoryCode": "49", "address": "24283-16TH AVENUE RR #9", "city": "LANGLEY", "province": "BC", "country": "CA", "postalCode": "V2Z1L2", "twitter": "None", "instagram": "None", "facebook": "None", "youtube": "None", "website": "None", "summary": "None", "logo": "None", "latitude": 49.03058950375091, "longitude": -122.55253183236194}, "132238585RR0001": {"name": "SPIRIT OF PENTECOST", "designationCode": "C", "categoryCode": "36", "address": "P O BOX 20059                 3029 CLAYHILL RD", "city": "MISSISSAUGA", "province": "ON", "country": "CA", "postalCode": "L5B4L7", "twitter": "None", "instagram": "None", "facebook": "None", "youtube": "None", "website": "None", "summary": "None", "logo": "None", "latitude": 43.57112286553607, "longitude": -79.62845756555501}, "871562419RR0001": {"name": "SPIRIT OF PRAISE WORSHIP CENTRE", "designationCode": "C", "categoryCode": "34", "address": "5 LATHBURY STREET", "city": "BRAMPTON", "province": "ON", "country": "CA", "postalCode": "L7A0R5", "twitter": "None", "instagram": "None", "facebook": "None", "youtube": "None", "website": "None", "summary": "None", "logo": "None", "latitude": 43.67966228253223, "longitude": -79.82393479765145}, "137869897RR0001": {"name": "SPIRIT OF THE NORTH HEALTHCARE FOUNDATION", "designationCode": "A", "categoryCode": "13", "address": "1475 EDMONTON ST", "city": "PRINCE GEORGE", "province": "BC", "country": "CA", "postalCode": "V2M1S2", "twitter": "None", "instagram": "None", "facebook": "None", "youtube": "None", "website": "None", "summary": "None", "logo": "None", "latitude": 53.91126728143572, "longitude": -122.76318132558127}, "119030666RR0045": {"name": "SPIRIT OF TRUTH SEVENTH-DAY ADVENTIST CHURCH", "designationCode": "C", "categoryCode": "41", "address": "1004 VICTORIA AVE", "city": "SASKATOON", "province": "SK", "country": "CA", "postalCode": "S7N0Z8", "twitter": "None", "instagram": "None", "facebook": "None", "youtube": "None", "website": "None", "summary": "None", "logo": "None", "latitude": 52.115409, "longitude": -106.66240826773014}, "854086964RR0001": {"name": "SPIRIT RENEWAL MINISTRIES", "designationCode": "C", "categoryCode": "49", "address": "1509 ALBANY DR", "city": "KINGSTON", "province": "ON", "country": "CA", "postalCode": "K7P0C1", "twitter": "None", "instagram": "None", "facebook": "None", "youtube": "None", "website": "None", "summary": "None", "logo": "None", "latitude": 44.27582299417162, "longitude": -76.58386231308778}, "119159549RR0001": {"name": "SPIRIT RIVER AND DISTRICT AGRICULTURAL SOCIETY", "designationCode": "C", "categoryCode": "56", "address": "PO BOX 927", "city": "SPIRIT RIVER", "province": "AB", "country": "CA", "postalCode": "T0H3G0", "twitter": "None", "instagram": "None", "facebook": "None", "youtube": "None", "website": "None", "summary": "None", "logo": "None", "latitude": 58.38582002553528, "longitude": -116.01813004501088}, "107999393RR0001": {"name": "SPIRITANS THE CONGREGATION OF THE HOLY GHOST", "designationCode": "C", "categoryCode": "46", "address": "34 COLLINSGROVE ROAD", "city": "SCARBOROUGH", "province": "ON", "country": "CA", "postalCode": "M1E3S4", "twitter": "None", "instagram": "None", "facebook": "None", "youtube": "None", "website": "None", "summary": "None", "logo": "None", "latitude": 43.77217896113458, "longitude": -79.18425487636324}, "119159556RR0001": {"name": "SPIRITUAL ASSEMBLY OF BAHA'IS OF LETHBRIDGE", "designationCode": "C", "categoryCode": "33", "address": "P.O. BOX 1431", "city": "LETHBRIDGE", "province": "AB", "country": "CA", "postalCode": "T1J4K2", "twitter": "None", "instagram": "None", "facebook": "None", "youtube": "None", "website": "None", "summary": "None", "logo": "None", "latitude": 49.69383000000006, "longitude": -112.83373249999994}, "890098932RR0001": {"name": "SPIRITUAL ASSEMBLY OF THE BAHA'IS OF ARNPRIOR", "designationCode": "C", "categoryCode": "33", "address": "50 DANIEL ST.NORTH", "city": "ARNPRIOR", "province": "ON", "country": "CA", "postalCode": "K7S2K5", "twitter": "None", "instagram": "None", "facebook": "None", "youtube": "None", "website": "None", "summary": "None", "logo": "None", "latitude": 45.431357960326515, "longitude": -76.35521986360997}, "119160133RR0001": {"name": "SPIRITUAL ASSEMBLY OF THE BAHA'IS OF BURNABY", "designationCode": "C", "categoryCode": "33", "address": "PO BOX 56574                  236-9855 AUSTIN AVE.", "city": "BURNABY", "province": "BC", "country": "CA", "postalCode": "V3J7W2", "twitter": "None", "instagram": "None", "facebook": "None", "youtube": "None", "website": "None", "summary": "None", "logo": "None", "latitude": 49.24907679801216, "longitude": -122.89579104049095}, "132725334RR0001": {"name": "SPIRITUAL ASSEMBLY OF THE BAHA'IS OF CALEDON", "designationCode": "C", "categoryCode": "33", "address": "PO BOX 764  STN MAIN", "city": "BOLTON", "province": "ON", "country": "CA", "postalCode": "L7E5T5", "twitter": "None", "instagram": "None", "facebook": "None", "youtube": "None", "website": "None", "summary": "None", "logo": "None", "latitude": 43.880838000000054, "longitude": -79.73942299999993}, "889181467RR0001": {"name": "SPIRITUAL ASSEMBLY OF THE BAHA'IS OF CAMPBELL RIVER", "designationCode": "C", "categoryCode": "33", "address": "P.O. BOX 676 STN A", "city": "CAMPBELL RIVER", "province": "BC", "country": "CA", "postalCode": "V9W6J3", "twitter": "None", "instagram": "None", "facebook": "None", "youtube": "None", "website": "None", "summary": "None", "logo": "None", "latitude": 50.024643000000054, "longitude": -125.24819299999993}, "887388262RR0001": {"name": "SPIRITUAL ASSEMBLY OF THE BAHA'IS OF CASTLEGAR", "designationCode": "C", "categoryCode": "33", "address": "PO BOX 3114", "city": "CASTLEGAR", "province": "BC", "country": "CA", "postalCode": "V1N3H4", "twitter": "None", "instagram": "None", "facebook": "None", "youtube": "None", "website": "None", "summary": "None", "logo": "None", "latitude": 49.296228000000056, "longitude": -117.65424049999993}, "119159937RR0001": {"name": "SPIRITUAL ASSEMBLY OF THE BAHA'IS OF CENTRE WELLINGTON", "designationCode": "C", "categoryCode": "33", "address": "20 CLARKE ST", "city": "ELORA", "province": "ON", "country": "CA", "postalCode": "N0B1S0", "twitter": "None", "instagram": "None", "facebook": "None", "youtube": "None", "website": "None", "summary": "None", "logo": "None", "latitude": 43.68120263226376, "longitude": -80.41888647694627}, "119159606RR0001": {"name": "SPIRITUAL ASSEMBLY OF THE BAHA'IS OF CHARLOTTETOWN", "designationCode": "C", "categoryCode": "33", "address": "20 LAPTHORN AVE", "city": "CHARLOTTETOWN", "province": "PE", "country": "CA", "postalCode": "C1A2M2", "twitter": "None", "instagram": "None", "facebook": "None", "youtube": "None", "website": "None", "summary": "None", "logo": "None", "latitude": 46.24448867277397, "longitude": -63.1260228506838}, "119160042RR0001": {"name": "SPIRITUAL ASSEMBLY OF THE BAHA'IS OF COCHRANE", "designationCode": "C", "categoryCode": "33", "address": "P. O. BOX 951", "city": "COCHRANE", "province": "AB", "country": "CA", "postalCode": "T4C1B1", "twitter": "None", "instagram": "None", "facebook": "None", "youtube": "None", "website": "None", "summary": "None", "logo": "None", "latitude": 51.19089900000006, "longitude": -114.46804249999994}, "119160091RR0001": {"name": "SPIRITUAL ASSEMBLY OF THE BAHA'IS OF COLDSTREAM", "designationCode": "C", "categoryCode": "33", "address": "6984 HIGHWAY 6", "city": "COLDSTREAM", "province": "BC", "country": "CA", "postalCode": "V1B3H1", "twitter": "None", "instagram": "None", "facebook": "None", "youtube": "None", "website": "None", "summary": "None", "logo": "None", "latitude": 50.22550482898569, "longitude": -119.13166590945933}, "119159754RR0001": {"name": "SPIRITUAL ASSEMBLY OF THE BAHA'IS OF CORNWALL/L'ASSEMBLEE SPIRITUELLE DES BAHA'IS CORNWALL", "designationCode": "C", "categoryCode": "33", "address": "P.O. BOX 394", "city": "CORNWALL", "province": "ON", "country": "CA", "postalCode": "K6H5T1", "twitter": "None", "instagram": "None", "facebook": "None", "youtube": "None", "website": "None", "summary": "None", "logo": "None", "latitude": 45.028419000000056, "longitude": -74.73569299999993}, "119160174RR0001": {"name": "SPIRITUAL ASSEMBLY OF THE BAHA'IS OF ESQUIMALT", "designationCode": "C", "categoryCode": "33", "address": "957 SELKIRK AVENUE", "city": "VICTORIA", "province": "BC", "country": "CA", "postalCode": "V9A2V2", "twitter": "None", "instagram": "None", "facebook": "None", "youtube": "None", "website": "None", "summary": "None", "logo": "None", "latitude": 48.4430549219807, "longitude": -123.40089063240798}, "119160000RR0001": {"name": "SPIRITUAL ASSEMBLY OF THE BAHA'IS OF FORT QU'APPELLE", "designationCode": "C", "categoryCode": "33", "address": "PO BOX 1340", "city": "FORT QU'APPELLE", "province": "SK", "country": "CA", "postalCode": "S0G1S0", "twitter": "None", "instagram": "None", "facebook": "None", "youtube": "None", "website": "None", "summary": "None", "logo": "None", "latitude": 50.76964000000004, "longitude": -103.79339999999996}, "119159721RR0001": {"name": "SPIRITUAL ASSEMBLY OF THE BAHA'IS OF GATINEAU", "designationCode": "C", "categoryCode": "33", "address": "C.P. 79033                    GALERIES DE HULL", "city": "GATINEAU", "province": "QC", "country": "CA", "postalCode": "J8Y6V2", "twitter": "None", "instagram": "None", "facebook": "None", "youtube": "None", "website": "None", "summary": "None", "logo": "None", "latitude": 45.442259934936494, "longitude": -75.73219999552789}, "891589376RR0001": {"name": "SPIRITUAL ASSEMBLY OF THE BAHA'IS OF HAY RIVER", "designationCode": "C", "categoryCode": "33", "address": "BOX 4484", "city": "HAY RIVER", "province": "NT", "country": "CA", "postalCode": "X0E1G3", "twitter": "None", "instagram": "None", "facebook": "None", "youtube": "None", "website": "None", "summary": "None", "logo": "None", "latitude": 60.82057500000006, "longitude": -115.78217299999994}, "893435701RR0001": {"name": "SPIRITUAL ASSEMBLY OF THE BAHA'IS OF KINGSTON", "designationCode": "C", "categoryCode": "33", "address": "PO BOX 22004", "city": "KINGSTON", "province": "ON", "country": "CA", "postalCode": "K7M8S5", "twitter": "None", "instagram": "None", "facebook": "None", "youtube": "None", "website": "None", "summary": "None", "logo": "None", "latitude": 44.24262900000005, "longitude": -76.57032499999994}, "119159838RR0001": {"name": "SPIRITUAL ASSEMBLY OF THE BAHA'IS OF MARKHAM TOWNSHIP", "designationCode": "C", "categoryCode": "33", "address": "15 SUMMERFELDT CRES", "city": "UNIONVILLE", "province": "ON", "country": "CA", "postalCode": "L3R2B1", "twitter": "None", "instagram": "None", "facebook": "None", "youtube": "None", "website": "None", "summary": "None", "logo": "None", "latitude": 43.87132363059031, "longitude": -79.3319578242832}, "119160117RR0001": {"name": "SPIRITUAL ASSEMBLY OF THE BAHA'IS OF MISSION B.C.", "designationCode": "C", "categoryCode": "33", "address": "BOX 3189", "city": "MISSION", "province": "BC", "country": "CA", "postalCode": "V2V4J4", "twitter": "None", "instagram": "None", "facebook": "None", "youtube": "None", "website": "None", "summary": "None", "logo": "None", "latitude": 49.13294100000006, "longitude": -122.32108249999993}, "119159853RR0001": {"name": "SPIRITUAL ASSEMBLY OF THE BAHA'IS OF MISSISSAUGA", "designationCode": "C", "categoryCode": "33", "address": "3932 BEACHAM STREET", "city": "MISSISSAUGA", "province": "ON", "country": "CA", "postalCode": "L5N6S9", "twitter": "None", "instagram": "None", "facebook": "None", "youtube": "None", "website": "None", "summary": "None", "logo": "None", "latitude": 43.57125389895562, "longitude": -79.77902925033192}, "890966344RR0001": {"name": "SPIRITUAL ASSEMBLY OF THE BAHA'IS OF MISSISSIPPI MILLS", "designationCode": "C", "categoryCode": "33", "address": "PO BOX 1187", "city": "ALMONTE", "province": "ON", "country": "CA", "postalCode": "K0A1A0", "twitter": "None", "instagram": "None", "facebook": "None", "youtube": "None", "website": "None", "summary": "None", "logo": "None", "latitude": 45.223665000000054, "longitude": -76.20363799999993}, "890741549RR0001": {"name": "SPIRITUAL ASSEMBLY OF THE BAHA'IS OF MT PEARL", "designationCode": "C", "categoryCode": "33", "address": "PO BOX 781 RPO CENTENNIAL SQ", "city": "MOUNT PEARL", "province": "NL", "country": "CA", "postalCode": "A1N2Y2", "twitter": "None", "instagram": "None", "facebook": "None", "youtube": "None", "website": "None", "summary": "None", "logo": "None", "latitude": 47.518883104315194, "longitude": -52.80540259064278}, "119160141RR0001": {"name": "SPIRITUAL ASSEMBLY OF THE BAHA'IS OF NORTH VANCOUVER CITY BC", "designationCode": "C", "categoryCode": "33", "address": "BOX 38556                     126 WEST THIRD STREET", "city": "NORTH VANCOUVER", "province": "BC", "country": "CA", "postalCode": "V7M3N1", "twitter": "None", "instagram": "None", "facebook": "None", "youtube": "None", "website": "None", "summary": "None", "logo": "None", "latitude": 49.31388929810004, "longitude": -123.07790661936914}, "119160166RR0001": {"name": "SPIRITUAL ASSEMBLY OF THE BAHA'IS OF OAK BAY", "designationCode": "B", "categoryCode": "33", "address": "BOX 5374 STN B", "city": "VICTORIA", "province": "BC", "country": "CA", "postalCode": "V8R6S4", "twitter": "None", "instagram": "None", "facebook": "None", "youtube": "None", "website": "None", "summary": "None", "logo": "None", "latitude": 48.42854700000005, "longitude": -123.36445249999994}, "119159861RR0001": {"name": "SPIRITUAL ASSEMBLY OF THE BAHA'IS OF OAKVILLE", "designationCode": "C", "categoryCode": "33", "address": "PO BOX 60045", "city": "OAKVILLE", "province": "ON", "country": "CA", "postalCode": "L6M3H2", "twitter": "None", "instagram": "None", "facebook": "None", "youtube": "None", "website": "None", "summary": "None", "logo": "None"}, "892317165RR0001": {"name": "SPIRITUAL ASSEMBLY OF THE BAHA'IS OF PEACHLAND", "designationCode": "B", "categoryCode": "33", "address": "5105 COUSINS RD", "city": "PEACHLAND", "province": "BC", "country": "CA", "postalCode": "V0H1X2", "twitter": "None", "instagram": "None", "facebook": "None", "youtube": "None", "website": "None", "summary": "None", "logo": "None", "latitude": 49.79940207799066, "longitude": -119.70907098095698}, "119159770RR0001": {"name": "SPIRITUAL ASSEMBLY OF THE BAHA'IS OF PETERBOROUGH", "designationCode": "C", "categoryCode": "33", "address": "1358 CEDARGROVE", "city": "PETERBOROUGH", "province": "ON", "country": "CA", "postalCode": "K9K1H9", "twitter": "None", "instagram": "None", "facebook": "None", "youtube": "None", "website": "None", "summary": "None", "logo": "None", "latitude": 44.29628693923469, "longitude": -78.35892256604544}, "891095440RR0001": {"name": "SPIRITUAL ASSEMBLY OF THE BAHA'IS OF POINTE CLAIRE", "designationCode": "C", "categoryCode": "33", "address": "103 AV BUCKINGHAM", "city": "POINTE-CLAIRE", "province": "QC", "country": "CA", "postalCode": "H9R1K9", "twitter": "None", "instagram": "None", "facebook": "None", "youtube": "None", "website": "None", "summary": "None", "logo": "None", "latitude": 45.45997888233588, "longitude": -73.81584314184303}, "119160018RR0001": {"name": "SPIRITUAL ASSEMBLY OF THE BAHA'IS OF REGINA", "designationCode": "C", "categoryCode": "33", "address": "2900-15TH AVE", "city": "REGINA", "province": "SK", "country": "CA", "postalCode": "S4T1S7", "twitter": "None", "instagram": "None", "facebook": "None", "youtube": "None", "website": "None", "summary": "None", "logo": "None", "latitude": 50.44244745657562, "longitude": -104.62291166472387}, "119160034RR0001": {"name": "SPIRITUAL ASSEMBLY OF THE BAHA'IS OF SASKATOON", "designationCode": "C", "categoryCode": "33", "address": "P.O. BOX 1633", "city": "SASKATOON", "province": "SK", "country": "CA", "postalCode": "S7K3R8", "twitter": "None", "instagram": "None", "facebook": "None", "youtube": "None", "website": "None", "summary": "None", "logo": "None", "latitude": 52.13049000000005, "longitude": -106.65926449999994}, "119160265RR0001": {"name": "SPIRITUAL ASSEMBLY OF THE BAHA'IS OF STRATHCONA COUNTY", "designationCode": "C", "categoryCode": "33", "address": "PO BOX 3036                   TREASURER", "city": "SHERWOOD PARK", "province": "AB", "country": "CA", "postalCode": "T8H2T1", "twitter": "None", "instagram": "None", "facebook": "None", "youtube": "None", "website": "None", "summary": "None", "logo": "None", "latitude": 53.52731700000005, "longitude": -113.29574299999993}, "119160067RR0001": {"name": "SPIRITUAL ASSEMBLY OF THE BAHA'IS OF SUNSHINE COAST AREAS \"DEF\"", "designationCode": "C", "categoryCode": "33", "address": "20-1123 FLUME RD.", "city": "ROBERTS CREEK", "province": "BC", "country": "CA", "postalCode": "V0N2W2", "twitter": "None", "instagram": "None", "facebook": "None", "youtube": "None", "website": "None", "summary": "None", "logo": "None", "latitude": 49.43190110493952, "longitude": -123.6638056823819}, "119160240RR0001": {"name": "SPIRITUAL ASSEMBLY OF THE BAHA'IS OF VICTORIA", "designationCode": "C", "categoryCode": "33", "address": "PO BOX 5486 STN B", "city": "VICTORIA", "province": "BC", "country": "CA", "postalCode": "V8R6S4", "twitter": "None", "instagram": "None", "facebook": "None", "youtube": "None", "website": "None", "summary": "None", "logo": "None", "latitude": 48.42854700000005, "longitude": -123.36445249999994}, "119160158RR0001": {"name": "SPIRITUAL ASSEMBLY OF THE BAHA'IS OF WEST VANCOUVER", "designationCode": "C", "categoryCode": "33", "address": "P.O. BOX 91213", "city": "WEST VANCOUVER", "province": "BC", "country": "CA", "postalCode": "V7N3N6", "twitter": "None", "instagram": "None", "facebook": "None", "youtube": "None", "website": "None", "summary": "None", "logo": "None", "latitude": 49.33115000000004, "longitude": -123.16022999999996}, "889515243RR0001": {"name": "SPIRITUAL ASSEMBLY OF THE BAHA'IS OF WESTMOUNT", "designationCode": "C", "categoryCode": "33", "address": "452 AV VICTORIA", "city": "WESTMOUNT", "province": "QC", "country": "CA", "postalCode": "H3Y2R4", "twitter": "None", "instagram": "None", "facebook": "None", "youtube": "None", "website": "None", "summary": "None", "logo": "None", "latitude": 45.4797089172775, "longitude": -73.60507439468512}, "119159846RR0001": {"name": "SPIRITUAL ASSEMBLY OF THE BAHA'IS OF WHITCHURCH-STOUFFVILLE", "designationCode": "C", "categoryCode": "33", "address": "93 FAIRVIEW AVENUE", "city": "STOUFFVILLE", "province": "ON", "country": "CA", "postalCode": "L4A1C8", "twitter": "None", "instagram": "None", "facebook": "None", "youtube": "None", "website": "None", "summary": "None", "logo": "None", "latitude": 43.9717990124935, "longitude": -79.25760640948721}, "890308448RR0001": {"name": "SPIRITUAL ASSEMBLY OF THE BAHA'IS OF WHITEHORSE, YUKON,", "designationCode": "C", "categoryCode": "33", "address": "PO BOX 31419", "city": "WHITEHORSE", "province": "YT", "country": "CA", "postalCode": "Y1A6K8", "twitter": "None", "instagram": "None", "facebook": "None", "youtube": "None", "website": "None", "summary": "None", "logo": "None", "latitude": 60.72084600000005, "longitude": -135.05323399999992}, "119159994RR0001": {"name": "SPIRITUAL ASSEMBLY OF THE BAHA'IS OF WINNIPEG", "designationCode": "C", "categoryCode": "33", "address": "521 MCMILLAN AVE", "city": "WINNIPEG", "province": "MB", "country": "CA", "postalCode": "R3L0N4", "twitter": "None", "instagram": "None", "facebook": "None", "youtube": "None", "website": "None", "summary": "None", "logo": "None", "latitude": 49.87444988095088, "longitude": -97.14559156745906}, "119160208RR0001": {"name": "SPIRITUAL ASSEMBLY OF THE BAHA'IS OF YELLOWKNIFE", "designationCode": "C", "categoryCode": "33", "address": "P.O. BOX 1013", "city": "YELLOWKNIFE", "province": "NT", "country": "CA", "postalCode": "X1A2N7", "twitter": "None", "instagram": "None", "facebook": "None", "youtube": "None", "website": "None", "summary": "None", "logo": "None", "latitude": 62.45446200000005, "longitude": -114.37092349999993}, "887239598RR0001": {"name": "SPIRITUAL ASSEMBLY OF THE BAHAI'S OF KELOWNA", "designationCode": "B", "categoryCode": "33", "address": "PO BOX 22102                  RPO CAPRI CENTRE", "city": "KELOWNA", "province": "BC", "country": "CA", "postalCode": "V1Y9N9", "twitter": "None", "instagram": "None", "facebook": "None", "youtube": "None", "website": "None", "summary": "None", "logo": "None", "latitude": 49.88175774996267, "longitude": -119.473641}, "107999468RR0001": {"name": "SPIRITUAL ASSEMBLY OF THE BAHAI'S OF RED DEER", "designationCode": "C", "categoryCode": "33", "address": "PO BOX 6 STN POSTAL BOX CTR", "city": "RED DEER", "province": "AB", "country": "CA", "postalCode": "T4N5E7", "twitter": "None", "instagram": "None", "facebook": "None", "youtube": "None", "website": "None", "summary": "None", "logo": "None", "latitude": 52.26852300000006, "longitude": -113.80901299999994}, "119159630RR0001": {"name": "SPIRITUAL ASSEMBLY OF THE BAHAI'S OF SAINT JOHN INC.", "designationCode": "C", "categoryCode": "33", "address": "23 HOWARD COURT", "city": "SAINT JOHN", "province": "NB", "country": "CA", "postalCode": "E2K3G8", "twitter": "None", "instagram": "None", "facebook": "None", "youtube": "None", "website": "None", "summary": "None", "logo": "None", "latitude": 45.291563685267434, "longitude": -66.07261785235724}, "857309538RR0001": {"name": "SPIRITUAL AWAKENING FOUNDATION", "designationCode": "C", "categoryCode": "49", "address": "1462 PINE CRESCENT", "city": "KAMLOOPS", "province": "BC", "country": "CA", "postalCode": "V2C2Z3", "twitter": "None", "instagram": "None", "facebook": "None", "youtube": "None", "website": "None", "summary": "None", "logo": "None", "latitude": 50.671762637803674, "longitude": -120.30534196782833}, "828239921RR0001": {"name": "SPIRITUAL COMMUNITY CHURCH OF THE WEST", "designationCode": "C", "categoryCode": "39", "address": "12104 LAKE WATERTON CRES. S.E", "city": "CALGARY", "province": "AB", "country": "CA", "postalCode": "T2J2M7", "twitter": "None", "instagram": "None", "facebook": "None", "youtube": "None", "website": "None", "summary": "None", "logo": "None", "latitude": 50.94440283319866, "longitude": -114.04438270760001}, "890302920RR0001": {"name": "SPIRITUAL EMERGENCE SERVICE SOCIETY", "designationCode": "C", "categoryCode": "11", "address": "614-55 WATER ST", "city": "VANCOUVER", "province": "BC", "country": "CA", "postalCode": "V6B1A1", "twitter": "None", "instagram": "None", "facebook": "None", "youtube": "None", "website": "None", "summary": "None", "logo": "None", "latitude": 49.283750292832686, "longitude": -123.10552838314393}, "878703503RR0001": {"name": "SPIRITUAL FORMATION CHRISTIAN FELLOWSHIP", "designationCode": "C", "categoryCode": "34", "address": "2587 TEMPE KNOLL DRIVE", "city": "NORTH VANCOUVER", "province": "BC", "country": "CA", "postalCode": "V7N4J8", "twitter": "None", "instagram": "None", "facebook": "None", "youtube": "None", "website": "None", "summary": "None", "logo": "None", "latitude": 49.33208139604143, "longitude": -123.05613132044537}, "864579925RR0001": {"name": "SPIRITUAL HERITAGE EDUCATION NETWORK INC", "designationCode": "C", "categoryCode": "21", "address": "408 TAMARACK DRIVE", "city": "WATERLOO", "province": "ON", "country": "CA", "postalCode": "N2L4G6", "twitter": "None", "instagram": "None", "facebook": "None", "youtube": "None", "website": "None", "summary": "None", "logo": "None", "latitude": 43.48347381545372, "longitude": -80.53291204480936}, "883992018RR0001": {"name": "SPIRITUAL ROCK CONGREGATIONAL CHRISTIAN CHURCH INC.", "designationCode": "C", "categoryCode": "39", "address": "11 ST JOHN'S PLACE UNIT 315", "city": "ST JOHN'S", "province": "NL", "country": "CA", "postalCode": "A1A1S3", "twitter": "None", "instagram": "None", "facebook": "None", "youtube": "None", "website": "None", "summary": "None", "logo": "None", "latitude": 47.586024829015074, "longitude": -52.69374464674779}, "892015249RR0001": {"name": "SPIRITUALIST CHURCH OF CANADA", "designationCode": "C", "categoryCode": "39", "address": "37 DALTON CRES N", "city": "ORILLIA", "province": "ON", "country": "CA", "postalCode": "L3V5J6", "twitter": "None", "instagram": "None", "facebook": "None", "youtube": "None", "website": "None", "summary": "None", "logo": "None", "latitude": 44.61569089407986, "longitude": -79.4284550455913}, "119160299RR0001": {"name": "SPIRITUALIST CHURCH OF DIVINE GUIDANCE INC.", "designationCode": "C", "categoryCode": "39", "address": "690 PRINCE RUPERT AVE", "city": "WINNIPEG", "province": "MB", "country": "CA", "postalCode": "R2K1W3", "twitter": "None", "instagram": "None", "facebook": "None", "youtube": "None", "website": "None", "summary": "None", "logo": "None", "latitude": 49.915189111835765, "longitude": -97.08292184875056}, "892950965RR0001": {"name": "SPIRITUALIST FELLOWSHIP CHURCH INCORPORATED", "designationCode": "C", "categoryCode": "49", "address": "44 ROTHSHIRE DR", "city": "WINNIPEG", "province": "MB", "country": "CA", "postalCode": "R2C5E1", "twitter": "None", "instagram": "None", "facebook": "None", "youtube": "None", "website": "None", "summary": "None", "logo": "None", "latitude": 49.89940273382773, "longitude": -96.97360797824435}, "875727513RR0001": {"name": "SPIRITUS CHAMBER CHOIR AND PERFORMING ARTS ENSEMBLE SOCIETY", "designationCode": "C", "categoryCode": "22", "address": "1315 7 ST SW", "city": "CALGARY", "province": "AB", "country": "CA", "postalCode": "T2R1A5", "twitter": "None", "instagram": "None", "facebook": "None", "youtube": "None", "website": "None", "summary": "None", "logo": "None", "latitude": 51.040145682209015, "longitude": -114.0792340170811}, "846847911RR0001": {"name": "SPIRITUS MARCHING ARTS ASSOCIATION", "designationCode": "C", "categoryCode": "22", "address": "58 - 28 BERWICK CRES NW", "city": "CALGARY", "province": "AB", "country": "CA", "postalCode": "T3K1Y7", "twitter": "None", "instagram": "None", "facebook": "None", "youtube": "None", "website": "None", "summary": "None", "logo": "None", "latitude": 51.13218541271853, "longitude": -114.08903576172888}, "119160331RR0001": {"name": "SPIRITWIND CHRISTIAN CENTRE OF GUELPH", "designationCode": "C", "categoryCode": "39", "address": "100 CRIMEA ST                 UNIT D", "city": "GUELPH", "province": "ON", "country": "CA", "postalCode": "N1H2Y6", "twitter": "None", "instagram": "None", "facebook": "None", "youtube": "None", "website": "None", "summary": "None", "logo": "None", "latitude": 43.537107669138614, "longitude": -80.26259243531089}, "863419271RR0001": {"name": "SPIRITWOOD HEALTH COMPLEX FOUNDATION INC.", "designationCode": "C", "categoryCode": "13", "address": "P. O. BOX 69", "city": "SPIRITWOOD", "province": "SK", "country": "CA", "postalCode": "S0J2M0", "twitter": "None", "instagram": "None", "facebook": "None", "youtube": "None", "website": "None", "summary": "None", "logo": "None", "latitude": 53.366550000000075, "longitude": -107.51787999999999}, "119160356RR0001": {"name": "SPIRITWOOD, SASKATCHEWAN, CONGREGATION OF JEHOVAH'S WITNESSES", "designationCode": "C", "categoryCode": "61", "address": "P O BOX 218", "city": "SHELL LAKE", "province": "SK", "country": "CA", "postalCode": "S0J2G0", "twitter": "None", "instagram": "None", "facebook": "None", "youtube": "None", "website": "None", "summary": "None", "logo": "None", "latitude": 53.20896929274782, "longitude": -105.8726550041055}, "839116878RR0001": {"name": "SPLETZER FAMILY FOUNDATION INC.", "designationCode": "B", "categoryCode": "03", "address": "201 - 755 HENDERSON HWY", "city": "WINNIPEG", "province": "MB", "country": "CA", "postalCode": "R2K2K5", "twitter": "None", "instagram": "None", "facebook": "None", "youtube": "None", "website": "None", "summary": "None", "logo": "None", "latitude": 49.91757891330441, "longitude": -97.11332657224632}, "119160398RR0001": {"name": "SPOKEN WORD ASSEMBLY (ASSOCIATION) EDMONTON", "designationCode": "C", "categoryCode": "39", "address": "13303-77 STREET", "city": "EDMONTON", "province": "AB", "country": "CA", "postalCode": "T5C1C8", "twitter": "None", "instagram": "None", "facebook": "None", "youtube": "None", "website": "None", "summary": "None", "logo": "None", "latitude": 53.59406483819032, "longitude": -113.45934421631392}, "858276678RR0001": {"name": "SPOKEN WORD MINISTRIES ASSOCIATION", "designationCode": "C", "categoryCode": "49", "address": "33444 BALSAM AVE", "city": "MISSION", "province": "BC", "country": "CA", "postalCode": "V2V5W6", "twitter": "None", "instagram": "None", "facebook": "None", "youtube": "None", "website": "None", "summary": "None", "logo": "None", "latitude": 49.147855933089204, "longitude": -122.29821430209485}, "130387665RR0009": {"name": "SPONSORING COMMITTEE OF NO. 242 (ROSS FERGUSON) SQUADRON, ROYAL CANADIAN AIR CADETS", "designationCode": "C", "categoryCode": "29", "address": "PO BOX 161", "city": "ERIN", "province": "ON", "country": "CA", "postalCode": "N0B1T0", "twitter": "None", "instagram": "None", "facebook": "None", "youtube": "None", "website": "None", "summary": "None", "logo": "None", "latitude": 43.758004500000006, "longitude": -80.07697350000001}}