{"830982872RR0001": {"name": "Fondation du patrimoine Sainte-Jeanne-de-Chantal", "designationCode": "A", "categoryCode": "43", "address": "1300 BOUL DON-QUICHOTTE", "city": "NOTRE-DAME-DE-L'ILE-PERROT", "province": "QC", "country": "CA", "postalCode": "J7V9E2", "twitter": "None", "instagram": "None", "facebook": "None", "youtube": "None", "website": "None", "summary": "None", "logo": "None", "latitude": 45.377186108026585, "longitude": -73.92726748317868}, "819423773RR0001": {"name": "Fondation du pavillon L\u00e9opold Mayrand", "designationCode": "A", "categoryCode": "03", "address": "55, RUE L\u00c9VESQUE", "city": "SACR\u00c9-COEUR", "province": "QC", "country": "CA", "postalCode": "G0T1Y0", "twitter": "None", "instagram": "None", "facebook": "None", "youtube": "None", "website": "None", "summary": "None", "logo": "None", "latitude": 48.23148149321933, "longitude": -69.79992252844941}, "811321066RR0001": {"name": "Fondation du petit S\u00e9minaire Dioc\u00e9sain de Qu\u00e9bec", "designationCode": "A", "categoryCode": "43", "address": "2215, RUE MARIE-VICTORIN", "city": "QU\u00c9BEC", "province": "QC", "country": "CA", "postalCode": "G1T1J6", "twitter": "None", "instagram": "None", "facebook": "None", "youtube": "None", "website": "None", "summary": "None", "logo": "None", "latitude": 46.777338506752024, "longitude": -71.2611059874492}, "841800295RR0001": {"name": "Fondation du r\u00e9gime des b\u00e9n\u00e9fices Autochtone/Native Benefits Plan Foundation", "designationCode": "C", "categoryCode": "09", "address": "2936 RUE DE LA FAUNE          BUREAU 202", "city": "WENDAKE", "province": "QC", "country": "CA", "postalCode": "G0A4V0", "twitter": "None", "instagram": "None", "facebook": "None", "youtube": "None", "website": "None", "summary": "None", "logo": "None", "latitude": 46.86191179320589, "longitude": -71.35611022736835}, "838531200RR0001": {"name": "Fondation du C\u00e9gep \u00e0 Terrebonne", "designationCode": "A", "categoryCode": "23", "address": "2505 BOUL. DES ENTREPRISES", "city": "TERREBONNE", "province": "QC", "country": "CA", "postalCode": "J6X5S5", "twitter": "None", "instagram": "None", "facebook": "None", "youtube": "None", "website": "None", "summary": "None", "logo": "None", "latitude": 45.72071317984309, "longitude": -73.70790064334359}, "807779244RR0001": {"name": "Fondation du C\u00e9gep H\u00e9ritage / Heritage College Foundation", "designationCode": "A", "categoryCode": "23", "address": "325, BOULEVARD CIT\u00c9 DES JEUNES", "city": "GATINEAU", "province": "QC", "country": "CA", "postalCode": "J8Y6T3", "twitter": "None", "instagram": "None", "facebook": "None", "youtube": "None", "website": "None", "summary": "None", "logo": "None", "latitude": 45.456777114492496, "longitude": -75.76508740457504}, "816584304RR0001": {"name": "Fondation du C\u00c9GEP \u00e0 l'Assomption", "designationCode": "C", "categoryCode": "23", "address": "180 RUE DORVAL", "city": "L'ASSOMPTION", "province": "QC", "country": "CA", "postalCode": "J5W6C1", "twitter": "None", "instagram": "None", "facebook": "None", "youtube": "None", "website": "None", "summary": "None", "logo": "None", "latitude": 45.82901783011157, "longitude": -73.42028992261493}, "889927190RR0001": {"name": "Fondation du Carrefour de solidarit\u00e9 internationale", "designationCode": "C", "categoryCode": "09", "address": "165, RUE MOORE", "city": "SHERBROOKE", "province": "QC", "country": "CA", "postalCode": "J1H1B8", "twitter": "None", "instagram": "None", "facebook": "None", "youtube": "None", "website": "None", "summary": "None", "logo": "None", "latitude": 45.40718965892417, "longitude": -71.89679158148175}, "825730120RR0001": {"name": "Fondation du Carrefour jeunesse-emploi de Laval", "designationCode": "C", "categoryCode": "59", "address": "110-1 PLACE LAVAL", "city": "LAVAL", "province": "QC", "country": "CA", "postalCode": "H7N1A1", "twitter": "None", "instagram": "None", "facebook": "None", "youtube": "None", "website": "None", "summary": "None", "logo": "None", "latitude": 45.581369187056445, "longitude": -73.70560833692092}, "783343692RR0001": {"name": "Fondation du Centre coll\u00e9gial de Mont-laurier", "designationCode": "C", "categoryCode": "21", "address": "700 RUE PARENT", "city": "MONT-LAURIER", "province": "QC", "country": "CA", "postalCode": "J9L2K1", "twitter": "None", "instagram": "None", "facebook": "None", "youtube": "None", "website": "None", "summary": "None", "logo": "None", "latitude": 46.56020053958659, "longitude": -75.50744358713725}, "842647976RR0001": {"name": "Fondation du Centre d'action b\u00e9n\u00e9vole du Contrefort", "designationCode": "A", "categoryCode": "13", "address": "7260, BOULEVARD CLOUTIER", "city": "QU\u00c9BEC", "province": "QC", "country": "CA", "postalCode": "G1H3E8", "twitter": "None", "instagram": "None", "facebook": "None", "youtube": "None", "website": "None", "summary": "None", "logo": "None", "latitude": 46.85359350207748, "longitude": -71.27384134566348}, "101835684RR0001": {"name": "Fondation du Centre d'Accueil Vaudreuil", "designationCode": "C", "categoryCode": "11", "address": "408 AV SAINT-CHARLES", "city": "VAUDREUIL-DORION", "province": "QC", "country": "CA", "postalCode": "J7V7M9", "twitter": "None", "instagram": "None", "facebook": "None", "youtube": "None", "website": "None", "summary": "None", "logo": "None", "latitude": 45.39617044517864, "longitude": -74.02477810040921}, "816097828RR0001": {"name": "Fondation du Centre de la biodiversit\u00e9 de B\u00e9cancour", "designationCode": "A", "categoryCode": "03", "address": "1800, AVENUE DES JASMINS", "city": "B\u00c9CANCOUR", "province": "QC", "country": "CA", "postalCode": "G9H2S2", "twitter": "None", "instagram": "None", "facebook": "None", "youtube": "None", "website": "None", "summary": "None", "logo": "None", "latitude": 46.328071225056505, "longitude": -72.50284968795049}, "101836823RR0001": {"name": "Fondation du Centre de r\u00e9adaptation en d\u00e9pendance de Montr\u00e9al (Fondation CRDM) / Foundation for Montreal's addiction rehabilitation Center", "designationCode": "A", "categoryCode": "13", "address": "110 RUE PRINCE ARTHUR OUEST", "city": "MONTR\u00c9AL", "province": "QC", "country": "CA", "postalCode": "H2X1S7", "twitter": "None", "instagram": "None", "facebook": "None", "youtube": "None", "website": "None", "summary": "None", "logo": "None", "latitude": 45.512399776848085, "longitude": -73.57381829265978}, "101835718RR0001": {"name": "Fondation du Centre de Sant\u00e9 et de Services Sociaux du Granit", "designationCode": "A", "categoryCode": "13", "address": "3569 RUE LAVAL", "city": "LAC-MEGANTIC", "province": "QC", "country": "CA", "postalCode": "G6B1A5", "twitter": "None", "instagram": "None", "facebook": "None", "youtube": "None", "website": "None", "summary": "None", "logo": "None", "latitude": 45.589174129897756, "longitude": -70.90497216215881}, "118841659RR0001": {"name": "Fondation du Centre des auteurs dramatiques (CEAD)", "designationCode": "C", "categoryCode": "22", "address": "261,RUE DU SAINT-SACREMENT,   BUREAU 200", "city": "MONTREAL", "province": "QC", "country": "CA", "postalCode": "H2Y3V2", "twitter": "None", "instagram": "None", "facebook": "None", "youtube": "None", "website": "None", "summary": "None", "logo": "None", "latitude": 45.502256608113505, "longitude": -73.55707123371215}, "101835692RR0001": {"name": "Fondation du Centre jeunesse de la Mauricie et du Centre-du-Qu\u00e9bec", "designationCode": "C", "categoryCode": "09", "address": "1455 BOUL DU CARMEL", "city": "TROIS-RIVIERES", "province": "QC", "country": "CA", "postalCode": "G8Z3R7", "twitter": "None", "instagram": "None", "facebook": "None", "youtube": "None", "website": "None", "summary": "None", "logo": "None", "latitude": 46.349756667465186, "longitude": -72.55674927000916}, "844640441RR0001": {"name": "Fondation du Centre jeunesse des Laurentides", "designationCode": "A", "categoryCode": "03", "address": "500, BOULEVARD DES LAURENTIDESBUREAU 241", "city": "SAINT-J\u00c9ROME", "province": "QC", "country": "CA", "postalCode": "J7Z4M2", "twitter": "None", "instagram": "None", "facebook": "None", "youtube": "None", "website": "None", "summary": "None", "logo": "None", "latitude": 45.762603000000055, "longitude": -73.99274749999994}, "819835372RR0001": {"name": "Fondation du Centre Culturel et Communautaire du Madawaska Inc.", "designationCode": "A", "categoryCode": "03", "address": "12 RUE MARTIN                 C.P. 529", "city": "SAINT BASILE", "province": "NB", "country": "CA", "postalCode": "E7C1E4", "twitter": "None", "instagram": "None", "facebook": "None", "youtube": "None", "website": "None", "summary": "None", "logo": "None", "latitude": 47.357998350275935, "longitude": -68.23226117987717}, "891290033RR0001": {"name": "Fondation du Centre Jeunesse de Montr\u00e9al", "designationCode": "C", "categoryCode": "56", "address": "9335 RUE SAINT-HUBERT", "city": "MONTREAL", "province": "QC", "country": "CA", "postalCode": "H2M1Y7", "twitter": "None", "instagram": "None", "facebook": "None", "youtube": "None", "website": "None", "summary": "None", "logo": "None", "latitude": 45.55259996534683, "longitude": -73.64730540463978}, "813824091RR0001": {"name": "Fondation du Centre Jeunesse Gasp\u00e9sie/Les \u00eeles", "designationCode": "C", "categoryCode": "09", "address": "205, BOUL. YORK OUEST         BUREAU 100", "city": "GASP\u00c9", "province": "QC", "country": "CA", "postalCode": "G4X2V7", "twitter": "None", "instagram": "None", "facebook": "None", "youtube": "None", "website": "None", "summary": "None", "logo": "None", "latitude": 48.814411969156005, "longitude": -64.49528665609687}, "859559221RR0001": {"name": "Fondation du Club Richelieu de LaChute Inc.", "designationCode": "C", "categoryCode": "03", "address": "4 - 292 AV BETHANY", "city": "LACHUTE", "province": "QC", "country": "CA", "postalCode": "J8H2N2", "twitter": "None", "instagram": "None", "facebook": "None", "youtube": "None", "website": "None", "summary": "None", "logo": "None", "latitude": 45.649254929222714, "longitude": -74.33005762187639}, "852465327RR0001": {"name": "Fondation du Coll\u00e8ge de l'immobilier du Qu\u00e9bec", "designationCode": "C", "categoryCode": "21", "address": "600, CHEMIN DU GOLF", "city": "ILE DES SOEURS", "province": "QC", "country": "CA", "postalCode": "H3E1A8", "twitter": "None", "instagram": "None", "facebook": "None", "youtube": "None", "website": "None", "summary": "None", "logo": "None", "latitude": 45.4661014899011, "longitude": -73.5520703052975}, "888711546RR0001": {"name": "Fondation du Coll\u00e8ge de l'Assomption", "designationCode": "B", "categoryCode": "23", "address": "270, BOULEVARD L'ANGE-GARDIEN", "city": "L'ASSOMPTION", "province": "QC", "country": "CA", "postalCode": "J5W1R7", "twitter": "None", "instagram": "None", "facebook": "None", "youtube": "None", "website": "None", "summary": "None", "logo": "None", "latitude": 45.829080916702104, "longitude": -73.42142456060286}, "818180788RR0001": {"name": "Fondation du Coll\u00e8ge Dawson Dawson College Foundation", "designationCode": "A", "categoryCode": "23", "address": "4B.3A-4, 3040 RUE SHERBROOKE O", "city": "MONTREAL", "province": "QC", "country": "CA", "postalCode": "H3Z1A4", "twitter": "None", "instagram": "None", "facebook": "None", "youtube": "None", "website": "None", "summary": "None", "logo": "None", "latitude": 45.49085410514201, "longitude": -73.58838131020318}, "127609998RR0001": {"name": "Fondation du Coll\u00e8ge Fran\u00e7ois-de-Laval", "designationCode": "A", "categoryCode": "23", "address": "6 RUE DE L'UNIVERSITE", "city": "QUEBEC", "province": "QC", "country": "CA", "postalCode": "G1R5X8", "twitter": "None", "instagram": "None", "facebook": "None", "youtube": "None", "website": "None", "summary": "None", "logo": "None", "latitude": 46.81521938718329, "longitude": -71.20631801610017}, "891391468RR0001": {"name": "Fondation du Coll\u00e8ge Jean-Eudes Inc.", "designationCode": "C", "categoryCode": "21", "address": "3535 BOUL ROSEMONT", "city": "MONTREAL", "province": "QC", "country": "CA", "postalCode": "H1X1K7", "twitter": "None", "instagram": "None", "facebook": "None", "youtube": "None", "website": "None", "summary": "None", "logo": "None", "latitude": 45.55521949099763, "longitude": -73.57872494356252}, "132256249RR0001": {"name": "Fondation du Coll\u00e8ge Montmorency", "designationCode": "C", "categoryCode": "21", "address": "475 BOUL DE L'AVENIR", "city": "LAVAL DES RAPIDES", "province": "QC", "country": "CA", "postalCode": "H7N5H9", "twitter": "None", "instagram": "None", "facebook": "None", "youtube": "None", "website": "None", "summary": "None", "logo": "None", "latitude": 45.55908715813502, "longitude": -73.71985652015795}, "809078702RR0001": {"name": "Fondation du Coll\u00e8ge Notre-Dame de Rivi\u00e8re-du-Loup", "designationCode": "A", "categoryCode": "23", "address": "CP 786 SUCC BUREAU-CHEF", "city": "RIVIERE-DU-LOUP", "province": "QC", "country": "CA", "postalCode": "G5R3Z5", "twitter": "None", "instagram": "None", "facebook": "None", "youtube": "None", "website": "None", "summary": "None", "logo": "None", "latitude": 47.835060000000055, "longitude": -69.53702299999993}, "845713205RR0001": {"name": "Fondation du Coll\u00e8ge Pr\u00e9universitaire Nouvelles Fronti\u00e8res", "designationCode": "C", "categoryCode": "21", "address": "250 BOUL. GAMELIN", "city": "GATINEAU", "province": "QC", "country": "CA", "postalCode": "J8Y1W9", "twitter": "None", "instagram": "None", "facebook": "None", "youtube": "None", "website": "None", "summary": "None", "logo": "None", "latitude": 45.44303150158654, "longitude": -75.74890312920533}, "141619544RR0001": {"name": "Fondation du Coll\u00e8ge Saint-Louis de Lachine", "designationCode": "C", "categoryCode": "21", "address": "275 36E AV", "city": "LACHINE", "province": "QC", "country": "CA", "postalCode": "H8T2A4", "twitter": "None", "instagram": "None", "facebook": "None", "youtube": "None", "website": "None", "summary": "None", "logo": "None", "latitude": 45.43645634165277, "longitude": -73.6967804651157}, "118923234RR0001": {"name": "Fondation du CHU de Qu\u00e9bec", "designationCode": "A", "categoryCode": "13", "address": "10 RUE DE L'ESPINAY", "city": "QU\u00c9BEC", "province": "QC", "country": "CA", "postalCode": "G1L3L5", "twitter": "None", "instagram": "None", "facebook": "None", "youtube": "None", "website": "None", "summary": "None", "logo": "None", "latitude": 46.82739156731484, "longitude": -71.23659233917125}, "893398867RR0001": {"name": "Fondation du CLSC", "designationCode": "C", "categoryCode": "09", "address": "17 RUE NOTRE-DAME OUEST", "city": "THETFORD MINES", "province": "QC", "country": "CA", "postalCode": "G6G1J1", "twitter": "None", "instagram": "None", "facebook": "None", "youtube": "None", "website": "None", "summary": "None", "logo": "None", "latitude": 46.09118423232719, "longitude": -71.30026916908037}, "800791980RR0001": {"name": "Fondation du CPE Les crayons magiques", "designationCode": "C", "categoryCode": "09", "address": "4550 BOUL DES GRANDES-PRAIRIES", "city": "SAINT-LEONARD", "province": "QC", "country": "CA", "postalCode": "H1R1A1", "twitter": "None", "instagram": "None", "facebook": "None", "youtube": "None", "website": "None", "summary": "None", "logo": "None", "latitude": 45.58627433415095, "longitude": -73.62161987728688}, "820407468RR0001": {"name": "Fondation du CSSS de Vaudreuil-Soulanges", "designationCode": "A", "categoryCode": "03", "address": "351 - 3031 BOUL DE LA GARE", "city": "VAUDREUIL-DORION", "province": "QC", "country": "CA", "postalCode": "J7V9R2", "twitter": "None", "instagram": "None", "facebook": "None", "youtube": "None", "website": "None", "summary": "None", "logo": "None", "latitude": 45.39727100147676, "longitude": -74.05424147068368}, "118976091RR0001": {"name": "Fondation du CSSS Cavendish", "designationCode": "A", "categoryCode": "13", "address": "5425 BESSBOROUGH", "city": "MONTREAL", "province": "QC", "country": "CA", "postalCode": "H4V2S7", "twitter": "None", "instagram": "None", "facebook": "None", "youtube": "None", "website": "None", "summary": "None", "logo": "None", "latitude": 45.4718646739278, "longitude": -73.64640086355266}, "791140692RR0001": {"name": "Fondation du Domaine Seigneurial de Mascouche", "designationCode": "C", "categoryCode": "52", "address": "3034 CH SAINTE-MARIE", "city": "MASCOUCHE", "province": "QC", "country": "CA", "postalCode": "J7K1P1", "twitter": "None", "instagram": "None", "facebook": "None", "youtube": "None", "website": "None", "summary": "None", "logo": "None", "latitude": 45.74538000000001, "longitude": -73.60127936450401}, "842994675RR0001": {"name": "Fondation du Dr Julien", "designationCode": "C", "categoryCode": "19", "address": "1601 RUE AYLWIN", "city": "MONTREAL", "province": "QC", "country": "CA", "postalCode": "H1W3B9", "twitter": "None", "instagram": "None", "facebook": "None", "youtube": "None", "website": "None", "summary": "None", "logo": "None", "latitude": 45.54326590980433, "longitude": -73.54174271634258}, "838784924RR0001": {"name": "Fondation du Glaucome du Qu\u00e9bec", "designationCode": "A", "categoryCode": "13", "address": "4135, RUE DE ROUEN", "city": "MONTR\u00c9AL", "province": "QC", "country": "CA", "postalCode": "H1V1G5", "twitter": "None", "instagram": "None", "facebook": "None", "youtube": "None", "website": "None", "summary": "None", "logo": "None", "latitude": 45.552024670004, "longitude": -73.54445224329143}, "876193962RR0001": {"name": "Fondation du Groupe Roy Sant\u00e9", "designationCode": "C", "categoryCode": "19", "address": "3550 RUE SAINT-URBAIN", "city": "MONTREAL", "province": "QC", "country": "CA", "postalCode": "H2X4C5", "twitter": "None", "instagram": "None", "facebook": "None", "youtube": "None", "website": "None", "summary": "None", "logo": "None", "latitude": 45.512075778492864, "longitude": -73.572335228028}, "857151666RR0001": {"name": "Fondation du Horse Palace de Griffintown / Griffintown Horse Palace Foundation", "designationCode": "C", "categoryCode": "50", "address": "6637 AV DE CHATEAUBRIAND", "city": "MONTREAL", "province": "QC", "country": "CA", "postalCode": "H2S2N6", "twitter": "None", "instagram": "None", "facebook": "None", "youtube": "None", "website": "None", "summary": "None", "logo": "None", "latitude": 45.53656216654155, "longitude": -73.60610785677197}, "825109333RR0001": {"name": "Fondation du Mus\u00e9e d'art de Joliette", "designationCode": "A", "categoryCode": "53", "address": "145 RUE DU P\u00c8RE-WILFRID-CORBEI", "city": "JOLIETTE", "province": "QC", "country": "CA", "postalCode": "J6E4T4", "twitter": "None", "instagram": "None", "facebook": "None", "youtube": "None", "website": "None", "summary": "None", "logo": "None", "latitude": 46.02447336522611, "longitude": -73.43591792134552}, "806546016RR0001": {"name": "Fondation du Mus\u00e9e de la nature et des sciences", "designationCode": "A", "categoryCode": "53", "address": "225, RUE FRONTENAC", "city": "SHERBROOKE", "province": "QC", "country": "CA", "postalCode": "J1H1K1", "twitter": "None", "instagram": "None", "facebook": "None", "youtube": "None", "website": "None", "summary": "None", "logo": "None", "latitude": 45.403347477667445, "longitude": -71.89536571608278}, "895141760RR0001": {"name": "Fondation du Parc maritime de Saint-Laurent-de-l'\u00cele-d'Orl\u00e9ans.", "designationCode": "C", "categoryCode": "50", "address": "120 CH. DE LA CHALOUPERIE", "city": "SAINT-LAURENT-\u00ceLE-D'ORL\u00c9ANS", "province": "QC", "country": "CA", "postalCode": "G0A3Z0", "twitter": "None", "instagram": "None", "facebook": "None", "youtube": "None", "website": "None", "summary": "None", "logo": "None", "latitude": 46.85912880599001, "longitude": -71.01365660866176}, "813688256RR0001": {"name": "Fondation du Th\u00e9\u00e2tre de la Ligue Nationale d'Improvisation", "designationCode": "A", "categoryCode": "23", "address": "C.P. 1077 SUCCURSALE C", "city": "MONTR\u00c9AL", "province": "QC", "country": "CA", "postalCode": "H2L4V3", "twitter": "None", "instagram": "None", "facebook": "None", "youtube": "None", "website": "None", "summary": "None", "logo": "None", "latitude": 45.51239400000006, "longitude": -73.55469049999994}, "829792985RR0001": {"name": "Fondation du Th\u00e9\u00e2tre du Marais de Val-Morin", "designationCode": "C", "categoryCode": "22", "address": "1121 10E AV", "city": "VAL-MORIN", "province": "QC", "country": "CA", "postalCode": "J0T2R0", "twitter": "None", "instagram": "None", "facebook": "None", "youtube": "None", "website": "None", "summary": "None", "logo": "None", "latitude": 46.007139880096496, "longitude": -74.1875842545697}, "805176500RR0001": {"name": "Fondation du 21i\u00e8me si\u00e8cle de la communaut\u00e9 catholique / The 21st Century Catholic Community Foundation", "designationCode": "A", "categoryCode": "03", "address": "1857 BOUL DE MAISONNEUVE OUEST", "city": "MONTREAL", "province": "QC", "country": "CA", "postalCode": "H3H1J9", "twitter": "None", "instagram": "None", "facebook": "None", "youtube": "None", "website": "None", "summary": "None", "logo": "None", "latitude": 45.49389958979164, "longitude": -73.58138263878462}, "864265673RR0001": {"name": "Fondation du 35e Bataillon des services du Canada", "designationCode": "C", "categoryCode": "29", "address": "1301 CH DU FLEUVE", "city": "LEVIS", "province": "QC", "country": "CA", "postalCode": "G6W3T7", "twitter": "None", "instagram": "None", "facebook": "None", "youtube": "None", "website": "None", "summary": "None", "logo": "None", "latitude": 46.74387725618896, "longitude": -71.27421587552654}, "846673291RR0001": {"name": "Fondation en environnement de la MRC Matawinie", "designationCode": "C", "categoryCode": "53", "address": "310 CHEMIN LANGELIER", "city": "CHERTSEY", "province": "QC", "country": "CA", "postalCode": "J0K3K0", "twitter": "None", "instagram": "None", "facebook": "None", "youtube": "None", "website": "None", "summary": "None", "logo": "None", "latitude": 46.139757499431624, "longitude": -73.81043540478896}, "889321774RR0001": {"name": "Fondation en faveur de la soci\u00e9t\u00e9 et de l'environnement (FFSE)", "designationCode": "C", "categoryCode": "59", "address": "B.P.60589 SUCC.ST-CATHERINE E", "city": "MONTR\u00c9AL", "province": "QC", "country": "CA", "postalCode": "H1V3T8", "twitter": "None", "instagram": "None", "facebook": "None", "youtube": "None", "website": "None", "summary": "None", "logo": "None", "latitude": 45.55426827738324, "longitude": -73.53169623149783}, "769067497RR0001": {"name": "Fondation enfants pour la vie / Kids for Life Foundation", "designationCode": "C", "categoryCode": "03", "address": "4075 RUE FARRAND", "city": "LAVAL", "province": "QC", "country": "CA", "postalCode": "H7T1S3", "twitter": "None", "instagram": "None", "facebook": "None", "youtube": "None", "website": "None", "summary": "None", "logo": "None", "latitude": 45.55345708410749, "longitude": -73.76791763379295}, "802041285RR0001": {"name": "Fondation entrepreneures montr\u00e9alaises (FEM)", "designationCode": "B", "categoryCode": "20", "address": "533 RUE ONTARIO EST           BUREAU 202", "city": "MONTR\u00c9AL", "province": "QC", "country": "CA", "postalCode": "H2L1N8", "twitter": "None", "instagram": "None", "facebook": "None", "youtube": "None", "website": "None", "summary": "None", "logo": "None", "latitude": 45.51759733279464, "longitude": -73.56449399353644}, "828193896RR0001": {"name": "Fondation famille au service des pauvres", "designationCode": "B", "categoryCode": "09", "address": "107 REN\u00c9-\u00c9MARD", "city": "ILE PERROT", "province": "QC", "country": "CA", "postalCode": "J7V8V5", "twitter": "None", "instagram": "None", "facebook": "None", "youtube": "None", "website": "None", "summary": "None", "logo": "None", "latitude": 45.38561074023302, "longitude": -73.96585013653426}, "825017700RR0001": {"name": "Fondation famille Curadeau-Grou", "designationCode": "B", "categoryCode": "03", "address": "717 RUE DUNLOP", "city": "OUTREMONT", "province": "QC", "country": "CA", "postalCode": "H2V2W5", "twitter": "None", "instagram": "None", "facebook": "None", "youtube": "None", "website": "None", "summary": "None", "logo": "None", "latitude": 45.513952217611994, "longitude": -73.61743999887483}, "828562645RR0001": {"name": "Fondation foyer de soins de Dalhousie inc. / Dalhousie Nursing Home Foundation", "designationCode": "C", "categoryCode": "11", "address": "296 RUE VICTORIA, UNIT 1", "city": "DALHOUSIE", "province": "NB", "country": "CA", "postalCode": "E8C2R8", "twitter": "None", "instagram": "None", "facebook": "None", "youtube": "None", "website": "None", "summary": "None", "logo": "None", "latitude": 48.06279683426653, "longitude": -66.3631095682958}, "852524917RR0001": {"name": "Fondation groupe BMR", "designationCode": "B", "categoryCode": "03", "address": "1501 RUE AMP\u00c8RE               BUREAU 200", "city": "BOUCHERVILLE", "province": "QC", "country": "CA", "postalCode": "J4B5Z5", "twitter": "None", "instagram": "None", "facebook": "None", "youtube": "None", "website": "None", "summary": "None", "logo": "None", "latitude": 45.56978644056141, "longitude": -73.4177623662357}, "806216230RR0001": {"name": "Fondation h\u00e9ritage Saint-Joseph", "designationCode": "C", "categoryCode": "52", "address": "1028 CH PRINCIPAL", "city": "SAINT-JOSEPH-DU-LAC", "province": "QC", "country": "CA", "postalCode": "J0N1M0", "twitter": "None", "instagram": "None", "facebook": "None", "youtube": "None", "website": "None", "summary": "None", "logo": "None", "latitude": 45.53252740380305, "longitude": -74.00475751933148}, "891915548RR0001": {"name": "Fondation hell\u00e9nique de bourses d'\u00e9tudes - Hellenic Scholarships Foundation", "designationCode": "C", "categoryCode": "21", "address": "7825 AV D'OUTREMONT", "city": "MONTREAL", "province": "QC", "country": "CA", "postalCode": "H3N2M1", "twitter": "None", "instagram": "None", "facebook": "None", "youtube": "None", "website": "None", "summary": "None", "logo": "None", "latitude": 45.52853597919665, "longitude": -73.6323941426511}, "133661637RR0001": {"name": "Fondation h\u00f4pital Pierre-Boucher", "designationCode": "A", "categoryCode": "13", "address": "1333 BOUL JACQUES-CARTIER EST", "city": "LONGUEUIL", "province": "QC", "country": "CA", "postalCode": "J4M2A5", "twitter": "None", "instagram": "None", "facebook": "None", "youtube": "None", "website": "None", "summary": "None", "logo": "None", "latitude": 45.53688497304893, "longitude": -73.45730976220742}, "801081894RR0001": {"name": "Fondation imaginer un monde meilleur", "designationCode": "A", "categoryCode": "03", "address": "20,BOUL. CHAREST EST", "city": "QU\u00c9BEC", "province": "QC", "country": "CA", "postalCode": "G1K3G2", "twitter": "None", "instagram": "None", "facebook": "None", "youtube": "None", "website": "None", "summary": "None", "logo": "None", "latitude": 46.81146976048814, "longitude": -71.2303094171619}, "894188903RR0001": {"name": "Fondation internationale des cultures \u00e0 partager - Secteur Bas-Saint-Laurent, Gasp\u00e9sie, Les \u00celes-de-la-Madeleine", "designationCode": "C", "categoryCode": "50", "address": "C.P.3", "city": "RIMOUSKI", "province": "QC", "country": "CA", "postalCode": "G5L7B7", "twitter": "None", "instagram": "None", "facebook": "None", "youtube": "None", "website": "None", "summary": "None", "logo": "None", "latitude": 48.44933700000006, "longitude": -68.52474349999993}, "843377409RR0001": {"name": "Fondation iA Groupe financier/iA Financial Group Foundation", "designationCode": "A", "categoryCode": "23", "address": "1080 GRANDE-ALL\u00c9E OUEST", "city": "QU\u00c9BEC", "province": "QC", "country": "CA", "postalCode": "G1K7M3", "twitter": "None", "instagram": "None", "facebook": "None", "youtube": "None", "website": "None", "summary": "None", "logo": "None", "latitude": 46.79137471859294, "longitude": -71.2427957048014}, "805502341RR0001": {"name": "Fondation je pars du bon pied", "designationCode": "A", "categoryCode": "09", "address": "BUREAU 211                    279, RUE PRINCIPALE", "city": "GRANBY", "province": "QC", "country": "CA", "postalCode": "J2G2W1", "twitter": "None", "instagram": "None", "facebook": "None", "youtube": "None", "website": "None", "summary": "None", "logo": "None", "latitude": 45.40118229868971, "longitude": -72.72956860667121}, "838974806RR0001": {"name": "Fondation jeunesse \u00e0 coeur de l'Abitibi-T\u00e9miscamingue", "designationCode": "C", "categoryCode": "09", "address": "700 BOUL FOREST", "city": "VAL-D'OR", "province": "QC", "country": "CA", "postalCode": "J9P2L3", "twitter": "None", "instagram": "None", "facebook": "None", "youtube": "None", "website": "None", "summary": "None", "logo": "None", "latitude": 48.09769945441122, "longitude": -77.78794049999999}, "816069355RR0001": {"name": "Fondation joie et sourires d'enfants", "designationCode": "B", "categoryCode": "03", "address": "5564, RUE DAUPHINE", "city": "ST-LEONARD", "province": "QC", "country": "CA", "postalCode": "H1P1W8", "twitter": "None", "instagram": "None", "facebook": "None", "youtube": "None", "website": "None", "summary": "None", "logo": "None", "latitude": 45.58547500998332, "longitude": -73.58904050455898}, "839084381RR0001": {"name": "Fondation l'interm\u00e8de", "designationCode": "A", "categoryCode": "03", "address": "192 RUE F.-X.-GARNEAU", "city": "BELOEIL", "province": "QC", "country": "CA", "postalCode": "J3G4Y1", "twitter": "None", "instagram": "None", "facebook": "None", "youtube": "None", "website": "None", "summary": "None", "logo": "None", "latitude": 45.559349172081475, "longitude": -73.22490770457024}, "812637403RR0001": {"name": "Fondation l'Aubainerie", "designationCode": "B", "categoryCode": "03", "address": "9394 BOULEVARD DU GOLF", "city": "ANJOU", "province": "QC", "country": "CA", "postalCode": "H1J3A1", "twitter": "None", "instagram": "None", "facebook": "None", "youtube": "None", "website": "None", "summary": "None", "logo": "None", "latitude": 45.623726668561694, "longitude": -73.56224284225834}, "801447491RR0001": {"name": "Fondation la r\u00e9cr\u00e9ation", "designationCode": "B", "categoryCode": "09", "address": "1,PLACE VILLE MARIE           BUREAU 2500", "city": "MONTR\u00c9AL", "province": "QC", "country": "CA", "postalCode": "H3B1R1", "twitter": "None", "instagram": "None", "facebook": "None", "youtube": "None", "website": "None", "summary": "None", "logo": "None", "latitude": 45.50188724476333, "longitude": -73.56787382018557}, "813605367RR0001": {"name": "Fondation la Petite Acad\u00e9mie du Bois\u00e9", "designationCode": "C", "categoryCode": "23", "address": "1090 AV PRATTE", "city": "SAINT-HYACINTHE", "province": "QC", "country": "CA", "postalCode": "J2S4B6", "twitter": "None", "instagram": "None", "facebook": "None", "youtube": "None", "website": "None", "summary": "None", "logo": "None", "latitude": 45.632735977263394, "longitude": -72.94326709850556}, "801181488RR0001": {"name": "Fondation le Coeur sur la main", "designationCode": "C", "categoryCode": "09", "address": "1964 RUE LE CARON", "city": "MONTREAL", "province": "QC", "country": "CA", "postalCode": "H4E1K6", "twitter": "None", "instagram": "None", "facebook": "None", "youtube": "None", "website": "None", "summary": "None", "logo": "None", "latitude": 45.462010506780665, "longitude": -73.59098314071787}, "839773439RR0001": {"name": "Fondation le Pont vers l'Autonomie", "designationCode": "C", "categoryCode": "11", "address": "905 BOUL DES BOIS-FRANCS S", "city": "VICTORIAVILLE", "province": "QC", "country": "CA", "postalCode": "G6P5W1", "twitter": "None", "instagram": "None", "facebook": "None", "youtube": "None", "website": "None", "summary": "None", "logo": "None", "latitude": 46.04011994168116, "longitude": -71.9185127784229}, "845493733RR0001": {"name": "Fondation le Rucher", "designationCode": "C", "categoryCode": "59", "address": "4932, RUE PIERRE-GEORGES-ROY", "city": "SAINT-AUGUSTIN-DE-DESMAURES", "province": "QC", "country": "CA", "postalCode": "G3A1V7", "twitter": "None", "instagram": "None", "facebook": "None", "youtube": "None", "website": "None", "summary": "None", "logo": "None", "latitude": 46.74029379716052, "longitude": -71.3846382795598}, "832419683RR0001": {"name": "Fondation les amis des Quatre-Saisons", "designationCode": "C", "categoryCode": "21", "address": "1820 RUE WALNUT", "city": "SAINT-HUBERT", "province": "QC", "country": "CA", "postalCode": "J4T1G7", "twitter": "None", "instagram": "None", "facebook": "None", "youtube": "None", "website": "None", "summary": "None", "logo": "None", "latitude": 45.49270276989454, "longitude": -73.4669459235099}, "891029845RR0001": {"name": "Fondation les centres jeunesse de l'Outaouais", "designationCode": "A", "categoryCode": "03", "address": "105 BOUL SACRE-COEUR", "city": "GATINEAU", "province": "QC", "country": "CA", "postalCode": "J8X1C5", "twitter": "None", "instagram": "None", "facebook": "None", "youtube": "None", "website": "None", "summary": "None", "logo": "None", "latitude": 45.43724647215617, "longitude": -75.71500432529281}, "842921652RR0001": {"name": "Fondation les demeures Sainte-Croix Phase III", "designationCode": "C", "categoryCode": "09", "address": "117-1165, AV. STE-CROIX", "city": "ST-LAURENT", "province": "QC", "country": "CA", "postalCode": "H4L3Z2", "twitter": "None", "instagram": "None", "facebook": "None", "youtube": "None", "website": "None", "summary": "None", "logo": "None", "latitude": 45.51767901197387, "longitude": -73.68219479234267}, "889860995RR0001": {"name": "Fondation les petits tr\u00e9sors", "designationCode": "A", "categoryCode": "13", "address": "7070 BOUL PERRAS", "city": "MONTREAL", "province": "QC", "country": "CA", "postalCode": "H1E1A4", "twitter": "None", "instagram": "None", "facebook": "None", "youtube": "None", "website": "None", "summary": "None", "logo": "None", "latitude": 45.62713032411631, "longitude": -73.61503279757376}, "836735407RR0001": {"name": "Fondation les Missionnaires de la paix", "designationCode": "C", "categoryCode": "09", "address": "380 RUE DU PONT", "city": "QU\u00c9BEC", "province": "QC", "country": "CA", "postalCode": "G1K6M7", "twitter": "None", "instagram": "None", "facebook": "None", "youtube": "None", "website": "None", "summary": "None", "logo": "None", "latitude": 46.81567331695425, "longitude": -71.22102951056024}, "863088480RR0001": {"name": "Fondation les Petits Rois", "designationCode": "C", "categoryCode": "21", "address": "4666 VICTORIA AVE", "city": "MONTREAL", "province": "QC", "country": "CA", "postalCode": "H3W2N1", "twitter": "None", "instagram": "None", "facebook": "None", "youtube": "None", "website": "None", "summary": "None", "logo": "None", "latitude": 45.48525971689085, "longitude": -73.61738292160531}, "807137757RR0001": {"name": "Fondation m\u00e9dicale de la Jacques-Cartier", "designationCode": "C", "categoryCode": "11", "address": "CP 824", "city": "STE-CATHERINE-DE-LA-J.-CARTIER", "province": "QC", "country": "CA", "postalCode": "G3N2V2", "twitter": "None", "instagram": "None", "facebook": "None", "youtube": "None", "website": "None", "summary": "None", "logo": "None", "latitude": 46.84453800000006, "longitude": -71.61465049999994}, "835875253RR0001": {"name": "Fondation m\u00e9tamorphose d\u00e9veloppement / Fondasyon metamofoz developman", "designationCode": "C", "categoryCode": "09", "address": "284 RUE DE ROSEMERE", "city": "ROSEMERE", "province": "QC", "country": "CA", "postalCode": "J7A2T2", "twitter": "None", "instagram": "None", "facebook": "None", "youtube": "None", "website": "None", "summary": "None", "logo": "None", "latitude": 45.63776396032653, "longitude": -73.80110741046816}, "831017306RR0001": {"name": "Fondation ma vie en main", "designationCode": "C", "categoryCode": "59", "address": "2-201 RUE LAVAL SUD", "city": "GRANBY", "province": "QC", "country": "CA", "postalCode": "J2G7H7", "twitter": "None", "instagram": "None", "facebook": "None", "youtube": "None", "website": "None", "summary": "None", "logo": "None", "latitude": 45.400426569848875, "longitude": -72.74020736048183}, "809874837RR0001": {"name": "Fondation maison de l'aphasie / Aphasia House Foundation", "designationCode": "A", "categoryCode": "13", "address": "425 - 4450 RUE SAINT-HUBERT", "city": "MONTREAL", "province": "QC", "country": "CA", "postalCode": "H2J2W9", "twitter": "None", "instagram": "None", "facebook": "None", "youtube": "None", "website": "None", "summary": "None", "logo": "None", "latitude": 45.52513365803011, "longitude": -73.58025329450612}, "884820903RR0001": {"name": "Fondation manoir de Grand-Sault inc. / Grand Falls Manor Found Inc.", "designationCode": "A", "categoryCode": "13", "address": "C.P. 7008", "city": "GRAND-SAULT", "province": "NB", "country": "CA", "postalCode": "E3Z1G5", "twitter": "None", "instagram": "None", "facebook": "None", "youtube": "None", "website": "None", "summary": "None", "logo": "None", "latitude": 46.92817500000005, "longitude": -67.73318899999994}, "815458344RR0001": {"name": "Fondation meubles South Shore / South Shore Furniture Foundation", "designationCode": "B", "categoryCode": "05", "address": "924 RTE MARIE-VICTORIN", "city": "LEVIS", "province": "QC", "country": "CA", "postalCode": "G7A3T2", "twitter": "None", "instagram": "None", "facebook": "None", "youtube": "None", "website": "None", "summary": "None", "logo": "None", "latitude": 46.713476084655746, "longitude": -71.35526997530148}, "817524036RR0001": {"name": "Fondation mission humanitaire pour le d\u00e9veloppement des jeunes", "designationCode": "A", "categoryCode": "03", "address": "1880 BOUL RENE-LEVESQUE E     APP 203", "city": "MONTREAL", "province": "QC", "country": "CA", "postalCode": "H2K4R9", "twitter": "None", "instagram": "None", "facebook": "None", "youtube": "None", "website": "None", "summary": "None", "logo": "None", "latitude": 45.52212943767683, "longitude": -73.54895845542177}, "826084303RR0001": {"name": "Fondation mus\u00e9e Bytown Museum Foundation", "designationCode": "A", "categoryCode": "53", "address": "1 CANAL LANE, STATION B       POST OFFICE BOX 523", "city": "OTTAWA", "province": "ON", "country": "CA", "postalCode": "K1P5P6", "twitter": "None", "instagram": "None", "facebook": "None", "youtube": "None", "website": "None", "summary": "None", "logo": "None", "latitude": 45.42177300000006, "longitude": -75.69115999999994}, "800805251RR0001": {"name": "Fondation nationale de l'Acadie", "designationCode": "C", "categoryCode": "22", "address": "403 - 236 ST GEORGE ST", "city": "MONCTON", "province": "NB", "country": "CA", "postalCode": "E1C1W1", "twitter": "None", "instagram": "None", "facebook": "None", "youtube": "None", "website": "None", "summary": "None", "logo": "None", "latitude": 46.091121853165305, "longitude": -64.7828863956374}, "101836880RR0001": {"name": "Fondation nationale des scouts", "designationCode": "A", "categoryCode": "29", "address": "7333, RUE SAINT-DENIS", "city": "MONTREAL", "province": "QC", "country": "CA", "postalCode": "H2R2E5", "twitter": "None", "instagram": "None", "facebook": "None", "youtube": "None", "website": "None", "summary": "None", "logo": "None", "latitude": 45.53926088816424, "longitude": -73.6174749822264}, "846104487RR0001": {"name": "Fondation patrimoniale Nostre Dame de Kebec / Nostre Dame de Kebec Heritage Foundation", "designationCode": "A", "categoryCode": "43", "address": "16 RUE DE BUADE", "city": "QU\u00c9BEC", "province": "QC", "country": "CA", "postalCode": "G1R4A1", "twitter": "None", "instagram": "None", "facebook": "None", "youtube": "None", "website": "None", "summary": "None", "logo": "None", "latitude": 46.81358939107843, "longitude": -71.20603913183106}, "860430578RR0001": {"name": "Fondation point de rep\u00e8re", "designationCode": "B", "categoryCode": "01", "address": "4-1765 RUE SAUVE EST", "city": "MONTREAL", "province": "QC", "country": "CA", "postalCode": "H2C2B2", "twitter": "None", "instagram": "None", "facebook": "None", "youtube": "None", "website": "None", "summary": "None", "logo": "None"}, "859262990RR0001": {"name": "Fondation pour enfants Lory", "designationCode": "C", "categoryCode": "09", "address": "203 - 987 RUE LOUIS-RIEL", "city": "QUEBEC", "province": "QC", "country": "CA", "postalCode": "G1W4A2", "twitter": "None", "instagram": "None", "facebook": "None", "youtube": "None", "website": "None", "summary": "None", "logo": "None", "latitude": 46.76740145490216, "longitude": -71.30458647749454}, "800696403RR0001": {"name": "Fondation pour l'\u00e9ducation \u00e0 l'\u00e9cole Pointe-L\u00e9vy", "designationCode": "C", "categoryCode": "21", "address": "55 RUE DES COMMANDEURS", "city": "L\u00c9VIS", "province": "QC", "country": "CA", "postalCode": "G6V6P5", "twitter": "None", "instagram": "None", "facebook": "None", "youtube": "None", "website": "None", "summary": "None", "logo": "None", "latitude": 46.80148306189049, "longitude": -71.17322014432453}, "890354459RR0001": {"name": "Fondation pour l'\u00e9ducation \u00e0 la coop\u00e9ration", "designationCode": "C", "categoryCode": "29", "address": "5159, BOUL DE LA RIVE-SUD     BUREAU 204", "city": "LEVIS", "province": "QC", "country": "CA", "postalCode": "G6V4Z5", "twitter": "None", "instagram": "None", "facebook": "None", "youtube": "None", "website": "None", "summary": "None", "logo": "None", "latitude": 46.791251694442714, "longitude": -71.18273923414483}, "801310665RR0001": {"name": "Fondation pour l'\u00e9ducation allemande Hilfsfond", "designationCode": "C", "categoryCode": "21", "address": "20 GATINEAU", "city": "CANDIAC", "province": "QC", "country": "CA", "postalCode": "J5R3S6", "twitter": "None", "instagram": "None", "facebook": "None", "youtube": "None", "website": "None", "summary": "None", "logo": "None", "latitude": 45.38692747489747, "longitude": -73.52928364071786}, "805263480RR0001": {"name": "Fondation pour la pers\u00e9v\u00e9rance scolaire du Fleuve-et-des-Lacs", "designationCode": "C", "categoryCode": "21", "address": "14 RUE DU VIEUX-CHEMIN", "city": "T\u00c9MISCOUATA-SUR-LE-LAC", "province": "QC", "country": "CA", "postalCode": "G0L1E0", "twitter": "None", "instagram": "None", "facebook": "None", "youtube": "None", "website": "None", "summary": "None", "logo": "None", "latitude": 47.68213250377958, "longitude": -68.88315736035}, "742963325RR0001": {"name": "Fondation pour la r\u00e9ussite des \u00e9leves de la Commission scolaire des Draveurs", "designationCode": "C", "categoryCode": "21", "address": "200 BOUL MALONEY E", "city": "GATINEAU", "province": "QC", "country": "CA", "postalCode": "J8P1K3", "twitter": "None", "instagram": "None", "facebook": "None", "youtube": "None", "website": "None", "summary": "None", "logo": "None", "latitude": 45.48412060776772, "longitude": -75.6477771876047}, "807295498RR0001": {"name": "Fondation pour la recherche et l'enseignement en orthop\u00e9die de Sherbrooke", "designationCode": "B", "categoryCode": "23", "address": "CASIER POSTALE 22017          CSP QUATRE-SAISON", "city": "SHERBROOKE", "province": "QC", "country": "CA", "postalCode": "J1E4B4", "twitter": "None", "instagram": "None", "facebook": "None", "youtube": "None", "website": "None", "summary": "None", "logo": "None", "latitude": 45.403251000000054, "longitude": -71.88894349999994}, "851884015RR0001": {"name": "Fondation pour la sauvegarde des \u00e9cosyst\u00e8mes du territoire de la Haute-Yamaska", "designationCode": "C", "categoryCode": "52", "address": "C.P. 142", "city": "GRANBY", "province": "QC", "country": "CA", "postalCode": "J2G8E4", "twitter": "None", "instagram": "None", "facebook": "None", "youtube": "None", "website": "None", "summary": "None", "logo": "None", "latitude": 45.4032639179704, "longitude": -72.72526501372418}, "817306939RR0001": {"name": "Fondation pour le bien-\u00eatre des animaux de compagnie du Qu\u00e9bec", "designationCode": "A", "categoryCode": "03", "address": "260 - 2300 54E AV", "city": "LACHINE", "province": "QC", "country": "CA", "postalCode": "H8T3R2", "twitter": "None", "instagram": "None", "facebook": "None", "youtube": "None", "website": "None", "summary": "None", "logo": "None", "latitude": 45.459283913411, "longitude": -73.72317513832327}, "823073754RR0001": {"name": "Fondation pour le d\u00e9veloppement de la formation m\u00e9dicale Qu\u00e9bec Monde", "designationCode": "C", "categoryCode": "11", "address": "299, SIR-WILFRID-LAURIER      SUITE 201", "city": "SAINT-LAMBERT", "province": "QC", "country": "CA", "postalCode": "J4R2L1", "twitter": "None", "instagram": "None", "facebook": "None", "youtube": "None", "website": "None", "summary": "None", "logo": "None", "latitude": 45.49409550952198, "longitude": -73.50191099999999}}