{"106713522RR0001": {"name": "THE ANGLICAN PARISH OF OXFORD", "designationCode": "C", "categoryCode": "30", "address": "4 BOWEN CRES", "city": "KEMPTVILLE", "province": "ON", "country": "CA", "postalCode": "K0G1J0", "twitter": "None", "instagram": "None", "facebook": "None", "youtube": "None", "website": "None", "summary": "None", "logo": "None", "latitude": 45.02471237662305, "longitude": -75.6409767258063}, "107707051RR0001": {"name": "THE ANGLICAN PARISH OF PARHAM-SHARBOT LAKE", "designationCode": "C", "categoryCode": "30", "address": "BOX 26", "city": "SHARBOT LAKE", "province": "ON", "country": "CA", "postalCode": "K0H2P0", "twitter": "None", "instagram": "None", "facebook": "None", "youtube": "None", "website": "None", "summary": "None", "logo": "None", "latitude": 44.77155000000005, "longitude": -76.68740999999994}, "118787142RR0049": {"name": "THE ANGLICAN PARISH OF PARKSVILLE B.C.", "designationCode": "C", "categoryCode": "30", "address": "407 WEMBLEY ROAD", "city": "PARKSVILLE", "province": "BC", "country": "CA", "postalCode": "V9P2B2", "twitter": "None", "instagram": "None", "facebook": "None", "youtube": "None", "website": "None", "summary": "None", "logo": "None", "latitude": 49.32898851788917, "longitude": -124.34379233971953}, "888765369RR0001": {"name": "THE ANGLICAN PARISH OF PRESCOTT", "designationCode": "C", "categoryCode": "30", "address": "PO BOX 576", "city": "PRESCOTT", "province": "ON", "country": "CA", "postalCode": "K0E1T0", "twitter": "None", "instagram": "None", "facebook": "None", "youtube": "None", "website": "None", "summary": "None", "logo": "None", "latitude": 44.72333933695445, "longitude": -75.52230856910072}, "119212652RR0001": {"name": "THE ANGLICAN PARISH OF ROSLIN", "designationCode": "C", "categoryCode": "30", "address": "111 BOUNDARY ROAD             GENERAL DELIVERY", "city": "ROSLIN", "province": "ON", "country": "CA", "postalCode": "K0K2Y0", "twitter": "None", "instagram": "None", "facebook": "None", "youtube": "None", "website": "None", "summary": "None", "logo": "None", "latitude": 44.34667401312743, "longitude": -77.3416924978457}, "119229896RR0002": {"name": "THE ANGLICAN PARISH OF ST PHILLIP'S", "designationCode": "C", "categoryCode": "30", "address": "20 COADY'S ROAD               PORTUGAL COVE", "city": "ST PHILIPS", "province": "NL", "country": "CA", "postalCode": "A1M1L1", "twitter": "None", "instagram": "None", "facebook": "None", "youtube": "None", "website": "None", "summary": "None", "logo": "None", "latitude": 47.58955800551738, "longitude": -52.88669643457373}, "890596190RR0002": {"name": "THE ANGLICAN PARISH OF ST. PETER, DYNEVOR", "designationCode": "C", "categoryCode": "30", "address": "BOX 19, GROUP 215             RR#2", "city": "SELKIRK", "province": "MB", "country": "CA", "postalCode": "R1A2A7", "twitter": "None", "instagram": "None", "facebook": "None", "youtube": "None", "website": "None", "summary": "None", "logo": "None", "latitude": 50.14571100000006, "longitude": -96.87391999999993}, "863699690RR0001": {"name": "THE ANGLICAN PARISH OF ST.MARY'S", "designationCode": "C", "categoryCode": "30", "address": "178 MEMORIAL DR", "city": "CLARENVILLE", "province": "NL", "country": "CA", "postalCode": "A5A1N7", "twitter": "None", "instagram": "None", "facebook": "None", "youtube": "None", "website": "None", "summary": "None", "logo": "None"}, "783928724RR0001": {"name": "THE ANGLICAN PARISH OF THE CHURCH OF THE EPIPHANY, SURREY", "designationCode": "C", "categoryCode": "30", "address": "10553 148TH ST", "city": "SURREY", "province": "BC", "country": "CA", "postalCode": "V3R3X7", "twitter": "None", "instagram": "None", "facebook": "None", "youtube": "None", "website": "None", "summary": "None", "logo": "None", "latitude": 49.19422500000002, "longitude": -122.81250407051749}, "129715090RR0001": {"name": "THE ANGLICAN PARISH OF TRENTON", "designationCode": "C", "categoryCode": "30", "address": "BOX 21020                     9 BYRON STREET", "city": "TRENTON", "province": "ON", "country": "CA", "postalCode": "K8V6S2", "twitter": "None", "instagram": "None", "facebook": "None", "youtube": "None", "website": "None", "summary": "None", "logo": "None", "latitude": 44.10386998972823, "longitude": -77.56831350603086}, "107020232RR0033": {"name": "THE ANGLICAN PARISH OF TRINITY", "designationCode": "C", "categoryCode": "30", "address": "P.O.BOX 28", "city": "TRINITY BAY", "province": "NL", "country": "CA", "postalCode": "A0C2S0", "twitter": "None", "instagram": "None", "facebook": "None", "youtube": "None", "website": "None", "summary": "None", "logo": "None", "latitude": 48.370593285141474, "longitude": -53.370700424307735}, "888443041RR0001": {"name": "THE ANGLICAN PARISH OF TWEED", "designationCode": "C", "categoryCode": "30", "address": "90 JOHNSON ST", "city": "KINGSTON", "province": "ON", "country": "CA", "postalCode": "K7L1X7", "twitter": "None", "instagram": "None", "facebook": "None", "youtube": "None", "website": "None", "summary": "None", "logo": "None", "latitude": 44.22931392838599, "longitude": -76.48367271593855}, "119212728RR0001": {"name": "THE ANGLICAN PARISH OF WOLFE ISLAND", "designationCode": "C", "categoryCode": "30", "address": "129 HICKORY LANE", "city": "WOLFE ISLAND", "province": "ON", "country": "CA", "postalCode": "K0H2Y0", "twitter": "None", "instagram": "None", "facebook": "None", "youtube": "None", "website": "None", "summary": "None", "logo": "None", "latitude": 44.23030078575629, "longitude": -76.18443442536265}, "106713753RR0001": {"name": "THE ANGLICAN PROVINCIAL SYNOD OF BRITISH COLUMBIA", "designationCode": "C", "categoryCode": "49", "address": "102-3191 MOUNTAIN HWY", "city": "NORTH VANCOUVER", "province": "BC", "country": "CA", "postalCode": "V7K2H4", "twitter": "None", "instagram": "None", "facebook": "None", "youtube": "None", "website": "None", "summary": "None", "logo": "None", "latitude": 49.33795252990391, "longitude": -123.03824255252579}, "883300626RR0001": {"name": "THE ANIMAL CANCER THERAPY SUBSIDIZATION SOCIETY (ACTSS)", "designationCode": "C", "categoryCode": "54", "address": "PO BOX 68224                  RPO BONNIE DOON SHO", "city": "EDMONTON", "province": "AB", "country": "CA", "postalCode": "T6C4N6", "twitter": "None", "instagram": "None", "facebook": "None", "youtube": "None", "website": "None", "summary": "None", "logo": "None", "latitude": 53.52532000000008, "longitude": -113.46759999999995}, "867832180RR0001": {"name": "THE ANIMAL GUARDIAN SOCIETY", "designationCode": "C", "categoryCode": "54", "address": "1970 CONCESSION ROAD NINE", "city": "BLACKSTOCK", "province": "ON", "country": "CA", "postalCode": "L0B1B0", "twitter": "None", "instagram": "None", "facebook": "None", "youtube": "None", "website": "None", "summary": "None", "logo": "None", "latitude": 44.03439612577154, "longitude": -78.80818751292618}, "119212793RR0001": {"name": "THE ANISFELD CHARITABLE TRUST", "designationCode": "B", "categoryCode": "05", "address": "407-3200 DUFFERIN STREET", "city": "TORONTO", "province": "ON", "country": "CA", "postalCode": "M6A3B2", "twitter": "None", "instagram": "None", "facebook": "None", "youtube": "None", "website": "None", "summary": "None", "logo": "None", "latitude": 43.71839373466443, "longitude": -79.45566924314721}, "892450818RR0001": {"name": "THE ANN CONNOLLY GIRL GUIDE SCHOLARSHIP FUND", "designationCode": "C", "categoryCode": "21", "address": "57 HARMONY DR", "city": "RIVERVIEW", "province": "NB", "country": "CA", "postalCode": "E1B0L6", "twitter": "None", "instagram": "None", "facebook": "None", "youtube": "None", "website": "None", "summary": "None", "logo": "None", "latitude": 46.07002992225331, "longitude": -64.75552995251311}, "883368813RR0001": {"name": "THE ANNA TEMPLETON CENTRE FOR CRAFT, ART AND DESIGN, INC", "designationCode": "C", "categoryCode": "22", "address": "278 DUCKWORTH STREET", "city": "ST JOHNS", "province": "NL", "country": "CA", "postalCode": "A1C1H3", "twitter": "None", "instagram": "None", "facebook": "None", "youtube": "None", "website": "None", "summary": "None", "logo": "None", "latitude": 47.565807453517195, "longitude": -52.706402071758234}, "132846254RR0001": {"name": "THE ANNAPOLIS VALLEY HIGHLAND SOCIETY", "designationCode": "C", "categoryCode": "22", "address": "P.O. BOX 700", "city": "MIDDLETON", "province": "NS", "country": "CA", "postalCode": "B0S1P0", "twitter": "None", "instagram": "None", "facebook": "None", "youtube": "None", "website": "None", "summary": "None", "logo": "None", "latitude": 45.01449600000005, "longitude": -65.06449099999993}, "889706651RR0001": {"name": "THE ANNE BURROWS FOUNDATION FOR YOUNG MUSICIANS", "designationCode": "C", "categoryCode": "22", "address": "P.O. BOX 76115 RPO SOUTHGATE", "city": "EDMONTON", "province": "AB", "country": "CA", "postalCode": "T6H5Y7", "twitter": "None", "instagram": "None", "facebook": "None", "youtube": "None", "website": "None", "summary": "None", "logo": "None", "latitude": 53.48413000000005, "longitude": -113.51408999999995}, "891557944RR0001": {"name": "THE ANNE BUTLER SLAGHT FOUNDATION", "designationCode": "B", "categoryCode": "03", "address": "181 UNIVERSITY AVENUE         SUITE 1400", "city": "TORONTO", "province": "ON", "country": "CA", "postalCode": "M5H3M7", "twitter": "None", "instagram": "None", "facebook": "None", "youtube": "None", "website": "None", "summary": "None", "logo": "None", "latitude": 43.6491102983726, "longitude": -79.38556924822579}, "837205764RR0001": {"name": "THE ANNE MARIE BAILEY FUND", "designationCode": "A", "categoryCode": "03", "address": "#405-4603 KINGSWAY", "city": "BURNABY", "province": "BC", "country": "CA", "postalCode": "V5H4M4", "twitter": "None", "instagram": "None", "facebook": "None", "youtube": "None", "website": "None", "summary": "None", "logo": "None", "latitude": 49.229330192500214, "longitude": -123.00192017828068}, "119212819RR0001": {"name": "THE ANNEX ASSOCIATION FOR EXCEPTIONAL CHILDREN", "designationCode": "C", "categoryCode": "20", "address": "26-6588 BARNARD DR", "city": "RICHMOND", "province": "BC", "country": "CA", "postalCode": "V7C5R8", "twitter": "None", "instagram": "None", "facebook": "None", "youtube": "None", "website": "None", "summary": "None", "logo": "None", "latitude": 49.166658605906335, "longitude": -123.1845719675007}, "871653945RR0001": {"name": "THE ANNEX CAT RESCUE", "designationCode": "C", "categoryCode": "54", "address": "BOX 19028                     360A BLOOR ST WEST", "city": "TORONTO", "province": "ON", "country": "CA", "postalCode": "M5S3C9", "twitter": "None", "instagram": "None", "facebook": "None", "youtube": "None", "website": "None", "summary": "None", "logo": "None", "latitude": 43.6665077600754, "longitude": -79.40499142685711}, "119212868RR0001": {"name": "THE ANTHONY HENDAY HISTORICAL SOCIETY", "designationCode": "C", "categoryCode": "50", "address": "BOX 374", "city": "DELBURNE", "province": "AB", "country": "CA", "postalCode": "T0M0V0", "twitter": "None", "instagram": "None", "facebook": "None", "youtube": "None", "website": "None", "summary": "None", "logo": "None", "latitude": 52.19744000000003, "longitude": -113.23499999999996}, "135250298RR0001": {"name": "THE ANTHROPOSOPHICAL SOCIETY IN CANADA, INC.", "designationCode": "C", "categoryCode": "99", "address": "131-1 HESPERUS RD", "city": "THORNHILL", "province": "ON", "country": "CA", "postalCode": "L4J0G9", "twitter": "None", "instagram": "None", "facebook": "None", "youtube": "None", "website": "None", "summary": "None", "logo": "None", "latitude": 43.84419412155928, "longitude": -79.46447902969015}, "893178376RR0001": {"name": "THE ANTIGONISH TOWN AND COUNTY CRIME PREVENTION ASSOCIATION", "designationCode": "C", "categoryCode": "59", "address": "4 FAIRVIEW ST", "city": "ANTIGONISH", "province": "NS", "country": "CA", "postalCode": "B2G1R3", "twitter": "None", "instagram": "None", "facebook": "None", "youtube": "None", "website": "None", "summary": "None", "logo": "None", "latitude": 45.6165544499105, "longitude": -62.00026476253694}, "826146474RR0001": {"name": "THE ANTIOCHIAN ORTHODOX CHRISITAN COMMUNITY OF FORT SASKATCHEWAN", "designationCode": "C", "categoryCode": "39", "address": "BOX 1201", "city": "REDWATER", "province": "AB", "country": "CA", "postalCode": "T0A2W0", "twitter": "None", "instagram": "None", "facebook": "None", "youtube": "None", "website": "None", "summary": "None", "logo": "None", "latitude": 53.94921000000005, "longitude": -113.10568999999998}, "873403224RR0001": {"name": "THE ANTJE GRAUPE PRYOR FOUNDATION / LA FONDATION ANTJE GRAUPE PRYOR", "designationCode": "B", "categoryCode": "23", "address": "208-318 26TH AVE SW", "city": "CALGARY", "province": "AB", "country": "CA", "postalCode": "T2S2T9", "twitter": "None", "instagram": "None", "facebook": "None", "youtube": "None", "website": "None", "summary": "None", "logo": "None", "latitude": 51.02963144936225, "longitude": -114.06992910782503}, "885896696RR0001": {"name": "THE APEGA EDUCATION FOUNDATION", "designationCode": "C", "categoryCode": "21", "address": "1600 SCOTIA PLACE             10060 JASPER AVENUE", "city": "EDMONTON", "province": "AB", "country": "CA", "postalCode": "T5J4A2", "twitter": "None", "instagram": "None", "facebook": "None", "youtube": "None", "website": "None", "summary": "None", "logo": "None", "latitude": 53.541084453834316, "longitude": -113.49278554108712}, "891797045RR0001": {"name": "THE APEGNB FOUNDATION FOR EDUCATION INC.", "designationCode": "C", "categoryCode": "21", "address": "183 HANWELL ROAD", "city": "FREDERICTON", "province": "NB", "country": "CA", "postalCode": "E3B2R2", "twitter": "None", "instagram": "None", "facebook": "None", "youtube": "None", "website": "None", "summary": "None", "logo": "None", "latitude": 45.96005044102372, "longitude": -66.66900520442601}, "888948395RR0001": {"name": "THE APOSTLES' CONTINUATION CHURCH", "designationCode": "C", "categoryCode": "39", "address": "10 BELFIELD ROAD", "city": "ETOBICOKE", "province": "ON", "country": "CA", "postalCode": "M9W1G1", "twitter": "None", "instagram": "None", "facebook": "None", "youtube": "None", "website": "None", "summary": "None", "logo": "None", "latitude": 43.704520636707166, "longitude": -79.56465124952385}, "869378273RR0001": {"name": "THE APOSTLES' CONTINUATION CHURCH OF CANADA", "designationCode": "C", "categoryCode": "39", "address": "378 CREMAZIE", "city": "MONTREAL", "province": "QC", "country": "CA", "postalCode": "H2P1E5", "twitter": "None", "instagram": "None", "facebook": "None", "youtube": "None", "website": "None", "summary": "None", "logo": "None", "latitude": 45.54502098444811, "longitude": -73.63872801177233}, "132803602RR0001": {"name": "THE APOSTOLIC ARK PENTECOSTAL CHURCH OF CALGARY", "designationCode": "C", "categoryCode": "47", "address": "117 APPLESIDE CLOSE SE", "city": "CALGARY", "province": "AB", "country": "CA", "postalCode": "T2A7T9", "twitter": "None", "instagram": "None", "facebook": "None", "youtube": "None", "website": "None", "summary": "None", "logo": "None", "latitude": 51.04960336164807, "longitude": -113.92393668665243}, "890224595RR0001": {"name": "THE APOSTOLIC ASSEMBLY OF OUR LORD AND SAVIOUR JESUS CHRIST", "designationCode": "C", "categoryCode": "39", "address": "191 SCHELL AVE", "city": "TORONTO", "province": "ON", "country": "CA", "postalCode": "M6E2T3", "twitter": "None", "instagram": "None", "facebook": "None", "youtube": "None", "website": "None", "summary": "None", "logo": "None", "latitude": 43.696646885913886, "longitude": -79.46148670246411}, "108071481RR0001": {"name": "THE APOSTOLIC CHURCH IN CANADA", "designationCode": "C", "categoryCode": "39", "address": "220 ADELAIDE ST N", "city": "LONDON", "province": "ON", "country": "CA", "postalCode": "N6B3H4", "twitter": "None", "instagram": "None", "facebook": "None", "youtube": "None", "website": "None", "summary": "None", "logo": "None", "latitude": 42.98308332973622, "longitude": -81.22902889226187}, "864919725RR0001": {"name": "THE APOSTOLIC CHURCH INTERNATIONAL (TORONTO) CANADA INC.", "designationCode": "C", "categoryCode": "39", "address": "168 REXDALE BLVD", "city": "ETOBICOKE", "province": "ON", "country": "CA", "postalCode": "M9W1P6", "twitter": "None", "instagram": "None", "facebook": "None", "youtube": "None", "website": "None", "summary": "None", "logo": "None", "latitude": 43.71146326845131, "longitude": -79.57053913791924}, "106718687RR0001": {"name": "THE APOSTOLIC CHURCH OF PENTECOST OF HIGH RIVER", "designationCode": "C", "categoryCode": "36", "address": "1802 9 AVE SE", "city": "HIGH RIVER", "province": "AB", "country": "CA", "postalCode": "T1V2A6", "twitter": "None", "instagram": "None", "facebook": "None", "youtube": "None", "website": "None", "summary": "None", "logo": "None", "latitude": 50.5744544760513, "longitude": -113.839632}, "119212942RR0001": {"name": "THE APOSTOLIC HOLINESS CHURCH OF JESUS CHRIST (TORONTO) CORPORATION", "designationCode": "C", "categoryCode": "39", "address": "40 EMPRESS AVE", "city": "HAMILTON", "province": "ON", "country": "CA", "postalCode": "L9A1M3", "twitter": "None", "instagram": "None", "facebook": "None", "youtube": "None", "website": "None", "summary": "None", "logo": "None", "latitude": 43.240215047838376, "longitude": -79.87484013524343}, "805454683RR0001": {"name": "THE APOSTOLIC LIGHTHOUSE TABERNACLE INC.", "designationCode": "C", "categoryCode": "39", "address": "529 ROUTE 560", "city": "JACKSONVILLE", "province": "NB", "country": "CA", "postalCode": "E7M3H9", "twitter": "None", "instagram": "None", "facebook": "None", "youtube": "None", "website": "None", "summary": "None", "logo": "None", "latitude": 46.20892783985289, "longitude": -67.61367315162323}, "119212959RR0001": {"name": "THE APOSTOLIC TRUSTEES OF THE FRIARS MINOR OR FRANCISCANS OF WESTERN CANADA", "designationCode": "C", "categoryCode": "49", "address": "PO BOX 430                    41160 RETREAT RD", "city": "COCHRANE", "province": "AB", "country": "CA", "postalCode": "T4C1A6", "twitter": "None", "instagram": "None", "facebook": "None", "youtube": "None", "website": "None", "summary": "None", "logo": "None", "latitude": 51.202466428876, "longitude": -114.45892676521999}, "857723688RR0001": {"name": "THE APOSTOLIC WATCHMAN CHURCH INC.", "designationCode": "C", "categoryCode": "39", "address": "1122 TRIPP SETTLEMENT RD", "city": "BURTTS CORNER", "province": "NB", "country": "CA", "postalCode": "E6L1X9", "twitter": "None", "instagram": "None", "facebook": "None", "youtube": "None", "website": "None", "summary": "None", "logo": "None", "latitude": 46.057949393819726, "longitude": -66.86800991877804}, "886322627RR0001": {"name": "THE APPLE CAPITAL MUSEUM SOCIETY", "designationCode": "C", "categoryCode": "50", "address": "173 COMMERCIAL ST.            P.O. BOX 730", "city": "BERWICK", "province": "NS", "country": "CA", "postalCode": "B0P1E0", "twitter": "None", "instagram": "None", "facebook": "None", "youtube": "None", "website": "None", "summary": "None", "logo": "None", "latitude": 45.04164285345377, "longitude": -64.73484587650748}, "899505531RR0001": {"name": "THE APPLE TREE FOUNDATION OF THE KINGS REGIONAL REHABILITATION CENTRE", "designationCode": "A", "categoryCode": "13", "address": "PO BOX 128", "city": "WATERVILLE", "province": "NS", "country": "CA", "postalCode": "B0P1V0", "twitter": "None", "instagram": "None", "facebook": "None", "youtube": "None", "website": "None", "summary": "None", "logo": "None", "latitude": 45.039787501043186, "longitude": -64.66005324982613}, "119212983RR0001": {"name": "THE APPLEBY COLLEGE FOUNDATION", "designationCode": "A", "categoryCode": "23", "address": "540 LAKESHORE RD. WEST", "city": "OAKVILLE", "province": "ON", "country": "CA", "postalCode": "L6K3P1", "twitter": "None", "instagram": "None", "facebook": "None", "youtube": "None", "website": "None", "summary": "None", "logo": "None", "latitude": 43.427185512897516, "longitude": -79.68791043184844}, "887247633RR0001": {"name": "THE APPLETON CHARITABLE FOUNDATION", "designationCode": "A", "categoryCode": "03", "address": "77 BLOOR STREET WEST          SUITE 1800A", "city": "TORONTO", "province": "ON", "country": "CA", "postalCode": "M5S1M2", "twitter": "None", "instagram": "None", "facebook": "None", "youtube": "None", "website": "None", "summary": "None", "logo": "None", "latitude": 43.66957679430459, "longitude": -79.39000621980503}, "106719495RR0001": {"name": "THE ARAB COMMUNITY CENTRE OF TORONTO", "designationCode": "C", "categoryCode": "56", "address": "209-555 BURNHAMTHORPE RD", "city": "ETOBICOKE", "province": "ON", "country": "CA", "postalCode": "M9C2Y3", "twitter": "None", "instagram": "None", "facebook": "None", "youtube": "None", "website": "None", "summary": "None", "logo": "None", "latitude": 43.64443307412416, "longitude": -79.56788856731484}, "886079797RR0001": {"name": "THE ARCANGELO REA FAMILY FOUNDATION", "designationCode": "B", "categoryCode": "23", "address": "1 - 320 FERNDALE AVE", "city": "LONDON", "province": "ON", "country": "CA", "postalCode": "N6C5P7", "twitter": "None", "instagram": "None", "facebook": "None", "youtube": "None", "website": "None", "summary": "None", "logo": "None", "latitude": 42.94689450490475, "longitude": -81.25195146878062}, "132781212RR0001": {"name": "THE ARCHAEOLOGICAL SOCIETY OF ALBERTA", "designationCode": "C", "categoryCode": "52", "address": "190 TUDOR LANE NW", "city": "EDMONTON", "province": "AB", "country": "CA", "postalCode": "T6J3T5", "twitter": "None", "instagram": "None", "facebook": "None", "youtube": "None", "website": "None", "summary": "None", "logo": "None", "latitude": 53.46263550043268, "longitude": -113.5220535}, "852779529RR0001": {"name": "THE ARCHIBALD FAMILY FOUNDATION", "designationCode": "B", "categoryCode": "53", "address": "4500, 855-2ND STREET S.W.", "city": "CALGARY", "province": "AB", "country": "CA", "postalCode": "T2P4K7", "twitter": "None", "instagram": "None", "facebook": "None", "youtube": "None", "website": "None", "summary": "None", "logo": "None", "latitude": 51.04920186667524, "longitude": -114.0676309458328}, "108071556RR0001": {"name": "THE ARCHITECTURAL CONSERVANCY OF ONTARIO INC.", "designationCode": "C", "categoryCode": "52", "address": "10 ADELAIDE STREET EAST       SUITE 403", "city": "TORONTO", "province": "ON", "country": "CA", "postalCode": "M5C1J3", "twitter": "None", "instagram": "None", "facebook": "None", "youtube": "None", "website": "None", "summary": "None", "logo": "None", "latitude": 43.650610186796634, "longitude": -79.37773996225975}, "888564846RR0001": {"name": "THE ARCHITECTURAL FOUNDATION OF ALBERTA", "designationCode": "A", "categoryCode": "23", "address": "10347 71 AVE NW", "city": "EDMONTON", "province": "AB", "country": "CA", "postalCode": "T6E0W9", "twitter": "None", "instagram": "None", "facebook": "None", "youtube": "None", "website": "None", "summary": "None", "logo": "None", "latitude": 53.50735147403209, "longitude": -113.4965835}, "895805919RR0001": {"name": "THE ARCHITECTURE FOUNDATION OF BRITISH COLUMBIA", "designationCode": "A", "categoryCode": "23", "address": "351 BEWICKE AVE", "city": "NORTH VANCOUVER", "province": "BC", "country": "CA", "postalCode": "V7M3E9", "twitter": "None", "instagram": "None", "facebook": "None", "youtube": "None", "website": "None", "summary": "None", "logo": "None", "latitude": 49.32069433763525, "longitude": -123.0914257149756}, "137480471RR0001": {"name": "THE ARCHIVES ASSOCIATION OF ONTARIO", "designationCode": "C", "categoryCode": "50", "address": "200 - 411 RICHMOND ST E", "city": "TORONTO", "province": "ON", "country": "CA", "postalCode": "M5A3S5", "twitter": "None", "instagram": "None", "facebook": "None", "youtube": "None", "website": "None", "summary": "None", "logo": "None", "latitude": 43.6538198892321, "longitude": -79.36691630070987}, "871123246RR0001": {"name": "THE ARI AND PEARL LITWIN FOUNDATION", "designationCode": "B", "categoryCode": "21", "address": "406 - 2800 14TH AVE", "city": "MARKHAM", "province": "ON", "country": "CA", "postalCode": "L3R0E4", "twitter": "None", "instagram": "None", "facebook": "None", "youtube": "None", "website": "None", "summary": "None", "logo": "None", "latitude": 43.83064087099621, "longitude": -79.35710040899627}, "823616875RR0001": {"name": "THE ARID FOUNDATION", "designationCode": "A", "categoryCode": "23", "address": "175 PINE ST S", "city": "THOROLD", "province": "ON", "country": "CA", "postalCode": "L2V3M5", "twitter": "None", "instagram": "None", "facebook": "None", "youtube": "None", "website": "None", "summary": "None", "logo": "None", "latitude": 43.11393191035259, "longitude": -79.20242864643068}, "138724042RR0001": {"name": "THE ARION MALE VOICE CHOIR", "designationCode": "C", "categoryCode": "22", "address": "612 DAVID STREET", "city": "VICTORIA", "province": "BC", "country": "CA", "postalCode": "V8T2E1", "twitter": "None", "instagram": "None", "facebook": "None", "youtube": "None", "website": "None", "summary": "None", "logo": "None", "latitude": 48.438615183478426, "longitude": -123.36942008993587}, "118958495RR0001": {"name": "THE ARK", "designationCode": "C", "categoryCode": "36", "address": "439 MAKENNY ST", "city": "HINTON", "province": "AB", "country": "CA", "postalCode": "T7V1H3", "twitter": "None", "instagram": "None", "facebook": "None", "youtube": "None", "website": "None", "summary": "None", "logo": "None", "latitude": 53.40707377849288, "longitude": -117.55308791003547}, "119213155RR0001": {"name": "THE ARK OF DELIVERANCE TABERNACLE", "designationCode": "C", "categoryCode": "39", "address": "56 CATTRICK  STREET", "city": "MISSISSAUGA", "province": "ON", "country": "CA", "postalCode": "L4T1H5", "twitter": "None", "instagram": "None", "facebook": "None", "youtube": "None", "website": "None", "summary": "None", "logo": "None", "latitude": 43.7031740127533, "longitude": -79.65220268168942}, "858024565RR0001": {"name": "THE ARK OF FAITH CHURCH", "designationCode": "C", "categoryCode": "39", "address": "6675 ELWELL STREET", "city": "BURNABY", "province": "BC", "country": "CA", "postalCode": "V5E1J9", "twitter": "None", "instagram": "None", "facebook": "None", "youtube": "None", "website": "None", "summary": "None", "logo": "None", "latitude": 49.22115749321933, "longitude": -122.9655735}, "892329327RR0001": {"name": "THE ARK-COMMUNITY INITIATIVES SOCIETY", "designationCode": "C", "categoryCode": "59", "address": "57 L'ARCHE LANE", "city": "WHYCOCOMAGH", "province": "NS", "country": "CA", "postalCode": "B0E3M0", "twitter": "None", "instagram": "None", "facebook": "None", "youtube": "None", "website": "None", "summary": "None", "logo": "None", "latitude": 45.9395229081309, "longitude": -61.150502042472105}, "106721228RR0001": {"name": "THE ARK/LUNENBURG COUNTY ASSOCIATION FOR THE SPECIALLY CHALLENGED A.K.A. THE ARK/LCASC", "designationCode": "C", "categoryCode": "11", "address": "655 KING STREET", "city": "BRIDGEWATER", "province": "NS", "country": "CA", "postalCode": "B4V1B5", "twitter": "None", "instagram": "None", "facebook": "None", "youtube": "None", "website": "None", "summary": "None", "logo": "None", "latitude": 44.37881861780837, "longitude": -64.5204842847826}, "888080447RR0001": {"name": "THE ARMENIAN APOSTOLIC CHURCH OF BRITISH COLUMBIA", "designationCode": "C", "categoryCode": "39", "address": "13780 WESTMINSTER HWY", "city": "RICHMOND", "province": "BC", "country": "CA", "postalCode": "V6V1A2", "twitter": "None", "instagram": "None", "facebook": "None", "youtube": "None", "website": "None", "summary": "None", "logo": "None", "latitude": 49.169909495672165, "longitude": -123.06973419317329}, "850935149RR0001": {"name": "THE ARMENIAN CANADIAN MEDICAL ASSOCIATION OF ONTARIO", "designationCode": "C", "categoryCode": "13", "address": "101 - 100 QUEEN ST S", "city": "MISSISSAUGA", "province": "ON", "country": "CA", "postalCode": "L5M1K8", "twitter": "None", "instagram": "None", "facebook": "None", "youtube": "None", "website": "None", "summary": "None", "logo": "None", "latitude": 43.58373511471678, "longitude": -79.71652444140132}, "873682868RR0001": {"name": "THE ARMENIAN RELIEF SOCIETY OF CANADA (A R S ) FOUNDATION/FONDATION DE LA CROIX DE SECOURS ARMENIENNE DU CANADA (A R S )", "designationCode": "C", "categoryCode": "03", "address": "3401 OLIVAR-ASSELIN", "city": "MONTREAL", "province": "QC", "country": "CA", "postalCode": "H4J1L5", "twitter": "None", "instagram": "None", "facebook": "None", "youtube": "None", "website": "None", "summary": "None", "logo": "None", "latitude": 45.53229752873787, "longitude": -73.69718800790585}, "876128323RR0001": {"name": "THE ARMOR BEARER FOUNDATION", "designationCode": "B", "categoryCode": "43", "address": "BOX 74021 RPO FRASER HEIGHTS", "city": "SURREY", "province": "BC", "country": "CA", "postalCode": "V4N5H9", "twitter": "None", "instagram": "None", "facebook": "None", "youtube": "None", "website": "None", "summary": "None", "logo": "None", "latitude": 49.15939992792715, "longitude": -122.78433015014814}, "816007561RR0001": {"name": "THE ARMOR OF LIGHT CHRISTIAN FELLOWSHIP", "designationCode": "C", "categoryCode": "39", "address": "1477 MCCALLUM RD", "city": "ABBOTSFORD", "province": "BC", "country": "CA", "postalCode": "V2S8B2", "twitter": "None", "instagram": "None", "facebook": "None", "youtube": "None", "website": "None", "summary": "None", "logo": "None", "latitude": 49.029036134817545, "longitude": -122.29332164828341}, "888501061RR0001": {"name": "THE ARMOUR RYERSON AND BURK'S FALLS AGRICULTURAL SOCIETY", "designationCode": "C", "categoryCode": "56", "address": "BOX 219", "city": "BURKS FALLS", "province": "ON", "country": "CA", "postalCode": "P0A1C0", "twitter": "None", "instagram": "None", "facebook": "None", "youtube": "None", "website": "None", "summary": "None", "logo": "None", "latitude": 45.61840992339439, "longitude": -79.40771996667443}, "128201845RR0001": {"name": "THE ARMS OF JESUS CHILDREN'S MISSION INC.", "designationCode": "C", "categoryCode": "49", "address": "1730 MCPHERSON COURT          UNIT#19", "city": "PICKERING", "province": "ON", "country": "CA", "postalCode": "L1E3E6", "twitter": "None", "instagram": "None", "facebook": "None", "youtube": "None", "website": "None", "summary": "None", "logo": "None", "latitude": 43.8215311302436, "longitude": -79.06070678798525}, "119213205RR0001": {"name": "THE ARMSTRONG OLD TIMERS ACTIVITY CENTRE ASSOCIATION", "designationCode": "C", "categoryCode": "09", "address": "2520 PATTERSON AVE            PO BOX 573", "city": "ARMSTRONG", "province": "BC", "country": "CA", "postalCode": "V0E1B0", "twitter": "None", "instagram": "None", "facebook": "None", "youtube": "None", "website": "None", "summary": "None", "logo": "None", "latitude": 50.44720439107845, "longitude": -119.1919252574297}, "106721988RR0001": {"name": "THE ARMSTRONG PLAY-SCHOOL ASSOCIATION", "designationCode": "C", "categoryCode": "20", "address": "3260 ROSEDALE AVE", "city": "ARMSTRONG", "province": "BC", "country": "CA", "postalCode": "V0E1B2", "twitter": "None", "instagram": "None", "facebook": "None", "youtube": "None", "website": "None", "summary": "None", "logo": "None", "latitude": 50.4414975004327, "longitude": -119.20036402553522}, "119243798RR0001": {"name": "THE ARMY CADET LEAGUE OF CANADA (MANITOBA) INCORPORATED / LA LIGUE DES CADETS DE L'ARM\u00c9E DU CANADA (MANITOBA) INCORPOR\u00c9E", "designationCode": "C", "categoryCode": "29", "address": "103 BLACKWOOD BAY", "city": "WINNIPEG", "province": "MB", "country": "CA", "postalCode": "R3T5X2", "twitter": "None", "instagram": "None", "facebook": "None", "youtube": "None", "website": "None", "summary": "None", "logo": "None", "latitude": 49.78973317733294, "longitude": -97.16048260447816}, "119053965RR0001": {"name": "THE ARMY CADET LEAGUE OF CANADA (NEW BRUNSWICK), INC. - LA LIGUE DES CADETS DE L'ARMEE, INC.", "designationCode": "C", "categoryCode": "29", "address": "939 CH ST-ANDR\u00c9", "city": "ST-ANDR\u00c9-LEBLANC", "province": "NB", "country": "CA", "postalCode": "E4P6E1", "twitter": "None", "instagram": "None", "facebook": "None", "youtube": "None", "website": "None", "summary": "None", "logo": "None", "latitude": 46.18170346684877, "longitude": -64.28256623220048}, "108071572RR0001": {"name": "THE ARMY CADET LEAGUE OF CANADA (ONTARIO)/LA LIGUE DES CADETS DE L'ARMEE DU CANADA (ONTARIO)", "designationCode": "C", "categoryCode": "29", "address": "527 - 1200 MARKHAM RD", "city": "SCARBOROUGH", "province": "ON", "country": "CA", "postalCode": "M1H3C3", "twitter": "None", "instagram": "None", "facebook": "None", "youtube": "None", "website": "None", "summary": "None", "logo": "None", "latitude": 43.77665010629583, "longitude": -79.23186416307908}, "888537636RR0001": {"name": "THE ARMY CADET LEAGUE OF CANADA (SASKATCHEWAN) INC LA LIGUE", "designationCode": "C", "categoryCode": "29", "address": "811 MCCARTHY BLVD N", "city": "REGINA", "province": "SK", "country": "CA", "postalCode": "S4X2Y1", "twitter": "None", "instagram": "None", "facebook": "None", "youtube": "None", "website": "None", "summary": "None", "logo": "None", "latitude": 50.48985559242855, "longitude": -104.66379572665821}, "108071564RR0001": {"name": "THE ARMY CADET LEAGUE OF CANADA - LA LIGUE DES CADETS DE L'ARMEE DU CANADA", "designationCode": "C", "categoryCode": "29", "address": "201 - 1505 LAPERRIERE AVE", "city": "OTTAWA", "province": "ON", "country": "CA", "postalCode": "K1Z7T1", "twitter": "None", "instagram": "None", "facebook": "None", "youtube": "None", "website": "None", "summary": "None", "logo": "None", "latitude": 45.3779063308614, "longitude": -75.7424353600033}, "119247047RR0001": {"name": "THE ARMY CADET LEAGUE OF CANADA - NEWFOUNDLAND AND LABRADOR, INC.", "designationCode": "C", "categoryCode": "29", "address": "PO BOX 837", "city": "MOUNT PEARL", "province": "NL", "country": "CA", "postalCode": "A1N3C8", "twitter": "None", "instagram": "None", "facebook": "None", "youtube": "None", "website": "None", "summary": "None", "logo": "None", "latitude": 47.51892600000005, "longitude": -52.81489249999993}, "119063279RR0001": {"name": "THE ARMY CADET LEAGUE OF CANADA - NOVA SCOTIA", "designationCode": "C", "categoryCode": "29", "address": "19 ROUPEN COURT", "city": "HAMMONDS PLAINS", "province": "NS", "country": "CA", "postalCode": "B4B1L2", "twitter": "None", "instagram": "None", "facebook": "None", "youtube": "None", "website": "None", "summary": "None", "logo": "None", "latitude": 44.711716119049115, "longitude": -63.74951848502502}, "887835296RR0001": {"name": "THE ARMY CADET LEAGUE OF CANADA, BRITISH COLUMBIA BRANCH", "designationCode": "C", "categoryCode": "29", "address": "21-724 VANALMAN AVENUE", "city": "VICTORIA", "province": "BC", "country": "CA", "postalCode": "V8Z3B5", "twitter": "None", "instagram": "None", "facebook": "None", "youtube": "None", "website": "None", "summary": "None", "logo": "None", "latitude": 48.48250015520192, "longitude": -123.39353539935966}, "108071580RR0001": {"name": "THE ARMY MUSEUM HALIFAX CITADEL", "designationCode": "C", "categoryCode": "50", "address": "P.O. BOX 9080, STN A", "city": "HALIFAX", "province": "NS", "country": "CA", "postalCode": "B3K5M7", "twitter": "None", "instagram": "None", "facebook": "None", "youtube": "None", "website": "None", "summary": "None", "logo": "None", "latitude": 44.645478000000054, "longitude": -63.576552499999934}, "807815543RR0001": {"name": "THE ARNE AND DORIS ISABELLE WIBERG SCHOLARSHIPS", "designationCode": "B", "categoryCode": "21", "address": "155 WELLINGTON STREET WEST    20TH FL", "city": "TORONTO", "province": "ON", "country": "CA", "postalCode": "M5V3K7", "twitter": "None", "instagram": "None", "facebook": "None", "youtube": "None", "website": "None", "summary": "None", "logo": "None", "latitude": 43.64596585316531, "longitude": -79.38574575644876}, "871023008RR0002": {"name": "THE ARNICA Artist Run Centre Society", "designationCode": "C", "categoryCode": "22", "address": "#7 SEYMOUR ST. W.", "city": "KAMLOOPS", "province": "BC", "country": "CA", "postalCode": "V2C1E4", "twitter": "None", "instagram": "None", "facebook": "None", "youtube": "None", "website": "None", "summary": "None", "logo": "None"}, "887821031RR0001": {"name": "THE ART GALLERY AT HARBOURFRONT", "designationCode": "C", "categoryCode": "50", "address": "235 QUEEN'S QUAY WEST", "city": "TORONTO", "province": "ON", "country": "CA", "postalCode": "M5J2G8", "twitter": "None", "instagram": "None", "facebook": "None", "youtube": "None", "website": "None", "summary": "None", "logo": "None", "latitude": 43.63935976934627, "longitude": -79.38311842700101}, "868296294RR0001": {"name": "THE ART GALLERY FOUNDATION OF ST THOMAS AND ELGIN ENDOWMENT FUND", "designationCode": "A", "categoryCode": "25", "address": "301 TALBOT STREET", "city": "ST THOMAS", "province": "ON", "country": "CA", "postalCode": "N5P1B5", "twitter": "None", "instagram": "None", "facebook": "None", "youtube": "None", "website": "None", "summary": "None", "logo": "None", "latitude": 42.7791614942744, "longitude": -81.19984656808256}, "108071630RR0001": {"name": "THE ART GALLERY OF ALGOMA", "designationCode": "C", "categoryCode": "50", "address": "10 EAST ST", "city": "SAULT STE MARIE", "province": "ON", "country": "CA", "postalCode": "P6A3C3", "twitter": "None", "instagram": "None", "facebook": "None", "youtube": "None", "website": "None", "summary": "None", "logo": "None", "latitude": 46.50626100126704, "longitude": -84.33011546042219}, "106723588RR0002": {"name": "THE ART GALLERY OF HAMILTON", "designationCode": "C", "categoryCode": "50", "address": "123 KING ST W", "city": "HAMILTON", "province": "ON", "country": "CA", "postalCode": "L8P4S8", "twitter": "None", "instagram": "None", "facebook": "None", "youtube": "None", "website": "None", "summary": "None", "logo": "None", "latitude": 43.257543067978666, "longitude": -79.87224890120599}, "892904368RR0001": {"name": "THE ART GALLERY OF ONTARIO FOUNDATION", "designationCode": "A", "categoryCode": "23", "address": "317 DUNDAS ST W", "city": "TORONTO", "province": "ON", "country": "CA", "postalCode": "M5T1G4", "twitter": "None", "instagram": "None", "facebook": "None", "youtube": "None", "website": "None", "summary": "None", "logo": "None", "latitude": 43.65403286311997, "longitude": -79.39271665041272}, "121871198RR0001": {"name": "THE ART GALLERY OF PETERBOROUGH", "designationCode": "C", "categoryCode": "22", "address": "630 PARKHILL RD W.            PH #1", "city": "PETERBOROUGH", "province": "ON", "country": "CA", "postalCode": "K9J6N6", "twitter": "None", "instagram": "None", "facebook": "None", "youtube": "None", "website": "None", "summary": "None", "logo": "None", "latitude": 44.31053910355455, "longitude": -78.34167041799864}, "119213361RR0001": {"name": "THE ART GALLERY OF SOUTHWESTERN MANITOBA INC", "designationCode": "C", "categoryCode": "22", "address": "710 ROSSER AVE UNIT 2", "city": "BRANDON", "province": "MB", "country": "CA", "postalCode": "R7A0K9", "twitter": "None", "instagram": "None", "facebook": "None", "youtube": "None", "website": "None", "summary": "None", "logo": "None"}, "108071663RR0001": {"name": "THE ART GALLERY OF WINDSOR", "designationCode": "C", "categoryCode": "50", "address": "401 RIVERSIDE DRIVE WEST", "city": "WINDSOR", "province": "ON", "country": "CA", "postalCode": "N9A7J1", "twitter": "None", "instagram": "None", "facebook": "None", "youtube": "None", "website": "None", "summary": "None", "logo": "None", "latitude": 42.31864689255032, "longitude": -83.0447350053957}, "870728524RR0001": {"name": "THE ART OF TIME ENSEMBLE", "designationCode": "C", "categoryCode": "22", "address": "142 FORT YORK BLVD", "city": "TORONTO", "province": "ON", "country": "CA", "postalCode": "M5V0E3", "twitter": "None", "instagram": "None", "facebook": "None", "youtube": "None", "website": "None", "summary": "None", "logo": "None", "latitude": 43.63917927451082, "longitude": -79.39883487261234}, "889273173RR0001": {"name": "THE ART SCHOOL OF PETERBOROUGH", "designationCode": "C", "categoryCode": "20", "address": "174A CHARLOTTE ST", "city": "PETERBOROUGH", "province": "ON", "country": "CA", "postalCode": "K9J2T8", "twitter": "None", "instagram": "None", "facebook": "None", "youtube": "None", "website": "None", "summary": "None", "logo": "None", "latitude": 44.303487134482786, "longitude": -78.32076527998109}, "897658936RR0001": {"name": "THE ART STARTS IN SCHOOLS SOCIETY", "designationCode": "C", "categoryCode": "21", "address": "808 RICHARDS STREET", "city": "VANCOUVER", "province": "BC", "country": "CA", "postalCode": "V6B3A7", "twitter": "None", "instagram": "None", "facebook": "None", "youtube": "None", "website": "None", "summary": "None", "logo": "None", "latitude": 49.27991152642436, "longitude": -123.1179969512208}, "108071671RR0003": {"name": "THE ARTHRITIS SOCIETY-LA SOCIETE D'ARTHRITE", "designationCode": "C", "categoryCode": "11", "address": "1700-393 UNIVERSITY AVE", "city": "TORONTO", "province": "ON", "country": "CA", "postalCode": "M5G1E6", "twitter": "None", "instagram": "None", "facebook": "None", "youtube": "None", "website": "None", "summary": "None", "logo": "None", "latitude": 43.653861019995304, "longitude": -79.38771027999343}, "894153584RR0001": {"name": "THE ARTHUR AND MARGARET WEISZ FAMILY FOUNDATION", "designationCode": "B", "categoryCode": "05", "address": "242 MAIN STREET E, SUITE 200", "city": "HAMILTON", "province": "ON", "country": "CA", "postalCode": "L8N1H5", "twitter": "None", "instagram": "None", "facebook": "None", "youtube": "None", "website": "None", "summary": "None", "logo": "None", "latitude": 43.25294203523008, "longitude": -79.86033893104037}, "835297672RR0001": {"name": "THE ARTHUR H. AND MARGARET E. BAKER FOUNDATION", "designationCode": "B", "categoryCode": "03", "address": "401 BAY STREET, SUITE 3100    P.O. BOX 49", "city": "TORONTO", "province": "ON", "country": "CA", "postalCode": "M5H2Y4", "twitter": "None", "instagram": "None", "facebook": "None", "youtube": "None", "website": "None", "summary": "None", "logo": "None", "latitude": 43.651658304201, "longitude": -79.38148850259707}, "119213510RR0001": {"name": "THE ARTHUR J E CHILD FOUNDATION", "designationCode": "B", "categoryCode": "23", "address": "4600 - 400 3 AVE SW", "city": "CALGARY", "province": "AB", "country": "CA", "postalCode": "T2P4H2", "twitter": "None", "instagram": "None", "facebook": "None", "youtube": "None", "website": "None", "summary": "None", "logo": "None", "latitude": 51.050585259196545, "longitude": -114.07240492388776}, "119213544RR0001": {"name": "THE ARTS CLUB OF VANCOUVER THEATRE BUILDING SOCIETY", "designationCode": "C", "categoryCode": "22", "address": "203 - 162 1ST AVE W", "city": "VANCOUVER", "province": "BC", "country": "CA", "postalCode": "V5Y0H6", "twitter": "None", "instagram": "None", "facebook": "None", "youtube": "None", "website": "None", "summary": "None", "logo": "None", "latitude": 49.27014921211808, "longitude": -123.1083731451992}, "825333347RR0001": {"name": "THE ARTS CLUB OF VANCOUVER THEATRE FOUNDATION", "designationCode": "A", "categoryCode": "23", "address": "203 - 162 1ST AVE W", "city": "VANCOUVER", "province": "BC", "country": "CA", "postalCode": "V5Y0H6", "twitter": "None", "instagram": "None", "facebook": "None", "youtube": "None", "website": "None", "summary": "None", "logo": "None", "latitude": 49.27014921211808, "longitude": -123.1083731451992}}