{"118851450RR0001": {"name": "CHESTERMERE REGIONAL COMMUNITY ASSOCIATION", "designationCode": "C", "categoryCode": "56", "address": "201 WEST CHESTERMERE DR.", "city": "CHESTERMERE", "province": "AB", "country": "CA", "postalCode": "T1X1B2", "twitter": "None", "instagram": "None", "facebook": "None", "youtube": "None", "website": "None", "summary": "None", "logo": "None", "latitude": 51.04771603239196, "longitude": -113.82131473833469}, "128229242RR0001": {"name": "CHESTERVILLE & DISTRICT AGRICULTURAL SOCIETY", "designationCode": "C", "categoryCode": "59", "address": "BOX 571", "city": "CHESTERVILLE", "province": "ON", "country": "CA", "postalCode": "K0C1H0", "twitter": "None", "instagram": "None", "facebook": "None", "youtube": "None", "website": "None", "summary": "None", "logo": "None", "latitude": 45.103770000000054, "longitude": -75.23067999999995}, "118851492RR0001": {"name": "CHESTERVILLE AND DISTRICT HISTORICAL SOCIETY", "designationCode": "C", "categoryCode": "50", "address": "P.O. BOX 693", "city": "CHESTERVILLE", "province": "ON", "country": "CA", "postalCode": "K0C1H0", "twitter": "None", "instagram": "None", "facebook": "None", "youtube": "None", "website": "None", "summary": "None", "logo": "None", "latitude": 45.103770000000054, "longitude": -75.23067999999995}, "118851518RR0001": {"name": "CHESTICO MUSEUM & HISTORICAL SOCIETY", "designationCode": "C", "categoryCode": "50", "address": "8095 ROUTE 19                 PO BOX 144", "city": "PORT HOOD", "province": "NS", "country": "CA", "postalCode": "B0E2W0", "twitter": "None", "instagram": "None", "facebook": "None", "youtube": "None", "website": "None", "summary": "None", "logo": "None", "latitude": 45.981999701305114, "longitude": -61.51729406465752}, "119288918RR0649": {"name": "CHETICAMP NOVA SCOTIA CONGREGATION OF JEHOVAH'S WITNESSES", "designationCode": "C", "categoryCode": "61", "address": "BOX 456", "city": "CHETICAMP", "province": "NS", "country": "CA", "postalCode": "B0E1H0", "twitter": "None", "instagram": "None", "facebook": "None", "youtube": "None", "website": "None", "summary": "None", "logo": "None", "latitude": 46.60719600312706, "longitude": -61.03849596133188}, "118851534RR0001": {"name": "CHETICAMP VOLUNTARY FIRE DEPARTMENT", "designationCode": "C", "categoryCode": "59", "address": "15336 CABOT TRAIL             P.O. BOX 159", "city": "CHETICAMP", "province": "NS", "country": "CA", "postalCode": "B0E1H0", "twitter": "None", "instagram": "None", "facebook": "None", "youtube": "None", "website": "None", "summary": "None", "logo": "None", "latitude": 46.63286887953725, "longitude": -61.01008509781306}, "868217027RR0001": {"name": "CHETWYND AND DISTRICT HOSPITAL FOUNDATION", "designationCode": "C", "categoryCode": "19", "address": "BOX 121", "city": "CHETWYND", "province": "BC", "country": "CA", "postalCode": "V0C1J0", "twitter": "None", "instagram": "None", "facebook": "None", "youtube": "None", "website": "None", "summary": "None", "logo": "None", "latitude": 55.13200336111122, "longitude": -121.00608273128003}, "119288918RR0213": {"name": "CHETWYND B C CONGREGATION OF JEHOVAH'S WITNESSES,", "designationCode": "C", "categoryCode": "61", "address": "BOX 866", "city": "CHETWYND", "province": "BC", "country": "CA", "postalCode": "V0C1J0", "twitter": "None", "instagram": "None", "facebook": "None", "youtube": "None", "website": "None", "summary": "None", "logo": "None", "latitude": 55.13200336111122, "longitude": -121.00608273128003}, "875881112RR0001": {"name": "CHETWYND CHRISTIAN FELLOWSHIP", "designationCode": "C", "categoryCode": "39", "address": "P. O. BOX 2352", "city": "CHETWYND", "province": "BC", "country": "CA", "postalCode": "V0C1J0", "twitter": "None", "instagram": "None", "facebook": "None", "youtube": "None", "website": "None", "summary": "None", "logo": "None", "latitude": 55.13200336111122, "longitude": -121.00608273128003}, "891189375RR0001": {"name": "CHETWYND CHRISTIAN YOUTH SOCIETY", "designationCode": "A", "categoryCode": "09", "address": "BOX 687", "city": "CHETWYND", "province": "BC", "country": "CA", "postalCode": "V0C1J0", "twitter": "None", "instagram": "None", "facebook": "None", "youtube": "None", "website": "None", "summary": "None", "logo": "None", "latitude": 55.13200336111122, "longitude": -121.00608273128003}, "884356007RR0001": {"name": "CHETWYND CHRISTMAS BUREAU SOCIETY", "designationCode": "C", "categoryCode": "09", "address": "5120-46TH AVE                 PO BOX 2458", "city": "CHETWYND", "province": "BC", "country": "CA", "postalCode": "V0C1J0", "twitter": "None", "instagram": "None", "facebook": "None", "youtube": "None", "website": "None", "summary": "None", "logo": "None", "latitude": 55.70100566871879, "longitude": -121.63495261504296}, "118851559RR0001": {"name": "CHETWYND COMMUNITY CHURCH", "designationCode": "C", "categoryCode": "39", "address": "BOX 726", "city": "BURKS FALLS", "province": "ON", "country": "CA", "postalCode": "P0A1C0", "twitter": "None", "instagram": "None", "facebook": "None", "youtube": "None", "website": "None", "summary": "None", "logo": "None", "latitude": 45.61863000000005, "longitude": -79.40468999999996}, "855485793RR0001": {"name": "CHETWYND FELLOWSHIP BAPTIST CHURCH", "designationCode": "C", "categoryCode": "31", "address": "BOX 1164", "city": "CHETWYND", "province": "BC", "country": "CA", "postalCode": "V0C1J0", "twitter": "None", "instagram": "None", "facebook": "None", "youtube": "None", "website": "None", "summary": "None", "logo": "None", "latitude": 55.13200336111122, "longitude": -121.00608273128003}, "106912421RR0001": {"name": "CHETWYND GOSPEL TABERNACLE", "designationCode": "C", "categoryCode": "36", "address": "PO BOX 478", "city": "CHETWYND", "province": "BC", "country": "CA", "postalCode": "V0C1J0", "twitter": "None", "instagram": "None", "facebook": "None", "youtube": "None", "website": "None", "summary": "None", "logo": "None", "latitude": 55.13200336111122, "longitude": -121.00608273128003}, "106912439RR0001": {"name": "CHETWYND PUBLIC LIBRARY ASSOCIATION", "designationCode": "C", "categoryCode": "50", "address": "PO BOX 1420", "city": "CHETWYND", "province": "BC", "country": "CA", "postalCode": "V0C1J0", "twitter": "None", "instagram": "None", "facebook": "None", "youtube": "None", "website": "None", "summary": "None", "logo": "None", "latitude": 55.13200336111122, "longitude": -121.00608273128003}, "118818491RR0003": {"name": "CHETWYND SEVENTH-DAY ADVENTIST CHURCH", "designationCode": "C", "categoryCode": "41", "address": "PO 1000", "city": "ABBOTSFORD", "province": "BC", "country": "CA", "postalCode": "V2S4P5", "twitter": "None", "instagram": "None", "facebook": "None", "youtube": "None", "website": "None", "summary": "None", "logo": "None", "latitude": 49.03851300000005, "longitude": -122.29441549999993}, "108076456RR0001": {"name": "CHETWYND SHARED MINISTRY SOCIETY", "designationCode": "C", "categoryCode": "39", "address": "BOX 2200", "city": "CHETWYND", "province": "BC", "country": "CA", "postalCode": "V0C1J0", "twitter": "None", "instagram": "None", "facebook": "None", "youtube": "None", "website": "None", "summary": "None", "logo": "None", "latitude": 55.13200336111122, "longitude": -121.00608273128003}, "886052190RR0001": {"name": "CHEVALIER DES ONDES", "designationCode": "C", "categoryCode": "29", "address": "6615 VIAU #1", "city": "MONTREAL", "province": "QC", "country": "CA", "postalCode": "H1T2Y8", "twitter": "None", "instagram": "None", "facebook": "None", "youtube": "None", "website": "None", "summary": "None", "logo": "None", "latitude": 45.5718018809509, "longitude": -73.57431267969885}, "118851658RR0001": {"name": "CHEVRA KADISHA OF CALGARY", "designationCode": "C", "categoryCode": "59", "address": "101 - 17818 37 ST SW", "city": "CALGARY", "province": "AB", "country": "CA", "postalCode": "T2Y0M9", "twitter": "None", "instagram": "None", "facebook": "None", "youtube": "None", "website": "None", "summary": "None", "logo": "None", "latitude": 50.893873459893825, "longitude": -114.14024063555331}, "118851617RR0001": {"name": "CHEVRA MISHNAYES SYNAGOGUE INC.", "designationCode": "C", "categoryCode": "42", "address": "700 JEFFERSON AVE", "city": "WINNIPEG", "province": "MB", "country": "CA", "postalCode": "R2V0P6", "twitter": "None", "instagram": "None", "facebook": "None", "youtube": "None", "website": "None", "summary": "None", "logo": "None", "latitude": 49.94146805355195, "longitude": -97.14384013004205}, "861508174RR0001": {"name": "CHEVRA OSEH CHESED FINANCIAL ASSISTANCE ORGANIZATION", "designationCode": "C", "categoryCode": "03", "address": "2770 DUFFERIN STREET          SUITE 201", "city": "TORONTO", "province": "ON", "country": "CA", "postalCode": "M6B3R7", "twitter": "None", "instagram": "None", "facebook": "None", "youtube": "None", "website": "None", "summary": "None", "logo": "None", "latitude": 43.70413018067982, "longitude": -79.4525475466557}, "118851666RR0001": {"name": "CHEVRA SHAS,", "designationCode": "C", "categoryCode": "42", "address": "3545 BATHURST STREET", "city": "TORONTO", "province": "ON", "country": "CA", "postalCode": "M6A2C7", "twitter": "None", "instagram": "None", "facebook": "None", "youtube": "None", "website": "None", "summary": "None", "logo": "None", "latitude": 43.73018442576028, "longitude": -79.43223782566818}, "890241375RR0001": {"name": "CHEVRAH MESAMCHEI LEV", "designationCode": "C", "categoryCode": "09", "address": "5247 HUTCHISON", "city": "MONTREAL", "province": "QC", "country": "CA", "postalCode": "H2V4B7", "twitter": "None", "instagram": "None", "facebook": "None", "youtube": "None", "website": "None", "summary": "None", "logo": "None", "latitude": 45.51994518096826, "longitude": -73.59921161933757}, "118851690RR0001": {"name": "CHEYNE PRESBYTERIAN CHURCH", "designationCode": "C", "categoryCode": "37", "address": "7 KING ST W", "city": "STONEY CREEK", "province": "ON", "country": "CA", "postalCode": "L8G1G7", "twitter": "None", "instagram": "None", "facebook": "None", "youtube": "None", "website": "None", "summary": "None", "logo": "None", "latitude": 43.21713991087219, "longitude": -79.75875765932818}, "885664235RR0001": {"name": "CHEZ EMILIE, MAISON D'ENTRAIDE POPULAIRE", "designationCode": "C", "categoryCode": "21", "address": "2106 RUE FULLUM", "city": "MONTREAL", "province": "QC", "country": "CA", "postalCode": "H2K3N7", "twitter": "None", "instagram": "None", "facebook": "None", "youtube": "None", "website": "None", "summary": "None", "logo": "None", "latitude": 45.53111075685278, "longitude": -73.55663263310046}, "889870176RR0001": {"name": "CHEZ MERE BRUYERE", "designationCode": "C", "categoryCode": "09", "address": "264 RUE OLMSTEAD", "city": "VANIER", "province": "ON", "country": "CA", "postalCode": "K1L7J8", "twitter": "None", "instagram": "None", "facebook": "None", "youtube": "None", "website": "None", "summary": "None", "logo": "None", "latitude": 45.436254182064786, "longitude": -75.66315962519461}, "895582252RR0001": {"name": "CHEZ-NOUS ENTRE HOMMES", "designationCode": "C", "categoryCode": "09", "address": "229  ST-MARCELE", "city": "DRUMMONDVILLE", "province": "QC", "country": "CA", "postalCode": "J2B2E3", "twitter": "None", "instagram": "None", "facebook": "None", "youtube": "None", "website": "None", "summary": "None", "logo": "None", "latitude": 45.87409045683542, "longitude": -72.48688569776091}, "893421164RR0001": {"name": "CHEZZETCOOK RECREATION FACILITY DEVELOPMENT SOCIETY", "designationCode": "C", "categoryCode": "53", "address": "284 PEARSON DRIVE             HD OF CHEZZETCOOK", "city": "HRM", "province": "NS", "country": "CA", "postalCode": "B0J1N0", "twitter": "None", "instagram": "None", "facebook": "None", "youtube": "None", "website": "None", "summary": "None", "logo": "None", "latitude": 44.75832207963543, "longitude": -63.224286738530914}, "886225853RR0001": {"name": "CHFT CHARITABLE FUND", "designationCode": "C", "categoryCode": "09", "address": "306-658 DANFORTH AVE", "city": "TORONTO", "province": "ON", "country": "CA", "postalCode": "M4J5B9", "twitter": "None", "instagram": "None", "facebook": "None", "youtube": "None", "website": "None", "summary": "None", "logo": "None", "latitude": 43.67903313962133, "longitude": -79.344487864014}, "853840742RR0001": {"name": "CHHA MONCTON", "designationCode": "C", "categoryCode": "11", "address": "100 CROIS BEAUJOLAIS", "city": "DIEPPE", "province": "NB", "country": "CA", "postalCode": "E1A8V6", "twitter": "None", "instagram": "None", "facebook": "None", "youtube": "None", "website": "None", "summary": "None", "logo": "None", "latitude": 46.0925911784581, "longitude": -64.7202033788734}, "831623673RR0001": {"name": "CHI SHIN TAO TEH TEMPLE", "designationCode": "C", "categoryCode": "39", "address": "11116 VICTORIA SQUARE BLVD", "city": "MARKHAM", "province": "ON", "country": "CA", "postalCode": "L6C1J5", "twitter": "None", "instagram": "None", "facebook": "None", "youtube": "None", "website": "None", "summary": "None", "logo": "None", "latitude": 43.91269846488548, "longitude": -79.37393874761928}, "837976273RR0001": {"name": "CHI-KI CHILDREN'S CHARITY", "designationCode": "C", "categoryCode": "09", "address": "43 GORDON WEEDEN ROAD", "city": "MARKHAM", "province": "ON", "country": "CA", "postalCode": "L6E2G4", "twitter": "None", "instagram": "None", "facebook": "None", "youtube": "None", "website": "None", "summary": "None", "logo": "None", "latitude": 43.907804643083786, "longitude": -79.24935377557867}, "883061178RR0001": {"name": "CHIBI TAIKO ASSOCIATION", "designationCode": "C", "categoryCode": "22", "address": "536 EAST 21ST STREET", "city": "NORTH VANCOUVER", "province": "BC", "country": "CA", "postalCode": "V7L3C3", "twitter": "None", "instagram": "None", "facebook": "None", "youtube": "None", "website": "None", "summary": "None", "logo": "None", "latitude": 49.32819953318127, "longitude": -123.05817016763805}, "119288918RR0704": {"name": "CHICOPEE CONGREGATION OF JEHOVAH'S WITNESSES", "designationCode": "C", "categoryCode": "61", "address": "71 ROTHSAY AVE", "city": "KITCHENER", "province": "ON", "country": "CA", "postalCode": "N2B3N4", "twitter": "None", "instagram": "None", "facebook": "None", "youtube": "None", "website": "None", "summary": "None", "logo": "None", "latitude": 43.46835023561675, "longitude": -80.44737367678466}, "118851732RR0001": {"name": "CHIEF & PETTY OFFICERS' VETERANS ASSISTANCE SOCIETY", "designationCode": "C", "categoryCode": "09", "address": "1253 C ESQUIMALT RD.", "city": "VICTORIA", "province": "BC", "country": "CA", "postalCode": "V9A3P4", "twitter": "None", "instagram": "None", "facebook": "None", "youtube": "None", "website": "None", "summary": "None", "logo": "None", "latitude": 48.42990759781307, "longitude": -123.41625850124073}, "808027189RR0001": {"name": "CHIEF AND FRIENDS FOUNDATION", "designationCode": "C", "categoryCode": "09", "address": "620 DAVIDA PL", "city": "VICTORIA", "province": "BC", "country": "CA", "postalCode": "V9A2C9", "twitter": "None", "instagram": "None", "facebook": "None", "youtube": "None", "website": "None", "summary": "None", "logo": "None", "latitude": 48.45509387901764, "longitude": -123.40585949443143}, "896805256RR0001": {"name": "CHIEF CORNERSTONE CHRISTIAN FELLOWSHIP INC.", "designationCode": "C", "categoryCode": "39", "address": "P.O.BOX 39", "city": "SANDY BAY", "province": "SK", "country": "CA", "postalCode": "S0P0G0", "twitter": "None", "instagram": "None", "facebook": "None", "youtube": "None", "website": "None", "summary": "None", "logo": "None", "latitude": 55.489180761597865, "longitude": -102.30575307059244}, "892099045RR0001": {"name": "CHIEF CORNERSTONE DRUG FREE WARRIOR SOCIETY", "designationCode": "C", "categoryCode": "99", "address": "12 - 4040 BLACKFOOT TRAIL SE", "city": "CALGARY", "province": "AB", "country": "CA", "postalCode": "T2G4E6", "twitter": "None", "instagram": "None", "facebook": "None", "youtube": "None", "website": "None", "summary": "None", "logo": "None", "latitude": 51.01891342492354, "longitude": -114.04832736577436}, "868982133RR0001": {"name": "CHIEF CORNERSTONE PENTECOSTAL CHURCH", "designationCode": "C", "categoryCode": "36", "address": "384 TALBOT AVE", "city": "WINNIPEG", "province": "MB", "country": "CA", "postalCode": "R2L0R3", "twitter": "None", "instagram": "None", "facebook": "None", "youtube": "None", "website": "None", "summary": "None", "logo": "None", "latitude": 49.90709868884546, "longitude": -97.10772844200466}, "891402612RR0001": {"name": "CHIEF JOE MATHIAS BRITISH COLUMBIA ABORIGINAL SCHOLARSHIP FUND", "designationCode": "C", "categoryCode": "21", "address": "P.O. BOX 49279, BENTALL CENTRE2800-1055 DUNSMUIR ST.", "city": "VANCOUVER", "province": "BC", "country": "CA", "postalCode": "V7X1P4", "twitter": "None", "instagram": "None", "facebook": "None", "youtube": "None", "website": "None", "summary": "None", "logo": "None", "latitude": 49.28608440276387, "longitude": -123.12107840339904}, "885309120RR0001": {"name": "CHIEF PEGUIS HERITAGE PARK INC", "designationCode": "C", "categoryCode": "50", "address": "BOX 44 STN MAIN", "city": "SELKIRK", "province": "MB", "country": "CA", "postalCode": "R1A2B1", "twitter": "None", "instagram": "None", "facebook": "None", "youtube": "None", "website": "None", "summary": "None", "logo": "None", "latitude": 50.126263301544775, "longitude": -96.89946750364722}, "885029801RR0001": {"name": "CHIEF SHEPHERD MINISTRIES", "designationCode": "C", "categoryCode": "39", "address": "UNIT 146 1100 MEMORIAL AVE.", "city": "THUNDER BAY", "province": "ON", "country": "CA", "postalCode": "P7B4A3", "twitter": "None", "instagram": "None", "facebook": "None", "youtube": "None", "website": "None", "summary": "None", "logo": "None", "latitude": 48.40423121426511, "longitude": -89.24559377676118}, "870262938RR0001": {"name": "CHIEFSWOOD BOARD OF TRUSTEES", "designationCode": "C", "categoryCode": "52", "address": "P.O. BOX 640", "city": "OHSWEKEN", "province": "ON", "country": "CA", "postalCode": "N0A1M0", "twitter": "None", "instagram": "None", "facebook": "None", "youtube": "None", "website": "None", "summary": "None", "logo": "None", "latitude": 43.06907000000007, "longitude": -80.11879999999996}, "119304111RR0001": {"name": "CHIEFSWOOD CHRISTIAN FELLOWSHIP", "designationCode": "C", "categoryCode": "39", "address": "P.O. BOX 24", "city": "OHSWEKEN", "province": "ON", "country": "CA", "postalCode": "N0A1M0", "twitter": "None", "instagram": "None", "facebook": "None", "youtube": "None", "website": "None", "summary": "None", "logo": "None", "latitude": 43.06907000000007, "longitude": -80.11879999999996}, "882065386RR0001": {"name": "CHIGNECTO CENTRAL REGIONAL SCHOOL BOARD", "designationCode": "C", "categoryCode": "20", "address": "60 LORNE STREET", "city": "TRURO", "province": "NS", "country": "CA", "postalCode": "B2N3K3", "twitter": "None", "instagram": "None", "facebook": "None", "youtube": "None", "website": "None", "summary": "None", "logo": "None", "latitude": 45.367912926741205, "longitude": -63.27964891618002}, "869912261RR0001": {"name": "CHIKOPI FOUNDATION", "designationCode": "C", "categoryCode": "21", "address": "373 COMMISSIONERS ROAD WEST", "city": "LONDON", "province": "ON", "country": "CA", "postalCode": "N6J1Y4", "twitter": "None", "instagram": "None", "facebook": "None", "youtube": "None", "website": "None", "summary": "None", "logo": "None", "latitude": 42.95571637001527, "longitude": -81.28060444047543}, "119288918RR1200": {"name": "CHILCOTIN CONGREGATION OF JEHOVAH'S WITNESSES", "designationCode": "C", "categoryCode": "61", "address": "2065 BUCKLEY DRIVE", "city": "WILLIAMS LAKE", "province": "BC", "country": "CA", "postalCode": "V2G4X8", "twitter": "None", "instagram": "None", "facebook": "None", "youtube": "None", "website": "None", "summary": "None", "logo": "None", "latitude": 52.120239000000055, "longitude": -122.13433699999993}, "892263443RR0001": {"name": "CHILCOTIN LOG CHURCH", "designationCode": "C", "categoryCode": "39", "address": "BOX 160 6563 HIGHWAY 20", "city": "HANCEVILLE", "province": "BC", "country": "CA", "postalCode": "V0L1K0", "twitter": "None", "instagram": "None", "facebook": "None", "youtube": "None", "website": "None", "summary": "None", "logo": "None"}, "106913551RR0001": {"name": "CHILD & FAMILY SERVICES OF CENTRAL MANITOBA INC.", "designationCode": "C", "categoryCode": "01", "address": "25-3RD STREET SOUTH EAST", "city": "PORTAGE LA PRAIRIE", "province": "MB", "country": "CA", "postalCode": "R1N1N1", "twitter": "None", "instagram": "None", "facebook": "None", "youtube": "None", "website": "None", "summary": "None", "logo": "None", "latitude": 49.973301000000006, "longitude": -98.29491300000001}, "870780434RR0001": {"name": "CHILD & YOUTH FRIENDLY OTTAWA/OTTAWA: L'AMIE DE LA JEUNESSE", "designationCode": "C", "categoryCode": "01", "address": "PO BOX 81005                  WORLD EXCHANGE POSTAL OUTLET", "city": "OTTAWA", "province": "ON", "country": "CA", "postalCode": "K1P1B1", "twitter": "None", "instagram": "None", "facebook": "None", "youtube": "None", "website": "None", "summary": "None", "logo": "None", "latitude": 45.42177300000006, "longitude": -75.69115999999994}, "864783527RR0001": {"name": "CHILD & YOUTH FRIENDLY SASKATOON INC.", "designationCode": "C", "categoryCode": "21", "address": "113 SALISBURY DR", "city": "SASKATOON", "province": "SK", "country": "CA", "postalCode": "S7H4B7", "twitter": "None", "instagram": "None", "facebook": "None", "youtube": "None", "website": "None", "summary": "None", "logo": "None", "latitude": 52.1114145212074, "longitude": -106.61478950138498}, "108172149RR0001": {"name": "CHILD ABUSE PREVENTION AND COUNSELLING SOCIETY OF GREATER VICTORIA", "designationCode": "C", "categoryCode": "09", "address": "210-1175 COOK ST", "city": "VICTORIA", "province": "BC", "country": "CA", "postalCode": "V8V4A1", "twitter": "None", "instagram": "None", "facebook": "None", "youtube": "None", "website": "None", "summary": "None", "logo": "None", "latitude": 48.42395595614293, "longitude": -123.35389496373165}, "130293137RR0001": {"name": "CHILD AND FAMILY SERVICES OF WESTERN MANITOBA", "designationCode": "C", "categoryCode": "01", "address": "800 MCTAVISH AVENUE", "city": "BRANDON", "province": "MB", "country": "CA", "postalCode": "R7A7L4", "twitter": "None", "instagram": "None", "facebook": "None", "youtube": "None", "website": "None", "summary": "None", "logo": "None", "latitude": 49.84061253563413, "longitude": -99.94909216610884}, "137469425RR0001": {"name": "CHILD AND FAMILY SERVICES OF WESTERN MANITOBA FOUNDATION INC", "designationCode": "A", "categoryCode": "03", "address": "800 MCTAVISH AVENUE", "city": "BRANDON", "province": "MB", "country": "CA", "postalCode": "R7A7L4", "twitter": "None", "instagram": "None", "facebook": "None", "youtube": "None", "website": "None", "summary": "None", "logo": "None", "latitude": 49.84061253563413, "longitude": -99.94909216610884}, "138656566RR0001": {"name": "CHILD CARE PROVIDERS RESOURCE NETWORK OF OTTAWA-CARLETON", "designationCode": "C", "categoryCode": "20", "address": "275-30 COLONNADE RD", "city": "OTTAWA", "province": "ON", "country": "CA", "postalCode": "K2E7J6", "twitter": "None", "instagram": "None", "facebook": "None", "youtube": "None", "website": "None", "summary": "None", "logo": "None", "latitude": 45.34232838431932, "longitude": -75.72112393085615}, "885425959RR0001": {"name": "CHILD CARE UNITED OF LEEDS AND GRENVILLE", "designationCode": "C", "categoryCode": "01", "address": "400 STONE ST NORTH", "city": "GANANOQUE", "province": "ON", "country": "CA", "postalCode": "K7G1Y8", "twitter": "None", "instagram": "None", "facebook": "None", "youtube": "None", "website": "None", "summary": "None", "logo": "None", "latitude": 44.33230192621962, "longitude": -76.16588169194661}, "106913437RR0001": {"name": "CHILD DEVELOPMENT CENTRE", "designationCode": "C", "categoryCode": "11", "address": "PO BOX 2703", "city": "WHITEHORSE", "province": "YT", "country": "CA", "postalCode": "Y1A2C6", "twitter": "None", "instagram": "None", "facebook": "None", "youtube": "None", "website": "None", "summary": "None", "logo": "None", "latitude": 60.72084600000005, "longitude": -135.05323399999992}, "118851815RR0001": {"name": "CHILD DEVELOPMENT CENTRE SOCIETY OF FORT ST. JOHN AND DISTRICT", "designationCode": "C", "categoryCode": "11", "address": "10417-106TH AVENUE", "city": "FORT ST. JOHN", "province": "BC", "country": "CA", "postalCode": "V1J2M8", "twitter": "None", "instagram": "None", "facebook": "None", "youtube": "None", "website": "None", "summary": "None", "logo": "None", "latitude": 56.25194549956733, "longitude": -120.85514002553523}, "133210229RR0001": {"name": "CHILD DEVELOPMENT FOUNDATION OF BRITISH COLUMBIA", "designationCode": "A", "categoryCode": "03", "address": "102 - 20641 LOGAN AVE", "city": "LANGLEY", "province": "BC", "country": "CA", "postalCode": "V3A7R3", "twitter": "None", "instagram": "None", "facebook": "None", "youtube": "None", "website": "None", "summary": "None", "logo": "None", "latitude": 49.105641623221494, "longitude": -122.65238393886438}, "886252105RR0001": {"name": "CHILD DEVELOPMENT INSTITUTE FOUNDATION", "designationCode": "A", "categoryCode": "05", "address": "197 EUCLID AVE.", "city": "TORONTO", "province": "ON", "country": "CA", "postalCode": "M6J2J8", "twitter": "None", "instagram": "None", "facebook": "None", "youtube": "None", "website": "None", "summary": "None", "logo": "None", "latitude": 43.651095505972606, "longitude": -79.40948689422376}, "887783215RR0001": {"name": "CHILD DEVELOPMENT RESOURCE CONNECTION PEEL", "designationCode": "C", "categoryCode": "09", "address": "103 - 75 WATLINE AVE", "city": "MISSISSAUGA", "province": "ON", "country": "CA", "postalCode": "L4Z3E5", "twitter": "None", "instagram": "None", "facebook": "None", "youtube": "None", "website": "None", "summary": "None", "logo": "None", "latitude": 43.622396253707464, "longitude": -79.67055838014282}, "866726433RR0001": {"name": "CHILD ENRICHMENT CENTRE-CHILDCARE SOCIETY", "designationCode": "C", "categoryCode": "01", "address": "3415 8TH AVENUE S W", "city": "CALGARY", "province": "AB", "country": "CA", "postalCode": "T3C0E8", "twitter": "None", "instagram": "None", "facebook": "None", "youtube": "None", "website": "None", "summary": "None", "logo": "None", "latitude": 51.044924663248, "longitude": -114.13382671638648}, "118851823RR0001": {"name": "CHILD EVANGELISM FELLOWSHIP OF ALBERTA", "designationCode": "C", "categoryCode": "49", "address": "2115 5 AVE NW", "city": "CALGARY", "province": "AB", "country": "CA", "postalCode": "T2N0S6", "twitter": "None", "instagram": "None", "facebook": "None", "youtube": "None", "website": "None", "summary": "None", "logo": "None", "latitude": 51.05722749567219, "longitude": -114.10893}, "118851831RR0001": {"name": "CHILD EVANGELISM FELLOWSHIP OF BRITISH COLUMBIA", "designationCode": "C", "categoryCode": "49", "address": "#204,18515-53 AVENUE", "city": "SURREY", "province": "BC", "country": "CA", "postalCode": "V3S7A4", "twitter": "None", "instagram": "None", "facebook": "None", "youtube": "None", "website": "None", "summary": "None", "logo": "None", "latitude": 49.098985720526194, "longitude": -122.70941181305912}, "106913502RR0001": {"name": "CHILD EVANGELISM FELLOWSHIP OF CANADA", "designationCode": "C", "categoryCode": "49", "address": "337 HENDERSON HWY", "city": "WINNIPEG", "province": "MB", "country": "CA", "postalCode": "R2L1M7", "twitter": "None", "instagram": "None", "facebook": "None", "youtube": "None", "website": "None", "summary": "None", "logo": "None", "latitude": 49.916844189278144, "longitude": -97.11364029805549}, "118851849RR0001": {"name": "CHILD EVANGELISM FELLOWSHIP OF MANITOBA", "designationCode": "C", "categoryCode": "49", "address": "179 HENDERSON HIGHWAY", "city": "WINNIPEG", "province": "MB", "country": "CA", "postalCode": "R2L1L5", "twitter": "None", "instagram": "None", "facebook": "None", "youtube": "None", "website": "None", "summary": "None", "logo": "None", "latitude": 49.91274784817363, "longitude": -97.11586475434262}, "106913544RR0001": {"name": "CHILD EVANGELISM FELLOWSHIP OF ONTARIO", "designationCode": "C", "categoryCode": "47", "address": "335 ROBINSON RD", "city": "BRANTFORD", "province": "ON", "country": "CA", "postalCode": "N3R0B8", "twitter": "None", "instagram": "None", "facebook": "None", "youtube": "None", "website": "None", "summary": "None", "logo": "None", "latitude": 43.13308227045849, "longitude": -80.37535457510815}, "106913536RR0001": {"name": "CHILD EVANGELISM FELLOWSHIP OF SASKATCHEWAN", "designationCode": "C", "categoryCode": "47", "address": "74 MARQUIS CRES", "city": "REGINA", "province": "SK", "country": "CA", "postalCode": "S4S6J9", "twitter": "None", "instagram": "None", "facebook": "None", "youtube": "None", "website": "None", "summary": "None", "logo": "None", "latitude": 50.39829900000001, "longitude": -104.62311791254564}, "130263502RR0001": {"name": "CHILD FIND (ONTARIO) INCORPORATED", "designationCode": "C", "categoryCode": "09", "address": "693 QUEEN ST E", "city": "TORONTO", "province": "ON", "country": "CA", "postalCode": "M4M1G6", "twitter": "None", "instagram": "None", "facebook": "None", "youtube": "None", "website": "None", "summary": "None", "logo": "None", "latitude": 43.658735878700526, "longitude": -79.3502538373536}, "864569983RR0001": {"name": "CHILD FIND NEW BRUNSWICK (2005) INC.", "designationCode": "C", "categoryCode": "59", "address": "62 BARTER SETTLEMENT RD", "city": "BARTER SETTLEMENT", "province": "NB", "country": "CA", "postalCode": "E3L5S8", "twitter": "None", "instagram": "None", "facebook": "None", "youtube": "None", "website": "None", "summary": "None", "logo": "None", "latitude": 45.196782264239054, "longitude": -67.32577304091423}, "136535192RR0001": {"name": "CHILD FIND PEI INC", "designationCode": "C", "categoryCode": "21", "address": "39 RIVERBANK DR", "city": "JOHNSTONS RIVER", "province": "PE", "country": "CA", "postalCode": "C1B3E7", "twitter": "None", "instagram": "None", "facebook": "None", "youtube": "None", "website": "None", "summary": "None", "logo": "None", "latitude": 46.287110869842394, "longitude": -63.02530171816024}, "118851914RR0001": {"name": "CHILD FIND SASKATCHEWAN INC.", "designationCode": "C", "categoryCode": "59", "address": "202-3502 TAYLOR STREET EAST", "city": "SASKATOON", "province": "SK", "country": "CA", "postalCode": "S7H5H9", "twitter": "None", "instagram": "None", "facebook": "None", "youtube": "None", "website": "None", "summary": "None", "logo": "None", "latitude": 52.10463760502643, "longitude": -106.59891444338962}, "118851922RR0001": {"name": "CHILD HAVEN INTERNATIONAL - ACCUEIL INTERNATIONAL POUR L'ENFANCE", "designationCode": "C", "categoryCode": "01", "address": "CIVIC#19014, 7TH CONCESSION   R.R#1", "city": "MAXVILLE", "province": "ON", "country": "CA", "postalCode": "K0C1T0", "twitter": "None", "instagram": "None", "facebook": "None", "youtube": "None", "website": "None", "summary": "None", "logo": "None", "latitude": 45.29893200000005, "longitude": -74.82162949999993}, "873962591RR0001": {"name": "CHILD STUDY CENTRE PARENTS' SOCIETY (EDMONTON)", "designationCode": "C", "categoryCode": "21", "address": "10925 87 AVE NW", "city": "EDMONTON", "province": "AB", "country": "CA", "postalCode": "T6G0X4", "twitter": "None", "instagram": "None", "facebook": "None", "youtube": "None", "website": "None", "summary": "None", "logo": "None", "latitude": 53.52285748066852, "longitude": -113.513544}, "139208169RR0001": {"name": "CHILD WELFARE LEAGUE OF CANADA", "designationCode": "C", "categoryCode": "03", "address": "226 ARGYLE AVE", "city": "OTTAWA", "province": "ON", "country": "CA", "postalCode": "K2P1B9", "twitter": "None", "instagram": "None", "facebook": "None", "youtube": "None", "website": "None", "summary": "None", "logo": "None", "latitude": 45.41110564749853, "longitude": -75.69094297916797}, "100977180RR0001": {"name": "CHILD WITNESS CENTRE OF WATERLOO REGION", "designationCode": "C", "categoryCode": "59", "address": "111 DUKE STREET EAST", "city": "KITCHENER", "province": "ON", "country": "CA", "postalCode": "N2H1A4", "twitter": "None", "instagram": "None", "facebook": "None", "youtube": "None", "website": "None", "summary": "None", "logo": "None", "latitude": 43.449367767961284, "longitude": -80.4845930126377}, "119285674RR0001": {"name": "CHILD 100 FOUNDATION INC.", "designationCode": "C", "categoryCode": "47", "address": "207 IDYLWYLD DR SOUTH", "city": "SASKATOON", "province": "SK", "country": "CA", "postalCode": "S7M1L6", "twitter": "None", "instagram": "None", "facebook": "None", "youtube": "None", "website": "None", "summary": "None", "logo": "None"}, "891386765RR0001": {"name": "CHILD-FIND B. C.", "designationCode": "C", "categoryCode": "59", "address": "UNIT 208                      2722 FIFTH ST", "city": "VICTORIA", "province": "BC", "country": "CA", "postalCode": "V8T4B2", "twitter": "None", "instagram": "None", "facebook": "None", "youtube": "None", "website": "None", "summary": "None", "logo": "None", "latitude": 48.44018114348783, "longitude": -123.35804806942096}, "102945896RR0001": {"name": "CHILD's VIEW CO-OPERATIVE CHILD CARE SERVICES CORPORATION", "designationCode": "C", "categoryCode": "20", "address": "392 MURRAY ST", "city": "GRIMSBY", "province": "ON", "country": "CA", "postalCode": "L3M3P2", "twitter": "None", "instagram": "None", "facebook": "None", "youtube": "None", "website": "None", "summary": "None", "logo": "None", "latitude": 43.20108901136831, "longitude": -79.56360826597073}, "107570293RR0001": {"name": "CHILDBIRTH KINGSTON INCORPORATED", "designationCode": "C", "categoryCode": "09", "address": "PO BOX 202 STN MAIN", "city": "KINGSTON", "province": "ON", "country": "CA", "postalCode": "K7L4V8", "twitter": "None", "instagram": "None", "facebook": "None", "youtube": "None", "website": "None", "summary": "None", "logo": "None", "latitude": 44.23153200000006, "longitude": -76.47933049999993}, "118851930RR0001": {"name": "CHILDCAN THE CHILDHOOD CANCER RESEARCH ASSOCIATION", "designationCode": "C", "categoryCode": "11", "address": "792 COMMISSIONERS RD WEST", "city": "LONDON", "province": "ON", "country": "CA", "postalCode": "N6K1C2", "twitter": "None", "instagram": "None", "facebook": "None", "youtube": "None", "website": "None", "summary": "None", "logo": "None", "latitude": 42.95222884927017, "longitude": -81.30529748058161}, "122814791RR0001": {"name": "CHILDCARE - FAMILY ACCESS NETWORK INC.", "designationCode": "C", "categoryCode": "20", "address": "BOX 152", "city": "LANGRUTH", "province": "MB", "country": "CA", "postalCode": "R0H0N0", "twitter": "None", "instagram": "None", "facebook": "None", "youtube": "None", "website": "None", "summary": "None", "logo": "None", "latitude": 50.38602000000003, "longitude": -98.67416999999995}, "119150035RR0001": {"name": "CHILDCARE INTERNATIONAL SOCIETY", "designationCode": "C", "categoryCode": "09", "address": "204-5460 152 ST", "city": "SURREY", "province": "BC", "country": "CA", "postalCode": "V3S5J9", "twitter": "None", "instagram": "None", "facebook": "None", "youtube": "None", "website": "None", "summary": "None", "logo": "None", "latitude": 49.102244664723884, "longitude": -122.80096003883675}, "887881829RR0001": {"name": "CHILDHOOD - ENFANCE", "designationCode": "C", "categoryCode": "09", "address": "1174 ST. JEROME ST", "city": "SUDBURY", "province": "ON", "country": "CA", "postalCode": "P3A2V9", "twitter": "None", "instagram": "None", "facebook": "None", "youtube": "None", "website": "None", "summary": "None", "logo": "None", "latitude": 46.5228971559813, "longitude": -80.98190369980972}, "131897654RR0001": {"name": "CHILDHOOD CANCER CANADA FOUNDATION / FONDATION CANADIENNE DU CANCER CHEZ L'ENFANT", "designationCode": "C", "categoryCode": "11", "address": "21 ST.CLAIR AVE E             SUITE 801", "city": "TORONTO", "province": "ON", "country": "CA", "postalCode": "M4T1L9", "twitter": "None", "instagram": "None", "facebook": "None", "youtube": "None", "website": "None", "summary": "None", "logo": "None", "latitude": 43.68805547821568, "longitude": -79.39293211558666}, "851423434RR0001": {"name": "CHILDHOOD OBESITY FOUNDATION (COF)", "designationCode": "C", "categoryCode": "19", "address": "771A-2635 LAUREL ST", "city": "VANCOUVER", "province": "BC", "country": "CA", "postalCode": "V5Z1M9", "twitter": "None", "instagram": "None", "facebook": "None", "youtube": "None", "website": "None", "summary": "None", "logo": "None", "latitude": 49.2620771963321, "longitude": -123.12551469807404}, "106913742RR0001": {"name": "CHILDREACH CENTRE", "designationCode": "C", "categoryCode": "01", "address": "265 MAITLAND ST", "city": "LONDON", "province": "ON", "country": "CA", "postalCode": "N6B2Y3", "twitter": "None", "instagram": "None", "facebook": "None", "youtube": "None", "website": "None", "summary": "None", "logo": "None", "latitude": 42.98339229641069, "longitude": -81.23494133544901}, "133028696RR0001": {"name": "CHILDREN AND FAMILY SERVICES FOR YORK REGION", "designationCode": "C", "categoryCode": "59", "address": "16915 LESLIE STREET", "city": "NEWMARKET", "province": "ON", "country": "CA", "postalCode": "L3Y9A1", "twitter": "None", "instagram": "None", "facebook": "None", "youtube": "None", "website": "None", "summary": "None", "logo": "None", "latitude": 44.0514593005943, "longitude": -79.42827795550866}, "862576816RR0001": {"name": "CHILDREN ARISE MINISTRIES", "designationCode": "C", "categoryCode": "49", "address": "6021 WEST SAANICH ROAD", "city": "VICTORIA", "province": "BC", "country": "CA", "postalCode": "V9E2G4", "twitter": "None", "instagram": "None", "facebook": "None", "youtube": "None", "website": "None", "summary": "None", "logo": "None", "latitude": 48.55199650484743, "longitude": -123.4403710033478}, "106913775RR0001": {"name": "CHILDREN AT RISK, OTTAWA", "designationCode": "C", "categoryCode": "11", "address": "209-235 DONALD STREET", "city": "OTTAWA", "province": "ON", "country": "CA", "postalCode": "K1K1N1", "twitter": "None", "instagram": "None", "facebook": "None", "youtube": "None", "website": "None", "summary": "None", "logo": "None", "latitude": 45.427624473310004, "longitude": -75.65873447558997}, "129935102RR0001": {"name": "CHILDREN AT THE CENTRE INC", "designationCode": "C", "categoryCode": "20", "address": "330-60 PEARL ST", "city": "WINNIPEG", "province": "MB", "country": "CA", "postalCode": "R3E1X2", "twitter": "None", "instagram": "None", "facebook": "None", "youtube": "None", "website": "None", "summary": "None", "logo": "None", "latitude": 49.902543, "longitude": -97.1600985}, "123722233RR0001": {"name": "CHILDREN FIRST IN ESSEX COUNTY", "designationCode": "C", "categoryCode": "11", "address": "3295 QUALITY WAY              SUITE 102", "city": "WINDSOR", "province": "ON", "country": "CA", "postalCode": "N8T3R9", "twitter": "None", "instagram": "None", "facebook": "None", "youtube": "None", "website": "None", "summary": "None", "logo": "None", "latitude": 42.291693871198696, "longitude": -82.93816258552113}, "106913817RR0001": {"name": "CHILDREN NORTH EARLY INTERVENTION PROGRAM INC.", "designationCode": "C", "categoryCode": "09", "address": "PO BOX 925", "city": "LA RONGE", "province": "SK", "country": "CA", "postalCode": "S0J1L0", "twitter": "None", "instagram": "None", "facebook": "None", "youtube": "None", "website": "None", "summary": "None", "logo": "None", "latitude": 55.104968852218384, "longitude": -105.2789552305204}, "136909538RR0001": {"name": "CHILDREN OF CHORNOBYL CANADIAN FUND", "designationCode": "A", "categoryCode": "03", "address": "2906-B BLOOR STREET WEST", "city": "TORONTO", "province": "ON", "country": "CA", "postalCode": "M8X1B6", "twitter": "None", "instagram": "None", "facebook": "None", "youtube": "None", "website": "None", "summary": "None", "logo": "None", "latitude": 43.648431190691795, "longitude": -79.50690601333021}, "818222275RR0001": {"name": "CHILDREN OF HOPE SOCIETY", "designationCode": "C", "categoryCode": "47", "address": "PO BOX 2643 STN A", "city": "ABBOTSFORD", "province": "BC", "country": "CA", "postalCode": "V2T6R4", "twitter": "None", "instagram": "None", "facebook": "None", "youtube": "None", "website": "None", "summary": "None", "logo": "None", "latitude": 49.05161700000005, "longitude": -122.32930399999994}, "888517661RR0001": {"name": "CHILDREN OF ISLAMIC NATIONS (C O I N) INC", "designationCode": "C", "categoryCode": "09", "address": "BOX 42032                     MILLBOURNE MALL P.O.", "city": "EDMONTON", "province": "AB", "country": "CA", "postalCode": "T6K4C4", "twitter": "None", "instagram": "None", "facebook": "None", "youtube": "None", "website": "None", "summary": "None", "logo": "None", "latitude": 53.47237000000007, "longitude": -113.45070999999996}, "118852045RR0001": {"name": "CHILDREN OF JACOB AT CHATHAM", "designationCode": "C", "categoryCode": "49", "address": "PO BOX 160  STN MAIN", "city": "CHATHAM", "province": "ON", "country": "CA", "postalCode": "N7M5K3", "twitter": "None", "instagram": "None", "facebook": "None", "youtube": "None", "website": "None", "summary": "None", "logo": "None", "latitude": 42.404613000000055, "longitude": -82.18960099999994}, "833444144RR0001": {"name": "CHILDREN OF PROMISE MINISTRIES INC.", "designationCode": "C", "categoryCode": "01", "address": "6 LESLIE AVENUE", "city": "BARRIE", "province": "ON", "country": "CA", "postalCode": "L4N9N8", "twitter": "None", "instagram": "None", "facebook": "None", "youtube": "None", "website": "None", "summary": "None", "logo": "None", "latitude": 44.34155916126143, "longitude": -79.71360980474924}, "118852052RR0001": {"name": "CHILDREN OF THE LIVING GOD COMMUNITY INC.", "designationCode": "C", "categoryCode": "47", "address": "43 BAYVIEW DR", "city": "WINNIPEG", "province": "MB", "country": "CA", "postalCode": "R2C0Z3", "twitter": "None", "instagram": "None", "facebook": "None", "youtube": "None", "website": "None", "summary": "None", "logo": "None", "latitude": 49.90480058370346, "longitude": -96.9879862480233}, "876013004RR0001": {"name": "CHILDREN OF THE NATIONS (CANADA) INC.", "designationCode": "C", "categoryCode": "01", "address": "12838 DILLON DR", "city": "WINDSOR", "province": "ON", "country": "CA", "postalCode": "N8N1C9", "twitter": "None", "instagram": "None", "facebook": "None", "youtube": "None", "website": "None", "summary": "None", "logo": "None", "latitude": 42.32933102109184, "longitude": -82.87912593972563}}