{"131167629RR0001": {"name": "ETOBICOKE HUMANE SOCIETY", "designationCode": "C", "categoryCode": "54", "address": "67 SIX POINT RD", "city": "ETOBICOKE", "province": "ON", "country": "CA", "postalCode": "M8Z2X3", "twitter": "None", "instagram": "None", "facebook": "None", "youtube": "None", "website": "None", "summary": "None", "logo": "None", "latitude": 43.63608484927016, "longitude": -79.52431454495361}, "892552761RR0001": {"name": "ETOBICOKE JAZZ BAND", "designationCode": "C", "categoryCode": "22", "address": "3822 BLOOR STREET WEST", "city": "ETOBICOKE", "province": "ON", "country": "CA", "postalCode": "M9B1K8", "twitter": "None", "instagram": "None", "facebook": "None", "youtube": "None", "website": "None", "summary": "None", "logo": "None", "latitude": 43.6414440996594, "longitude": -79.53717950903102}, "133213751RR0001": {"name": "ETOBICOKE MUSICAL PRODUCTIONS", "designationCode": "C", "categoryCode": "22", "address": "POBOX 12510,RPO-MARTINWAY PLAZ415 THE WESTWAY", "city": "TORONTO", "province": "ON", "country": "CA", "postalCode": "M9R4C7", "twitter": "None", "instagram": "None", "facebook": "None", "youtube": "None", "website": "None", "summary": "None", "logo": "None", "latitude": 43.68556713124527, "longitude": -79.55486570861333}, "890566599RR0001": {"name": "ETOBICOKE MUSLIM COMMUNITY ORGANIZATION", "designationCode": "C", "categoryCode": "60", "address": "UNIT 11 130 WESTMORE DR", "city": "REXDALE", "province": "ON", "country": "CA", "postalCode": "M9V5C3", "twitter": "None", "instagram": "None", "facebook": "None", "youtube": "None", "website": "None", "summary": "None", "logo": "None", "latitude": 43.736073885077175, "longitude": -79.60169521726527}, "118902816RR0001": {"name": "ETOBICOKE PHILHARMONIC SOCIETY", "designationCode": "C", "categoryCode": "22", "address": "336 WEST 5TH ST", "city": "HAMILTON", "province": "ON", "country": "CA", "postalCode": "L9C3P3", "twitter": "None", "instagram": "None", "facebook": "None", "youtube": "None", "website": "None", "summary": "None", "logo": "None", "latitude": 43.23436690981591, "longitude": -79.884649787331}, "118965029RR0001": {"name": "ETOBICOKE SERVICES FOR SENIORS", "designationCode": "C", "categoryCode": "56", "address": "2245 LAWRENCE AVE W.", "city": "ETOBICOKE", "province": "ON", "country": "CA", "postalCode": "M9P3W3", "twitter": "None", "instagram": "None", "facebook": "None", "youtube": "None", "website": "None", "summary": "None", "logo": "None", "latitude": 43.69751677598271, "longitude": -79.52606583637264}, "881138911RR0001": {"name": "ETOBICOKE SPORTS HALL OF FAME FOUNDATION", "designationCode": "A", "categoryCode": "03", "address": "15 RIDGEVALLEY CRESCENT", "city": "TORONTO", "province": "ON", "country": "CA", "postalCode": "M9A3J7", "twitter": "None", "instagram": "None", "facebook": "None", "youtube": "None", "website": "None", "summary": "None", "logo": "None", "latitude": 43.67223765999203, "longitude": -79.53262590244672}, "888414869RR0001": {"name": "ETOBICOKE YOUTH CHOIR", "designationCode": "C", "categoryCode": "22", "address": "207 - 55 ELLERSLIE AVE", "city": "NORTH YORK", "province": "ON", "country": "CA", "postalCode": "M2N1X9", "twitter": "None", "instagram": "None", "facebook": "None", "youtube": "None", "website": "None", "summary": "None", "logo": "None", "latitude": 43.77147185899369, "longitude": -79.41489082693758}, "118902840RR0001": {"name": "ETOILE DU SUD OUEST DE MONTREAL", "designationCode": "C", "categoryCode": "56", "address": "75 SIR GEORGE-ETIENNE-CARTIER", "city": "MONTREAL", "province": "QC", "country": "CA", "postalCode": "H4C3A1", "twitter": "None", "instagram": "None", "facebook": "None", "youtube": "None", "website": "None", "summary": "None", "logo": "None", "latitude": 45.47273916322333, "longitude": -73.58398005326347}, "134649276RR0001": {"name": "ETZIKOM MUSEUM HISTORIC WINDMILL CENTER", "designationCode": "C", "categoryCode": "50", "address": "BOX 563", "city": "ETZIKOM", "province": "AB", "country": "CA", "postalCode": "T0K0W0", "twitter": "None", "instagram": "None", "facebook": "None", "youtube": "None", "website": "None", "summary": "None", "logo": "None", "latitude": 49.478270000000066, "longitude": -111.10449999999997}, "860572916RR0001": {"name": "EUCHARISTIC APOSTLES OF DIVINE MERCY CANADA INC.", "designationCode": "C", "categoryCode": "39", "address": "484 HAMILTON ST", "city": "REGINA", "province": "SK", "country": "CA", "postalCode": "S4R2A8", "twitter": "None", "instagram": "None", "facebook": "None", "youtube": "None", "website": "None", "summary": "None", "logo": "None", "latitude": 50.4710102514571, "longitude": -104.60944315684668}, "101694578RR0001": {"name": "EUGENE AND LILLY SANDORFY CHARITABLE FOUNDATION", "designationCode": "B", "categoryCode": "03", "address": "349 HILLHURST BOULEVARD", "city": "TORONTO", "province": "ON", "country": "CA", "postalCode": "M6B1M9", "twitter": "None", "instagram": "None", "facebook": "None", "youtube": "None", "website": "None", "summary": "None", "logo": "None", "latitude": 43.7070198420568, "longitude": -79.43497507048882}, "871839163RR0001": {"name": "EUGENE DEMKIW SCHOLARSHIP FUND", "designationCode": "B", "categoryCode": "25", "address": "4769 50TH AVENUE", "city": "VEGREVILLE", "province": "AB", "country": "CA", "postalCode": "T9C1L1", "twitter": "None", "instagram": "None", "facebook": "None", "youtube": "None", "website": "None", "summary": "None", "logo": "None", "latitude": 53.492069253938595, "longitude": -112.0462247549482}, "133827865RR0001": {"name": "EUGENIA EDUCATIONAL FOUNDATION INC", "designationCode": "C", "categoryCode": "21", "address": "350 DOON VALLEY DRIVE # 10 C", "city": "KITCHENER", "province": "ON", "country": "CA", "postalCode": "N2P2M9", "twitter": "None", "instagram": "None", "facebook": "None", "youtube": "None", "website": "None", "summary": "None", "logo": "None", "latitude": 43.39228629124521, "longitude": -80.40477814005403}, "119229631RR0001": {"name": "EUREKA CAMP SOCIETY", "designationCode": "C", "categoryCode": "56", "address": "22151 WILSON AVE", "city": "RICHMOND", "province": "BC", "country": "CA", "postalCode": "V6V2P6", "twitter": "None", "instagram": "None", "facebook": "None", "youtube": "None", "website": "None", "summary": "None", "logo": "None", "latitude": 49.172112533181284, "longitude": -122.97646375145709}, "899743181RR0001": {"name": "EUREKA SUPPORT SOCIETY", "designationCode": "C", "categoryCode": "09", "address": "280 4TH STREET", "city": "COURTENAY", "province": "BC", "country": "CA", "postalCode": "V9N1G6", "twitter": "None", "instagram": "None", "facebook": "None", "youtube": "None", "website": "None", "summary": "None", "logo": "None", "latitude": 49.691693021667554, "longitude": -124.99891113645913}, "118902923RR0001": {"name": "EUROPEAN CHRISTIAN MISSION (NORTH AMERICA) INC.", "designationCode": "C", "categoryCode": "47", "address": "5097-47A AVE", "city": "DELTA", "province": "BC", "country": "CA", "postalCode": "V4K4G5", "twitter": "None", "instagram": "None", "facebook": "None", "youtube": "None", "website": "None", "summary": "None", "logo": "None", "latitude": 49.08989872717083, "longitude": -123.08227153985081}, "897630521RR0001": {"name": "EUROPEAN MISSIONS", "designationCode": "B", "categoryCode": "47", "address": "P.O. BOX 39", "city": "NEWPORT STATION", "province": "NS", "country": "CA", "postalCode": "B0N2B0", "twitter": "None", "instagram": "None", "facebook": "None", "youtube": "None", "website": "None", "summary": "None", "logo": "None", "latitude": 44.96348000000006, "longitude": -64.05887999999999}, "872376223RR0001": {"name": "EUROPEAN MISSIONS, INC", "designationCode": "C", "categoryCode": "47", "address": "BOX 21059", "city": "LLOYDMINSTER", "province": "AB", "country": "CA", "postalCode": "T9V2S1", "twitter": "None", "instagram": "None", "facebook": "None", "youtube": "None", "website": "None", "summary": "None", "logo": "None", "latitude": 53.27803500000006, "longitude": -110.00671099999994}, "129179388RR0001": {"name": "EUROVANGELISM", "designationCode": "C", "categoryCode": "47", "address": "7575 DANBRO CRESCENT", "city": "MISSISSAUGA", "province": "ON", "country": "CA", "postalCode": "L5N6P9", "twitter": "None", "instagram": "None", "facebook": "None", "youtube": "None", "website": "None", "summary": "None", "logo": "None", "latitude": 43.60510862193465, "longitude": -79.7797800310169}, "852311034RR0001": {"name": "EUTERPE CORPORATION", "designationCode": "C", "categoryCode": "22", "address": "17 SWORD ST", "city": "TORONTO", "province": "ON", "country": "CA", "postalCode": "M5A3N3", "twitter": "None", "instagram": "None", "facebook": "None", "youtube": "None", "website": "None", "summary": "None", "logo": "None", "latitude": 43.664076597005014, "longitude": -79.36054696751121}, "899664163RR0001": {"name": "EVA JOHNSON MEMORIAL SCHOLARSHIP FOUNDATION", "designationCode": "C", "categoryCode": "21", "address": "8116 ROWLAND ROAD", "city": "EDMONTON", "province": "AB", "country": "CA", "postalCode": "T6A3W8", "twitter": "None", "instagram": "None", "facebook": "None", "youtube": "None", "website": "None", "summary": "None", "logo": "None", "latitude": 53.55066026729745, "longitude": -113.45338783126542}, "132239013RR0001": {"name": "EVA'S INITIATIVES FOR HOMELESS YOUTH", "designationCode": "C", "categoryCode": "09", "address": "401 RICHMOND ST. W.  SUITE 245", "city": "TORONTO", "province": "ON", "country": "CA", "postalCode": "M5V3A8", "twitter": "None", "instagram": "None", "facebook": "None", "youtube": "None", "website": "None", "summary": "None", "logo": "None", "latitude": 43.64803297305114, "longitude": -79.39483379779568}, "118902964RR0001": {"name": "EVALD TOROKVEI FOUNDATION", "designationCode": "B", "categoryCode": "23", "address": "165 TEDDINGTON PARK AVE", "city": "TORONTO", "province": "ON", "country": "CA", "postalCode": "M4N2C7", "twitter": "None", "instagram": "None", "facebook": "None", "youtube": "None", "website": "None", "summary": "None", "logo": "None", "latitude": 43.734317816521575, "longitude": -79.39781432194592}, "107353526RR0001": {"name": "EVANGEL ASSEMBLY", "designationCode": "C", "categoryCode": "36", "address": "P.O. BOX 819", "city": "YARMOUTH", "province": "NS", "country": "CA", "postalCode": "B5A4K4", "twitter": "None", "instagram": "None", "facebook": "None", "youtube": "None", "website": "None", "summary": "None", "logo": "None", "latitude": 43.841274000000055, "longitude": -66.11887249999994}, "107353534RR0001": {"name": "EVANGEL ASSEMBLY", "designationCode": "C", "categoryCode": "36", "address": "424 MAIN ST", "city": "SUSSEX", "province": "NB", "country": "CA", "postalCode": "E4E1S5", "twitter": "None", "instagram": "None", "facebook": "None", "youtube": "None", "website": "None", "summary": "None", "logo": "None", "latitude": 45.72393942050879, "longitude": -65.51591147002138}, "118902998RR0001": {"name": "EVANGEL ASSEMBLY", "designationCode": "C", "categoryCode": "36", "address": "705 MAPLE ST                  P.O.BOX 3656,STN B", "city": "FREDERICTON", "province": "NB", "country": "CA", "postalCode": "E3A5L7", "twitter": "None", "instagram": "None", "facebook": "None", "youtube": "None", "website": "None", "summary": "None", "logo": "None", "latitude": 45.976016316117544, "longitude": -66.63586192437528}, "886248814RR0001": {"name": "EVANGEL ASSEMBLY OF GOD", "designationCode": "C", "categoryCode": "39", "address": "314 REXDALE BLVD", "city": "ETOBICOKE", "province": "ON", "country": "CA", "postalCode": "M9W1R6", "twitter": "None", "instagram": "None", "facebook": "None", "youtube": "None", "website": "None", "summary": "None", "logo": "None", "latitude": 43.714646139621344, "longitude": -79.58451670246411}, "131814758RR0001": {"name": "EVANGEL CHAPEL,", "designationCode": "C", "categoryCode": "36", "address": "10040 100 ST", "city": "FORT ST. JOHN", "province": "BC", "country": "CA", "postalCode": "V1J3Y4", "twitter": "None", "instagram": "None", "facebook": "None", "youtube": "None", "website": "None", "summary": "None", "logo": "None", "latitude": 56.2471025029142, "longitude": -120.8475324249522}, "889051256RR0001": {"name": "EVANGEL CHINESE BAPTIST CHURCH", "designationCode": "C", "categoryCode": "39", "address": "1204 ELLWOOD RD SW", "city": "EDMONTON", "province": "AB", "country": "CA", "postalCode": "T6X0B2", "twitter": "None", "instagram": "None", "facebook": "None", "youtube": "None", "website": "None", "summary": "None", "logo": "None", "latitude": 53.42879576380634, "longitude": -113.47620827860752}, "892814666RR0001": {"name": "EVANGEL CHRISTIAN ASSEMBLY OF CALGARY", "designationCode": "C", "categoryCode": "39", "address": "4869 HUBALTA RD SE", "city": "CALGARY", "province": "AB", "country": "CA", "postalCode": "T2B1T5", "twitter": "None", "instagram": "None", "facebook": "None", "youtube": "None", "website": "None", "summary": "None", "logo": "None", "latitude": 51.03019801082005, "longitude": -113.9642857307693}, "118903103RR0001": {"name": "EVANGEL COMMUNITY CHURCH", "designationCode": "C", "categoryCode": "36", "address": "76 SANDYS STREET", "city": "CHATHAM", "province": "ON", "country": "CA", "postalCode": "N7L4Y5", "twitter": "None", "instagram": "None", "facebook": "None", "youtube": "None", "website": "None", "summary": "None", "logo": "None", "latitude": 42.406163787437, "longitude": -82.19903435048225}, "815094115RR0001": {"name": "EVANGEL COMMUNITY MINISTRIES", "designationCode": "C", "categoryCode": "39", "address": "112 SPADINA RD. W.", "city": "KITCHENER", "province": "ON", "country": "CA", "postalCode": "N2M1G1", "twitter": "None", "instagram": "None", "facebook": "None", "youtube": "None", "website": "None", "summary": "None", "logo": "None", "latitude": 43.438273815165246, "longitude": -80.50360353638392}, "107353625RR0001": {"name": "EVANGEL DAY CARE CENTRE", "designationCode": "C", "categoryCode": "01", "address": "374 FAREWELL AVE", "city": "OSHAWA", "province": "ON", "country": "CA", "postalCode": "L1H6M2", "twitter": "None", "instagram": "None", "facebook": "None", "youtube": "None", "website": "None", "summary": "None", "logo": "None", "latitude": 43.893038011108516, "longitude": -78.83449010995983}, "893668723RR0001": {"name": "EVANGEL FAMILY CHURCH", "designationCode": "C", "categoryCode": "36", "address": "33 CHURCHILL RD NORTH", "city": "ACTON", "province": "ON", "country": "CA", "postalCode": "L7J2H8", "twitter": "None", "instagram": "None", "facebook": "None", "youtube": "None", "website": "None", "summary": "None", "logo": "None", "latitude": 43.638089122136215, "longitude": -80.02950287619036}, "118903129RR0001": {"name": "EVANGEL HALL", "designationCode": "C", "categoryCode": "49", "address": "552 ADELAIDE ST W", "city": "TORONTO", "province": "ON", "country": "CA", "postalCode": "M5V3W8", "twitter": "None", "instagram": "None", "facebook": "None", "youtube": "None", "website": "None", "summary": "None", "logo": "None", "latitude": 43.64539122344038, "longitude": -79.4023587917075}, "118904051RR0001": {"name": "EVANGEL MINISTERIAL ASSOCIATION OF ALBERTA", "designationCode": "C", "categoryCode": "49", "address": "800 - 6TH AVE N.W.", "city": "SLAVE LAKE", "province": "AB", "country": "CA", "postalCode": "T0G2A1", "twitter": "None", "instagram": "None", "facebook": "None", "youtube": "None", "website": "None", "summary": "None", "logo": "None", "latitude": 55.28684348932419, "longitude": -114.78340349999999}, "107354797RR0001": {"name": "EVANGEL PENTECOSTAL ASSEMBLY", "designationCode": "C", "categoryCode": "36", "address": "4461-50 STREET", "city": "EDMONTON", "province": "AB", "country": "CA", "postalCode": "T6L7A3", "twitter": "None", "instagram": "None", "facebook": "None", "youtube": "None", "website": "None", "summary": "None", "logo": "None", "latitude": 53.4830108064315, "longitude": -113.41799395046924}, "871431342RR0001": {"name": "EVANGEL PENTECOSTAL ASSEMBLY", "designationCode": "C", "categoryCode": "36", "address": "2780 ROUTE 103", "city": "SIMONDS", "province": "NB", "country": "CA", "postalCode": "E7P2Y5", "twitter": "None", "instagram": "None", "facebook": "None", "youtube": "None", "website": "None", "summary": "None", "logo": "None", "latitude": 46.30563476031625, "longitude": -67.54125483004695}, "107354839RR0001": {"name": "EVANGEL PENTECOSTAL CHURCH", "designationCode": "C", "categoryCode": "36", "address": "P.O. BOX 907", "city": "BATHURST", "province": "NB", "country": "CA", "postalCode": "E2A4H7", "twitter": "None", "instagram": "None", "facebook": "None", "youtube": "None", "website": "None", "summary": "None", "logo": "None", "latitude": 47.61677400000005, "longitude": -65.64889249999993}, "107354888RR0001": {"name": "EVANGEL PENTECOSTAL CHURCH", "designationCode": "C", "categoryCode": "36", "address": "30 FAIRVIEW DRIVE", "city": "BRANTFORD", "province": "ON", "country": "CA", "postalCode": "N3R2W6", "twitter": "None", "instagram": "None", "facebook": "None", "youtube": "None", "website": "None", "summary": "None", "logo": "None", "latitude": 43.168291990910994, "longitude": -80.27390042069183}, "107354912RR0001": {"name": "EVANGEL PENTECOSTAL CHURCH", "designationCode": "C", "categoryCode": "36", "address": "374 FAREWELL ST", "city": "OSHAWA", "province": "ON", "country": "CA", "postalCode": "L1H6M2", "twitter": "None", "instagram": "None", "facebook": "None", "youtube": "None", "website": "None", "summary": "None", "logo": "None", "latitude": 43.893038011108516, "longitude": -78.83449010995983}, "107833394RR0013": {"name": "EVANGEL PENTECOSTAL CHURCH", "designationCode": "C", "categoryCode": "36", "address": "57 ELIZABETH DRIVE", "city": "GANDER", "province": "NL", "country": "CA", "postalCode": "A1V1G4", "twitter": "None", "instagram": "None", "facebook": "None", "youtube": "None", "website": "None", "summary": "None", "logo": "None", "latitude": 48.957612841796994, "longitude": -54.60718098326559}, "118904119RR0001": {"name": "EVANGEL PENTECOSTAL CHURCH", "designationCode": "C", "categoryCode": "36", "address": "251 WILSON ST", "city": "KINGSTON", "province": "ON", "country": "CA", "postalCode": "K7K5Y1", "twitter": "None", "instagram": "None", "facebook": "None", "youtube": "None", "website": "None", "summary": "None", "logo": "None", "latitude": 44.26494859313852, "longitude": -76.48715820866786}, "866740533RR0001": {"name": "EVANGEL PENTECOSTAL CHURCH", "designationCode": "C", "categoryCode": "36", "address": "1260 BALMORAL ST", "city": "THUNDER BAY", "province": "ON", "country": "CA", "postalCode": "P7B5Z5", "twitter": "None", "instagram": "None", "facebook": "None", "youtube": "None", "website": "None", "summary": "None", "logo": "None", "latitude": 48.41550000000001, "longitude": -89.25829543054944}, "871351342RR0001": {"name": "EVANGEL PENTECOSTAL CHURCH", "designationCode": "C", "categoryCode": "36", "address": "5139 MANSON AVE", "city": "POWELL RIVER", "province": "BC", "country": "CA", "postalCode": "V8A3P2", "twitter": "None", "instagram": "None", "facebook": "None", "youtube": "None", "website": "None", "summary": "None", "logo": "None", "latitude": 49.85499635801273, "longitude": -124.51146806145685}, "877664821RR0001": {"name": "EVANGEL PENTECOSTAL CHURCH", "designationCode": "C", "categoryCode": "36", "address": "1412 COLE HARBOUR ROAD", "city": "COLE HARBOUR", "province": "NS", "country": "CA", "postalCode": "B2W6J8", "twitter": "None", "instagram": "None", "facebook": "None", "youtube": "None", "website": "None", "summary": "None", "logo": "None", "latitude": 44.67265754616571, "longitude": -63.47164853121937}, "893379727RR0001": {"name": "EVANGEL PENTECOSTAL CHURCH", "designationCode": "C", "categoryCode": "36", "address": "BOX 454  30 BUTLER ST. E.", "city": "BRIGHTON", "province": "ON", "country": "CA", "postalCode": "K0K1H0", "twitter": "None", "instagram": "None", "facebook": "None", "youtube": "None", "website": "None", "summary": "None", "logo": "None", "latitude": 44.03543595481526, "longitude": -77.73741163200395}, "893443382RR0001": {"name": "EVANGEL PENTECOSTAL CHURCH", "designationCode": "C", "categoryCode": "36", "address": "C. POSTAL BELVEDERE           C.P. 20012", "city": "QUEBEC", "province": "QC", "country": "CA", "postalCode": "G1S4Z2", "twitter": "None", "instagram": "None", "facebook": "None", "youtube": "None", "website": "None", "summary": "None", "logo": "None", "latitude": 46.798082356563114, "longitude": -71.24051725089743}, "107833394RR0006": {"name": "EVANGEL PENTECOSTAL TABERNACLE", "designationCode": "C", "categoryCode": "36", "address": "P.O. BOX 86", "city": "GRANG FALLS - WINDSOR", "province": "NL", "country": "CA", "postalCode": "A2A2J3", "twitter": "None", "instagram": "None", "facebook": "None", "youtube": "None", "website": "None", "summary": "None", "logo": "None", "latitude": 48.927786000000054, "longitude": -55.65881149999993}, "107354987RR0001": {"name": "EVANGEL TABERNACLE", "designationCode": "C", "categoryCode": "36", "address": "BOX 843", "city": "PREECEVILLE", "province": "SK", "country": "CA", "postalCode": "S0A3B0", "twitter": "None", "instagram": "None", "facebook": "None", "youtube": "None", "website": "None", "summary": "None", "logo": "None", "latitude": 51.95420000000007, "longitude": -102.64748999999995}, "118904218RR0001": {"name": "EVANGEL TABERNACLE", "designationCode": "C", "categoryCode": "36", "address": "245 PETER ST BOX 34", "city": "BOTHWELL", "province": "ON", "country": "CA", "postalCode": "N0P1C0", "twitter": "None", "instagram": "None", "facebook": "None", "youtube": "None", "website": "None", "summary": "None", "logo": "None", "latitude": 42.63192987065045, "longitude": -81.86822786124404}, "118904234RR0001": {"name": "EVANGEL TABERNACLE", "designationCode": "C", "categoryCode": "39", "address": "23 VICTORIA ST                PO BOX 25", "city": "WHEATLEY", "province": "ON", "country": "CA", "postalCode": "N0P2P0", "twitter": "None", "instagram": "None", "facebook": "None", "youtube": "None", "website": "None", "summary": "None", "logo": "None", "latitude": 42.094416159515696, "longitude": -82.46479764538421}, "118904242RR0001": {"name": "EVANGEL TABERNACLE", "designationCode": "C", "categoryCode": "36", "address": "BOX 360", "city": "MATHESON", "province": "ON", "country": "CA", "postalCode": "P0K1N0", "twitter": "None", "instagram": "None", "facebook": "None", "youtube": "None", "website": "None", "summary": "None", "logo": "None", "latitude": 47.9392718793635, "longitude": -80.64669271189717}, "107354995RR0001": {"name": "EVANGEL TABERNACLE OF KELOWNA", "designationCode": "C", "categoryCode": "36", "address": "3261 GORDON DRIVE", "city": "KELOWNA", "province": "BC", "country": "CA", "postalCode": "V1W3N4", "twitter": "None", "instagram": "None", "facebook": "None", "youtube": "None", "website": "None", "summary": "None", "logo": "None", "latitude": 49.858115748829704, "longitude": -119.47442495744443}, "131767444RR0001": {"name": "EVANGEL TABERNACLE,", "designationCode": "C", "categoryCode": "36", "address": "240 QUEEN ST BOX 459", "city": "DRESDEN", "province": "ON", "country": "CA", "postalCode": "N0P1M0", "twitter": "None", "instagram": "None", "facebook": "None", "youtube": "None", "website": "None", "summary": "None", "logo": "None", "latitude": 42.5015296703329, "longitude": -81.8137899045595}, "107355026RR0001": {"name": "EVANGEL TEMPLE", "designationCode": "C", "categoryCode": "36", "address": "PO BOX 459", "city": "NAPANEE", "province": "ON", "country": "CA", "postalCode": "K7R3P5", "twitter": "None", "instagram": "None", "facebook": "None", "youtube": "None", "website": "None", "summary": "None", "logo": "None", "latitude": 44.24834400000006, "longitude": -76.95158299999993}, "893451443RR0001": {"name": "EVANGEL WORSHIP CENTRE INCORPORATED", "designationCode": "C", "categoryCode": "47", "address": "355-3RD AVE                   BOX 239", "city": "RAPID CITY", "province": "MB", "country": "CA", "postalCode": "R0K1W0", "twitter": "None", "instagram": "None", "facebook": "None", "youtube": "None", "website": "None", "summary": "None", "logo": "None", "latitude": 50.12058550477476, "longitude": -100.03315671926427}, "862133121RR0001": {"name": "EVANGELICAL ANABAPTIST FELLOWSHIP MANITOBA INC.", "designationCode": "C", "categoryCode": "34", "address": "BOX 323", "city": "WINKLER", "province": "MB", "country": "CA", "postalCode": "R6W4A5", "twitter": "None", "instagram": "None", "facebook": "None", "youtube": "None", "website": "None", "summary": "None", "logo": "None", "latitude": 49.17773400000006, "longitude": -97.93841299999994}, "107353666RR0001": {"name": "EVANGELICAL BAPTIST CHURCH", "designationCode": "C", "categoryCode": "31", "address": "P.O. BOX 46", "city": "ARNSTEIN", "province": "ON", "country": "CA", "postalCode": "P0H1A0", "twitter": "None", "instagram": "None", "facebook": "None", "youtube": "None", "website": "None", "summary": "None", "logo": "None", "latitude": 45.920990000000074, "longitude": -79.92889999999994}, "873027783RR0001": {"name": "EVANGELICAL BAPTIST CHURCH OF EDMONTON, ALBERTA", "designationCode": "C", "categoryCode": "31", "address": "12317 82 ST NW", "city": "EDMONTON", "province": "AB", "country": "CA", "postalCode": "T5B2X3", "twitter": "None", "instagram": "None", "facebook": "None", "youtube": "None", "website": "None", "summary": "None", "logo": "None", "latitude": 53.57879936081136, "longitude": -113.46728418688356}, "118989771RR0001": {"name": "EVANGELICAL BERGTHALER MENNONITE CONFERENCE", "designationCode": "C", "categoryCode": "34", "address": "PO BOX 820", "city": "LA CRETE", "province": "AB", "country": "CA", "postalCode": "T0H2H0", "twitter": "None", "instagram": "None", "facebook": "None", "youtube": "None", "website": "None", "summary": "None", "logo": "None", "latitude": 58.18348000000003, "longitude": -116.40267999999998}, "107353690RR0001": {"name": "EVANGELICAL CHINESE BIBLE CHURCH", "designationCode": "C", "categoryCode": "39", "address": "5110 MARINE DR", "city": "BURNABY", "province": "BC", "country": "CA", "postalCode": "V5J3G6", "twitter": "None", "instagram": "None", "facebook": "None", "youtube": "None", "website": "None", "summary": "None", "logo": "None", "latitude": 49.2067018959118, "longitude": -122.99034036793788}, "891140980RR0001": {"name": "EVANGELICAL CHRISTIAN TRUST", "designationCode": "C", "categoryCode": "47", "address": "2454 SUGARPINE ST.", "city": "ABBOTSFORD", "province": "BC", "country": "CA", "postalCode": "V2T3M5", "twitter": "None", "instagram": "None", "facebook": "None", "youtube": "None", "website": "None", "summary": "None", "logo": "None", "latitude": 49.04658900000001, "longitude": -122.3250290899072}, "867180523RR0001": {"name": "EVANGELICAL CHURCH AID SOCIETY OF NOVA SCOTIA", "designationCode": "A", "categoryCode": "39", "address": "79 BEDROS LANE #208", "city": "HALIFAX", "province": "NS", "country": "CA", "postalCode": "B3M4X5", "twitter": "None", "instagram": "None", "facebook": "None", "youtube": "None", "website": "None", "summary": "None", "logo": "None", "latitude": 44.700055170639175, "longitude": -63.663747401061755}, "890261647RR0001": {"name": "EVANGELICAL CHURCH APOSTLES AND PROPHETS THE VOICE OF CHRIST TO THE WORLD", "designationCode": "C", "categoryCode": "39", "address": "54 PARIS AVE", "city": "HAMILTON", "province": "ON", "country": "CA", "postalCode": "L8T4Z6", "twitter": "None", "instagram": "None", "facebook": "None", "youtube": "None", "website": "None", "summary": "None", "logo": "None", "latitude": 43.209597867592024, "longitude": -79.8259200133302}, "878065747RR0001": {"name": "EVANGELICAL CHURCH APOSTOLES AND PROPHETS OF ST CATHARINES", "designationCode": "C", "categoryCode": "39", "address": "38 SANDOWN ST.", "city": "ST. CATHARINES", "province": "ON", "country": "CA", "postalCode": "L2N1Y1", "twitter": "None", "instagram": "None", "facebook": "None", "youtube": "None", "website": "None", "summary": "None", "logo": "None", "latitude": 43.17678468194923, "longitude": -79.2350884973456}, "887842664RR0001": {"name": "EVANGELICAL CHURCH OF GOD CANADA", "designationCode": "C", "categoryCode": "39", "address": "17 BRANCHTON ROAD", "city": "CAMBRIDGE", "province": "ON", "country": "CA", "postalCode": "N1R5S2", "twitter": "None", "instagram": "None", "facebook": "None", "youtube": "None", "website": "None", "summary": "None", "logo": "None", "latitude": 43.34571499723005, "longitude": -80.27263945389255}, "891430340RR0001": {"name": "EVANGELICAL CHURCH OF GOD IN SCARBOROUGH", "designationCode": "C", "categoryCode": "39", "address": "905 DILLINGHAM ROAD           UNIT 14", "city": "PICKERING", "province": "ON", "country": "CA", "postalCode": "L1W3J1", "twitter": "None", "instagram": "None", "facebook": "None", "youtube": "None", "website": "None", "summary": "None", "logo": "None", "latitude": 43.82715991785441, "longitude": -79.06817716010758}, "118903244RR0001": {"name": "EVANGELICAL CHURCH OF THE DEAF", "designationCode": "C", "categoryCode": "39", "address": "2395 BAYVIEW AVE", "city": "NORTH YORK", "province": "ON", "country": "CA", "postalCode": "M2L1A2", "twitter": "None", "instagram": "None", "facebook": "None", "youtube": "None", "website": "None", "summary": "None", "logo": "None", "latitude": 43.734641824600324, "longitude": -79.38153456526695}, "107353815RR0001": {"name": "EVANGELICAL COVENANT CHURCH", "designationCode": "C", "categoryCode": "39", "address": "1033 YOUVILLE DRIVE WEST NW   UNIT 69", "city": "EDMONTON", "province": "AB", "country": "CA", "postalCode": "T6L6V9", "twitter": "None", "instagram": "None", "facebook": "None", "youtube": "None", "website": "None", "summary": "None", "logo": "None", "latitude": 53.46278705956344, "longitude": -113.43256517509597}, "118903285RR0001": {"name": "EVANGELICAL COVENANT CHURCH", "designationCode": "C", "categoryCode": "39", "address": "BOX 77", "city": "ERICKSON", "province": "BC", "country": "CA", "postalCode": "V0B1K0", "twitter": "None", "instagram": "None", "facebook": "None", "youtube": "None", "website": "None", "summary": "None", "logo": "None", "latitude": 49.08828174626153, "longitude": -116.49677850143279}, "107353807RR0001": {"name": "EVANGELICAL COVENANT CHURCH OF CALGARY", "designationCode": "C", "categoryCode": "39", "address": "2404 KENSINGTON ROAD N.W.", "city": "CALGARY", "province": "AB", "country": "CA", "postalCode": "T2N3S1", "twitter": "None", "instagram": "None", "facebook": "None", "youtube": "None", "website": "None", "summary": "None", "logo": "None", "latitude": 51.0524955148594, "longitude": -114.1158105}, "118903319RR0001": {"name": "EVANGELICAL COVENANT CHURCH OF FORT FRANCES", "designationCode": "C", "categoryCode": "39", "address": "1027 KING'S HIGHWAY", "city": "FORT FRANCES", "province": "ON", "country": "CA", "postalCode": "P9A2X7", "twitter": "None", "instagram": "None", "facebook": "None", "youtube": "None", "website": "None", "summary": "None", "logo": "None", "latitude": 48.607176608130004, "longitude": -93.42832202067368}, "107353864RR0001": {"name": "EVANGELICAL COVENANT CHURCH OF RAINY RIVER", "designationCode": "C", "categoryCode": "39", "address": "P O BOX 756", "city": "RAINY RIVER", "province": "ON", "country": "CA", "postalCode": "P0W1L0", "twitter": "None", "instagram": "None", "facebook": "None", "youtube": "None", "website": "None", "summary": "None", "logo": "None", "latitude": 48.72217200000006, "longitude": -94.56111349999993}, "118903335RR0001": {"name": "EVANGELICAL FELLOWSHIP CHAPEL", "designationCode": "C", "categoryCode": "39", "address": "274 CONCORD AVE", "city": "TORONTO", "province": "ON", "country": "CA", "postalCode": "M6H2P5", "twitter": "None", "instagram": "None", "facebook": "None", "youtube": "None", "website": "None", "summary": "None", "logo": "None", "latitude": 43.66105508076062, "longitude": -79.42662555040661}, "107353906RR0001": {"name": "EVANGELICAL FELLOWSHIP CHURCH", "designationCode": "C", "categoryCode": "34", "address": "560 WEBSTER AVENUE", "city": "FORT FRANCES", "province": "ON", "country": "CA", "postalCode": "P9A3H8", "twitter": "None", "instagram": "None", "facebook": "None", "youtube": "None", "website": "None", "summary": "None", "logo": "None", "latitude": 48.61123106792173, "longitude": -93.41317470796932}, "107353914RR0001": {"name": "EVANGELICAL FELLOWSHIP CHURCH", "designationCode": "C", "categoryCode": "34", "address": "200 WOODHAVEN AVE", "city": "STEINBACH", "province": "MB", "country": "CA", "postalCode": "R5G2C5", "twitter": "None", "instagram": "None", "facebook": "None", "youtube": "None", "website": "None", "summary": "None", "logo": "None", "latitude": 49.524930395571964, "longitude": -96.69756303896285}, "898035423RR0001": {"name": "EVANGELICAL FORMOSAN CHURCH OF GREATER VANCOUVER IN BURNABY", "designationCode": "C", "categoryCode": "39", "address": "9931 PINEWELL CRES", "city": "RICHMOND", "province": "BC", "country": "CA", "postalCode": "V7A2C7", "twitter": "None", "instagram": "None", "facebook": "None", "youtube": "None", "website": "None", "summary": "None", "logo": "None", "latitude": 49.14247407799064, "longitude": -123.11543154936834}, "106775364RR0001": {"name": "EVANGELICAL FREE CHURCH OF BASSANO", "designationCode": "C", "categoryCode": "39", "address": "PO BOX 133", "city": "BASSANO", "province": "AB", "country": "CA", "postalCode": "T0J0B0", "twitter": "None", "instagram": "None", "facebook": "None", "youtube": "None", "website": "None", "summary": "None", "logo": "None", "latitude": 50.783420000000035, "longitude": -112.46853999999996}, "107354169RR0001": {"name": "EVANGELICAL FREE CHURCH OF CANADA PRAIRIE DISTRICT", "designationCode": "C", "categoryCode": "39", "address": "PO BOX 997", "city": "LETHBRIDGE", "province": "AB", "country": "CA", "postalCode": "T1J4A2", "twitter": "None", "instagram": "None", "facebook": "None", "youtube": "None", "website": "None", "summary": "None", "logo": "None", "latitude": 49.69383000000006, "longitude": -112.83373249999994}, "107354227RR0001": {"name": "EVANGELICAL FREE CHURCH OF CARBERRY", "designationCode": "C", "categoryCode": "39", "address": "BOX 790", "city": "CARBERRY", "province": "MB", "country": "CA", "postalCode": "R0K0H0", "twitter": "None", "instagram": "None", "facebook": "None", "youtube": "None", "website": "None", "summary": "None", "logo": "None", "latitude": 49.84164228965453, "longitude": -99.31431075066462}, "127799351RR0001": {"name": "EVANGELICAL FREE CHURCH OF ENCHANT", "designationCode": "C", "categoryCode": "39", "address": "BOX 1916", "city": "ENCHANT", "province": "AB", "country": "CA", "postalCode": "T0K0V0", "twitter": "None", "instagram": "None", "facebook": "None", "youtube": "None", "website": "None", "summary": "None", "logo": "None", "latitude": 50.16903000000008, "longitude": -112.42149999999998}, "118903483RR0001": {"name": "EVANGELICAL FREE CHURCH OF ERSKINE", "designationCode": "C", "categoryCode": "39", "address": "BOX 105", "city": "ERSKINE", "province": "AB", "country": "CA", "postalCode": "T0C1G0", "twitter": "None", "instagram": "None", "facebook": "None", "youtube": "None", "website": "None", "summary": "None", "logo": "None", "latitude": 52.32050000000004, "longitude": -112.87845999999996}, "107354243RR0001": {"name": "EVANGELICAL FREE CHURCH OF GOODLOW, BC", "designationCode": "C", "categoryCode": "39", "address": "BOX 78", "city": "GOODLOW", "province": "BC", "country": "CA", "postalCode": "V0C1S0", "twitter": "None", "instagram": "None", "facebook": "None", "youtube": "None", "website": "None", "summary": "None", "logo": "None", "latitude": 56.33370000000008, "longitude": -120.15284999999994}, "118944461RR0001": {"name": "EVANGELICAL FREE CHURCH OF MEADOW LAKE INCORPORATED", "designationCode": "C", "categoryCode": "34", "address": "913-5TH AVE W", "city": "MEADOW LAKE", "province": "SK", "country": "CA", "postalCode": "S9X1A4", "twitter": "None", "instagram": "None", "facebook": "None", "youtube": "None", "website": "None", "summary": "None", "logo": "None", "latitude": 54.12767245299212, "longitude": -108.45268495299212}, "136104775RR0001": {"name": "EVANGELICAL FREE CHURCH OF MEDICINE HAT,", "designationCode": "C", "categoryCode": "39", "address": "599-12 ST N W", "city": "MEDICINE HAT", "province": "AB", "country": "CA", "postalCode": "T1A6R3", "twitter": "None", "instagram": "None", "facebook": "None", "youtube": "None", "website": "None", "summary": "None", "logo": "None", "latitude": 50.02774308705141, "longitude": -110.70009108705142}, "107354276RR0001": {"name": "EVANGELICAL FREE CHURCH OF PICTURE BUTTE", "designationCode": "C", "categoryCode": "39", "address": "PO BOX 707", "city": "PICTURE BUTTE", "province": "AB", "country": "CA", "postalCode": "T0K1V0", "twitter": "None", "instagram": "None", "facebook": "None", "youtube": "None", "website": "None", "summary": "None", "logo": "None", "latitude": 49.87851001832194, "longitude": -112.77815001110848}, "118903533RR0001": {"name": "EVANGELICAL FREE CHURCH OF REGINA", "designationCode": "C", "categoryCode": "39", "address": "855 BROAD STREET NORTH", "city": "REGINA", "province": "SK", "country": "CA", "postalCode": "S4R6C7", "twitter": "None", "instagram": "None", "facebook": "None", "youtube": "None", "website": "None", "summary": "None", "logo": "None", "latitude": 50.490807927553966, "longitude": -104.60605622667009}, "118903558RR0001": {"name": "EVANGELICAL FREE CHURCH OF WAINWRIGHT", "designationCode": "C", "categoryCode": "39", "address": "1617 5TH AVE", "city": "WAINWRIGHT", "province": "AB", "country": "CA", "postalCode": "T9W1J3", "twitter": "None", "instagram": "None", "facebook": "None", "youtube": "None", "website": "None", "summary": "None", "logo": "None", "latitude": 52.8328020283322, "longitude": -110.84656549410752}, "133383265RR0001": {"name": "EVANGELICAL FREE CHURCH OF WILLIAMS LAKE", "designationCode": "C", "categoryCode": "39", "address": "1100 11TH AVE N", "city": "WILLIAMS LAKE", "province": "BC", "country": "CA", "postalCode": "V2G3T9", "twitter": "None", "instagram": "None", "facebook": "None", "youtube": "None", "website": "None", "summary": "None", "logo": "None", "latitude": 52.14883021957388, "longitude": -122.14736573584787}, "130498025RR0001": {"name": "EVANGELICAL FREE CHURCH,", "designationCode": "C", "categoryCode": "39", "address": "4590-5TH AVENUE", "city": "PRINCE GEORGE", "province": "BC", "country": "CA", "postalCode": "V2M6B6", "twitter": "None", "instagram": "None", "facebook": "None", "youtube": "None", "website": "None", "summary": "None", "logo": "None", "latitude": 53.920779970538995, "longitude": -122.81596612747833}, "840451959RR0001": {"name": "EVANGELICAL FREE COMMUNITY BIBLE CHURCH OF PAMBRUN INC.", "designationCode": "C", "categoryCode": "39", "address": "BOX 116", "city": "PAMBRUN", "province": "SK", "country": "CA", "postalCode": "S0N1W0", "twitter": "None", "instagram": "None", "facebook": "None", "youtube": "None", "website": "None", "summary": "None", "logo": "None", "latitude": 49.93772000000007, "longitude": -107.45986999999997}, "118987304RR0001": {"name": "EVANGELICAL LAYMAN'S CHURCH OF CANADA (TORONTO)", "designationCode": "C", "categoryCode": "39", "address": "251 LAKESHORE RD              RR 1", "city": "SELKIRK", "province": "ON", "country": "CA", "postalCode": "N0A1P0", "twitter": "None", "instagram": "None", "facebook": "None", "youtube": "None", "website": "None", "summary": "None", "logo": "None", "latitude": 42.81978605190717, "longitude": -79.90528694379367}, "835989740RR0001": {"name": "EVANGELICAL LAYMEN'S CHURCH OF CANADA (VANCOUVER)", "designationCode": "C", "categoryCode": "39", "address": "3000 CAMP HOWDY RD", "city": "BELCARRA", "province": "BC", "country": "CA", "postalCode": "V3H5B6", "twitter": "None", "instagram": "None", "facebook": "None", "youtube": "None", "website": "None", "summary": "None", "logo": "None", "latitude": 49.30353600000005, "longitude": -122.89100299999993}, "857393730RR0001": {"name": "EVANGELICAL LUTHERAN BRETHREN CHURCH INC.", "designationCode": "C", "categoryCode": "39", "address": "PO BOX 4435 STN MAIN", "city": "STEINBACH", "province": "MB", "country": "CA", "postalCode": "R5G1R3", "twitter": "None", "instagram": "None", "facebook": "None", "youtube": "None", "website": "None", "summary": "None", "logo": "None", "latitude": 49.53143090703223, "longitude": -96.69328233906832}, "107354334RR0001": {"name": "EVANGELICAL LUTHERAN CHURCH IN CANADA", "designationCode": "C", "categoryCode": "32", "address": "600 177 LOMBARD AVE", "city": "WINNIPEG", "province": "MB", "country": "CA", "postalCode": "R3B0W5", "twitter": "None", "instagram": "None", "facebook": "None", "youtube": "None", "website": "None", "summary": "None", "logo": "None", "latitude": 49.89626240218695, "longitude": -97.13760688758732}, "132152737RR0001": {"name": "EVANGELICAL LUTHERAN CHURCH OF SELKIRK", "designationCode": "C", "categoryCode": "39", "address": "329 CLANDEBOYE AVENUE         P.O. BOX 65", "city": "SELKIRK", "province": "MB", "country": "CA", "postalCode": "R1A2B1", "twitter": "None", "instagram": "None", "facebook": "None", "youtube": "None", "website": "None", "summary": "None", "logo": "None", "latitude": 50.14402690774532, "longitude": -96.87212939074082}, "108081662RR0001": {"name": "EVANGELICAL LUTHERAN CHURCH OF THE CROSS", "designationCode": "C", "categoryCode": "32", "address": "560 ARLINGTON ST", "city": "WINNIPEG", "province": "MB", "country": "CA", "postalCode": "R3G1Z5", "twitter": "None", "instagram": "None", "facebook": "None", "youtube": "None", "website": "None", "summary": "None", "logo": "None", "latitude": 49.89421962392521, "longitude": -97.16874443190576}, "118903616RR0001": {"name": "EVANGELICAL LUTHERAN CHURCH OF THE GOOD SHEPHERD", "designationCode": "C", "categoryCode": "32", "address": "BOX 3155", "city": "STONY PLAIN", "province": "AB", "country": "CA", "postalCode": "T7Z1C1", "twitter": "None", "instagram": "None", "facebook": "None", "youtube": "None", "website": "None", "summary": "None", "logo": "None", "latitude": 53.52762300000006, "longitude": -114.01032499999994}}