{"118946433RR0001": {"name": "GRAPHITE BIBLE CHAPEL", "designationCode": "C", "categoryCode": "39", "address": "B - 702 GRAPHITE RD           RR 1", "city": "MAYNOOTH", "province": "ON", "country": "CA", "postalCode": "K0L2S0", "twitter": "None", "instagram": "None", "facebook": "None", "youtube": "None", "website": "None", "summary": "None", "logo": "None", "latitude": 45.2070158222929, "longitude": -77.8779122780232}, "892685769RR0001": {"name": "GRASS ROOTS ACTION COMMUNITY ENDEAVOURS (GRACE) CANADA", "designationCode": "C", "categoryCode": "47", "address": "514 - 2951 RIVERSIDE DR", "city": "OTTAWA", "province": "ON", "country": "CA", "postalCode": "K1V8W6", "twitter": "None", "instagram": "None", "facebook": "None", "youtube": "None", "website": "None", "summary": "None", "logo": "None", "latitude": 45.36822712046277, "longitude": -75.68966766466656}, "860790864RR0001": {"name": "GRASS ROOTS CHURCH", "designationCode": "C", "categoryCode": "39", "address": "278 S. ALGOMA ST", "city": "THUNDER BAY", "province": "ON", "country": "CA", "postalCode": "P7B3C2", "twitter": "None", "instagram": "None", "facebook": "None", "youtube": "None", "website": "None", "summary": "None", "logo": "None", "latitude": 48.42841289370416, "longitude": -89.23295487206408}, "140068172RR0001": {"name": "GRASSIE GOSPEL CHURCH", "designationCode": "C", "categoryCode": "39", "address": "504 MUD ST", "city": "GRASSIE", "province": "ON", "country": "CA", "postalCode": "L0R1M0", "twitter": "None", "instagram": "None", "facebook": "None", "youtube": "None", "website": "None", "summary": "None", "logo": "None", "latitude": 43.157830656132376, "longitude": -79.62520803620038}, "870042777RR0001": {"name": "GRASSLANDS CONSERVATION COUNCIL OF BRITISH COLUMBIA", "designationCode": "C", "categoryCode": "52", "address": "PO BOX 3341 RPO TERMINAL MPP", "city": "KAMLOOPS", "province": "BC", "country": "CA", "postalCode": "V2C6B9", "twitter": "None", "instagram": "None", "facebook": "None", "youtube": "None", "website": "None", "summary": "None", "logo": "None", "latitude": 50.675883000000056, "longitude": -120.33898099999993}, "139051403RR0001": {"name": "GRASSLANDS REGIONAL DIVISION NO 6", "designationCode": "C", "categoryCode": "20", "address": "745 SECOND AVE E", "city": "BROOKS", "province": "AB", "country": "CA", "postalCode": "T1R1L2", "twitter": "None", "instagram": "None", "facebook": "None", "youtube": "None", "website": "None", "summary": "None", "logo": "None", "latitude": 50.56318048311335, "longitude": -111.88556307808445}, "891552143RR0001": {"name": "GRASSY LAKE COMMUNITY LIBRARY SOCIETY", "designationCode": "C", "categoryCode": "50", "address": "4718-56 AVE", "city": "TABER", "province": "AB", "country": "CA", "postalCode": "T1G1G8", "twitter": "None", "instagram": "None", "facebook": "None", "youtube": "None", "website": "None", "summary": "None", "logo": "None", "latitude": 49.79218452899768, "longitude": -112.15525419317329}, "107448920RR0001": {"name": "GRASSY PLAINS GOSPEL CHURCH", "designationCode": "C", "categoryCode": "39", "address": "36232 KEEFES LANDING RD", "city": "BURNS LAKE", "province": "BC", "country": "CA", "postalCode": "V0J1E4", "twitter": "None", "instagram": "None", "facebook": "None", "youtube": "None", "website": "None", "summary": "None", "logo": "None", "latitude": 54.017489689335676, "longitude": -125.77040615068537}, "868975616RR0001": {"name": "GRAVELBOURG & DISTRICT BILINGUAL MUSIC FESTIVAL", "designationCode": "C", "categoryCode": "22", "address": "PO BOX 943", "city": "GRAVELBOURG", "province": "SK", "country": "CA", "postalCode": "S0H1X0", "twitter": "None", "instagram": "None", "facebook": "None", "youtube": "None", "website": "None", "summary": "None", "logo": "None", "latitude": 49.87668000000008, "longitude": -106.55736999999999}, "862397619RR0001": {"name": "GRAVELBOURG & DISTRICT MUSEUM INC.", "designationCode": "C", "categoryCode": "53", "address": "300 MAIN ST.                  P.O. BOX 359", "city": "GRAVELBOURG", "province": "SK", "country": "CA", "postalCode": "S0H1X0", "twitter": "None", "instagram": "None", "facebook": "None", "youtube": "None", "website": "None", "summary": "None", "logo": "None", "latitude": 49.87479027943403, "longitude": -106.55726522056595}, "118946516RR0001": {"name": "GRAVELBOURG BON AMI INC.", "designationCode": "C", "categoryCode": "09", "address": "PO BOX 822", "city": "GRAVELBOURG", "province": "SK", "country": "CA", "postalCode": "S0H1X0", "twitter": "None", "instagram": "None", "facebook": "None", "youtube": "None", "website": "None", "summary": "None", "logo": "None", "latitude": 49.87668000000008, "longitude": -106.55736999999999}, "131895773RR0001": {"name": "GRAVELBOURG UNITED CHURCH", "designationCode": "C", "categoryCode": "44", "address": "BOX 716", "city": "GRAVELBOURG", "province": "SK", "country": "CA", "postalCode": "S0H1X0", "twitter": "None", "instagram": "None", "facebook": "None", "youtube": "None", "website": "None", "summary": "None", "logo": "None", "latitude": 49.87668000000008, "longitude": -106.55736999999999}, "118946540RR0001": {"name": "GRAVENHURST CHRISTIAN ASSEMBLY FINANCIAL ADMINISTRATION", "designationCode": "C", "categoryCode": "39", "address": "1670 WALKERS POINT RD.", "city": "GRAVENHURST", "province": "ON", "country": "CA", "postalCode": "P1P1R2", "twitter": "None", "instagram": "None", "facebook": "None", "youtube": "None", "website": "None", "summary": "None", "logo": "None", "latitude": 45.025177790149634, "longitude": -79.46062233198657}, "118946557RR0001": {"name": "GRAVENHURST HIGH SCHOOL BURSARY FUND", "designationCode": "C", "categoryCode": "21", "address": "325 MARY ST S", "city": "GRAVENHURST", "province": "ON", "country": "CA", "postalCode": "P1P1X7", "twitter": "None", "instagram": "None", "facebook": "None", "youtube": "None", "website": "None", "summary": "None", "logo": "None", "latitude": 44.91773240699068, "longitude": -79.37645403410171}, "118946581RR0001": {"name": "GRAVENHURST SENIOR CITIZENS CLUB", "designationCode": "C", "categoryCode": "09", "address": "480 FIRST ST N", "city": "GRAVENHURST", "province": "ON", "country": "CA", "postalCode": "P1P1B9", "twitter": "None", "instagram": "None", "facebook": "None", "youtube": "None", "website": "None", "summary": "None", "logo": "None", "latitude": 44.923939271964194, "longitude": -79.37417777114705}, "119288918RR0560": {"name": "GRAVENHURST, ONTARIO, CONGREGATION OF JEHOVAH'S WITNESSES", "designationCode": "C", "categoryCode": "61", "address": "PO BOX 1216 STN MAIN", "city": "GRAVENHURST", "province": "ON", "country": "CA", "postalCode": "P1P1V4", "twitter": "None", "instagram": "None", "facebook": "None", "youtube": "None", "website": "None", "summary": "None", "logo": "None", "latitude": 44.91436918871903, "longitude": -79.36984818449528}, "118946607RR0001": {"name": "GRAY CO-OPERATIVE MEMORIAL HALL", "designationCode": "C", "categoryCode": "56", "address": "BOX 35", "city": "GRAY", "province": "SK", "country": "CA", "postalCode": "S0G2A0", "twitter": "None", "instagram": "None", "facebook": "None", "youtube": "None", "website": "None", "summary": "None", "logo": "None", "latitude": 50.172453000000004, "longitude": -104.4415755}, "118946615RR0001": {"name": "GRAY CO-OPERATIVE RECREATIONAL CENTRE LIMITED", "designationCode": "C", "categoryCode": "56", "address": "BOX 92", "city": "GRAY", "province": "SK", "country": "CA", "postalCode": "S0G2A0", "twitter": "None", "instagram": "None", "facebook": "None", "youtube": "None", "website": "None", "summary": "None", "logo": "None", "latitude": 50.172453000000004, "longitude": -104.4415755}, "889563441RR0001": {"name": "GRAY HOUSE GUILD", "designationCode": "C", "categoryCode": "19", "address": "5005 28TH AVENUE", "city": "EDMONTON", "province": "AB", "country": "CA", "postalCode": "T6L7G1", "twitter": "None", "instagram": "None", "facebook": "None", "youtube": "None", "website": "None", "summary": "None", "logo": "None", "latitude": 53.45923654558879, "longitude": -113.4220725}, "836354969RR0001": {"name": "GRAY ROAD & UNION CENTRE PIONEER CEMETERY ASSOCIATION", "designationCode": "C", "categoryCode": "59", "address": "59 SALTER ROAD RR 2", "city": "WESTVILLE", "province": "NS", "country": "CA", "postalCode": "B0K2A0", "twitter": "None", "instagram": "None", "facebook": "None", "youtube": "None", "website": "None", "summary": "None", "logo": "None", "latitude": 45.53376979522727, "longitude": -62.760523954207805}, "118946649RR0001": {"name": "GRAY UNITED CHURCH", "designationCode": "C", "categoryCode": "44", "address": "BOX 65", "city": "GRAY", "province": "SK", "country": "CA", "postalCode": "S0G2A0", "twitter": "None", "instagram": "None", "facebook": "None", "youtube": "None", "website": "None", "summary": "None", "logo": "None", "latitude": 50.172453000000004, "longitude": -104.4415755}, "892784968RR0001": {"name": "GRAYHAWK PRESCHOOL INC.", "designationCode": "C", "categoryCode": "01", "address": "6 ELIZABETH STREET E", "city": "CREEMORE", "province": "ON", "country": "CA", "postalCode": "L0M1G0", "twitter": "None", "instagram": "None", "facebook": "None", "youtube": "None", "website": "None", "summary": "None", "logo": "None", "latitude": 44.32530916183835, "longitude": -80.10449808702168}, "118946631RR0001": {"name": "GRAYSVILLE MENNONITE CHURCH", "designationCode": "C", "categoryCode": "34", "address": "BOX 31", "city": "GRAYSVILLE", "province": "MB", "country": "CA", "postalCode": "R0G0T0", "twitter": "None", "instagram": "None", "facebook": "None", "youtube": "None", "website": "None", "summary": "None", "logo": "None", "latitude": 49.50959000000006, "longitude": -98.15802999999994}, "892605577RR0001": {"name": "GRAYWOOD COMMUNITY CEMETERY COMMITTEE", "designationCode": "C", "categoryCode": "59", "address": "180 OLD MARSHALLTOWN RD       RR2", "city": "DIGBY", "province": "NS", "country": "CA", "postalCode": "B0V1A0", "twitter": "None", "instagram": "None", "facebook": "None", "youtube": "None", "website": "None", "summary": "None", "logo": "None", "latitude": 44.57734174963944, "longitude": -65.8175683524728}, "107449357RR0001": {"name": "GREAT BEND CHURCH OF CHRIST", "designationCode": "C", "categoryCode": "39", "address": "BOX 540", "city": "DELBURNE", "province": "AB", "country": "CA", "postalCode": "T0M0V0", "twitter": "None", "instagram": "None", "facebook": "None", "youtube": "None", "website": "None", "summary": "None", "logo": "None", "latitude": 52.19744000000003, "longitude": -113.23499999999996}, "880373501RR0001": {"name": "GREAT BIG CHILDREN'S THEATRE", "designationCode": "C", "categoryCode": "22", "address": "4 THISTLE LANE", "city": "DUNDAS", "province": "ON", "country": "CA", "postalCode": "L9H6G1", "twitter": "None", "instagram": "None", "facebook": "None", "youtube": "None", "website": "None", "summary": "None", "logo": "None", "latitude": 43.263354594494835, "longitude": -79.97169582099363}, "891880205RR0001": {"name": "GREAT BLUE HERON NATURE RESERVE SOCIETY", "designationCode": "C", "categoryCode": "52", "address": "PO BOX 512 STN MAIN", "city": "CHILLIWACK", "province": "BC", "country": "CA", "postalCode": "V2P7V5", "twitter": "None", "instagram": "None", "facebook": "None", "youtube": "None", "website": "None", "summary": "None", "logo": "None", "latitude": 49.169860930294725, "longitude": -121.95627179555584}, "866799422RR0001": {"name": "GREAT CANADIAN PLAINS RAILWAY SOCIETY", "designationCode": "C", "categoryCode": "50", "address": "PO BOX 1013", "city": "LETHBRIDGE", "province": "AB", "country": "CA", "postalCode": "T1J4A2", "twitter": "None", "instagram": "None", "facebook": "None", "youtube": "None", "website": "None", "summary": "None", "logo": "None"}, "861145423RR0001": {"name": "GREAT CANADIAN TOWN BAND FESTIVAL", "designationCode": "C", "categoryCode": "22", "address": "6667 LESKARD ROAD             P.O. BOX 337", "city": "ORONO", "province": "ON", "country": "CA", "postalCode": "L0B1M0", "twitter": "None", "instagram": "None", "facebook": "None", "youtube": "None", "website": "None", "summary": "None", "logo": "None", "latitude": 44.00059475155145, "longitude": -78.63652608797487}, "864263678RR0001": {"name": "GREAT CHARITY", "designationCode": "C", "categoryCode": "02", "address": "1500 WEST GEORGIA ST.         SUITE 1250 BOX 62", "city": "VANCOUVER", "province": "BC", "country": "CA", "postalCode": "V6G2Z6", "twitter": "None", "instagram": "None", "facebook": "None", "youtube": "None", "website": "None", "summary": "None", "logo": "None", "latitude": 49.2900638104334, "longitude": -123.12989899362336}, "867750507RR0001": {"name": "GREAT EXPECTATIONS FOUNDATION", "designationCode": "B", "categoryCode": "03", "address": "1500 WEST GEORGIA STREET      SUITE 1250, BOX 62", "city": "VANCOUVER", "province": "BC", "country": "CA", "postalCode": "V6G2Z6", "twitter": "None", "instagram": "None", "facebook": "None", "youtube": "None", "website": "None", "summary": "None", "logo": "None", "latitude": 49.2900638104334, "longitude": -123.12989899362336}, "890876576RR0001": {"name": "GREAT LAKES BIBLE COLLEGE", "designationCode": "C", "categoryCode": "20", "address": "4875 KING STREET", "city": "BEAMSVILLE", "province": "ON", "country": "CA", "postalCode": "L0R1B6", "twitter": "None", "instagram": "None", "facebook": "None", "youtube": "None", "website": "None", "summary": "None", "logo": "None", "latitude": 43.16351364074559, "longitude": -79.4700233680543}, "102183829RR0001": {"name": "GREAT LAKES CHRISTIAN COLLEGE", "designationCode": "C", "categoryCode": "20", "address": "4875 KING STREET", "city": "BEAMSVILLE", "province": "ON", "country": "CA", "postalCode": "L0R1B6", "twitter": "None", "instagram": "None", "facebook": "None", "youtube": "None", "website": "None", "summary": "None", "logo": "None", "latitude": 43.16351364074559, "longitude": -79.4700233680543}, "118881325RR0001": {"name": "GREAT PLAINS COLLEGE", "designationCode": "C", "categoryCode": "20", "address": "PO BOX 700", "city": "BIGGAR", "province": "SK", "country": "CA", "postalCode": "S0K0M0", "twitter": "None", "instagram": "None", "facebook": "None", "youtube": "None", "website": "None", "summary": "None", "logo": "None", "latitude": 52.065150000000074, "longitude": -107.99375999999995}, "869256560RR0001": {"name": "GREAT PLAINS TRANS CANADA TRAIL ASSOCIATION INC", "designationCode": "C", "categoryCode": "56", "address": "25 MOTHERWELL CRES            S.R. LOWTHIAN CA, TREASURER", "city": "REGINA", "province": "SK", "country": "CA", "postalCode": "S4S3Z3", "twitter": "None", "instagram": "None", "facebook": "None", "youtube": "None", "website": "None", "summary": "None", "logo": "None"}, "120968979RR0001": {"name": "GREAT SANDHILLS HISTORICAL SOCIETY INC", "designationCode": "C", "categoryCode": "50", "address": "BOX 29", "city": "SCEPTRE", "province": "SK", "country": "CA", "postalCode": "S0N2H0", "twitter": "None", "instagram": "None", "facebook": "None", "youtube": "None", "website": "None", "summary": "None", "logo": "None", "latitude": 50.850100000000054, "longitude": -109.25148999999999}, "118947118RR0001": {"name": "GREAT VILLAGE & DISTRICT FIRE COMMISSION", "designationCode": "C", "categoryCode": "59", "address": "P.O BOX 138", "city": "GREAT VILLAGE", "province": "NS", "country": "CA", "postalCode": "B0M1L0", "twitter": "None", "instagram": "None", "facebook": "None", "youtube": "None", "website": "None", "summary": "None", "logo": "None", "latitude": 45.416480000000035, "longitude": -63.599489999999946}, "867160079RR0001": {"name": "GREATER ATHABASCA COMMUNITY FOUNDATION", "designationCode": "C", "categoryCode": "09", "address": "4915-53 ST", "city": "ATHABASCA", "province": "AB", "country": "CA", "postalCode": "T9S1L1", "twitter": "None", "instagram": "None", "facebook": "None", "youtube": "None", "website": "None", "summary": "None", "logo": "None", "latitude": 54.72049449708581, "longitude": -113.29050955929343}, "863848933RR0001": {"name": "GREATER BARRIE CENTRE FOR THE PERFORMING ARTS", "designationCode": "C", "categoryCode": "22", "address": "PO BOX 327 STN MAIN", "city": "BARRIE", "province": "ON", "country": "CA", "postalCode": "L4M4T5", "twitter": "None", "instagram": "None", "facebook": "None", "youtube": "None", "website": "None", "summary": "None", "logo": "None", "latitude": 44.38929300000005, "longitude": -79.68626449999994}, "132753252RR0001": {"name": "GREATER EDMONTON FOUNDATION", "designationCode": "C", "categoryCode": "01", "address": "14220 109 AVE NW", "city": "EDMONTON", "province": "AB", "country": "CA", "postalCode": "T5N4B3", "twitter": "None", "instagram": "None", "facebook": "None", "youtube": "None", "website": "None", "summary": "None", "logo": "None", "latitude": 53.55418646436588, "longitude": -113.56730036081134}, "870677739RR0001": {"name": "GREATER ESSEX COUNTY DISTRICT SCHOOL BOARD", "designationCode": "C", "categoryCode": "20", "address": "451 PARK STREET WEST          PO BOX 210", "city": "WINDSOR", "province": "ON", "country": "CA", "postalCode": "N9A6K1", "twitter": "None", "instagram": "None", "facebook": "None", "youtube": "None", "website": "None", "summary": "None", "logo": "None", "latitude": 42.31515897968758, "longitude": -83.04324396583777}, "118946706RR0001": {"name": "GREATER EUROPE MISSION", "designationCode": "C", "categoryCode": "47", "address": "100 ONTARIO STREET", "city": "OSHAWA", "province": "ON", "country": "CA", "postalCode": "L1G4Z1", "twitter": "None", "instagram": "None", "facebook": "None", "youtube": "None", "website": "None", "summary": "None", "logo": "None", "latitude": 43.90054098389985, "longitude": -78.86379378824505}, "107449464RR0001": {"name": "GREATER FORT ERIE BIG BROTHERS AND BIG SISTERS ASSOCATION", "designationCode": "C", "categoryCode": "09", "address": "800 NIAGARA ST. UNIT JJ4", "city": "WELLAND", "province": "ON", "country": "CA", "postalCode": "L3C5Z4", "twitter": "None", "instagram": "None", "facebook": "None", "youtube": "None", "website": "None", "summary": "None", "logo": "None", "latitude": 43.01587465167412, "longitude": -79.2498161516741}, "118946730RR0001": {"name": "GREATER FREDERICTON CHRISTIAN SCHOOL SOCIETY INC.", "designationCode": "C", "categoryCode": "20", "address": "121 MCADAM AVE", "city": "FREDERICTON", "province": "NB", "country": "CA", "postalCode": "E3A1G7", "twitter": "None", "instagram": "None", "facebook": "None", "youtube": "None", "website": "None", "summary": "None", "logo": "None", "latitude": 45.98056454177962, "longitude": -66.67663187191985}, "136957958RR0001": {"name": "GREATER HAMILTON FOOD SHARE", "designationCode": "C", "categoryCode": "09", "address": "339 BARTON ST E", "city": "STONEY CREEK", "province": "ON", "country": "CA", "postalCode": "L8E2L2", "twitter": "None", "instagram": "None", "facebook": "None", "youtube": "None", "website": "None", "summary": "None", "logo": "None", "latitude": 43.22843890706302, "longitude": -79.72412595571022}, "118946748RR0001": {"name": "GREATER HAMILTON SYMPHONY ASSOCIATION", "designationCode": "C", "categoryCode": "22", "address": "300 - 1100 BURLOAK DR", "city": "BURLINGTON", "province": "ON", "country": "CA", "postalCode": "L7L6B2", "twitter": "None", "instagram": "None", "facebook": "None", "youtube": "None", "website": "None", "summary": "None", "logo": "None", "latitude": 43.3974098806051, "longitude": -79.75948862496347}, "867320319RR0001": {"name": "GREATER MADAWASKA PUBLIC LIBRARY", "designationCode": "C", "categoryCode": "50", "address": "4984 CALABOGIE ROAD           P.O. BOX 160", "city": "CALABOGIE", "province": "ON", "country": "CA", "postalCode": "K0J1H0", "twitter": "None", "instagram": "None", "facebook": "None", "youtube": "None", "website": "None", "summary": "None", "logo": "None", "latitude": 45.29951174080994, "longitude": -76.73009774747504}, "853679538RR0001": {"name": "GREATER MONCTON DOWN SYNDROME SOCIETY INC./SOCIETE DU SYNDROME DE DOWN DU GRAND MONCTON INC.", "designationCode": "C", "categoryCode": "11", "address": "P.O. BOX 29070", "city": "MONCTON", "province": "NB", "country": "CA", "postalCode": "E1G4R3", "twitter": "None", "instagram": "None", "facebook": "None", "youtube": "None", "website": "None", "summary": "None", "logo": "None", "latitude": 46.08834900000005, "longitude": -64.77824149999994}, "890782998RR0001": {"name": "GREATER MONCTON LITERACY ADVISORY BOARD INC.", "designationCode": "C", "categoryCode": "20", "address": "#11-80 MAPLETON ROAD          SUITE 163", "city": "MONCTON", "province": "NB", "country": "CA", "postalCode": "E1C7W8", "twitter": "None", "instagram": "None", "facebook": "None", "youtube": "None", "website": "None", "summary": "None", "logo": "None", "latitude": 46.10860213791923, "longitude": -64.82315636285922}, "863786323RR0001": {"name": "GREATER NIPISSING STEWARDSHIP COUNCIL", "designationCode": "C", "categoryCode": "59", "address": "PO BOX 1391                   101 WORTHINGTON ST E", "city": "NORTH BAY", "province": "ON", "country": "CA", "postalCode": "P1B8K5", "twitter": "None", "instagram": "None", "facebook": "None", "youtube": "None", "website": "None", "summary": "None", "logo": "None", "latitude": 46.3110474657222, "longitude": -79.4615682305095}, "864166137RR0001": {"name": "GREATER ONTARIO HOUSE OF PRAYER (GOHOP)", "designationCode": "C", "categoryCode": "47", "address": "120 WENTWORTH ST N", "city": "HAMILTON", "province": "ON", "country": "CA", "postalCode": "L8L5V7", "twitter": "None", "instagram": "None", "facebook": "None", "youtube": "None", "website": "None", "summary": "None", "logo": "None", "latitude": 43.25615104218364, "longitude": -79.84716001038736}, "839074069RR0001": {"name": "GREATER OUTREACH MEDICAL/EDUCATIONAL DESTINATIONS", "designationCode": "C", "categoryCode": "11", "address": "1605-1033 MARINASIDE CRESCENT", "city": "VANCOUVER", "province": "BC", "country": "CA", "postalCode": "V6Z3A3", "twitter": "None", "instagram": "None", "facebook": "None", "youtube": "None", "website": "None", "summary": "None", "logo": "None", "latitude": 49.27327574442055, "longitude": -123.11655210886848}, "888118247RR0001": {"name": "GREATER PETERBOROUGH HEALTH SERVICES FOUNDATION", "designationCode": "A", "categoryCode": "13", "address": "185 KING STREET               5TH FLOOR", "city": "PETERBOROUGH", "province": "ON", "country": "CA", "postalCode": "K9J2R8", "twitter": "None", "instagram": "None", "facebook": "None", "youtube": "None", "website": "None", "summary": "None", "logo": "None", "latitude": 44.30193454284748, "longitude": -78.32128241756594}, "140741398RR0001": {"name": "GREATER SASKATOON CATHOLIC SCHOOLS FOUNDATION INC.", "designationCode": "C", "categoryCode": "23", "address": "420 - 22ND STREET EAST", "city": "SASKATOON", "province": "SK", "country": "CA", "postalCode": "S7K1X3", "twitter": "None", "instagram": "None", "facebook": "None", "youtube": "None", "website": "None", "summary": "None", "logo": "None", "latitude": 52.127973343903136, "longitude": -106.65913855799535}, "890744022RR0001": {"name": "GREATER TERRACE BEAUTIFICATION SOCIETY", "designationCode": "C", "categoryCode": "56", "address": "5236 SOUCIE AVE", "city": "TERRACE", "province": "BC", "country": "CA", "postalCode": "V8G4X8", "twitter": "None", "instagram": "None", "facebook": "None", "youtube": "None", "website": "None", "summary": "None", "logo": "None", "latitude": 54.526305494373176, "longitude": -128.62838958811818}, "866442494RR0001": {"name": "GREATER TORONTO APARTMENT ASSOCIATION CHARITABLE FOUNDATION", "designationCode": "A", "categoryCode": "03", "address": "20 UPJOHN ROAD                SUITE 103", "city": "TORONTO", "province": "ON", "country": "CA", "postalCode": "M3B2V9", "twitter": "None", "instagram": "None", "facebook": "None", "youtube": "None", "website": "None", "summary": "None", "logo": "None", "latitude": 43.753295180391355, "longitude": -79.35022536989969}, "890844947RR0001": {"name": "GREATER TORONTO CHINESE CHRISTIAN CHURCHES' COUNCIL", "designationCode": "C", "categoryCode": "39", "address": "8 METROPOLITAN ROAD", "city": "SCARBOROUGH", "province": "ON", "country": "CA", "postalCode": "M1R2T5", "twitter": "None", "instagram": "None", "facebook": "None", "youtube": "None", "website": "None", "summary": "None", "logo": "None", "latitude": 43.76745019242255, "longitude": -79.30185946673181}, "118946771RR0001": {"name": "GREATER TORONTO SCOUT FOUNDATION", "designationCode": "A", "categoryCode": "23", "address": "75 BABY POINT CRES", "city": "YORK", "province": "ON", "country": "CA", "postalCode": "M6S2B7", "twitter": "None", "instagram": "None", "facebook": "None", "youtube": "None", "website": "None", "summary": "None", "logo": "None", "latitude": 43.65411302164008, "longitude": -79.5005690794043}, "888593431RR0001": {"name": "GREATER TRAIL COMMUNITY SKILLS CENTRE SOCIETY", "designationCode": "C", "categoryCode": "59", "address": "123-1290 ESPLANADE", "city": "TRAIL", "province": "BC", "country": "CA", "postalCode": "V1R4T2", "twitter": "None", "instagram": "None", "facebook": "None", "youtube": "None", "website": "None", "summary": "None", "logo": "None", "latitude": 49.09669517871161, "longitude": -117.7072516952419}, "118946789RR0001": {"name": "GREATER VANCOUVER ASSEMBLY HALL OF JEHOVAH'S WITNESSES", "designationCode": "C", "categoryCode": "61", "address": "1604-15038 101 AVE", "city": "SURREY", "province": "BC", "country": "CA", "postalCode": "V3R0N2", "twitter": "None", "instagram": "None", "facebook": "None", "youtube": "None", "website": "None", "summary": "None", "logo": "None", "latitude": 49.18608600000006, "longitude": -122.80504399999992}, "118946797RR0001": {"name": "GREATER VANCOUVER ASSOCIATION OF THE DEAF", "designationCode": "C", "categoryCode": "11", "address": "2125 WEST 7TH AVENUE", "city": "VANCOUVER", "province": "BC", "country": "CA", "postalCode": "V6K1X9", "twitter": "None", "instagram": "None", "facebook": "None", "youtube": "None", "website": "None", "summary": "None", "logo": "None", "latitude": 49.265636467684104, "longitude": -123.15353366472388}, "135625648RR0001": {"name": "GREATER VANCOUVER BAPTIST CHURCH", "designationCode": "C", "categoryCode": "31", "address": "4440 VICTORIA DR", "city": "VANCOUVER", "province": "BC", "country": "CA", "postalCode": "V5N4N6", "twitter": "None", "instagram": "None", "facebook": "None", "youtube": "None", "website": "None", "summary": "None", "logo": "None", "latitude": 49.24566745989384, "longitude": -123.06510910765215}, "859894214RR0001": {"name": "GREATER VANCOUVER CHINESE PARKINSON'S SOCIETY", "designationCode": "C", "categoryCode": "11", "address": "370 DUTHIE AVE", "city": "BURNABY", "province": "BC", "country": "CA", "postalCode": "V5A2P2", "twitter": "None", "instagram": "None", "facebook": "None", "youtube": "None", "website": "None", "summary": "None", "logo": "None", "latitude": 49.28069764454852, "longitude": -122.95334225794709}, "119281681RR0001": {"name": "GREATER VANCOUVER COMMUNITY SERVICES SOCIETY", "designationCode": "C", "categoryCode": "09", "address": "#500-1212 WEST BROADWAY", "city": "VANCOUVER", "province": "BC", "country": "CA", "postalCode": "V6H3V2", "twitter": "None", "instagram": "None", "facebook": "None", "youtube": "None", "website": "None", "summary": "None", "logo": "None", "latitude": 49.26342849567218, "longitude": -123.13192436081135}, "107449787RR0001": {"name": "GREATER VANCOUVER FOOD BANK SOCIETY", "designationCode": "C", "categoryCode": "01", "address": "1150 RAYMUR AVE", "city": "VANCOUVER", "province": "BC", "country": "CA", "postalCode": "V6A3T2", "twitter": "None", "instagram": "None", "facebook": "None", "youtube": "None", "website": "None", "summary": "None", "logo": "None", "latitude": 49.27494471135091, "longitude": -123.08263851604283}, "118946821RR0001": {"name": "GREATER VANCOUVER INTERNATIONAL FILM FESTIVAL SOCIETY", "designationCode": "C", "categoryCode": "22", "address": "1181 SEYMOUR ST", "city": "VANCOUVER", "province": "BC", "country": "CA", "postalCode": "V6B3M7", "twitter": "None", "instagram": "None", "facebook": "None", "youtube": "None", "website": "None", "summary": "None", "logo": "None", "latitude": 49.27704130989038, "longitude": -123.12459629043322}, "119994648RR0001": {"name": "GREATER VANCOUVER LAW STUDENTS LEGAL ADVICE SOCIETY", "designationCode": "C", "categoryCode": "09", "address": "ROOM 129, FACULTY OF LAW, UBC", "city": "VANCOUVER", "province": "BC", "country": "CA", "postalCode": "V6T1Z1", "twitter": "None", "instagram": "None", "facebook": "None", "youtube": "None", "website": "None", "summary": "None", "logo": "None", "latitude": 49.26173000000006, "longitude": -123.25343999999996}, "890279771RR0001": {"name": "GREATER VANCOUVER PRESBYTERIAN CHURCH", "designationCode": "C", "categoryCode": "37", "address": "450 BLUE MOUNTAIN ST", "city": "COQUITLAM", "province": "BC", "country": "CA", "postalCode": "V3K4K5", "twitter": "None", "instagram": "None", "facebook": "None", "youtube": "None", "website": "None", "summary": "None", "logo": "None", "latitude": 49.2485380088868, "longitude": -122.86972352513119}, "832888564RR0001": {"name": "GREATER VANCOUVER REGIONAL SCIENCE FAIR SOCIETY", "designationCode": "C", "categoryCode": "21", "address": "H.R. MACMILLAN SPACE CENTER   1100 CHESTNUT STREET", "city": "VANCOUVER", "province": "BC", "country": "CA", "postalCode": "V6J3J9", "twitter": "None", "instagram": "None", "facebook": "None", "youtube": "None", "website": "None", "summary": "None", "logo": "None", "latitude": 49.275900000000036, "longitude": -123.14462999999995}, "870555612RR0001": {"name": "GREATER VANCOUVER SOCIETY TO BRIDGE ARTS AND COMMUNITY", "designationCode": "C", "categoryCode": "22", "address": "#100-938 HOWE STREET", "city": "VANCOUVER", "province": "BC", "country": "CA", "postalCode": "V6Z1N9", "twitter": "None", "instagram": "None", "facebook": "None", "youtube": "None", "website": "None", "summary": "None", "logo": "None", "latitude": 49.280464646113565, "longitude": -123.1231076108548}, "107449902RR0001": {"name": "GREATER VANCOUVER YOUTH FOR CHRIST", "designationCode": "C", "categoryCode": "47", "address": "#115  12975  84TH AVE", "city": "SURREY", "province": "BC", "country": "CA", "postalCode": "V3W1B3", "twitter": "None", "instagram": "None", "facebook": "None", "youtube": "None", "website": "None", "summary": "None", "logo": "None", "latitude": 49.15543148932421, "longitude": -122.863113}, "107449910RR0001": {"name": "GREATER VERNON MUSEUM AND ARCHIVES", "designationCode": "C", "categoryCode": "50", "address": "3009 32ND AVE", "city": "VERNON", "province": "BC", "country": "CA", "postalCode": "V1T2L8", "twitter": "None", "instagram": "None", "facebook": "None", "youtube": "None", "website": "None", "summary": "None", "logo": "None", "latitude": 50.265404354311265, "longitude": -119.27162450621495}, "118946888RR0001": {"name": "GREATER VICTORIA ANIMALS CRUSADERS", "designationCode": "C", "categoryCode": "54", "address": "PO BOX 28166 RPO WESTSHORE", "city": "VICTORIA", "province": "BC", "country": "CA", "postalCode": "V9B6K8", "twitter": "None", "instagram": "None", "facebook": "None", "youtube": "None", "website": "None", "summary": "None", "logo": "None", "latitude": 48.49310400000006, "longitude": -123.50297599999993}, "118946904RR0001": {"name": "GREATER VICTORIA CITIZENS COUNSELLING CENTRE", "designationCode": "C", "categoryCode": "09", "address": "941 KINGS RD", "city": "VICTORIA", "province": "BC", "country": "CA", "postalCode": "V8T1W7", "twitter": "None", "instagram": "None", "facebook": "None", "youtube": "None", "website": "None", "summary": "None", "logo": "None", "latitude": 48.43738966720538, "longitude": -123.35920904648282}, "118946912RR0002": {"name": "GREATER VICTORIA CONCERT BAND", "designationCode": "C", "categoryCode": "22", "address": "1153 ESQUMALT RD              PO BOX 36026", "city": "VICTORIA", "province": "BC", "country": "CA", "postalCode": "V9A7J5", "twitter": "None", "instagram": "None", "facebook": "None", "youtube": "None", "website": "None", "summary": "None", "logo": "None", "latitude": 48.4300506260896, "longitude": -123.41069565626975}, "140946534RR0001": {"name": "GREATER VICTORIA DANCEWORKS ASSOCIATION", "designationCode": "C", "categoryCode": "22", "address": "PO BOX 5390 STN B", "city": "VICTORIA", "province": "BC", "country": "CA", "postalCode": "V8R6S4", "twitter": "None", "instagram": "None", "facebook": "None", "youtube": "None", "website": "None", "summary": "None", "logo": "None"}, "889134979RR0001": {"name": "GREATER VICTORIA DOWN SYNDROME SOCIETY", "designationCode": "C", "categoryCode": "11", "address": "P.O. BOX 35082", "city": "VICTORIA", "province": "BC", "country": "CA", "postalCode": "V8T5G2", "twitter": "None", "instagram": "None", "facebook": "None", "youtube": "None", "website": "None", "summary": "None", "logo": "None", "latitude": 48.42854700000005, "longitude": -123.36445249999994}, "898816095RR0001": {"name": "GREATER VICTORIA ELDERCARE FOUNDATION", "designationCode": "A", "categoryCode": "13", "address": "1454 HILLSIDE AVE", "city": "VICTORIA", "province": "BC", "country": "CA", "postalCode": "V8T2B7", "twitter": "None", "instagram": "None", "facebook": "None", "youtube": "None", "website": "None", "summary": "None", "logo": "None", "latitude": 48.44213363728408, "longitude": -123.34222374871578}, "892276049RR0001": {"name": "GREATER VICTORIA FESTIVAL SOCIETY", "designationCode": "C", "categoryCode": "56", "address": "306-620 VIEW ST", "city": "VICTORIA", "province": "BC", "country": "CA", "postalCode": "V8W1J6", "twitter": "None", "instagram": "None", "facebook": "None", "youtube": "None", "website": "None", "summary": "None", "logo": "None", "latitude": 48.42565545657561, "longitude": -123.36678018872988}, "862917390RR0001": {"name": "GREATER VICTORIA FOUNDATION FOR LEARNING", "designationCode": "A", "categoryCode": "03", "address": "556 BOLESKINE ROAD", "city": "VICTORIA", "province": "BC", "country": "CA", "postalCode": "V8Z1E8", "twitter": "None", "instagram": "None", "facebook": "None", "youtube": "None", "website": "None", "summary": "None", "logo": "None", "latitude": 48.45246243161731, "longitude": -123.37777263503371}, "118946953RR0001": {"name": "GREATER VICTORIA GREENBELT SOCIETY", "designationCode": "C", "categoryCode": "52", "address": "499 MILLSTREAM LAKE RD", "city": "VICTORIA", "province": "BC", "country": "CA", "postalCode": "V9B6H5", "twitter": "None", "instagram": "None", "facebook": "None", "youtube": "None", "website": "None", "summary": "None", "logo": "None", "latitude": 48.51279100253883, "longitude": -123.5062640409725}, "108173238RR0001": {"name": "GREATER VICTORIA HOUSING SOCIETY", "designationCode": "C", "categoryCode": "09", "address": "2326 GOVERNMENT ST", "city": "VICTORIA", "province": "BC", "country": "CA", "postalCode": "V8T5G5", "twitter": "None", "instagram": "None", "facebook": "None", "youtube": "None", "website": "None", "summary": "None", "logo": "None", "latitude": 48.434714298084145, "longitude": -123.36732533894012}, "873660625RR0001": {"name": "GREATER VICTORIA LIFETIME NETWORK SOCIETY", "designationCode": "C", "categoryCode": "09", "address": "102-4090 SHELBOURNE ST.", "city": "VICTORIA", "province": "BC", "country": "CA", "postalCode": "V8N4P6", "twitter": "None", "instagram": "None", "facebook": "None", "youtube": "None", "website": "None", "summary": "None", "logo": "None", "latitude": 48.476767416319895, "longitude": -123.33327406305288}, "107450090RR0001": {"name": "GREATER VICTORIA POLICE VICTIM SERVICES SOCIETY", "designationCode": "C", "categoryCode": "59", "address": "1 - 57 CADILLAC AVE", "city": "VICTORIA", "province": "BC", "country": "CA", "postalCode": "V8Z1T3", "twitter": "None", "instagram": "None", "facebook": "None", "youtube": "None", "website": "None", "summary": "None", "logo": "None", "latitude": 48.45713185316529, "longitude": -123.37965660006343}, "118946979RR0001": {"name": "GREATER VICTORIA PUBLIC LIBRARY BOARD", "designationCode": "C", "categoryCode": "50", "address": "735 BROUGHTON ST", "city": "VICTORIA", "province": "BC", "country": "CA", "postalCode": "V8W3H2", "twitter": "None", "instagram": "None", "facebook": "None", "youtube": "None", "website": "None", "summary": "None", "logo": "None", "latitude": 48.423595550060845, "longitude": -123.36381571455357}, "892365644RR0001": {"name": "GREATER VICTORIA RETIRED TEACHERS' SCHOLARSHIP FOUNDATION", "designationCode": "C", "categoryCode": "21", "address": "81 HIGH ST", "city": "VICTORIA", "province": "BC", "country": "CA", "postalCode": "V8Z5C8", "twitter": "None", "instagram": "None", "facebook": "None", "youtube": "None", "website": "None", "summary": "None", "logo": "None", "latitude": 48.46841560032322, "longitude": -123.42098068604683}, "887647261RR0001": {"name": "GREATER VICTORIA SPORTS HALL OF FAME", "designationCode": "C", "categoryCode": "50", "address": "100 - 4636 ELK LAKE DR", "city": "VICTORIA", "province": "BC", "country": "CA", "postalCode": "V8Z5M1", "twitter": "None", "instagram": "None", "facebook": "None", "youtube": "None", "website": "None", "summary": "None", "logo": "None", "latitude": 48.50058600972353, "longitude": -123.38686781934886}, "118946987RR0001": {"name": "GREATER VICTORIA VOLUNTEER SOCIETY", "designationCode": "C", "categoryCode": "59", "address": "306-620 VIEW ST", "city": "VICTORIA", "province": "BC", "country": "CA", "postalCode": "V8W1J6", "twitter": "None", "instagram": "None", "facebook": "None", "youtube": "None", "website": "None", "summary": "None", "logo": "None", "latitude": 48.42565545657561, "longitude": -123.36678018872988}, "107450108RR0001": {"name": "GREATER VICTORIA WOMEN'S SHELTER SOCIETY", "designationCode": "C", "categoryCode": "09", "address": "PO BOX 5291 STN B", "city": "VICTORIA", "province": "BC", "country": "CA", "postalCode": "V8R6N4", "twitter": "None", "instagram": "None", "facebook": "None", "youtube": "None", "website": "None", "summary": "None", "logo": "None", "latitude": 48.42854700000005, "longitude": -123.36445249999994}, "118946995RR0001": {"name": "GREATER VICTORIA YOUTH ORCHESTRA SOCIETY", "designationCode": "C", "categoryCode": "22", "address": "1611 QUADRA ST.", "city": "VICTORIA", "province": "BC", "country": "CA", "postalCode": "V8W2L5", "twitter": "None", "instagram": "None", "facebook": "None", "youtube": "None", "website": "None", "summary": "None", "logo": "None", "latitude": 48.42836917262972, "longitude": -123.35890255363886}, "107450157RR0001": {"name": "GREATER WINNIPEG SOCIETY FOR CHRISTIAN EDUCATION", "designationCode": "C", "categoryCode": "20", "address": "245 SUTTON AVENUE", "city": "WINNIPEG", "province": "MB", "country": "CA", "postalCode": "R2G0T1", "twitter": "None", "instagram": "None", "facebook": "None", "youtube": "None", "website": "None", "summary": "None", "logo": "None", "latitude": 49.9436528704193, "longitude": -97.08423160349722}, "107450405RR0001": {"name": "GREEK CANADIAN COMMUNITY ASSOCIATION OF NIAGARA", "designationCode": "C", "categoryCode": "22", "address": "6593 RIALL STREET", "city": "NIAGARA FALLS", "province": "ON", "country": "CA", "postalCode": "L2J1Z4", "twitter": "None", "instagram": "None", "facebook": "None", "youtube": "None", "website": "None", "summary": "None", "logo": "None", "latitude": 43.13008550432783, "longitude": -79.10698058381902}, "890501976RR0001": {"name": "GREEK CANADIAN COMMUNITY OF PEEL & HALTON", "designationCode": "C", "categoryCode": "56", "address": "7255 ST. BARBARA BLVD", "city": "MISSISSAUGA", "province": "ON", "country": "CA", "postalCode": "L5W0C1", "twitter": "None", "instagram": "None", "facebook": "None", "youtube": "None", "website": "None", "summary": "None", "logo": "None", "latitude": 43.644108170465344, "longitude": -79.72046436392802}, "118947134RR0001": {"name": "GREEK CANADIAN ORTHODOX CHURCH OF HAMILTON AND COMMUNITY", "designationCode": "C", "categoryCode": "39", "address": "233 EAST 15TH ST", "city": "HAMILTON", "province": "ON", "country": "CA", "postalCode": "L9A4G1", "twitter": "None", "instagram": "None", "facebook": "None", "youtube": "None", "website": "None", "summary": "None", "logo": "None", "latitude": 43.2360771330492, "longitude": -79.86240876476245}, "130121536RR0001": {"name": "GREEK CATHOLIC PARISH OF SAINTS PETER AND PAUL,", "designationCode": "C", "categoryCode": "38", "address": "643 12B ST. N", "city": "LETHBRIDGE", "province": "AB", "country": "CA", "postalCode": "T1H2L6", "twitter": "None", "instagram": "None", "facebook": "None", "youtube": "None", "website": "None", "summary": "None", "logo": "None", "latitude": 49.70821487803106, "longitude": -112.8269679215431}, "886989193RR0001": {"name": "GREEK COMMUNITY OF OSHAWA AND DISTRICT", "designationCode": "C", "categoryCode": "56", "address": "P.O. BOX 30618                RPO STEVENSON KING", "city": "OSHAWA", "province": "ON", "country": "CA", "postalCode": "L1J8L8", "twitter": "None", "instagram": "None", "facebook": "None", "youtube": "None", "website": "None", "summary": "None", "logo": "None", "latitude": 43.88868600000005, "longitude": -78.85951999999993}, "119236032RR0001": {"name": "GREEK COMMUNITY OF TORONTO", "designationCode": "C", "categoryCode": "49", "address": "30 THORNCLIFFE PARK DR", "city": "TORONTO", "province": "ON", "country": "CA", "postalCode": "M4H1H8", "twitter": "None", "instagram": "None", "facebook": "None", "youtube": "None", "website": "None", "summary": "None", "logo": "None", "latitude": 43.7025415987071, "longitude": -79.34534961042212}, "107450447RR0001": {"name": "GREEK EVANGELICAL CHRISTIAN CHURCH OF VANCOUVER", "designationCode": "C", "categoryCode": "34", "address": "2666 SASAMAT ST", "city": "VANCOUVER", "province": "BC", "country": "CA", "postalCode": "V6R4A8", "twitter": "None", "instagram": "None", "facebook": "None", "youtube": "None", "website": "None", "summary": "None", "logo": "None", "latitude": 49.263146077990655, "longitude": -123.20907940784242}, "888678240RR0001": {"name": "GREEK GOSPEL CHURCH OF TORONTO", "designationCode": "C", "categoryCode": "39", "address": "871 PAPE AVE", "city": "EAST YORK", "province": "ON", "country": "CA", "postalCode": "M4K3T7", "twitter": "None", "instagram": "None", "facebook": "None", "youtube": "None", "website": "None", "summary": "None", "logo": "None", "latitude": 43.68347853289281, "longitude": -79.3465176182124}, "857888036RR0001": {"name": "GREEK LADIES PHILOPTOCHOS SOCIETY \"KIMISSIS TIS THEOTOKOU\", OTTAWA, ONTARIO, CANADA", "designationCode": "C", "categoryCode": "47", "address": "1315 PRINCE OF WALES DR", "city": "OTTAWA", "province": "ON", "country": "CA", "postalCode": "K2C1N2", "twitter": "None", "instagram": "None", "facebook": "None", "youtube": "None", "website": "None", "summary": "None", "logo": "None", "latitude": 45.3709066961448, "longitude": -75.70553444347654}}