{"119163608RR0001": {"name": "ST. ANDREWS KIRK UNITED CHURCH", "designationCode": "C", "categoryCode": "44", "address": "196 HAMMOND RIVER ROAD", "city": "QUISPAMSIS ROTHESAY", "province": "NB", "country": "CA", "postalCode": "E2G1G3", "twitter": "None", "instagram": "None", "facebook": "None", "youtube": "None", "website": "None", "summary": "None", "logo": "None", "latitude": 45.47242587945687, "longitude": -65.91442198280812}, "108004276RR0001": {"name": "ST. ANDREWS KNOX PRESBYTERIAN CHURCH", "designationCode": "C", "categoryCode": "37", "address": "203 HIGHLAND AVE", "city": "FORT ERIE", "province": "ON", "country": "CA", "postalCode": "L2A2X8", "twitter": "None", "instagram": "None", "facebook": "None", "youtube": "None", "website": "None", "summary": "None", "logo": "None", "latitude": 42.93407454227056, "longitude": -78.91941294601536}, "108004292RR0001": {"name": "ST. ANDREWS LUTHERAN CHURCH OF KAMLOOPS", "designationCode": "C", "categoryCode": "32", "address": "815 RENFREW AVE", "city": "KAMLOOPS", "province": "BC", "country": "CA", "postalCode": "V2B3X3", "twitter": "None", "instagram": "None", "facebook": "None", "youtube": "None", "website": "None", "summary": "None", "logo": "None", "latitude": 50.69741066915835, "longitude": -120.3630926999877}, "119163665RR0002": {"name": "ST. ANDREWS MEMORIAL", "designationCode": "C", "categoryCode": "30", "address": "PO BOX 306", "city": "WIARTON", "province": "ON", "country": "CA", "postalCode": "N0H2T0", "twitter": "None", "instagram": "None", "facebook": "None", "youtube": "None", "website": "None", "summary": "None", "logo": "None", "latitude": 44.74013000000008, "longitude": -81.13977999999997}, "108004409RR0001": {"name": "ST. ANDREWS PARISH", "designationCode": "C", "categoryCode": "38", "address": "12810 111 AVE NW", "city": "EDMONTON", "province": "AB", "country": "CA", "postalCode": "T5M2N7", "twitter": "None", "instagram": "None", "facebook": "None", "youtube": "None", "website": "None", "summary": "None", "logo": "None", "latitude": 53.558932493219324, "longitude": -113.54298291618096}, "119163863RR0001": {"name": "ST. ANDREWS PENTECOSTAL CHURCH INC.", "designationCode": "C", "categoryCode": "36", "address": "183 QUEEN STREET", "city": "ST ANDREWS", "province": "NB", "country": "CA", "postalCode": "E5B1E1", "twitter": "None", "instagram": "None", "facebook": "None", "youtube": "None", "website": "None", "summary": "None", "logo": "None", "latitude": 45.07479779681474, "longitude": -67.05260420970615}, "119164085RR0001": {"name": "ST. ANDREWS PRESBYTERIAN CHURCH", "designationCode": "C", "categoryCode": "37", "address": "106 RUE STE-ANNE", "city": "QU\u00c9BEC", "province": "QC", "country": "CA", "postalCode": "G1R3X8", "twitter": "None", "instagram": "None", "facebook": "None", "youtube": "None", "website": "None", "summary": "None", "logo": "None", "latitude": 46.812774310029376, "longitude": -71.20979860534354}, "119164580RR0001": {"name": "ST. ANDREWS PRESBYTERIAN CHURCH", "designationCode": "C", "categoryCode": "37", "address": "2-13190 KEELE ST", "city": "KING CITY", "province": "ON", "country": "CA", "postalCode": "L7B1J2", "twitter": "None", "instagram": "None", "facebook": "None", "youtube": "None", "website": "None", "summary": "None", "logo": "None", "latitude": 43.93390956841137, "longitude": -79.52963986459092}, "119165595RR0001": {"name": "ST. ANDREWS PRESBYTERIAN CHURCH", "designationCode": "C", "categoryCode": "37", "address": "531 HERBERT ST", "city": "DUNCAN", "province": "BC", "country": "CA", "postalCode": "V9L1T2", "twitter": "None", "instagram": "None", "facebook": "None", "youtube": "None", "website": "None", "summary": "None", "logo": "None", "latitude": 48.78404502719314, "longitude": -123.71596731274433}, "119166171RR0001": {"name": "ST. ANDREWS UNITED CHURCH", "designationCode": "C", "categoryCode": "44", "address": "PO BOX 443", "city": "NORWOOD", "province": "ON", "country": "CA", "postalCode": "K0L2V0", "twitter": "None", "instagram": "None", "facebook": "None", "youtube": "None", "website": "None", "summary": "None", "logo": "None", "latitude": 44.38304000000005, "longitude": -77.97911999999997}, "119109817RR0142": {"name": "ST. ANGELA MERICI", "designationCode": "C", "categoryCode": "38", "address": "980 LOUIS AVE", "city": "WINDSOR", "province": "ON", "country": "CA", "postalCode": "N9A1X9", "twitter": "None", "instagram": "None", "facebook": "None", "youtube": "None", "website": "None", "summary": "None", "logo": "None", "latitude": 42.31279014502165, "longitude": -83.02409397778906}, "107307191RR0059": {"name": "ST. ANN'S CHURCH", "designationCode": "C", "categoryCode": "38", "address": "BOX 757", "city": "WATROUS", "province": "SK", "country": "CA", "postalCode": "S0K4T0", "twitter": "None", "instagram": "None", "facebook": "None", "youtube": "None", "website": "None", "summary": "None", "logo": "None", "latitude": 51.719579978192066, "longitude": -105.4459035}, "119109791RR0026": {"name": "ST. ANN'S CHURCH", "designationCode": "C", "categoryCode": "38", "address": "5740 BUCHANAN AVE.", "city": "NIAGARA FALLS", "province": "ON", "country": "CA", "postalCode": "L2G3V3", "twitter": "None", "instagram": "None", "facebook": "None", "youtube": "None", "website": "None", "summary": "None", "logo": "None", "latitude": 43.091586785734904, "longitude": -79.0837224551333}, "119109791RR0027": {"name": "ST. ANN'S CHURCH", "designationCode": "C", "categoryCode": "38", "address": "BOX 6, 834 CANBORO ROAD", "city": "FENWICK", "province": "ON", "country": "CA", "postalCode": "L0S1C0", "twitter": "None", "instagram": "None", "facebook": "None", "youtube": "None", "website": "None", "summary": "None", "logo": "None", "latitude": 43.02430586675204, "longitude": -79.36191134696695}, "119167385RR0001": {"name": "ST. ANN'S CHURCH", "designationCode": "C", "categoryCode": "30", "address": "34 HEAD ST N", "city": "STRATHROY", "province": "ON", "country": "CA", "postalCode": "N7G2J7", "twitter": "None", "instagram": "None", "facebook": "None", "youtube": "None", "website": "None", "summary": "None", "logo": "None", "latitude": 42.95911406826712, "longitude": -81.62020321553452}, "119167401RR0001": {"name": "ST. ANN'S CHURCH", "designationCode": "C", "categoryCode": "38", "address": "271 HAMPTON ST", "city": "WINNIPEG", "province": "MB", "country": "CA", "postalCode": "R3J1P5", "twitter": "None", "instagram": "None", "facebook": "None", "youtube": "None", "website": "None", "summary": "None", "logo": "None", "latitude": 49.881813202608356, "longitude": -97.21256872851895}, "119167419RR0001": {"name": "ST. ANN'S CHURCH", "designationCode": "C", "categoryCode": "38", "address": "PO BOX 190", "city": "KENNEDY", "province": "SK", "country": "CA", "postalCode": "S0G2R0", "twitter": "None", "instagram": "None", "facebook": "None", "youtube": "None", "website": "None", "summary": "None", "logo": "None", "latitude": 50.013730000000066, "longitude": -102.35028999999997}, "119167450RR0001": {"name": "ST. ANN'S COMMUNITY CHURCH", "designationCode": "C", "categoryCode": "34", "address": "RR 1", "city": "ST. ANNS", "province": "ON", "country": "CA", "postalCode": "L0R1Y0", "twitter": "None", "instagram": "None", "facebook": "None", "youtube": "None", "website": "None", "summary": "None", "logo": "None", "latitude": 43.075748529577275, "longitude": -79.50017216520301}, "107020331RR0044": {"name": "ST. ANN'S PARISH", "designationCode": "C", "categoryCode": "38", "address": "410 ROUTE 3", "city": "SMITHFIELD", "province": "NB", "country": "CA", "postalCode": "E6K2V2", "twitter": "None", "instagram": "None", "facebook": "None", "youtube": "None", "website": "None", "summary": "None", "logo": "None", "latitude": 45.82386216182969, "longitude": -66.91073781618296}, "107307191RR0030": {"name": "ST. ANN'S PARISH", "designationCode": "C", "categoryCode": "38", "address": "123 NELSON RD", "city": "SASKATOON", "province": "SK", "country": "CA", "postalCode": "S7S1H1", "twitter": "None", "instagram": "None", "facebook": "None", "youtube": "None", "website": "None", "summary": "None", "logo": "None", "latitude": 52.14830526371943, "longitude": -106.58267235821334}, "108094392RR0029": {"name": "ST. ANN'S PARISH", "designationCode": "C", "categoryCode": "38", "address": "1296 MAIN ST", "city": "PENTICTON", "province": "BC", "country": "CA", "postalCode": "V2A5G2", "twitter": "None", "instagram": "None", "facebook": "None", "youtube": "None", "website": "None", "summary": "None", "logo": "None", "latitude": 49.48517736663973, "longitude": -119.58632192824176}, "118849470RR0068": {"name": "ST. ANN'S PARISH", "designationCode": "C", "categoryCode": "38", "address": "33333 MAYFAIR AVE", "city": "ABBOTSFORD", "province": "BC", "country": "CA", "postalCode": "V2S1P4", "twitter": "None", "instagram": "None", "facebook": "None", "youtube": "None", "website": "None", "summary": "None", "logo": "None", "latitude": 49.04020052380354, "longitude": -122.30074107951987}, "119110450RR0060": {"name": "ST. ANN'S PARISH", "designationCode": "C", "categoryCode": "38", "address": "11 WILSON STREET WEST", "city": "ANCASTER", "province": "ON", "country": "CA", "postalCode": "L9G1N1", "twitter": "None", "instagram": "None", "facebook": "None", "youtube": "None", "website": "None", "summary": "None", "logo": "None", "latitude": 43.217616843758904, "longitude": -79.98767925425571}, "119110450RR0065": {"name": "ST. ANN'S PARISH", "designationCode": "C", "categoryCode": "38", "address": "120 SHERMAN AVE. N.", "city": "HAMILTON", "province": "ON", "country": "CA", "postalCode": "L8L6M6", "twitter": "None", "instagram": "None", "facebook": "None", "youtube": "None", "website": "None", "summary": "None", "logo": "None", "latitude": 43.255754539269454, "longitude": -79.83640984566348}, "119110443RR0028": {"name": "ST. ANN'S PARISH, MERRICKVILLE", "designationCode": "C", "categoryCode": "38", "address": "230 MAIN ST W BOX 43", "city": "MERRICKVILLE", "province": "ON", "country": "CA", "postalCode": "K0G1N0", "twitter": "None", "instagram": "None", "facebook": "None", "youtube": "None", "website": "None", "summary": "None", "logo": "None", "latitude": 44.915767535634124, "longitude": -75.83968963474526}, "119167609RR0001": {"name": "ST. ANN'S PASTORAL CHARGE", "designationCode": "C", "categoryCode": "44", "address": "46715 CABOT TRAIL             RR 1 CABOT TRAIL", "city": "ENGLISHTOWN", "province": "NS", "country": "CA", "postalCode": "B0C1H0", "twitter": "None", "instagram": "None", "facebook": "None", "youtube": "None", "website": "None", "summary": "None", "logo": "None", "latitude": 46.34860658653075, "longitude": -60.53607116648423}, "118841055RR0005": {"name": "ST. ANN'S ROMAN CATHOLIC PARISH", "designationCode": "C", "categoryCode": "38", "address": "BOX 261", "city": "WATSON LAKE", "province": "YT", "country": "CA", "postalCode": "Y0A1C0", "twitter": "None", "instagram": "None", "facebook": "None", "youtube": "None", "website": "None", "summary": "None", "logo": "None", "latitude": 60.062928000000056, "longitude": -128.71524049999994}, "132701293RR0001": {"name": "ST. ANN'S SENIOR CITIZENS VILLAGE CORPORATION", "designationCode": "C", "categoryCode": "01", "address": "2910 LOUISE ST", "city": "SASKATOON", "province": "SK", "country": "CA", "postalCode": "S7J3L8", "twitter": "None", "instagram": "None", "facebook": "None", "youtube": "None", "website": "None", "summary": "None", "logo": "None", "latitude": 52.100852524525614, "longitude": -106.60848291618096}, "108094392RR0028": {"name": "ST. ANNE PARISH", "designationCode": "C", "categoryCode": "38", "address": "BOX 242", "city": "OSOYOOS", "province": "BC", "country": "CA", "postalCode": "V0H1V0", "twitter": "None", "instagram": "None", "facebook": "None", "youtube": "None", "website": "None", "summary": "None", "logo": "None", "latitude": 49.03284000000008, "longitude": -119.46625999999998}, "107585085RR0015": {"name": "ST. ANNE PARISH, BIRCH HILLS, SK", "designationCode": "C", "categoryCode": "38", "address": "160 12TH STREET EAST", "city": "PRINCE ALBERT", "province": "SK", "country": "CA", "postalCode": "S6V1B6", "twitter": "None", "instagram": "None", "facebook": "None", "youtube": "None", "website": "None", "summary": "None", "logo": "None", "latitude": 53.20216948600597, "longitude": -105.7494915}, "108007683RR0001": {"name": "ST. ANNE UKRAINIAN CATHOLIC CHURCH", "designationCode": "C", "categoryCode": "38", "address": "35 MARCIE ST", "city": "WINNIPEG", "province": "MB", "country": "CA", "postalCode": "R2G3S4", "twitter": "None", "instagram": "None", "facebook": "None", "youtube": "None", "website": "None", "summary": "None", "logo": "None", "latitude": 49.944988132379336, "longitude": -97.0699542147847}, "108007733RR0001": {"name": "ST. ANNE'S ACADEMY SOCIETY", "designationCode": "C", "categoryCode": "20", "address": "205 COLUMBIA ST", "city": "KAMLOOPS", "province": "BC", "country": "CA", "postalCode": "V2C2S7", "twitter": "None", "instagram": "None", "facebook": "None", "youtube": "None", "website": "None", "summary": "None", "logo": "None", "latitude": 50.67139253952924, "longitude": -120.33763119317328}, "119166981RR0001": {"name": "ST. ANNE'S ANGLICAN YOUTH CAMP", "designationCode": "C", "categoryCode": "56", "address": "P.O. BOX 643", "city": "ANNAPOLIS ROYAL", "province": "NS", "country": "CA", "postalCode": "B0S1A0", "twitter": "None", "instagram": "None", "facebook": "None", "youtube": "None", "website": "None", "summary": "None", "logo": "None", "latitude": 44.74294007660574, "longitude": -65.518980048906}, "119167047RR0001": {"name": "ST. ANNE'S CHURCH", "designationCode": "C", "categoryCode": "30", "address": "276 GLADSTONE AVENUE", "city": "TORONTO", "province": "ON", "country": "CA", "postalCode": "M6J3L6", "twitter": "None", "instagram": "None", "facebook": "None", "youtube": "None", "website": "None", "summary": "None", "logo": "None", "latitude": 43.650874299469116, "longitude": -79.43034371414953}, "119167088RR0001": {"name": "ST. ANNE'S CHURCH", "designationCode": "C", "categoryCode": "38", "address": "BOX 1780", "city": "SWAN RIVER", "province": "MB", "country": "CA", "postalCode": "R0L1Z0", "twitter": "None", "instagram": "None", "facebook": "None", "youtube": "None", "website": "None", "summary": "None", "logo": "None", "latitude": 52.11672730414978, "longitude": -101.25989472758229}, "890574999RR0002": {"name": "ST. ANNE'S CONGREGATION", "designationCode": "C", "categoryCode": "30", "address": "PO BOX 506", "city": "VALLEYVIEW", "province": "AB", "country": "CA", "postalCode": "T0H3N0", "twitter": "None", "instagram": "None", "facebook": "None", "youtube": "None", "website": "None", "summary": "None", "logo": "None", "latitude": 55.06844000000007, "longitude": -117.27238999999997}, "119167120RR0001": {"name": "ST. ANNE'S FRATERNITY THIRD ORDER OF ST. FRANCIS", "designationCode": "C", "categoryCode": "46", "address": "1390 MORNINGSTAR AVE.", "city": "WINDSOR", "province": "ON", "country": "CA", "postalCode": "N8P1R3", "twitter": "None", "instagram": "None", "facebook": "None", "youtube": "None", "website": "None", "summary": "None", "logo": "None", "latitude": 42.32358481932021, "longitude": -82.91175580985647}, "107909939RR0086": {"name": "ST. ANNE'S KOREAN CATHOLIC PARISH", "designationCode": "C", "categoryCode": "38", "address": "910 - 21 AVENUE SE", "city": "CALGARY", "province": "AB", "country": "CA", "postalCode": "T2G1N1", "twitter": "None", "instagram": "None", "facebook": "None", "youtube": "None", "website": "None", "summary": "None", "logo": "None", "latitude": 51.03455548600596, "longitude": -114.0406637216227}, "871870465RR0001": {"name": "ST. ANNE'S LODGE INC.", "designationCode": "C", "categoryCode": "09", "address": "240 GEORGE ST", "city": "FREDERICTON", "province": "NB", "country": "CA", "postalCode": "E3B1J5", "twitter": "None", "instagram": "None", "facebook": "None", "youtube": "None", "website": "None", "summary": "None", "logo": "None", "latitude": 45.96166059310987, "longitude": -66.64915121011018}, "107307191RR0006": {"name": "ST. ANNE'S PARISH", "designationCode": "C", "categoryCode": "38", "address": "217 LENORE DR.", "city": "SASKATOON", "province": "SK", "country": "CA", "postalCode": "S7K6Y2", "twitter": "None", "instagram": "None", "facebook": "None", "youtube": "None", "website": "None", "summary": "None", "logo": "None", "latitude": 52.172947475887625, "longitude": -106.63121530838437}, "107876468RR0030": {"name": "ST. ANNE'S PARISH", "designationCode": "C", "categoryCode": "38", "address": "P.O. BOX 154", "city": "CONCEPTION HR.", "province": "NL", "country": "CA", "postalCode": "A0A1Z0", "twitter": "None", "instagram": "None", "facebook": "None", "youtube": "None", "website": "None", "summary": "None", "logo": "None", "latitude": 47.46159618432224, "longitude": -53.2366027829899}, "107910192RR0021": {"name": "ST. ANNE'S PARISH", "designationCode": "C", "categoryCode": "38", "address": "BOX 759 RR#1", "city": "DOYLES", "province": "NL", "country": "CA", "postalCode": "A0N1J0", "twitter": "None", "instagram": "None", "facebook": "None", "youtube": "None", "website": "None", "summary": "None", "logo": "None", "latitude": 47.831322228955806, "longitude": -59.19694468440591}, "107910234RR0050": {"name": "ST. ANNE'S PARISH", "designationCode": "C", "categoryCode": "38", "address": "15 EAGLE FEATHER PATH", "city": "LENNOX ISLAND", "province": "PE", "country": "CA", "postalCode": "C0B1P0", "twitter": "None", "instagram": "None", "facebook": "None", "youtube": "None", "website": "None", "summary": "None", "logo": "None", "latitude": 46.60044691785442, "longitude": -63.85576373079796}, "108007501RR0001": {"name": "ST. ANNE'S PARISH", "designationCode": "C", "categoryCode": "38", "address": "4609 50 AVE", "city": "ST PAUL", "province": "AB", "country": "CA", "postalCode": "T0A3A3", "twitter": "None", "instagram": "None", "facebook": "None", "youtube": "None", "website": "None", "summary": "None", "logo": "None", "latitude": 53.99135148730496, "longitude": -111.28695202553523}, "119109817RR0074": {"name": "ST. ANNE'S PARISH", "designationCode": "C", "categoryCode": "38", "address": "20 MORRISON DRIVE", "city": "ST THOMAS", "province": "ON", "country": "CA", "postalCode": "N5R4S6", "twitter": "None", "instagram": "None", "facebook": "None", "youtube": "None", "website": "None", "summary": "None", "logo": "None", "latitude": 42.76453428177724, "longitude": -81.17261664915642}, "119110450RR0066": {"name": "ST. ANNE'S PARISH", "designationCode": "C", "categoryCode": "38", "address": "268 EAST AVE", "city": "KITCHENER", "province": "ON", "country": "CA", "postalCode": "N2H1Z4", "twitter": "None", "instagram": "None", "facebook": "None", "youtube": "None", "website": "None", "summary": "None", "logo": "None", "latitude": 43.450165517369584, "longitude": -80.47120498439078}, "119167245RR0001": {"name": "ST. ANNE'S PARISH", "designationCode": "C", "categoryCode": "38", "address": "4609 50 AVE", "city": "ST PAUL", "province": "AB", "country": "CA", "postalCode": "T0A3A3", "twitter": "None", "instagram": "None", "facebook": "None", "youtube": "None", "website": "None", "summary": "None", "logo": "None", "latitude": 53.99135148730496, "longitude": -111.28695202553523}, "106880107RR0045": {"name": "ST. ANNE'S PARISH, GLACE BAY", "designationCode": "C", "categoryCode": "38", "address": "695 MAIN STREET               P.O. BOX 190", "city": "GLACE BAY", "province": "NS", "country": "CA", "postalCode": "B1A5V2", "twitter": "None", "instagram": "None", "facebook": "None", "youtube": "None", "website": "None", "summary": "None", "logo": "None", "latitude": 46.196558488458805, "longitude": -59.96181172009348}, "812229607RR0001": {"name": "ST. ANNE'S ROMAN CAHTOLIC PARISH (HOPE RIVER) INC.", "designationCode": "C", "categoryCode": "38", "address": "104 ST PATRICK RD             RTE 266", "city": "HOPE RIVER", "province": "PE", "country": "CA", "postalCode": "C0A1N0", "twitter": "None", "instagram": "None", "facebook": "None", "youtube": "None", "website": "None", "summary": "None", "logo": "None", "latitude": 46.492926000000054, "longitude": -63.36548449999994}, "817167117RR0001": {"name": "ST. ANNE'S ROMAN CATHOLIC PARISH (EMYVALE) INC.", "designationCode": "C", "categoryCode": "38", "address": "P.O. BOX 219", "city": "CORNWALL", "province": "PE", "country": "CA", "postalCode": "C0A1H0", "twitter": "None", "instagram": "None", "facebook": "None", "youtube": "None", "website": "None", "summary": "None", "logo": "None", "latitude": 46.241144818530714, "longitude": -63.21831691777574}, "119109833RR0037": {"name": "ST. ANSELM'S CHURCH", "designationCode": "C", "categoryCode": "38", "address": "7037 #207 HIGHWAY", "city": "WEST CHEZZETCOOK", "province": "NS", "country": "CA", "postalCode": "B0J1N0", "twitter": "None", "instagram": "None", "facebook": "None", "youtube": "None", "website": "None", "summary": "None", "logo": "None", "latitude": 44.711026135437734, "longitude": -63.26000753863428}, "119167666RR0001": {"name": "ST. ANSGAR LUTHERAN CHURCH", "designationCode": "C", "categoryCode": "32", "address": "1498 AVENUE ROAD", "city": "TORONTO", "province": "ON", "country": "CA", "postalCode": "M5N2J1", "twitter": "None", "instagram": "None", "facebook": "None", "youtube": "None", "website": "None", "summary": "None", "logo": "None", "latitude": 43.72208137745978, "longitude": -79.41558605081065}, "108008061RR0001": {"name": "ST. ANSGAR LUTHERAN CHURCH (LONDON) INCORPORATED", "designationCode": "C", "categoryCode": "32", "address": "600 LAWSON ROAD", "city": "LONDON", "province": "ON", "country": "CA", "postalCode": "N6G4A3", "twitter": "None", "instagram": "None", "facebook": "None", "youtube": "None", "website": "None", "summary": "None", "logo": "None", "latitude": 43.00020714790257, "longitude": -81.30248288729886}, "864937321RR0001": {"name": "ST. ANTHONY AND AREA BOYS AND GIRLS CLUB INC.", "designationCode": "C", "categoryCode": "09", "address": "BOX 816", "city": "ST ANTHONY", "province": "NL", "country": "CA", "postalCode": "A0K4S0", "twitter": "None", "instagram": "None", "facebook": "None", "youtube": "None", "website": "None", "summary": "None", "logo": "None", "latitude": 51.38831000000005, "longitude": -56.090089999999975}, "119110450RR0086": {"name": "ST. ANTHONY DANIEL CHURCH", "designationCode": "C", "categoryCode": "38", "address": "29 MIDLAND DRIVE", "city": "KITCHENER", "province": "ON", "country": "CA", "postalCode": "N2A2A9", "twitter": "None", "instagram": "None", "facebook": "None", "youtube": "None", "website": "None", "summary": "None", "logo": "None", "latitude": 43.44917209489887, "longitude": -80.4480123138376}, "119110450RR0068": {"name": "ST. ANTHONY DANIEL PARISH", "designationCode": "C", "categoryCode": "38", "address": "P.O. BOX 219", "city": "BURFORD", "province": "ON", "country": "CA", "postalCode": "N0E1A0", "twitter": "None", "instagram": "None", "facebook": "None", "youtube": "None", "website": "None", "summary": "None", "logo": "None", "latitude": 43.103090000000066, "longitude": -80.43002999999999}, "119109817RR0073": {"name": "ST. ANTHONY OF PADUA CHURCH", "designationCode": "C", "categoryCode": "38", "address": "67 MAIN ST EAST", "city": "KINGSVILLE", "province": "ON", "country": "CA", "postalCode": "N9Y1A1", "twitter": "None", "instagram": "None", "facebook": "None", "youtube": "None", "website": "None", "summary": "None", "logo": "None", "latitude": 42.037961096865594, "longitude": -82.73678124962194}, "118849470RR0069": {"name": "ST. ANTHONY OF PADUA PARISH", "designationCode": "C", "categoryCode": "38", "address": "7237 MORROW RD", "city": "AGASSIZ", "province": "BC", "country": "CA", "postalCode": "V0M1A2", "twitter": "None", "instagram": "None", "facebook": "None", "youtube": "None", "website": "None", "summary": "None", "logo": "None", "latitude": 49.23580648600597, "longitude": -121.75987122300768}, "119109817RR0049": {"name": "ST. ANTHONY OF PADUA ROMAN CATHOLIC CHURCH", "designationCode": "C", "categoryCode": "38", "address": "1991 NORMAN RD", "city": "WINDSOR", "province": "ON", "country": "CA", "postalCode": "N8T1S1", "twitter": "None", "instagram": "None", "facebook": "None", "youtube": "None", "website": "None", "summary": "None", "logo": "None", "latitude": 42.30974490562074, "longitude": -82.9673289711752}, "119167807RR0001": {"name": "ST. ANTHONY PASTORAL CHARGE", "designationCode": "C", "categoryCode": "44", "address": "P.O. BOX 10", "city": "ST. ANTHONY", "province": "NL", "country": "CA", "postalCode": "A0K4S0", "twitter": "None", "instagram": "None", "facebook": "None", "youtube": "None", "website": "None", "summary": "None", "logo": "None", "latitude": 51.372690000000034, "longitude": -55.597039999999936}, "107909939RR0017": {"name": "ST. ANTHONY'S CHURCH", "designationCode": "C", "categoryCode": "38", "address": "5340 - 4TH STREET SW", "city": "CALGARY", "province": "AB", "country": "CA", "postalCode": "T2V0Z5", "twitter": "None", "instagram": "None", "facebook": "None", "youtube": "None", "website": "None", "summary": "None", "logo": "None", "latitude": 51.00613200000001, "longitude": -114.07144780691362}, "107909939RR0039": {"name": "ST. ANTHONY'S CHURCH", "designationCode": "C", "categoryCode": "38", "address": "151 - 3RD STREET W.", "city": "DRUMHELLER", "province": "AB", "country": "CA", "postalCode": "T0J0Y4", "twitter": "None", "instagram": "None", "facebook": "None", "youtube": "None", "website": "None", "summary": "None", "logo": "None", "latitude": 51.466019615875126, "longitude": -112.7123965720467}, "119109833RR0020": {"name": "ST. ANTHONY'S CHURCH", "designationCode": "C", "categoryCode": "38", "address": "29 FARRELL ST", "city": "DARTMOUTH", "province": "NS", "country": "CA", "postalCode": "B3A4B2", "twitter": "None", "instagram": "None", "facebook": "None", "youtube": "None", "website": "None", "summary": "None", "logo": "None", "latitude": 44.6782996408621, "longitude": -63.58921178908177}, "119110443RR0055": {"name": "ST. ANTHONY'S CHURCH", "designationCode": "C", "categoryCode": "38", "address": "P.O. BOX 239", "city": "TAMWORTH", "province": "ON", "country": "CA", "postalCode": "K0K3G0", "twitter": "None", "instagram": "None", "facebook": "None", "youtube": "None", "website": "None", "summary": "None", "logo": "None", "latitude": 44.48736000000008, "longitude": -76.99483999999995}, "119167823RR0001": {"name": "ST. ANTHONY'S CHURCH", "designationCode": "C", "categoryCode": "30", "address": "PO BOX 322", "city": "WHITNEY", "province": "ON", "country": "CA", "postalCode": "K0J2M0", "twitter": "None", "instagram": "None", "facebook": "None", "youtube": "None", "website": "None", "summary": "None", "logo": "None", "latitude": 45.49273000000005, "longitude": -78.23737999999997}, "888638186RR0001": {"name": "ST. ANTHONY'S FEAST", "designationCode": "C", "categoryCode": "49", "address": "175 SHERWOOD RISE", "city": "HAMILTON", "province": "ON", "country": "CA", "postalCode": "L8T1P4", "twitter": "None", "instagram": "None", "facebook": "None", "youtube": "None", "website": "None", "summary": "None", "logo": "None", "latitude": 43.225521420508805, "longitude": -79.82159699694158}, "108008384RR0001": {"name": "ST. ANTHONY'S HOSPITAL", "designationCode": "C", "categoryCode": "10", "address": "P.O. BOX 280", "city": "ESTERHAZY", "province": "SK", "country": "CA", "postalCode": "S0A0X0", "twitter": "None", "instagram": "None", "facebook": "None", "youtube": "None", "website": "None", "summary": "None", "logo": "None", "latitude": 50.65157000000005, "longitude": -102.05784999999997}, "877089870RR0001": {"name": "ST. ANTHONY'S HOSPITAL FOUNDATION INC.", "designationCode": "A", "categoryCode": "13", "address": "P.O. BOX 280", "city": "ESTERHAZY", "province": "SK", "country": "CA", "postalCode": "S0A0X0", "twitter": "None", "instagram": "None", "facebook": "None", "youtube": "None", "website": "None", "summary": "None", "logo": "None", "latitude": 50.65157000000005, "longitude": -102.05784999999997}, "107020331RR0042": {"name": "ST. ANTHONY'S PARISH", "designationCode": "C", "categoryCode": "38", "address": "603 UNION ST", "city": "FREDERICTON", "province": "NB", "country": "CA", "postalCode": "E3A3N5", "twitter": "None", "instagram": "None", "facebook": "None", "youtube": "None", "website": "None", "summary": "None", "logo": "None", "latitude": 45.96811984707712, "longitude": -66.63007318122807}, "108094392RR0007": {"name": "ST. ANTHONY'S PARISH", "designationCode": "C", "categoryCode": "38", "address": "BOX 10", "city": "CANAL FLATS", "province": "BC", "country": "CA", "postalCode": "V0B1B0", "twitter": "None", "instagram": "None", "facebook": "None", "youtube": "None", "website": "None", "summary": "None", "logo": "None", "latitude": 50.150780000000054, "longitude": -115.81492999999995}, "118849470RR0052": {"name": "ST. ANTHONY'S PARISH", "designationCode": "C", "categoryCode": "38", "address": "1345 W 73RD AVE", "city": "VANCOUVER", "province": "BC", "country": "CA", "postalCode": "V6P3E9", "twitter": "None", "instagram": "None", "facebook": "None", "youtube": "None", "website": "None", "summary": "None", "logo": "None", "latitude": 49.204751771596634, "longitude": -123.13683106451622}, "118849470RR0067": {"name": "ST. ANTHONY'S PARISH", "designationCode": "C", "categoryCode": "38", "address": "2347 INGLEWOOD AVE", "city": "WEST VANCOUVER", "province": "BC", "country": "CA", "postalCode": "V7V1Z9", "twitter": "None", "instagram": "None", "facebook": "None", "youtube": "None", "website": "None", "summary": "None", "logo": "None", "latitude": 49.33471047157924, "longitude": -123.17694363918864}, "119109791RR0034": {"name": "ST. ANTHONY'S PARISH", "designationCode": "C", "categoryCode": "38", "address": "360 RIVER RD", "city": "WELLAND", "province": "ON", "country": "CA", "postalCode": "L3B2S4", "twitter": "None", "instagram": "None", "facebook": "None", "youtube": "None", "website": "None", "summary": "None", "logo": "None", "latitude": 43.001567960009396, "longitude": -79.23942557972234}, "119110450RR0078": {"name": "ST. ANTHONY'S PARISH", "designationCode": "C", "categoryCode": "38", "address": "749 RUSSELL STREET", "city": "KINCARDINE", "province": "ON", "country": "CA", "postalCode": "N2Z1S7", "twitter": "None", "instagram": "None", "facebook": "None", "youtube": "None", "website": "None", "summary": "None", "logo": "None", "latitude": 44.16910143527677, "longitude": -81.6215109971841}, "119110450RR0102": {"name": "ST. ANTHONY'S PARISH", "designationCode": "C", "categoryCode": "38", "address": "165 PROSPECT STREET NORTH", "city": "HAMILTON", "province": "ON", "country": "CA", "postalCode": "L8L6X8", "twitter": "None", "instagram": "None", "facebook": "None", "youtube": "None", "website": "None", "summary": "None", "logo": "None", "latitude": 43.25455952873787, "longitude": -79.82954266740693}, "119110450RR0108": {"name": "ST. ANTHONY'S PARISH", "designationCode": "C", "categoryCode": "38", "address": "40 JOHN ST.", "city": "OAKVILLE", "province": "ON", "country": "CA", "postalCode": "L6K1G8", "twitter": "None", "instagram": "None", "facebook": "None", "youtube": "None", "website": "None", "summary": "None", "logo": "None", "latitude": 43.44152036496629, "longitude": -79.6740209435052}, "119122778RR0014": {"name": "ST. ANTHONY'S PARISH", "designationCode": "A", "categoryCode": "38", "address": "3737 OLD ORCHARD ST.PO BOX 10", "city": "APPLE HILL", "province": "ON", "country": "CA", "postalCode": "K0C1B0", "twitter": "None", "instagram": "None", "facebook": "None", "youtube": "None", "website": "None", "summary": "None", "logo": "None", "latitude": 45.21959243081051, "longitude": -74.7697221697261}, "119122786RR0007": {"name": "ST. ANTHONY'S PARISH", "designationCode": "C", "categoryCode": "38", "address": "6500 SOUTHRIDGE AVE", "city": "PRINCE GEORGE", "province": "BC", "country": "CA", "postalCode": "V2N5P9", "twitter": "None", "instagram": "None", "facebook": "None", "youtube": "None", "website": "None", "summary": "None", "logo": "None", "latitude": 53.86420563941114, "longitude": -122.78374828519728}, "119168094RR0001": {"name": "ST. ANTHONY'S PARISH", "designationCode": "C", "categoryCode": "38", "address": "BOX 141", "city": "STORTHOAKS", "province": "SK", "country": "CA", "postalCode": "S0C2K0", "twitter": "None", "instagram": "None", "facebook": "None", "youtube": "None", "website": "None", "summary": "None", "logo": "None", "latitude": 49.38333000000006, "longitude": -101.60090999999994}, "129532610RR0001": {"name": "ST. ANTHONY'S PARISH", "designationCode": "C", "categoryCode": "39", "address": "280 TALBOT RD E               RR 3", "city": "LEAMINGTON", "province": "ON", "country": "CA", "postalCode": "N8H3V6", "twitter": "None", "instagram": "None", "facebook": "None", "youtube": "None", "website": "None", "summary": "None", "logo": "None", "latitude": 42.057644929961114, "longitude": -82.58071022557483}, "108008533RR0001": {"name": "ST. ANTHONY'S ROMAN CATHOLIC CHURCH", "designationCode": "C", "categoryCode": "38", "address": "P.O. BOX 1", "city": "RAMA", "province": "SK", "country": "CA", "postalCode": "S0A3H0", "twitter": "None", "instagram": "None", "facebook": "None", "youtube": "None", "website": "None", "summary": "None", "logo": "None", "latitude": 51.75918600000006, "longitude": -102.99896449999993}, "814124202RR0001": {"name": "ST. ANTHONY'S ROMAN CATHOLIC PARISH INC.", "designationCode": "C", "categoryCode": "38", "address": "RR 3", "city": "OLEARY", "province": "PE", "country": "CA", "postalCode": "C0B1V0", "twitter": "None", "instagram": "None", "facebook": "None", "youtube": "None", "website": "None", "summary": "None", "logo": "None", "latitude": 46.71305115704506, "longitude": -64.19110057190973}, "108008608RR0001": {"name": "ST. ANTONINUS PARISH", "designationCode": "C", "categoryCode": "38", "address": "BOX 93", "city": "DELORAINE", "province": "MB", "country": "CA", "postalCode": "R0M0M0", "twitter": "None", "instagram": "None", "facebook": "None", "youtube": "None", "website": "None", "summary": "None", "logo": "None", "latitude": 49.19157000000007, "longitude": -100.49399999999997}, "892746983RR0001": {"name": "ST. ATHANASIUS ORTHODOX CHRISTIAN MISSION", "designationCode": "C", "categoryCode": "39", "address": "846 PAPE AVE 2ND FLOOR", "city": "TORONTO", "province": "ON", "country": "CA", "postalCode": "M4K3T6", "twitter": "None", "instagram": "None", "facebook": "None", "youtube": "None", "website": "None", "summary": "None", "logo": "None", "latitude": 43.68375202247681, "longitude": -79.34670548822767}, "853592749RR0001": {"name": "ST. ATHANASIUS ORTHODOX MISSION", "designationCode": "C", "categoryCode": "39", "address": "76 RAVEN DRIVE", "city": "SHERWOOD PARK", "province": "AB", "country": "CA", "postalCode": "T8A0C8", "twitter": "None", "instagram": "None", "facebook": "None", "youtube": "None", "website": "None", "summary": "None", "logo": "None", "latitude": 53.52467434390314, "longitude": -113.28340552290949}, "119168383RR0001": {"name": "ST. ATHANASIUS UKRAINIAN CATHOLIC CHURCH", "designationCode": "C", "categoryCode": "38", "address": "55 MCMURCHY AVE", "city": "REGINA", "province": "SK", "country": "CA", "postalCode": "S4R3G3", "twitter": "None", "instagram": "None", "facebook": "None", "youtube": "None", "website": "None", "summary": "None", "logo": "None", "latitude": 50.48207252120739, "longitude": -104.62425202553523}, "119168367RR0001": {"name": "ST. ATHANASIUS' CHURCH", "designationCode": "C", "categoryCode": "30", "address": "10 WESTMOUNT DR N", "city": "ORILLIA", "province": "ON", "country": "CA", "postalCode": "L3V6B8", "twitter": "None", "instagram": "None", "facebook": "None", "youtube": "None", "website": "None", "summary": "None", "logo": "None", "latitude": 44.60247661088847, "longitude": -79.43416585232531}, "107910259RR0157": {"name": "ST. AUGUSTINE OF CANTERBURY PARISH", "designationCode": "C", "categoryCode": "38", "address": "80 SHOREHAM DR", "city": "DOWNSVIEW", "province": "ON", "country": "CA", "postalCode": "M3N1S9", "twitter": "None", "instagram": "None", "facebook": "None", "youtube": "None", "website": "None", "summary": "None", "logo": "None", "latitude": 43.76816212908975, "longitude": -79.52349616654155}, "108009572RR0001": {"name": "ST. AUGUSTINE OF CANTERBURY PARISH", "designationCode": "C", "categoryCode": "38", "address": "327 4TH ST", "city": "BRANDON", "province": "MB", "country": "CA", "postalCode": "R7A3H1", "twitter": "None", "instagram": "None", "facebook": "None", "youtube": "None", "website": "None", "summary": "None", "logo": "None", "latitude": 49.844906497085816, "longitude": -99.94317940435131}, "107307191RR0041": {"name": "ST. AUGUSTINE PARISH", "designationCode": "C", "categoryCode": "38", "address": "53 MALCOM PLACE", "city": "SASKATOON", "province": "SK", "country": "CA", "postalCode": "S7H4M3", "twitter": "None", "instagram": "None", "facebook": "None", "youtube": "None", "website": "None", "summary": "None", "logo": "None", "latitude": 52.11928651399404, "longitude": -106.57613258381903}, "119168466RR0001": {"name": "ST. AUGUSTINE ROMAN CATHOLIC PARISH", "designationCode": "C", "categoryCode": "38", "address": "PO BOX 10", "city": "ST AUGUSTIIN SAG", "province": "QC", "country": "CA", "postalCode": "G0G2R0", "twitter": "None", "instagram": "None", "facebook": "None", "youtube": "None", "website": "None", "summary": "None", "logo": "None", "latitude": 51.22602000000006, "longitude": -58.650169999999946}, "107909939RR0072": {"name": "ST. AUGUSTINE'S CHURCH", "designationCode": "C", "categoryCode": "38", "address": "5009 48 AVENUE", "city": "TABER", "province": "AB", "country": "CA", "postalCode": "T1G1T4", "twitter": "None", "instagram": "None", "facebook": "None", "youtube": "None", "website": "None", "summary": "None", "logo": "None", "latitude": 49.78385431057762, "longitude": -112.14917807729816}, "119168524RR0001": {"name": "ST. AUGUSTINE'S CHURCH", "designationCode": "C", "categoryCode": "30", "address": "73, RUE DU CARMEL", "city": "DANVILLE", "province": "QC", "country": "CA", "postalCode": "J0A1A0", "twitter": "None", "instagram": "None", "facebook": "None", "youtube": "None", "website": "None", "summary": "None", "logo": "None", "latitude": 45.78309292284609, "longitude": -72.01524340564937}, "119168557RR0001": {"name": "ST. AUGUSTINE'S CHURCH", "designationCode": "C", "categoryCode": "30", "address": "PO BOX 1133", "city": "ROSTHERN", "province": "SK", "country": "CA", "postalCode": "S0K3R0", "twitter": "None", "instagram": "None", "facebook": "None", "youtube": "None", "website": "None", "summary": "None", "logo": "None", "latitude": 52.66773000000006, "longitude": -106.32977999999997}, "119168565RR0001": {"name": "ST. AUGUSTINE'S CHURCH", "designationCode": "C", "categoryCode": "30", "address": "BOX 372", "city": "EASTEND", "province": "SK", "country": "CA", "postalCode": "S0N0T0", "twitter": "None", "instagram": "None", "facebook": "None", "youtube": "None", "website": "None", "summary": "None", "logo": "None", "latitude": 49.51367000000005, "longitude": -108.82889999999998}, "119168599RR0001": {"name": "ST. AUGUSTINE'S CHURCH", "designationCode": "C", "categoryCode": "30", "address": "7602 22A ST SE", "city": "CALGARY", "province": "AB", "country": "CA", "postalCode": "T2C0X5", "twitter": "None", "instagram": "None", "facebook": "None", "youtube": "None", "website": "None", "summary": "None", "logo": "None", "latitude": 50.98487383236193, "longitude": -114.00443836635128}, "119168607RR0001": {"name": "ST. AUGUSTINE'S MONASTERY", "designationCode": "C", "categoryCode": "46", "address": "MARY LAKE BOX 550", "city": "KING CITY", "province": "ON", "country": "CA", "postalCode": "L7B1A7", "twitter": "None", "instagram": "None", "facebook": "None", "youtube": "None", "website": "None", "summary": "None", "logo": "None", "latitude": 43.92781800000006, "longitude": -79.52797249999993}, "107020331RR0001": {"name": "ST. AUGUSTINE'S PARISH", "designationCode": "C", "categoryCode": "38", "address": "279 NEREPIS ROAD", "city": "GRAND-BAY-WESTFIELD", "province": "NB", "country": "CA", "postalCode": "E5K2Z9", "twitter": "None", "instagram": "None", "facebook": "None", "youtube": "None", "website": "None", "summary": "None", "logo": "None", "latitude": 45.35899729623338, "longitude": -66.238866}, "118849470RR0053": {"name": "ST. AUGUSTINE'S PARISH", "designationCode": "C", "categoryCode": "38", "address": "2028 W 7TH AVE", "city": "VANCOUVER", "province": "BC", "country": "CA", "postalCode": "V6J1T4", "twitter": "None", "instagram": "None", "facebook": "None", "youtube": "None", "website": "None", "summary": "None", "logo": "None", "latitude": 49.265532546742605, "longitude": -123.15110319317328}, "119109833RR0004": {"name": "ST. AUGUSTINE'S PARISH", "designationCode": "C", "categoryCode": "38", "address": "P.O. BOX 140", "city": "CHESTER", "province": "NS", "country": "CA", "postalCode": "B0J1J0", "twitter": "None", "instagram": "None", "facebook": "None", "youtube": "None", "website": "None", "summary": "None", "logo": "None", "latitude": 44.549654888646664, "longitude": -64.2288348174421}}