{"119034197RR0001": {"name": "Marwayne Agricultural Society", "designationCode": "C", "categoryCode": "56", "address": "BOX 507", "city": "MARWAYNE", "province": "AB", "country": "CA", "postalCode": "T0B2X0", "twitter": "None", "instagram": "None", "facebook": "None", "youtube": "None", "website": "None", "summary": "None", "logo": "None", "latitude": 53.53347000000008, "longitude": -110.33490999999998}, "130262439RR0001": {"name": "Marwayne Alliance Church", "designationCode": "C", "categoryCode": "39", "address": "BOX 143", "city": "MARWAYNE", "province": "AB", "country": "CA", "postalCode": "T0B2X0", "twitter": "None", "instagram": "None", "facebook": "None", "youtube": "None", "website": "None", "summary": "None", "logo": "None", "latitude": 53.53347000000008, "longitude": -110.33490999999998}, "871879540RR0001": {"name": "Marwayne Rescue and First Responder Association", "designationCode": "C", "categoryCode": "59", "address": "POST OFFICE BOX 240", "city": "MARWAYNE", "province": "AB", "country": "CA", "postalCode": "T0B2X0", "twitter": "None", "instagram": "None", "facebook": "None", "youtube": "None", "website": "None", "summary": "None", "logo": "None", "latitude": 53.53347000000008, "longitude": -110.33490999999998}, "795082692RR0001": {"name": "Mary and Donald Bittner Foundation", "designationCode": "B", "categoryCode": "05", "address": "350 7TH AVENUE SW, 7TH FLOOR", "city": "CALGARY", "province": "AB", "country": "CA", "postalCode": "T2P3N9", "twitter": "None", "instagram": "None", "facebook": "None", "youtube": "None", "website": "None", "summary": "None", "logo": "None", "latitude": 51.046676474897474, "longitude": -114.06982963627445}, "812506632RR0001": {"name": "Mary Ellen Humane Education Society", "designationCode": "C", "categoryCode": "11", "address": "787 ROWCLIFFE AVE", "city": "KELOWNA", "province": "BC", "country": "CA", "postalCode": "V1Y5Z1", "twitter": "None", "instagram": "None", "facebook": "None", "youtube": "None", "website": "None", "summary": "None", "logo": "None", "latitude": 49.88073548845881, "longitude": -119.48584058381903}, "811112010RR0001": {"name": "Mary Johnston Foundation Canada Inc.", "designationCode": "C", "categoryCode": "59", "address": "31 CALLISTO COURT", "city": "MISSISSAUGA", "province": "ON", "country": "CA", "postalCode": "L5M0A1", "twitter": "None", "instagram": "None", "facebook": "None", "youtube": "None", "website": "None", "summary": "None", "logo": "None", "latitude": 43.576900573979934, "longitude": -79.71802603523008}, "818472896RR0001": {"name": "Mary Leonora Foundation/Fondation Mary Leonora", "designationCode": "C", "categoryCode": "09", "address": "9160, AVENUE VINCENT QUIBLIER", "city": "MONTR\u00c9AL", "province": "QC", "country": "CA", "postalCode": "H2M2B7", "twitter": "None", "instagram": "None", "facebook": "None", "youtube": "None", "website": "None", "summary": "None", "logo": "None", "latitude": 45.55987195891288, "longitude": -73.63960350654952}, "820319762RR0001": {"name": "Mary Montgomery School Playground Committee", "designationCode": "C", "categoryCode": "21", "address": "PO BOX 700", "city": "VIRDEN", "province": "MB", "country": "CA", "postalCode": "R0M2C0", "twitter": "None", "instagram": "None", "facebook": "None", "youtube": "None", "website": "None", "summary": "None", "logo": "None", "latitude": 49.85688000000005, "longitude": -100.92262999999997}, "890768542RR0001": {"name": "Mary Winspear Centre Foundation", "designationCode": "A", "categoryCode": "53", "address": "2243 BEACON AVENUE", "city": "SIDNEY", "province": "BC", "country": "CA", "postalCode": "V8L1W9", "twitter": "None", "instagram": "None", "facebook": "None", "youtube": "None", "website": "None", "summary": "None", "logo": "None", "latitude": 48.64880818885537, "longitude": -123.40576312591537}, "107909939RR0014": {"name": "Mary, Mother of the Redeemer Parish", "designationCode": "C", "categoryCode": "38", "address": "1714-14 AVE NE", "city": "CALGARY", "province": "AB", "country": "CA", "postalCode": "T2E1G3", "twitter": "None", "instagram": "None", "facebook": "None", "youtube": "None", "website": "None", "summary": "None", "logo": "None", "latitude": 51.06545451875454, "longitude": -114.02010254832915}, "845360536RR0001": {"name": "Mary's Meals Canada", "designationCode": "C", "categoryCode": "09", "address": "PO BOX 76144 RPO MILLRISE", "city": "CALGARY", "province": "AB", "country": "CA", "postalCode": "T2Y2Z9", "twitter": "None", "instagram": "None", "facebook": "None", "youtube": "None", "website": "None", "summary": "None", "logo": "None", "latitude": 50.91454132111086, "longitude": -114.09693237631686}, "834055204RR0001": {"name": "Maryan the Divine Mercy Foundation", "designationCode": "B", "categoryCode": "05", "address": "3612 STEEPLE CHASE CRESCENT", "city": "MISSISSAUGA", "province": "ON", "country": "CA", "postalCode": "L5M0J8", "twitter": "None", "instagram": "None", "facebook": "None", "youtube": "None", "website": "None", "summary": "None", "logo": "None", "latitude": 43.54779007966409, "longitude": -79.73795109452351}, "849168919RR0001": {"name": "Marysburg Centre of the Arts Inc.", "designationCode": "C", "categoryCode": "52", "address": "PO BOX 1017", "city": "HUMBOLDT", "province": "SK", "country": "CA", "postalCode": "S0K2A0", "twitter": "None", "instagram": "None", "facebook": "None", "youtube": "None", "website": "None", "summary": "None", "logo": "None", "latitude": 51.7871843348964, "longitude": -104.71638483007007}, "119288918RR0747": {"name": "Marystown Congregation of Jehovah's Witnesses, Marystown, Newfoundland", "designationCode": "C", "categoryCode": "61", "address": "POST OFFICE BOX 600", "city": "CRESTON", "province": "NL", "country": "CA", "postalCode": "A0E1K0", "twitter": "None", "instagram": "None", "facebook": "None", "youtube": "None", "website": "None", "summary": "None", "logo": "None", "latitude": 47.14120606624959, "longitude": -55.205410937177106}, "825179153RR0001": {"name": "Marytan Life Foundation Inc.", "designationCode": "B", "categoryCode": "03", "address": "2750 QUINN DRIVE", "city": "REGINA", "province": "SK", "country": "CA", "postalCode": "S4P2W1", "twitter": "None", "instagram": "None", "facebook": "None", "youtube": "None", "website": "None", "summary": "None", "logo": "None", "latitude": 50.43573000000001, "longitude": -104.59681561688473}, "812492833RR0001": {"name": "Masjid-E-Mohammad", "designationCode": "C", "categoryCode": "60", "address": "9A-1871 O'CONNOR DR", "city": "TORONTO", "province": "ON", "country": "CA", "postalCode": "M4A1X1", "twitter": "None", "instagram": "None", "facebook": "None", "youtube": "None", "website": "None", "summary": "None", "logo": "None", "latitude": 43.722053214813364, "longitude": -79.30373414360339}, "106693047RR0054": {"name": "Maskwacis Company of the Seventh-day Adventist Church", "designationCode": "C", "categoryCode": "41", "address": "5816 HIGHWAY 2A", "city": "LACOMBE", "province": "AB", "country": "CA", "postalCode": "T4L2G5", "twitter": "None", "instagram": "None", "facebook": "None", "youtube": "None", "website": "None", "summary": "None", "logo": "None", "latitude": 52.474063600197404, "longitude": -113.71692568401835}, "809608458RR0001": {"name": "Masomo for Children", "designationCode": "C", "categoryCode": "21", "address": "9200 DUFFERIN ST              PO BOX 20004", "city": "CONCORD", "province": "ON", "country": "CA", "postalCode": "L4K0C8", "twitter": "None", "instagram": "None", "facebook": "None", "youtube": "None", "website": "None", "summary": "None", "logo": "None", "latitude": 43.841619639736926, "longitude": -79.48288032480185}, "831825401RR0001": {"name": "Masonichip Foundation of Ontario", "designationCode": "C", "categoryCode": "59", "address": "P.O. BOX 730", "city": "COPPER CLIFF", "province": "ON", "country": "CA", "postalCode": "P0M1N0", "twitter": "None", "instagram": "None", "facebook": "None", "youtube": "None", "website": "None", "summary": "None", "logo": "None", "latitude": 46.474830000000054, "longitude": -81.06802999999996}, "836902601RR0001": {"name": "Massawippi Conservation Trust / Fiducie de conservation Massawippi", "designationCode": "C", "categoryCode": "55", "address": "P.O. BOX 2582", "city": "NORTH HATLEY", "province": "QC", "country": "CA", "postalCode": "J0B2C0", "twitter": "None", "instagram": "None", "facebook": "None", "youtube": "None", "website": "None", "summary": "None", "logo": "None", "latitude": 45.216229442813834, "longitude": -71.94152649235272}, "854127313RR0001": {"name": "Massie Community Centre Inc.", "designationCode": "C", "categoryCode": "55", "address": "823688 MASSIE RD", "city": "CHATSWORTH", "province": "ON", "country": "CA", "postalCode": "N0H1G0", "twitter": "None", "instagram": "None", "facebook": "None", "youtube": "None", "website": "None", "summary": "None", "logo": "None", "latitude": 44.46591261281672, "longitude": -80.83358009908247}, "827929605RR0001": {"name": "Master's Hand Ministry", "designationCode": "C", "categoryCode": "39", "address": "POST OFFICE BOX 1924", "city": "PICTOU", "province": "NS", "country": "CA", "postalCode": "B0K1H0", "twitter": "None", "instagram": "None", "facebook": "None", "youtube": "None", "website": "None", "summary": "None", "logo": "None", "latitude": 45.67583400000005, "longitude": -62.70865099999993}, "817387277RR0001": {"name": "Mastercard Foundation", "designationCode": "B", "categoryCode": "09", "address": "2400 - 250 YONGE ST", "city": "TORONTO", "province": "ON", "country": "CA", "postalCode": "M5B2L7", "twitter": "None", "instagram": "None", "facebook": "None", "youtube": "None", "website": "None", "summary": "None", "logo": "None", "latitude": 43.65772586166505, "longitude": -79.38152114478326}, "818827214RR0001": {"name": "Masterworks of Oakville, Chorus & Orchestra", "designationCode": "C", "categoryCode": "22", "address": "109 THOMAS ST.P.O.BOX 69636", "city": "OAKVILLE", "province": "ON", "country": "CA", "postalCode": "L6J3A7", "twitter": "None", "instagram": "None", "facebook": "None", "youtube": "None", "website": "None", "summary": "None", "logo": "None", "latitude": 43.44513056869984, "longitude": -79.66950799832655}, "848190062RR0001": {"name": "Mastocytosis Society Canada/Societe Canadienne de la Mastocytose", "designationCode": "C", "categoryCode": "11", "address": "4305 PRESTON CRESCENT", "city": "REGINA", "province": "SK", "country": "CA", "postalCode": "S4X0C9", "twitter": "None", "instagram": "None", "facebook": "None", "youtube": "None", "website": "None", "summary": "None", "logo": "None", "latitude": 50.50539246047075, "longitude": -104.64253085789716}, "816304844RR0001": {"name": "Matador Charitable Trust", "designationCode": "B", "categoryCode": "45", "address": "50 1ST AVE NE", "city": "SWIFT CURRENT", "province": "SK", "country": "CA", "postalCode": "S9H4W4", "twitter": "None", "instagram": "None", "facebook": "None", "youtube": "None", "website": "None", "summary": "None", "logo": "None", "latitude": 50.282664378132, "longitude": -107.79863205289816}, "841345838RR0001": {"name": "Mater Boni Consilii Academy Incorporated", "designationCode": "C", "categoryCode": "20", "address": "5296 FORESTWALK CIR", "city": "MISSISSAUGA", "province": "ON", "country": "CA", "postalCode": "L4Z4A1", "twitter": "None", "instagram": "None", "facebook": "None", "youtube": "None", "website": "None", "summary": "None", "logo": "None", "latitude": 43.6181256350337, "longitude": -79.65121549099763}, "130348683RR0001": {"name": "Matheson Seniors Housing Corp.", "designationCode": "C", "categoryCode": "01", "address": "11445-135 ST SW", "city": "EDMONTON", "province": "AB", "country": "CA", "postalCode": "T5M3M6", "twitter": "None", "instagram": "None", "facebook": "None", "youtube": "None", "website": "None", "summary": "None", "logo": "None", "latitude": 53.56484359893825, "longitude": -113.55463410193934}, "897155065RR0001": {"name": "Matheson Tenants Association", "designationCode": "C", "categoryCode": "09", "address": "11445-135 STREET", "city": "EDMONTON", "province": "AB", "country": "CA", "postalCode": "T5M3M6", "twitter": "None", "instagram": "None", "facebook": "None", "youtube": "None", "website": "None", "summary": "None", "logo": "None", "latitude": 53.56484359893825, "longitude": -113.55463410193934}, "800543233RR0001": {"name": "Mathisen Family Private Foundation", "designationCode": "B", "categoryCode": "03", "address": "73 HASTINGS ST E", "city": "VANCOUVER", "province": "BC", "country": "CA", "postalCode": "V6A1M9", "twitter": "None", "instagram": "None", "facebook": "None", "youtube": "None", "website": "None", "summary": "None", "logo": "None", "latitude": 49.28150294688415, "longitude": -123.10280964388818}, "868375825RR0001": {"name": "Matsuri Foundation of Canada", "designationCode": "C", "categoryCode": "39", "address": "700 - 1175 DOUGLAS ST", "city": "VICTORIA", "province": "BC", "country": "CA", "postalCode": "V8W2E1", "twitter": "None", "instagram": "None", "facebook": "None", "youtube": "None", "website": "None", "summary": "None", "logo": "None", "latitude": 48.42516195614293, "longitude": -123.36515396373164}, "835965203RR0001": {"name": "Matt Campbell Family Foundation", "designationCode": "B", "categoryCode": "03", "address": "301,3345 8TH STREET E", "city": "CALGARY", "province": "AB", "country": "CA", "postalCode": "T2G3A4", "twitter": "None", "instagram": "None", "facebook": "None", "youtube": "None", "website": "None", "summary": "None", "logo": "None", "latitude": 51.02395032397819, "longitude": -114.04362369057542}, "733099725RR0001": {"name": "Matt Rumpel Family Foundation", "designationCode": "B", "categoryCode": "05", "address": "269 EAGLE RIDGE DR SW", "city": "CALGARY", "province": "AB", "country": "CA", "postalCode": "T2V2V6", "twitter": "None", "instagram": "None", "facebook": "None", "youtube": "None", "website": "None", "summary": "None", "logo": "None", "latitude": 50.986359525102536, "longitude": -114.09724294463038}, "822991667RR0001": {"name": "Matthew House Refugee Services (Ottawa) Inc.", "designationCode": "C", "categoryCode": "09", "address": "380 CENTREPOINTE DR", "city": "OTTAWA", "province": "ON", "country": "CA", "postalCode": "K2G6A1", "twitter": "None", "instagram": "None", "facebook": "None", "youtube": "None", "website": "None", "summary": "None", "logo": "None", "latitude": 45.34620149070916, "longitude": -75.77454076377768}, "851009555RR0001": {"name": "Matthews House Hospice", "designationCode": "C", "categoryCode": "01", "address": "P.O. BOX 10060", "city": "ALLISTON", "province": "ON", "country": "CA", "postalCode": "L9R0B7", "twitter": "None", "instagram": "None", "facebook": "None", "youtube": "None", "website": "None", "summary": "None", "logo": "None", "latitude": 44.15432100000005, "longitude": -79.86752449999993}, "836098970RR0001": {"name": "Matthews Memorial Hospital Foundation", "designationCode": "A", "categoryCode": "13", "address": "PO BOX 330", "city": "RICHARDS LANDING", "province": "ON", "country": "CA", "postalCode": "P0R1J0", "twitter": "None", "instagram": "None", "facebook": "None", "youtube": "None", "website": "None", "summary": "None", "logo": "None", "latitude": 46.283998418832695, "longitude": -84.03190314670739}, "849657176RR0001": {"name": "Matty's Place Cat Sanctuary", "designationCode": "C", "categoryCode": "54", "address": "RURAL ROUTE 1                 19254 TOWNSHIP 494", "city": "TOFIELD", "province": "AB", "country": "CA", "postalCode": "T0B4J0", "twitter": "None", "instagram": "None", "facebook": "None", "youtube": "None", "website": "None", "summary": "None", "logo": "None", "latitude": 53.250652404236774, "longitude": -112.69780985769533}, "777644725RR0001": {"name": "Maud and Christina Duncan Charitable Foundation", "designationCode": "B", "categoryCode": "15", "address": "1002 RUE SHERBROOKE O", "city": "MONTREAL", "province": "QC", "country": "CA", "postalCode": "H3A3L6", "twitter": "None", "instagram": "None", "facebook": "None", "youtube": "None", "website": "None", "summary": "None", "logo": "None", "latitude": 45.502789852876845, "longitude": -73.57558716772498}, "889694170RR0001": {"name": "Maya Foundation of Canada", "designationCode": "C", "categoryCode": "59", "address": "1143 RICHLAND RD NE", "city": "CALGARY", "province": "AB", "country": "CA", "postalCode": "T2E5M3", "twitter": "None", "instagram": "None", "facebook": "None", "youtube": "None", "website": "None", "summary": "None", "logo": "None", "latitude": 51.06270184096029, "longitude": -114.0352903795659}, "850482795RR0001": {"name": "Mayan Families Canada Association", "designationCode": "C", "categoryCode": "09", "address": "701 - 1251 CARDERO ST", "city": "VANCOUVER", "province": "BC", "country": "CA", "postalCode": "V6G2H9", "twitter": "None", "instagram": "None", "facebook": "None", "youtube": "None", "website": "None", "summary": "None", "logo": "None", "latitude": 49.28474419014353, "longitude": -123.13945796534684}, "801315144RR0001": {"name": "Maybell Developments Inc.", "designationCode": "C", "categoryCode": "09", "address": "POST OFFICE BOX 643", "city": "PILOT BUTTE", "province": "SK", "country": "CA", "postalCode": "S0G3Z0", "twitter": "None", "instagram": "None", "facebook": "None", "youtube": "None", "website": "None", "summary": "None", "logo": "None", "latitude": 50.479340000000036, "longitude": -104.41828999999996}, "818787558RR0001": {"name": "Mayday Danse", "designationCode": "C", "categoryCode": "22", "address": "2022 RUE SHERBROOKE E", "city": "MONTREAL", "province": "QC", "country": "CA", "postalCode": "H2K1B9", "twitter": "None", "instagram": "None", "facebook": "None", "youtube": "None", "website": "None", "summary": "None", "logo": "None", "latitude": 45.53036469885744, "longitude": -73.56310573754998}, "814865168RR0001": {"name": "Mayne Island Food Bank Society", "designationCode": "C", "categoryCode": "09", "address": "360 GEORGINA POINT RD", "city": "MAYNE ISLAND", "province": "BC", "country": "CA", "postalCode": "V0N2J1", "twitter": "None", "instagram": "None", "facebook": "None", "youtube": "None", "website": "None", "summary": "None", "logo": "None", "latitude": 48.85678930200868, "longitude": -123.29711952609675}, "815725718RR0001": {"name": "Mazas Children Foundation", "designationCode": "C", "categoryCode": "56", "address": "2021 FIELDER RD               BOX 67", "city": "HARRISON MILLS", "province": "BC", "country": "CA", "postalCode": "V0M1L0", "twitter": "None", "instagram": "None", "facebook": "None", "youtube": "None", "website": "None", "summary": "None", "logo": "None", "latitude": 49.23689801335463, "longitude": -121.9057153028394}, "823845821RR0001": {"name": "Mazinaajim Children's Foundation", "designationCode": "A", "categoryCode": "03", "address": "200 ANEMKI PLACE              FORT WILLIAM FIRST NATION", "city": "THUNDER BAY", "province": "ON", "country": "CA", "postalCode": "P7J1L6", "twitter": "None", "instagram": "None", "facebook": "None", "youtube": "None", "website": "None", "summary": "None", "logo": "None", "latitude": 48.34924543724707, "longitude": -89.2646258066982}, "744986522RR0001": {"name": "McCaig INstitute Foundation", "designationCode": "B", "categoryCode": "05", "address": "3215 12 ST NE", "city": "CALGARY", "province": "AB", "country": "CA", "postalCode": "T2E7S9", "twitter": "None", "instagram": "None", "facebook": "None", "youtube": "None", "website": "None", "summary": "None", "logo": "None", "latitude": 51.08059018894387, "longitude": -114.02740766647133}, "811993609RR0001": {"name": "McCoy Family Charity Foundation", "designationCode": "B", "categoryCode": "03", "address": "15904 116 AVE", "city": "EDMONTON", "province": "AB", "country": "CA", "postalCode": "T5M3S5", "twitter": "None", "instagram": "None", "facebook": "None", "youtube": "None", "website": "None", "summary": "None", "logo": "None", "latitude": 53.566557482687756, "longitude": -113.59565991618096}, "849126289RR0001": {"name": "McCreary-Knox United Church", "designationCode": "C", "categoryCode": "44", "address": "PO BOX 63", "city": "MCCREARY", "province": "MB", "country": "CA", "postalCode": "R0J1B0", "twitter": "None", "instagram": "None", "facebook": "None", "youtube": "None", "website": "None", "summary": "None", "logo": "None", "latitude": 50.772380000000055, "longitude": -99.49212999999997}, "846677912RR0001": {"name": "McDermott House Canada Maison McDermott Canada", "designationCode": "A", "categoryCode": "13", "address": "27-1300 KING STREET EAST      SUITE 225", "city": "OSHAWA", "province": "ON", "country": "CA", "postalCode": "L1H8J4", "twitter": "None", "instagram": "None", "facebook": "None", "youtube": "None", "website": "None", "summary": "None", "logo": "None", "latitude": 43.90328019672794, "longitude": -78.83892414150002}, "824557466RR0001": {"name": "McDonald Family Charitable Foundation", "designationCode": "B", "categoryCode": "03", "address": "50 ALLIANCE BOULEVARD,", "city": "BARRIE", "province": "ON", "country": "CA", "postalCode": "L4M5K3", "twitter": "None", "instagram": "None", "facebook": "None", "youtube": "None", "website": "None", "summary": "None", "logo": "None", "latitude": 44.409990739944575, "longitude": -79.67981617886214}, "829719988RR0001": {"name": "McEwen Family Charitable Trust", "designationCode": "B", "categoryCode": "05", "address": "4033 HESSINGTON PL", "city": "VICTORIA", "province": "BC", "country": "CA", "postalCode": "V8N5C5", "twitter": "None", "instagram": "None", "facebook": "None", "youtube": "None", "website": "None", "summary": "None", "logo": "None", "latitude": 48.473402113509216, "longitude": -123.30818808407882}, "828724849RR0001": {"name": "McGee Charitable Trust", "designationCode": "B", "categoryCode": "45", "address": "3425 2 AVENUE SOUTH", "city": "LETHBRIDGE", "province": "AB", "country": "CA", "postalCode": "T1J4V1", "twitter": "None", "instagram": "None", "facebook": "None", "youtube": "None", "website": "None", "summary": "None", "logo": "None", "latitude": 49.696839530439966, "longitude": -112.78914308381903}, "822863890RR0001": {"name": "McGill Boulevard Music and Arts Society", "designationCode": "C", "categoryCode": "22", "address": "38346 RANGE ROAD 23", "city": "RED DEER COUNTY", "province": "AB", "country": "CA", "postalCode": "T4E2P4", "twitter": "None", "instagram": "None", "facebook": "None", "youtube": "None", "website": "None", "summary": "None", "logo": "None", "latitude": 52.28402101780492, "longitude": -114.21601883105366}, "824292866RR0001": {"name": "McGill Ecumenical Chaplaincy", "designationCode": "C", "categoryCode": "49", "address": "3475 UNIVERTITY ST.", "city": "MONTR\u00c9AL", "province": "QC", "country": "CA", "postalCode": "H3A2A8", "twitter": "None", "instagram": "None", "facebook": "None", "youtube": "None", "website": "None", "summary": "None", "logo": "None", "latitude": 45.50614803222899, "longitude": -73.57579848817035}, "822069787RR0001": {"name": "McGillivray Family Foundation", "designationCode": "A", "categoryCode": "03", "address": "100 KINGSCROSS DR", "city": "KING CITY", "province": "ON", "country": "CA", "postalCode": "L7B1E5", "twitter": "None", "instagram": "None", "facebook": "None", "youtube": "None", "website": "None", "summary": "None", "logo": "None", "latitude": 43.94041649047803, "longitude": -79.53920036081135}, "851253930RR0001": {"name": "McGregor Young Foundation", "designationCode": "B", "categoryCode": "03", "address": "2558 MARGATE AVE.", "city": "VICTORIA", "province": "BC", "country": "CA", "postalCode": "V8S3A4", "twitter": "None", "instagram": "None", "facebook": "None", "youtube": "None", "website": "None", "summary": "None", "logo": "None", "latitude": 48.42053951543634, "longitude": -123.30436122300767}, "819901380RR0001": {"name": "McIntosh United Church", "designationCode": "C", "categoryCode": "44", "address": "RR 2", "city": "MILDMAY", "province": "ON", "country": "CA", "postalCode": "N0G2J0", "twitter": "None", "instagram": "None", "facebook": "None", "youtube": "None", "website": "None", "summary": "None", "logo": "None", "latitude": 44.04200000000003, "longitude": -81.11933999999997}, "119288918RR1300": {"name": "McKenzie Congregation of Jehovah's Witnesses, Calgary, Alberta", "designationCode": "C", "categoryCode": "61", "address": "97 INVERNESS RISE SE", "city": "CALGARY", "province": "AB", "country": "CA", "postalCode": "T3B5S2", "twitter": "None", "instagram": "None", "facebook": "None", "youtube": "None", "website": "None", "summary": "None", "logo": "None", "latitude": 50.91416042408682, "longitude": -113.97114485178032}, "859012080RR0001": {"name": "McLauren Centre for Multi-Cultural Ministries", "designationCode": "C", "categoryCode": "49", "address": "P.O. BOX 664", "city": "ABBOTSFORD", "province": "BC", "country": "CA", "postalCode": "V2T6Z8", "twitter": "None", "instagram": "None", "facebook": "None", "youtube": "None", "website": "None", "summary": "None", "logo": "None", "latitude": 49.05161700000005, "longitude": -122.32930399999994}, "857244297RR0001": {"name": "McLean Family Foundation", "designationCode": "B", "categoryCode": "03", "address": "508 - 333 SEYMOUR ST", "city": "VANCOUVER", "province": "BC", "country": "CA", "postalCode": "V6B5A6", "twitter": "None", "instagram": "None", "facebook": "None", "youtube": "None", "website": "None", "summary": "None", "logo": "None", "latitude": 49.28514037942167, "longitude": -123.11218777257757}, "839071818RR0001": {"name": "McLean Smits Family Foundation", "designationCode": "B", "categoryCode": "05", "address": "33 PRINCE ARTHUR AVE", "city": "TORONTO", "province": "ON", "country": "CA", "postalCode": "M5R1B2", "twitter": "None", "instagram": "None", "facebook": "None", "youtube": "None", "website": "None", "summary": "None", "logo": "None", "latitude": 43.669396834843454, "longitude": -79.39695826366211}, "856754510RR0001": {"name": "McMahon Charitable Trust", "designationCode": "B", "categoryCode": "39", "address": "50 1ST AVE NE", "city": "SWIFT CURRENT", "province": "SK", "country": "CA", "postalCode": "S9H4W4", "twitter": "None", "instagram": "None", "facebook": "None", "youtube": "None", "website": "None", "summary": "None", "logo": "None", "latitude": 50.282664378132, "longitude": -107.79863205289816}, "835826686RR0001": {"name": "Meadow Rose Family Help Center Society", "designationCode": "C", "categoryCode": "09", "address": "2-45789 SPADINA AVENUE", "city": "CHILLIWACK", "province": "BC", "country": "CA", "postalCode": "V2P1T3", "twitter": "None", "instagram": "None", "facebook": "None", "youtube": "None", "website": "None", "summary": "None", "logo": "None", "latitude": 49.16956494644807, "longitude": -121.95742495377698}, "831791736RR0001": {"name": "Meadowridge Education Foundation", "designationCode": "A", "categoryCode": "03", "address": "2900-550 BURRARD STREET", "city": "VANCOUVER", "province": "BC", "country": "CA", "postalCode": "V6C0A3", "twitter": "None", "instagram": "None", "facebook": "None", "youtube": "None", "website": "None", "summary": "None", "logo": "None", "latitude": 49.28596391921073, "longitude": -123.11870289255033}, "787026483RR0001": {"name": "Meals on Wheels Grand Falls-Windsor NL Inc.", "designationCode": "C", "categoryCode": "09", "address": "5 HIGH STREET                 BOX 439", "city": "GRAND FALLS-WINDSOR", "province": "NL", "country": "CA", "postalCode": "A2A2J8", "twitter": "None", "instagram": "None", "facebook": "None", "youtube": "None", "website": "None", "summary": "None", "logo": "None", "latitude": 48.92789844053284, "longitude": -55.6590250284622}, "764657490RR0001": {"name": "Meals For Moms Society", "designationCode": "C", "categoryCode": "09", "address": "10 ROSS VIEW CRT SE", "city": "MEDICINE HAT", "province": "AB", "country": "CA", "postalCode": "T1B3B1", "twitter": "None", "instagram": "None", "facebook": "None", "youtube": "None", "website": "None", "summary": "None", "logo": "None", "latitude": 50.002789693317524, "longitude": -110.6243873084715}, "819044769RR0001": {"name": "Mealshare Aid Foundation", "designationCode": "A", "categoryCode": "03", "address": "250 - 1319 EDMONTON TRAIL NE", "city": "CALGARY", "province": "AB", "country": "CA", "postalCode": "T2E4Y8", "twitter": "None", "instagram": "None", "facebook": "None", "youtube": "None", "website": "None", "summary": "None", "logo": "None", "latitude": 51.06406307216227, "longitude": -114.05635558257829}, "884740713RR0001": {"name": "Meander Cemetery Society", "designationCode": "C", "categoryCode": "59", "address": "35 BROOK STREET               RR1", "city": "ELLERSHOUSE", "province": "NS", "country": "CA", "postalCode": "B0N1L0", "twitter": "None", "instagram": "None", "facebook": "None", "youtube": "None", "website": "None", "summary": "None", "logo": "None", "latitude": 44.96224965277867, "longitude": -63.98909006771887}, "816846505RR0001": {"name": "Medair Canada", "designationCode": "C", "categoryCode": "09", "address": "50 FIRELANE 11A RD", "city": "NIAGARA ON THE LAKE", "province": "ON", "country": "CA", "postalCode": "L0S1J0", "twitter": "None", "instagram": "None", "facebook": "None", "youtube": "None", "website": "None", "summary": "None", "logo": "None", "latitude": 43.24271156869982, "longitude": -79.16255678296493}, "890255243RR0001": {"name": "Media Action Media", "designationCode": "C", "categoryCode": "21", "address": "864 PLANTE DRIVE", "city": "OTTAWA", "province": "ON", "country": "CA", "postalCode": "K1V9E2", "twitter": "None", "instagram": "None", "facebook": "None", "youtube": "None", "website": "None", "summary": "None", "logo": "None", "latitude": 45.35558575714124, "longitude": -75.67040783579573}, "816048078RR0001": {"name": "Media Arts Community Centre and Museum", "designationCode": "C", "categoryCode": "53", "address": "2055 VIMY STREET", "city": "WINDSOR", "province": "ON", "country": "CA", "postalCode": "N8W1P2", "twitter": "None", "instagram": "None", "facebook": "None", "youtube": "None", "website": "None", "summary": "None", "logo": "None", "latitude": 42.29867139604143, "longitude": -82.99528128322473}, "895554947RR0001": {"name": "Medical Ministry International Canada", "designationCode": "C", "categoryCode": "19", "address": "P O BOX 56086", "city": "STONEY CREEK", "province": "ON", "country": "CA", "postalCode": "L8G5C9", "twitter": "None", "instagram": "None", "facebook": "None", "youtube": "None", "website": "None", "summary": "None", "logo": "None", "latitude": 43.20879000000005, "longitude": -79.65669049999994}, "808718829RR0001": {"name": "Medical Mission International Inc.", "designationCode": "B", "categoryCode": "11", "address": "27 SAINT PETERS CRT", "city": "SAINT JOHN", "province": "NB", "country": "CA", "postalCode": "E2K5N4", "twitter": "None", "instagram": "None", "facebook": "None", "youtube": "None", "website": "None", "summary": "None", "logo": "None", "latitude": 45.27715532445608, "longitude": -66.07415759132085}, "819658568RR0001": {"name": "Medical Physics for World Benefit Canada", "designationCode": "C", "categoryCode": "11", "address": "202 - 300 MARCH RD", "city": "KANATA", "province": "ON", "country": "CA", "postalCode": "K2K2E2", "twitter": "None", "instagram": "None", "facebook": "None", "youtube": "None", "website": "None", "summary": "None", "logo": "None", "latitude": 45.33503610998849, "longitude": -75.90681120572502}, "836229658RR0001": {"name": "Medicine Hat & District Germans from Russia Society", "designationCode": "C", "categoryCode": "52", "address": "201 WOODMAN AVE SE", "city": "MEDICINE HAT", "province": "AB", "country": "CA", "postalCode": "T1A3H2", "twitter": "None", "instagram": "None", "facebook": "None", "youtube": "None", "website": "None", "summary": "None", "logo": "None", "latitude": 50.04467966472387, "longitude": -110.66191923007682}, "808753289RR0001": {"name": "Medicine Hat Ecumenical Campus Ministry", "designationCode": "C", "categoryCode": "49", "address": "BOX 1012", "city": "MEDICINE HAT", "province": "AB", "country": "CA", "postalCode": "T1A7H1", "twitter": "None", "instagram": "None", "facebook": "None", "youtube": "None", "website": "None", "summary": "None", "logo": "None", "latitude": 50.04107700000006, "longitude": -110.67813349999993}, "827014978RR0001": {"name": "Medicine Hat Hope Street Compassionate Ministry Centre", "designationCode": "C", "categoryCode": "09", "address": "4072 STRACHAN ROAD SOUTHEAST", "city": "MEDICINE HAT", "province": "AB", "country": "CA", "postalCode": "T1B4Y3", "twitter": "None", "instagram": "None", "facebook": "None", "youtube": "None", "website": "None", "summary": "None", "logo": "None", "latitude": 49.992534000000006, "longitude": -110.64179077335699}, "861723435RR0001": {"name": "Medina Foundation", "designationCode": "C", "categoryCode": "21", "address": "2 LONGWOOD DR", "city": "TORONTO", "province": "ON", "country": "CA", "postalCode": "M3B1T7", "twitter": "None", "instagram": "None", "facebook": "None", "youtube": "None", "website": "None", "summary": "None", "logo": "None", "latitude": 43.74947126729746, "longitude": -79.35945817513989}, "822551859RR0001": {"name": "Medina Mosque Society of Edmonton", "designationCode": "C", "categoryCode": "60", "address": "12820-52 STREET", "city": "EDMONTON", "province": "AB", "country": "CA", "postalCode": "T5A0B6", "twitter": "None", "instagram": "None", "facebook": "None", "youtube": "None", "website": "None", "summary": "None", "logo": "None", "latitude": 53.58646917346644, "longitude": -113.42151821097555}, "849934013RR0001": {"name": "Medjugorje Centre of Canada", "designationCode": "C", "categoryCode": "49", "address": "360 HIGHWAY 7 EAST            LOWER LEVEL", "city": "RICHMOND HILL", "province": "ON", "country": "CA", "postalCode": "L4B3Y7", "twitter": "None", "instagram": "None", "facebook": "None", "youtube": "None", "website": "None", "summary": "None", "logo": "None"}, "824463046RR0001": {"name": "Medway Head Lighthouse Society", "designationCode": "C", "categoryCode": "52", "address": "PO BOX 161", "city": "PORT MEDWAY", "province": "NS", "country": "CA", "postalCode": "B0J2T0", "twitter": "None", "instagram": "None", "facebook": "None", "youtube": "None", "website": "None", "summary": "None", "logo": "None", "latitude": 44.12546902661936, "longitude": -64.61699659300588}, "857994610RR0001": {"name": "Medway River Salmon Association", "designationCode": "C", "categoryCode": "52", "address": "PO BOX 39", "city": "MILL VILLAGE", "province": "NS", "country": "CA", "postalCode": "B0J2H0", "twitter": "None", "instagram": "None", "facebook": "None", "youtube": "None", "website": "None", "summary": "None", "logo": "None", "latitude": 45.137638049306545, "longitude": -61.983356993065435}, "733917926RR0001": {"name": "Meeko Charitable Foundation", "designationCode": "B", "categoryCode": "03", "address": "201 BRIDGELAND AVE", "city": "NORTH YORK", "province": "ON", "country": "CA", "postalCode": "M6A1Y7", "twitter": "None", "instagram": "None", "facebook": "None", "youtube": "None", "website": "None", "summary": "None", "logo": "None", "latitude": 43.724679896445465, "longitude": -79.46720435899367}, "119288918RR1628": {"name": "Meewasin Valley Tagalog Congregation of Jehovah's Witnesses, Saskatoon, Saskatchewan", "designationCode": "C", "categoryCode": "61", "address": "816 QUEEN STREET", "city": "SASKATOON", "province": "SK", "country": "CA", "postalCode": "S7K0N1", "twitter": "None", "instagram": "None", "facebook": "None", "youtube": "None", "website": "None", "summary": "None", "logo": "None", "latitude": 52.1366394532574, "longitude": -106.649424}, "854913050RR0001": {"name": "Melanoma Network of Canada", "designationCode": "C", "categoryCode": "11", "address": "110 - 482 SOUTH SERVICE RD E", "city": "OAKVILLE", "province": "ON", "country": "CA", "postalCode": "L6J2X6", "twitter": "None", "instagram": "None", "facebook": "None", "youtube": "None", "website": "None", "summary": "None", "logo": "None", "latitude": 43.49259719187604, "longitude": -79.66884520009401}, "119288918RR0151": {"name": "Melfort Congregation of Jehovah's Witnesses, Melfort, Saskatchewan", "designationCode": "C", "categoryCode": "61", "address": "111 5TH STREET  PO BOX 201", "city": "STAR CITY", "province": "SK", "country": "CA", "postalCode": "S0E1P0", "twitter": "None", "instagram": "None", "facebook": "None", "youtube": "None", "website": "None", "summary": "None", "logo": "None", "latitude": 53.365804292255774, "longitude": -104.00410570148317}, "849298690RR0001": {"name": "Melita & Area Health Committee Inc.", "designationCode": "C", "categoryCode": "19", "address": "PO BOX 601", "city": "MELITA", "province": "MB", "country": "CA", "postalCode": "R0M1L0", "twitter": "None", "instagram": "None", "facebook": "None", "youtube": "None", "website": "None", "summary": "None", "logo": "None", "latitude": 49.26665000000003, "longitude": -100.96985999999998}, "842677627RR0001": {"name": "Melville & District Community Foundation Inc.", "designationCode": "A", "categoryCode": "03", "address": "P.O. BOX 472                  77A HALIFAX ST.", "city": "MELVILLE", "province": "SK", "country": "CA", "postalCode": "S0A2P0", "twitter": "None", "instagram": "None", "facebook": "None", "youtube": "None", "website": "None", "summary": "None", "logo": "None", "latitude": 50.93860333863256, "longitude": -102.79721208601573}, "835792862RR0001": {"name": "Melville Cemetery Co.", "designationCode": "C", "categoryCode": "59", "address": "PO BOX 23", "city": "KELSEY", "province": "AB", "country": "CA", "postalCode": "T0B2K0", "twitter": "None", "instagram": "None", "facebook": "None", "youtube": "None", "website": "None", "summary": "None", "logo": "None", "latitude": 52.84614000000005, "longitude": -112.54805999999996}, "119288918RR0153": {"name": "Melville Congregation of Jehovah's Witnesses, Melville, Saskatchewan", "designationCode": "C", "categoryCode": "61", "address": "702 8 AVE W                   POST OFFICE BOX 212", "city": "MELVILLE", "province": "SK", "country": "CA", "postalCode": "S0A2P0", "twitter": "None", "instagram": "None", "facebook": "None", "youtube": "None", "website": "None", "summary": "None", "logo": "None", "latitude": 50.93673412438252, "longitude": -102.81654593892587}, "861109973RR0001": {"name": "Melville Rail Station Heritage Association Inc.", "designationCode": "C", "categoryCode": "50", "address": "420 MAIN STREET               POST OFFICE BOX 3419", "city": "MELVILLE", "province": "SK", "country": "CA", "postalCode": "S0A2P0", "twitter": "None", "instagram": "None", "facebook": "None", "youtube": "None", "website": "None", "summary": "None", "logo": "None", "latitude": 50.929814550746144, "longitude": -102.80484028484003}, "118894690RR0001": {"name": "Melville United Church", "designationCode": "C", "categoryCode": "44", "address": "P.O. BOX 279                  99 VICTORIA ST", "city": "EGANVILLE", "province": "ON", "country": "CA", "postalCode": "K0J1T0", "twitter": "None", "instagram": "None", "facebook": "None", "youtube": "None", "website": "None", "summary": "None", "logo": "None", "latitude": 45.5409323308614, "longitude": -77.0996215234291}, "888183811RR0001": {"name": "Members, Church of God International in Toronto", "designationCode": "C", "categoryCode": "39", "address": "PO BOX 20014", "city": "NORTH YORK", "province": "ON", "country": "CA", "postalCode": "M6L3C8", "twitter": "None", "instagram": "None", "facebook": "None", "youtube": "None", "website": "None", "summary": "None", "logo": "None", "latitude": 43.71413100000005, "longitude": -79.48865149999993}, "858553415RR0001": {"name": "Memory Artist of Manitoba Inc.", "designationCode": "C", "categoryCode": "09", "address": "64 BALMORAL ST", "city": "WINNIPEG", "province": "MB", "country": "CA", "postalCode": "R3C1X4", "twitter": "None", "instagram": "None", "facebook": "None", "youtube": "None", "website": "None", "summary": "None", "logo": "None", "latitude": 49.8836536552888, "longitude": -97.15291575315919}, "119130656RR0001": {"name": "Memory Lane Family Place Association", "designationCode": "C", "categoryCode": "01", "address": "22 MEMORY LANE", "city": "LOWER SACKVILLE", "province": "NS", "country": "CA", "postalCode": "B4C2J3", "twitter": "None", "instagram": "None", "facebook": "None", "youtube": "None", "website": "None", "summary": "None", "logo": "None", "latitude": 44.75264274161801, "longitude": -63.66328620286815}, "845709666RR0001": {"name": "Men and Women of Faith Miracle Ministries (MWFMM)", "designationCode": "C", "categoryCode": "39", "address": "4 - 1312 BRITANNIA RD E", "city": "MISSISSAUGA", "province": "ON", "country": "CA", "postalCode": "L4W1C8", "twitter": "None", "instagram": "None", "facebook": "None", "youtube": "None", "website": "None", "summary": "None", "logo": "None", "latitude": 43.65195169603172, "longitude": -79.65127427150595}, "811978832RR0001": {"name": "Men of Valor and Prayer Ministry Inc.", "designationCode": "C", "categoryCode": "49", "address": "210 CARR LANE", "city": "SASKATOON", "province": "SK", "country": "CA", "postalCode": "S7S1M3", "twitter": "None", "instagram": "None", "facebook": "None", "youtube": "None", "website": "None", "summary": "None", "logo": "None", "latitude": 52.16723295002607, "longitude": -106.58691806422776}, "898216973RR0001": {"name": "Menaka Thakkar Dance Company of Canada", "designationCode": "C", "categoryCode": "22", "address": "1-11 GLEN CAMERON RD", "city": "THORNEHILL", "province": "ON", "country": "CA", "postalCode": "L3T4N3", "twitter": "None", "instagram": "None", "facebook": "None", "youtube": "None", "website": "None", "summary": "None", "logo": "None", "latitude": 43.80589083758475, "longitude": -79.4193874644528}, "802570903RR0001": {"name": "Meningitis Relief Canada (MRC)", "designationCode": "C", "categoryCode": "11", "address": "266 THORNDALE ROAD", "city": "BRAMPTON", "province": "ON", "country": "CA", "postalCode": "L6P3H2", "twitter": "None", "instagram": "None", "facebook": "None", "youtube": "None", "website": "None", "summary": "None", "logo": "None", "latitude": 43.78881742602005, "longitude": -79.67988857412418}, "107690927RR0001": {"name": "Mennonite Central Committee (MCC) British Columbia", "designationCode": "C", "categoryCode": "09", "address": "201 - 33933 GLADYS AVE", "city": "ABBOTSFORD", "province": "BC", "country": "CA", "postalCode": "V2S2E8", "twitter": "None", "instagram": "None", "facebook": "None", "youtube": "None", "website": "None", "summary": "None", "logo": "None", "latitude": 49.04356060930939, "longitude": -122.27938373462273}}