{"889807376RR0001": {"name": "CANADIAN FRIENDS OF THE ISRAEL COLLEGE OF TECHNOLOGY FOR WOMEN", "designationCode": "C", "categoryCode": "21", "address": "10 GREEN BUSH CRESCENT", "city": "THORNHILL", "province": "ON", "country": "CA", "postalCode": "L4J5K9", "twitter": "None", "instagram": "None", "facebook": "None", "youtube": "None", "website": "None", "summary": "None", "logo": "None", "latitude": 43.80295309325411, "longitude": -79.43249528417701}, "870517703RR0001": {"name": "CANADIAN FRIENDS OF THE ISRAEL GUIDE DOG CENTER FOR THE BLIND", "designationCode": "C", "categoryCode": "54", "address": "4600 BATHURST ST              4TH FLOOR LIBRARY", "city": "NORTH YORK", "province": "ON", "country": "CA", "postalCode": "M2R3V2", "twitter": "None", "instagram": "None", "facebook": "None", "youtube": "None", "website": "None", "summary": "None", "logo": "None", "latitude": 43.764559930607746, "longitude": -79.44070004832909}, "892378241RR0001": {"name": "CANADIAN FRIENDS OF THE ISRAEL MUSEUM", "designationCode": "C", "categoryCode": "50", "address": "300 SHEPPARD AVE. WEST, #200", "city": "TORONTO", "province": "ON", "country": "CA", "postalCode": "M2N1N5", "twitter": "None", "instagram": "None", "facebook": "None", "youtube": "None", "website": "None", "summary": "None", "logo": "None", "latitude": 43.758320132407974, "longitude": -79.42540898058161}, "890958549RR0001": {"name": "CANADIAN FRIENDS OF THE ISRAEL NAUTICAL COLLEGE", "designationCode": "C", "categoryCode": "21", "address": "38 SENECA HILL DRIVE", "city": "NORTH YORK", "province": "ON", "country": "CA", "postalCode": "M2J2W4", "twitter": "None", "instagram": "None", "facebook": "None", "youtube": "None", "website": "None", "summary": "None", "logo": "None", "latitude": 43.787178209821725, "longitude": -79.36330399252682}, "863333118RR0001": {"name": "CANADIAN FRIENDS OF THE JAFFA INSTITUTE", "designationCode": "C", "categoryCode": "09", "address": "94010 - 3409 YONGE ST", "city": "TORONTO", "province": "ON", "country": "CA", "postalCode": "M4N2M8", "twitter": "None", "instagram": "None", "facebook": "None", "youtube": "None", "website": "None", "summary": "None", "logo": "None", "latitude": 43.73267818013155, "longitude": -79.40414816483944}, "886135193RR0001": {"name": "CANADIAN FRIENDS OF THE JEWISH INSTITUTE FOR THE BLIND, JERUSALEM", "designationCode": "C", "categoryCode": "11", "address": "79 SHOREHAM AVENUE NORTH", "city": "OTTAWA", "province": "ON", "country": "CA", "postalCode": "K2G3X3", "twitter": "None", "instagram": "None", "facebook": "None", "youtube": "None", "website": "None", "summary": "None", "logo": "None", "latitude": 45.328816027468456, "longitude": -75.77786214637335}, "840111546RR0001": {"name": "CANADIAN FRIENDS OF THE KOBY MANDELL FOUNDATION", "designationCode": "C", "categoryCode": "09", "address": "1201 - 1 ST CLAIR AVE W", "city": "TORONTO", "province": "ON", "country": "CA", "postalCode": "M4V1K6", "twitter": "None", "instagram": "None", "facebook": "None", "youtube": "None", "website": "None", "summary": "None", "logo": "None", "latitude": 43.68788710460182, "longitude": -79.39487415272116}, "889138061RR0001": {"name": "CANADIAN FRIENDS OF THE MENACHEM BEGIN HERITAGE FOUNDATION", "designationCode": "C", "categoryCode": "21", "address": "601 - 1 YORKDALE RD.", "city": "NORTH YORK", "province": "ON", "country": "CA", "postalCode": "M6A3A1", "twitter": "None", "instagram": "None", "facebook": "None", "youtube": "None", "website": "None", "summary": "None", "logo": "None", "latitude": 43.72732424740376, "longitude": -79.44924702962736}, "118832468RR0001": {"name": "CANADIAN FRIENDS OF THE MILTON EISNER YESHIVA OF SCRANTON PENNSYLVANIA", "designationCode": "C", "categoryCode": "21", "address": "675 COLDSTREAM AVE", "city": "NORTH YORK", "province": "ON", "country": "CA", "postalCode": "M6B2L6", "twitter": "None", "instagram": "None", "facebook": "None", "youtube": "None", "website": "None", "summary": "None", "logo": "None", "latitude": 43.71181885316531, "longitude": -79.4436076470945}, "887099992RR0001": {"name": "CANADIAN FRIENDS OF THE SHALOM HARTMAN INSTITUTE/AMIS CANADIENS DE L'INSTITUT SHALOM HARTMAN", "designationCode": "C", "categoryCode": "49", "address": "8888 BOUL.PIE 1X", "city": "MONTREAL", "province": "QC", "country": "CA", "postalCode": "H1Z4J5", "twitter": "None", "instagram": "None", "facebook": "None", "youtube": "None", "website": "None", "summary": "None", "logo": "None", "latitude": 45.57737571299571, "longitude": -73.61618156760329}, "889167896RR0001": {"name": "CANADIAN FRIENDS OF THE SHUL OF BAL HARBOUR", "designationCode": "C", "categoryCode": "42", "address": "79 DANA CRES", "city": "THORNHILL", "province": "ON", "country": "CA", "postalCode": "L4J3H9", "twitter": "None", "instagram": "None", "facebook": "None", "youtube": "None", "website": "None", "summary": "None", "logo": "None", "latitude": 43.801050867592025, "longitude": -79.44569751220502}, "887798668RR0001": {"name": "CANADIAN FRIENDS OF THE UNIVERSITY OF ZAGREB (TORONTO)", "designationCode": "C", "categoryCode": "21", "address": "109-49386 YONGE STREET", "city": "TORONTO", "province": "ON", "country": "CA", "postalCode": "M2N6S3", "twitter": "None", "instagram": "None", "facebook": "None", "youtube": "None", "website": "None", "summary": "None", "logo": "None", "latitude": 43.768864197882486, "longitude": -79.41278054947061}, "863679049RR0001": {"name": "CANADIAN FRIENDS OF THE WESTERN WALL HERITAGE FOUNDATION INC.", "designationCode": "C", "categoryCode": "49", "address": "210 SHIELDS COURT", "city": "MARKHAM", "province": "ON", "country": "CA", "postalCode": "L3R8V2", "twitter": "None", "instagram": "None", "facebook": "None", "youtube": "None", "website": "None", "summary": "None", "logo": "None", "latitude": 43.83314761143172, "longitude": -79.36319854195251}, "860512813RR0001": {"name": "CANADIAN FRIENDS OF THE WISCONSIN INSTITUTE FOR TORAH STUDY", "designationCode": "C", "categoryCode": "21", "address": "970 LAWRENCE AVENUE WEST      SUITE 904", "city": "TORONTO", "province": "ON", "country": "CA", "postalCode": "M6A3B6", "twitter": "None", "instagram": "None", "facebook": "None", "youtube": "None", "website": "None", "summary": "None", "logo": "None", "latitude": 43.713414238444024, "longitude": -79.45809593770547}, "118832500RR0001": {"name": "CANADIAN FRIENDS OF THE WORLD UNION FOR PROGRESSIVE JUDAISM AMIS CAN DE LUNION MOND JUDAI", "designationCode": "C", "categoryCode": "21", "address": "3845 BATHURST STREET          SUITE 301", "city": "TORONTO", "province": "ON", "country": "CA", "postalCode": "M3H3N2", "twitter": "None", "instagram": "None", "facebook": "None", "youtube": "None", "website": "None", "summary": "None", "logo": "None", "latitude": 43.74047087039064, "longitude": -79.43473796055765}, "890431570RR0001": {"name": "CANADIAN FRIENDS OF THE YESHIVA TORAS CHAIM SOCIETY", "designationCode": "C", "categoryCode": "21", "address": "98 CARIBOU RD", "city": "NORTH YORK", "province": "ON", "country": "CA", "postalCode": "M5N2A9", "twitter": "None", "instagram": "None", "facebook": "None", "youtube": "None", "website": "None", "summary": "None", "logo": "None", "latitude": 43.71965524176225, "longitude": -79.42106775895891}, "893481283RR0001": {"name": "CANADIAN FRIENDS OF THE ZION ORPHANAGE AND EDUCATIONAL CENTRE", "designationCode": "C", "categoryCode": "01", "address": "144 SHELBORNE AVE.", "city": "TORONTO", "province": "ON", "country": "CA", "postalCode": "M6B2M6", "twitter": "None", "instagram": "None", "facebook": "None", "youtube": "None", "website": "None", "summary": "None", "logo": "None", "latitude": 43.715505183478435, "longitude": -79.43116898058162}, "118832534RR0001": {"name": "CANADIAN FRIENDS OF TOLDOS AHARON", "designationCode": "C", "categoryCode": "21", "address": "6069 RUE HUTCHISON", "city": "MONTREAL", "province": "QC", "country": "CA", "postalCode": "H2V4B7", "twitter": "None", "instagram": "None", "facebook": "None", "youtube": "None", "website": "None", "summary": "None", "logo": "None", "latitude": 45.524519275895805, "longitude": -73.60959046904041}, "873813018RR0001": {"name": "CANADIAN FRIENDS OF TOLDOS TZVI", "designationCode": "C", "categoryCode": "21", "address": "459 OUTREMONT AVENUE", "city": "OUTREMONT", "province": "QC", "country": "CA", "postalCode": "H2V3M4", "twitter": "None", "instagram": "None", "facebook": "None", "youtube": "None", "website": "None", "summary": "None", "logo": "None", "latitude": 45.51818530864438, "longitude": -73.60702891075661}, "118832542RR0001": {"name": "CANADIAN FRIENDS OF TOMCHE DALIM", "designationCode": "C", "categoryCode": "21", "address": "384 BERNARD O", "city": "MONTREAL", "province": "QC", "country": "CA", "postalCode": "H2V1T7", "twitter": "None", "instagram": "None", "facebook": "None", "youtube": "None", "website": "None", "summary": "None", "logo": "None", "latitude": 45.52310217040802, "longitude": -73.6059900710371}, "118832559RR0001": {"name": "CANADIAN FRIENDS OF TORAH ACADEMY", "designationCode": "C", "categoryCode": "21", "address": "2430 GOYER", "city": "MONTREAL", "province": "QC", "country": "CA", "postalCode": "H3S1G9", "twitter": "None", "instagram": "None", "facebook": "None", "youtube": "None", "website": "None", "summary": "None", "logo": "None", "latitude": 45.51324348291888, "longitude": -73.6272921130765}, "118832583RR0001": {"name": "CANADIAN FRIENDS OF TZEDAKAH MEIR BAAL HANESS OF JERUSALEM", "designationCode": "C", "categoryCode": "21", "address": "3625 DUFFERIN STREET          SUITE 503", "city": "TORONTO", "province": "ON", "country": "CA", "postalCode": "M3K1N4", "twitter": "None", "instagram": "None", "facebook": "None", "youtube": "None", "website": "None", "summary": "None", "logo": "None", "latitude": 43.73100228365742, "longitude": -79.458586237954}, "863989752RR0001": {"name": "CANADIAN FRIENDS OF U.T.A. MESIVTA OF KIRYAS JOEL", "designationCode": "C", "categoryCode": "21", "address": "2005 - 5000 RUE BUCHAN", "city": "MONTREAL", "province": "QC", "country": "CA", "postalCode": "H4P1T2", "twitter": "None", "instagram": "None", "facebook": "None", "youtube": "None", "website": "None", "summary": "None", "logo": "None", "latitude": 45.49793261945316, "longitude": -73.65084922424843}, "893041764RR0001": {"name": "CANADIAN FRIENDS OF UNITED WIZNITZ INSTITUTIONS IN ISRAEL", "designationCode": "C", "categoryCode": "21", "address": "5595 RUE HUTCHISON            ATTENTION RABBI B.TABOK", "city": "MONTREAL", "province": "QC", "country": "CA", "postalCode": "H2V4B6", "twitter": "None", "instagram": "None", "facebook": "None", "youtube": "None", "website": "None", "summary": "None", "logo": "None", "latitude": 45.521923315857755, "longitude": -73.60360246182707}, "828608125RR0001": {"name": "CANADIAN FRIENDS OF VAAD HARABBANIM", "designationCode": "C", "categoryCode": "09", "address": "5831 ESPLANADE", "city": "MONTREAL", "province": "QC", "country": "CA", "postalCode": "H2T3A2", "twitter": "None", "instagram": "None", "facebook": "None", "youtube": "None", "website": "None", "summary": "None", "logo": "None", "latitude": 45.5252531482197, "longitude": -73.6048879844481}, "872608203RR0001": {"name": "CANADIAN FRIENDS OF VIETNAM", "designationCode": "C", "categoryCode": "09", "address": "1301 - 1405 SPRINGHILL DR", "city": "KAMLOOPS", "province": "BC", "country": "CA", "postalCode": "V2C0B4", "twitter": "None", "instagram": "None", "facebook": "None", "youtube": "None", "website": "None", "summary": "None", "logo": "None", "latitude": 50.660196000000056, "longitude": -120.34594249999994}, "889966867RR0001": {"name": "CANADIAN FRIENDS OF YAD ELIEZER", "designationCode": "C", "categoryCode": "09", "address": "1943 CLINTON AVE", "city": "MONTREAL", "province": "QC", "country": "CA", "postalCode": "H3S1L2", "twitter": "None", "instagram": "None", "facebook": "None", "youtube": "None", "website": "None", "summary": "None", "logo": "None", "latitude": 45.513972198453395, "longitude": -73.62405055831246}, "118832625RR0001": {"name": "CANADIAN FRIENDS OF YAD LACHIM ORGANIZATION", "designationCode": "C", "categoryCode": "21", "address": "2550 BATES ROAD SUITE 301", "city": "MONTREAL", "province": "QC", "country": "CA", "postalCode": "H3S1A7", "twitter": "None", "instagram": "None", "facebook": "None", "youtube": "None", "website": "None", "summary": "None", "logo": "None", "latitude": 45.51378240354327, "longitude": -73.63086673186582}, "888186442RR0001": {"name": "CANADIAN FRIENDS OF YAD SARAH", "designationCode": "C", "categoryCode": "11", "address": "201 BRIDGELAND AVE", "city": "TORONTO", "province": "ON", "country": "CA", "postalCode": "M6A1Y7", "twitter": "None", "instagram": "None", "facebook": "None", "youtube": "None", "website": "None", "summary": "None", "logo": "None", "latitude": 43.724679896445465, "longitude": -79.46720435899367}, "118832633RR0001": {"name": "CANADIAN FRIENDS OF YESHIVA AIX-LES-BAINS", "designationCode": "C", "categoryCode": "21", "address": "12 MIDVALE ROAD", "city": "TORONTO", "province": "ON", "country": "CA", "postalCode": "M3H3H9", "twitter": "None", "instagram": "None", "facebook": "None", "youtube": "None", "website": "None", "summary": "None", "logo": "None", "latitude": 43.74577001664842, "longitude": -79.44374574106973}, "891209546RR0001": {"name": "CANADIAN FRIENDS OF YESHIVA BETH HILLEL BNAI BRAK", "designationCode": "C", "categoryCode": "21", "address": "493 GLENGARRY", "city": "TORONTO", "province": "ON", "country": "CA", "postalCode": "M5M1E9", "twitter": "None", "instagram": "None", "facebook": "None", "youtube": "None", "website": "None", "summary": "None", "logo": "None", "latitude": 43.72076080930823, "longitude": -79.42626676366211}, "892362369RR0001": {"name": "CANADIAN FRIENDS OF YESHIVA LOMZA", "designationCode": "C", "categoryCode": "21", "address": "469 COLDSTREAM", "city": "TORONTO", "province": "ON", "country": "CA", "postalCode": "M5N1Y6", "twitter": "None", "instagram": "None", "facebook": "None", "youtube": "None", "website": "None", "summary": "None", "logo": "None", "latitude": 43.715622699953954, "longitude": -79.42638812738765}, "890804198RR0001": {"name": "CANADIAN FRIENDS OF YESHIVA YACHEL ISRAEL", "designationCode": "C", "categoryCode": "09", "address": "SUITE 205-5796 FERRIER", "city": "MONTREAL", "province": "QC", "country": "CA", "postalCode": "H4P1H7", "twitter": "None", "instagram": "None", "facebook": "None", "youtube": "None", "website": "None", "summary": "None", "logo": "None", "latitude": 45.488109856223716, "longitude": -73.66918117678466}, "889243465RR0001": {"name": "CANADIAN FRIENDS OF YESHIVAS BIALASTOCK", "designationCode": "C", "categoryCode": "50", "address": "83 BANNOCKBURN AVENUE", "city": "TORONTO", "province": "ON", "country": "CA", "postalCode": "M5M2M9", "twitter": "None", "instagram": "None", "facebook": "None", "youtube": "None", "website": "None", "summary": "None", "logo": "None", "latitude": 43.732482853165294, "longitude": -79.42684587010218}, "890000664RR0001": {"name": "CANADIAN FRIENDS OF YESHIVAS NOVOMINSK", "designationCode": "C", "categoryCode": "21", "address": "128 DELL PARK AVE", "city": "TORONTO", "province": "ON", "country": "CA", "postalCode": "M6B2V1", "twitter": "None", "instagram": "None", "facebook": "None", "youtube": "None", "website": "None", "summary": "None", "logo": "None", "latitude": 43.71537717236992, "longitude": -79.44029887844071}, "106846512RR0001": {"name": "CANADIAN FRIENDS OF YESHIVAT AISH HATORAH", "designationCode": "C", "categoryCode": "21", "address": "949 CLARK AVENUE WEST", "city": "THORNHILL", "province": "ON", "country": "CA", "postalCode": "L4J8G6", "twitter": "None", "instagram": "None", "facebook": "None", "youtube": "None", "website": "None", "summary": "None", "logo": "None", "latitude": 43.80229083758474, "longitude": -79.45418604827184}, "118832732RR0001": {"name": "CANADIAN FRIENDS OF YESHIVAT HAR ETZION / LES AMIS CANADIENS YESHIVAT HAR ETZION", "designationCode": "C", "categoryCode": "21", "address": "4480 CH.DE LA C\u00d4TE DE LIESSE  SUITE 207", "city": "MONT ROYAL", "province": "QC", "country": "CA", "postalCode": "H4N2R1", "twitter": "None", "instagram": "None", "facebook": "None", "youtube": "None", "website": "None", "summary": "None", "logo": "None", "latitude": 45.50458636274458, "longitude": -73.66451676876935}, "118832773RR0001": {"name": "CANADIAN FRIENDS OF YESHIVAT WIZNITZ OF BNEI BRAQ", "designationCode": "C", "categoryCode": "21", "address": "6137 RUE JEANNE-MANCE", "city": "MONTREAL", "province": "QC", "country": "CA", "postalCode": "H2V4K9", "twitter": "None", "instagram": "None", "facebook": "None", "youtube": "None", "website": "None", "summary": "None", "logo": "None", "latitude": 45.52637619929013, "longitude": -73.60924160101571}, "118832740RR0001": {"name": "CANADIAN FRIENDS OF YESHIVATH BETH ABRAHAM JERUSALEM", "designationCode": "C", "categoryCode": "21", "address": "117 BARSE STREET", "city": "TORONTO", "province": "ON", "country": "CA", "postalCode": "M5M4L3", "twitter": "None", "instagram": "None", "facebook": "None", "youtube": "None", "website": "None", "summary": "None", "logo": "None", "latitude": 43.72956591923939, "longitude": -79.43063744959339}, "123355398RR0001": {"name": "CANADIAN FRIENDS OF YESHIVATH BIRKAT MOSHE-MAALEH ADUMIM LES AMIS CANADIENS YESHIVATH BIRKAT MOSHE-MALLEH ADUMIM", "designationCode": "C", "categoryCode": "21", "address": "207-4480, CH. C\u00d4TE-DE-LIESSE", "city": "MONT-ROYAL", "province": "QC", "country": "CA", "postalCode": "H4N2R1", "twitter": "None", "instagram": "None", "facebook": "None", "youtube": "None", "website": "None", "summary": "None", "logo": "None", "latitude": 45.50458636274458, "longitude": -73.66451676876935}, "118832765RR0001": {"name": "CANADIAN FRIENDS OF YESHIVATH MEOR HATALMUD", "designationCode": "C", "categoryCode": "21", "address": "201 BRIDGELAND AVE", "city": "TORONTO", "province": "ON", "country": "CA", "postalCode": "M6A1Y7", "twitter": "None", "instagram": "None", "facebook": "None", "youtube": "None", "website": "None", "summary": "None", "logo": "None", "latitude": 43.724679896445465, "longitude": -79.46720435899367}, "898024708RR0001": {"name": "CANADIAN FRIENDS OF YESHIVATH SHEARITH HAPLETAH", "designationCode": "C", "categoryCode": "21", "address": "6100 DUROCHER AVENUE", "city": "MONTREAL", "province": "QC", "country": "CA", "postalCode": "H2V3Y6", "twitter": "None", "instagram": "None", "facebook": "None", "youtube": "None", "website": "None", "summary": "None", "logo": "None", "latitude": 45.52364674963943, "longitude": -73.60984347267576}, "890441579RR0001": {"name": "CANADIAN FRIENDS OF YETEV LEV", "designationCode": "C", "categoryCode": "21", "address": "5555 HUTCHISON", "city": "MONTREAL", "province": "QC", "country": "CA", "postalCode": "H2V2B5", "twitter": "None", "instagram": "None", "facebook": "None", "youtube": "None", "website": "None", "summary": "None", "logo": "None", "latitude": 45.52164325757394, "longitude": -73.60297246182706}, "889340469RR0001": {"name": "CANADIAN FRIENDS OF ZEFAT", "designationCode": "C", "categoryCode": "21", "address": "6300 WESTBURY AVE", "city": "MONTREAL", "province": "QC", "country": "CA", "postalCode": "H3W2X3", "twitter": "None", "instagram": "None", "facebook": "None", "youtube": "None", "website": "None", "summary": "None", "logo": "None", "latitude": 45.49201979681472, "longitude": -73.64197395394987}, "118832823RR0001": {"name": "CANADIAN FRIENDS OF ZICHRON MOSHE", "designationCode": "C", "categoryCode": "21", "address": "65 BEVSHIRE CIRCLE", "city": "THORNHILL", "province": "ON", "country": "CA", "postalCode": "L4J5C6", "twitter": "None", "instagram": "None", "facebook": "None", "youtube": "None", "website": "None", "summary": "None", "logo": "None", "latitude": 43.804757663310234, "longitude": -79.44425952386177}, "132146549RR0001": {"name": "CANADIAN FRIENDS SERVICE COMMITTEE", "designationCode": "C", "categoryCode": "09", "address": "60 LOWTHER AVENUE", "city": "TORONTO", "province": "ON", "country": "CA", "postalCode": "M5R1C7", "twitter": "None", "instagram": "None", "facebook": "None", "youtube": "None", "website": "None", "summary": "None", "logo": "None", "latitude": 43.67028511798125, "longitude": -79.3985961154711}, "886363597RR0001": {"name": "CANADIAN FRIENDS TO WEST INDIAN CHRISTIANS (ONTARIO)", "designationCode": "C", "categoryCode": "47", "address": "173 GARRARD RD", "city": "WHITBY", "province": "ON", "country": "CA", "postalCode": "L1N3K7", "twitter": "None", "instagram": "None", "facebook": "None", "youtube": "None", "website": "None", "summary": "None", "logo": "None", "latitude": 43.900139304201, "longitude": -78.90798935659909}, "888747391RR0001": {"name": "CANADIAN GENERAL DISTRICT OF THE CHURCH OF GOD SEVENTH DAY ACME CONGREGATION,", "designationCode": "C", "categoryCode": "39", "address": "BOX 579", "city": "ACME", "province": "AB", "country": "CA", "postalCode": "T0M0A0", "twitter": "None", "instagram": "None", "facebook": "None", "youtube": "None", "website": "None", "summary": "None", "logo": "None", "latitude": 51.49533000000008, "longitude": -113.50818999999996}, "118832898RR0001": {"name": "CANADIAN GEOLOGICAL FOUNDATION", "designationCode": "C", "categoryCode": "23", "address": "1822 WEST 2ND AVENUE", "city": "VANCOUVER", "province": "BC", "country": "CA", "postalCode": "V6J1H9", "twitter": "None", "instagram": "None", "facebook": "None", "youtube": "None", "website": "None", "summary": "None", "logo": "None", "latitude": 49.26975953952927, "longitude": -123.14613438634657}, "879827913RR0001": {"name": "CANADIAN GLOBAL AFFAIRS INSTITUTE / INSTITUT CANADIEN DES AFFAIRES MONDIALES", "designationCode": "C", "categoryCode": "23", "address": "1800 - 421 7 AVE SW", "city": "CALGARY", "province": "AB", "country": "CA", "postalCode": "T2P4K9", "twitter": "None", "instagram": "None", "facebook": "None", "youtube": "None", "website": "None", "summary": "None", "logo": "None", "latitude": 51.04682342625144, "longitude": -114.07570373231476}, "888101128RR0001": {"name": "CANADIAN GOLDEN RETRIEVER ADOPTION SERVICE INC", "designationCode": "C", "categoryCode": "54", "address": "BOX 31026", "city": "BARRIE", "province": "ON", "country": "CA", "postalCode": "L4N0B3", "twitter": "None", "instagram": "None", "facebook": "None", "youtube": "None", "website": "None", "summary": "None", "logo": "None", "latitude": 44.38929300000005, "longitude": -79.68626449999994}, "118832922RR0001": {"name": "CANADIAN GOOD NEWS FELLOWSHIP OF TORONTO", "designationCode": "C", "categoryCode": "47", "address": "222 OLIVE AVE", "city": "NORTH YORK", "province": "ON", "country": "CA", "postalCode": "M2N4P6", "twitter": "None", "instagram": "None", "facebook": "None", "youtube": "None", "website": "None", "summary": "None", "logo": "None", "latitude": 43.782125132407984, "longitude": -79.39961595504639}, "100765114RR0001": {"name": "CANADIAN GOODWILL INDUSTRIES CORPORATION", "designationCode": "C", "categoryCode": "09", "address": "70 PRINCESS ST", "city": "WINNIPEG", "province": "MB", "country": "CA", "postalCode": "R3B1K2", "twitter": "None", "instagram": "None", "facebook": "None", "youtube": "None", "website": "None", "summary": "None", "logo": "None", "latitude": 49.89749684929883, "longitude": -97.14297031406873}, "886075597RR0001": {"name": "CANADIAN GOSPEL MINISTRIES", "designationCode": "C", "categoryCode": "39", "address": "11237-77TH AVENUE", "city": "EDMONTON", "province": "AB", "country": "CA", "postalCode": "T6G0L7", "twitter": "None", "instagram": "None", "facebook": "None", "youtube": "None", "website": "None", "summary": "None", "logo": "None", "latitude": 53.51317650678069, "longitude": -113.5217925}, "863670055RR0001": {"name": "CANADIAN GRAIN ELEVATOR DISCOVERY CENTRE", "designationCode": "C", "categoryCode": "50", "address": "P. O. BOX 1402", "city": "NANTON", "province": "AB", "country": "CA", "postalCode": "T0L1R0", "twitter": "None", "instagram": "None", "facebook": "None", "youtube": "None", "website": "None", "summary": "None", "logo": "None", "latitude": 50.448604499999995, "longitude": -113.84751825000001}, "106846819RR0001": {"name": "CANADIAN GUIDE DOGS FOR THE BLIND", "designationCode": "C", "categoryCode": "20", "address": "P.O. BOX 280                  4120 RIDEAU VALLEY DR N", "city": "MANOTICK ON", "province": "ON", "country": "CA", "postalCode": "K4M1A3", "twitter": "None", "instagram": "None", "facebook": "None", "youtube": "None", "website": "None", "summary": "None", "logo": "None", "latitude": 45.19992001226239, "longitude": -75.64663995383518}, "863051199RR0001": {"name": "CANADIAN GUIDE DOGS FOR THE BLIND FOUNDATION", "designationCode": "A", "categoryCode": "53", "address": "4120 RIDEAU VALLEY DRIVE NORTHP.O. BOX 280", "city": "MANOTICK", "province": "ON", "country": "CA", "postalCode": "K4M1A3", "twitter": "None", "instagram": "None", "facebook": "None", "youtube": "None", "website": "None", "summary": "None", "logo": "None", "latitude": 45.192858736849146, "longitude": -75.6405153900275}, "870500774RR0001": {"name": "CANADIAN HAIR RESEARCH FOUNDATION", "designationCode": "C", "categoryCode": "11", "address": "N567 - 650 41ST AVE W", "city": "VANCOUVER", "province": "BC", "country": "CA", "postalCode": "V5Z2M9", "twitter": "None", "instagram": "None", "facebook": "None", "youtube": "None", "website": "None", "summary": "None", "logo": "None", "latitude": 49.23354992498187, "longitude": -123.11711003664372}, "899810907RR0001": {"name": "CANADIAN HAND EMULATION RESEARCH ORGANIZATION", "designationCode": "C", "categoryCode": "21", "address": "155 EAST BEAVER CREEK ROAD    UNIT 36", "city": "RICHMOND HILL", "province": "ON", "country": "CA", "postalCode": "L4B2N1", "twitter": "None", "instagram": "None", "facebook": "None", "youtube": "None", "website": "None", "summary": "None", "logo": "None", "latitude": 43.8487974012159, "longitude": -79.37762219148871}, "131488017RR0001": {"name": "CANADIAN HARAMBEE EDUCATION SOCIETY", "designationCode": "C", "categoryCode": "21", "address": "102B-9030 KING GEORGE BLVD", "city": "SURREY", "province": "BC", "country": "CA", "postalCode": "V3V7Y3", "twitter": "None", "instagram": "None", "facebook": "None", "youtube": "None", "website": "None", "summary": "None", "logo": "None", "latitude": 49.16677486372555, "longitude": -122.84577047997604}, "889909396RR0001": {"name": "CANADIAN HARD OF HEARING ASSOCIATION - EDMONTON BRANCH", "designationCode": "C", "categoryCode": "11", "address": "52 - 9912 106 ST NW", "city": "EDMONTON", "province": "AB", "country": "CA", "postalCode": "T5K1C5", "twitter": "None", "instagram": "None", "facebook": "None", "youtube": "None", "website": "None", "summary": "None", "logo": "None", "latitude": 53.537733, "longitude": -113.50299724372412}, "119247088RR0001": {"name": "CANADIAN HARD OF HEARING ASSOCIATION - NEWFOUNDLAND AND LABRADOR INC.", "designationCode": "C", "categoryCode": "11", "address": "1081 TOPSAIL RD.", "city": "MOUNT PEARL", "province": "NL", "country": "CA", "postalCode": "A1N2M3", "twitter": "None", "instagram": "None", "facebook": "None", "youtube": "None", "website": "None", "summary": "None", "logo": "None", "latitude": 47.52621416843396, "longitude": -52.81584231151442}, "896723038RR0001": {"name": "CANADIAN HARD OF HEARING ASSOCIATION - NORTH SHORE BRANCH", "designationCode": "C", "categoryCode": "11", "address": "600 WEST QUEENS ROAD", "city": "NORTH VANCOUVER", "province": "BC", "country": "CA", "postalCode": "V7N2L3", "twitter": "None", "instagram": "None", "facebook": "None", "youtube": "None", "website": "None", "summary": "None", "logo": "None", "latitude": 49.33664766123687, "longitude": -123.08545116123688}, "892949447RR0001": {"name": "CANADIAN HARD OF HEARING ASSOCIATION - REGINA AND DISTRICT BRANCH INC.", "designationCode": "C", "categoryCode": "11", "address": "2343 BROAD STREET", "city": "REGINA", "province": "SK", "country": "CA", "postalCode": "S4P1Y9", "twitter": "None", "instagram": "None", "facebook": "None", "youtube": "None", "website": "None", "summary": "None", "logo": "None", "latitude": 50.44158928388646, "longitude": -104.60629472618453}, "888146867RR0001": {"name": "CANADIAN HARD OF HEARING ASSOCIATION NEW BRUNSWICK CHAPTER", "designationCode": "C", "categoryCode": "11", "address": "74 ALVIC PL", "city": "SAINT JOHN", "province": "NB", "country": "CA", "postalCode": "E2M5G1", "twitter": "None", "instagram": "None", "facebook": "None", "youtube": "None", "website": "None", "summary": "None", "logo": "None", "latitude": 45.24219747988914, "longitude": -66.14309963030185}, "840979546RR0001": {"name": "CANADIAN HARD OF HEARING ASSOCIATION YELLOWKNIFE BRANCH", "designationCode": "C", "categoryCode": "11", "address": "#2 5710 50TH AVE", "city": "YELLOWKNIFE", "province": "NT", "country": "CA", "postalCode": "X1A1G1", "twitter": "None", "instagram": "None", "facebook": "None", "youtube": "None", "website": "None", "summary": "None", "logo": "None", "latitude": 62.44889495257774, "longitude": -114.38162915412236}, "846917961RR0001": {"name": "CANADIAN HARD OF HEARING ASSOCIATION- NATIONAL CAPITAL REGION", "designationCode": "C", "categoryCode": "11", "address": "SUITE 205,                    2415 HOLLY LANE", "city": "OTTAWA", "province": "ON", "country": "CA", "postalCode": "K1V7P2", "twitter": "None", "instagram": "None", "facebook": "None", "youtube": "None", "website": "None", "summary": "None", "logo": "None", "latitude": 45.378291164031396, "longitude": -75.63934358087619}, "129951109RR0002": {"name": "CANADIAN HARD OF HEARING ASSOCIATION/ ASSOCIATION DES MALENTENDANTS CANADIENS", "designationCode": "C", "categoryCode": "11", "address": "2415 HOLLY LANE, SUITE 205", "city": "OTTAWA", "province": "ON", "country": "CA", "postalCode": "K1V7P2", "twitter": "None", "instagram": "None", "facebook": "None", "youtube": "None", "website": "None", "summary": "None", "logo": "None", "latitude": 45.378291164031396, "longitude": -75.63934358087619}, "896478419RR0001": {"name": "CANADIAN HARD OF HEARING ASSOCIATION, HAMILTON BRANCH", "designationCode": "C", "categoryCode": "11", "address": "111 EMPRESS AVENUE", "city": "HAMILTON", "province": "ON", "country": "CA", "postalCode": "L9A1M5", "twitter": "None", "instagram": "None", "facebook": "None", "youtube": "None", "website": "None", "summary": "None", "logo": "None", "latitude": 43.239595074124175, "longitude": -79.8718444582204}, "879071413RR0001": {"name": "CANADIAN HARD OF HEARING ASSOCIATION, SUDBURY BRANCH", "designationCode": "C", "categoryCode": "11", "address": "435 NOTRE DAME AVE            SUITE 101", "city": "SUDBURY", "province": "ON", "country": "CA", "postalCode": "P3C5K6", "twitter": "None", "instagram": "None", "facebook": "None", "youtube": "None", "website": "None", "summary": "None", "logo": "None", "latitude": 46.50311979329475, "longitude": -80.98696069308686}, "129445961RR0001": {"name": "CANADIAN HARVARD AIRCRAFT ASSOCIATION", "designationCode": "C", "categoryCode": "50", "address": "244411 AIRPORT ROAD           PO 175, STN MAIN", "city": "TILLSONBURG", "province": "ON", "country": "CA", "postalCode": "N4G4H5", "twitter": "None", "instagram": "None", "facebook": "None", "youtube": "None", "website": "None", "summary": "None", "logo": "None", "latitude": 42.86066100000005, "longitude": -80.72789299999994}, "890673171RR0001": {"name": "CANADIAN HEALTH LIBRARIES ASSOCIATION/ASSOCIATION DES BIBLIOTHEQUES DE LA SANTE DU CANADA", "designationCode": "C", "categoryCode": "50", "address": "LL02 - 468 QUEEN ST E", "city": "TORONTO", "province": "ON", "country": "CA", "postalCode": "M5A1T7", "twitter": "None", "instagram": "None", "facebook": "None", "youtube": "None", "website": "None", "summary": "None", "logo": "None"}, "118833193RR0001": {"name": "CANADIAN HEALTHCARE ENGINEERING SOCIETY", "designationCode": "C", "categoryCode": "11", "address": "ELIZABETH HOOPER, ADMIN DIR   4 CATARAQUI ST SUITE 310", "city": "KINGSTON", "province": "ON", "country": "CA", "postalCode": "K7K1Z7", "twitter": "None", "instagram": "None", "facebook": "None", "youtube": "None", "website": "None", "summary": "None", "logo": "None", "latitude": 44.24212966720539, "longitude": -76.48075587884475}, "106846926RR0001": {"name": "CANADIAN HEARING SOCIETY / SOCIETE CANADIENNE DE L'OUIE", "designationCode": "C", "categoryCode": "13", "address": "271 SPADINA ROAD", "city": "TORONTO", "province": "ON", "country": "CA", "postalCode": "M5R2V3", "twitter": "None", "instagram": "None", "facebook": "None", "youtube": "None", "website": "None", "summary": "None", "logo": "None", "latitude": 43.67712278296493, "longitude": -79.40795706186182}, "865794531RR0001": {"name": "CANADIAN HEARTS ACROSS BORDERS ASSOCIATION", "designationCode": "C", "categoryCode": "09", "address": "P.O. BOX 81014 MCLEOD PARK", "city": "EDMONTON", "province": "AB", "country": "CA", "postalCode": "T5Y3A6", "twitter": "None", "instagram": "None", "facebook": "None", "youtube": "None", "website": "None", "summary": "None", "logo": "None", "latitude": 53.60803993998546, "longitude": -113.43325991719145}, "862008604RR0001": {"name": "CANADIAN HEARTS AND HANDS: A MISSION WITHOUT BORDERS INC", "designationCode": "C", "categoryCode": "47", "address": "17 BOYNTON CIRCLE", "city": "MARKHAM", "province": "ON", "country": "CA", "postalCode": "L6C1A8", "twitter": "None", "instagram": "None", "facebook": "None", "youtube": "None", "website": "None", "summary": "None", "logo": "None", "latitude": 43.89104330223909, "longitude": -79.36014127237603}, "128689577RR0001": {"name": "CANADIAN HELLENIC ORTHODOX MISSIONARY FRATERNITY OF TORONTO \"APOSTLE PAUL\" INC", "designationCode": "C", "categoryCode": "39", "address": "853 PAPE AVENUE", "city": "TORONTO", "province": "ON", "country": "CA", "postalCode": "M4K3T7", "twitter": "None", "instagram": "None", "facebook": "None", "youtube": "None", "website": "None", "summary": "None", "logo": "None", "latitude": 43.683008500144226, "longitude": -79.34634715817434}, "891868846RR0001": {"name": "CANADIAN HEMOPHILIA SOCIETY ALBERTA CHAPTER", "designationCode": "C", "categoryCode": "11", "address": "BOX 44171", "city": "EDMONTON", "province": "AB", "country": "CA", "postalCode": "T5V1N6", "twitter": "None", "instagram": "None", "facebook": "None", "youtube": "None", "website": "None", "summary": "None", "logo": "None", "latitude": 53.58790500000005, "longitude": -113.62086349999993}, "106846991RR0001": {"name": "CANADIAN HEMOPHILIA SOCIETY MANITOBA CHAPTER", "designationCode": "C", "categoryCode": "11", "address": "944 PORTAGE AVENUE", "city": "WINNIPEG", "province": "MB", "country": "CA", "postalCode": "R3G0R1", "twitter": "None", "instagram": "None", "facebook": "None", "youtube": "None", "website": "None", "summary": "None", "logo": "None", "latitude": 49.884752557851115, "longitude": -97.17320049402738}, "118833094RR0001": {"name": "CANADIAN HEMOPHILIA SOCIETY-SOCIETE CANADIENNE DE L'HEMOPHILIE", "designationCode": "C", "categoryCode": "11", "address": "301 - 666 RUE SHERBROOKE O", "city": "MONTREAL", "province": "QC", "country": "CA", "postalCode": "H3A1E7", "twitter": "None", "instagram": "None", "facebook": "None", "youtube": "None", "website": "None", "summary": "None", "logo": "None", "latitude": 45.50420051526984, "longitude": -73.57425178965626}, "106846983RR0001": {"name": "CANADIAN HEMOPHILIA SOCIETY, B.C. CHAPTER", "designationCode": "C", "categoryCode": "11", "address": "P.O. BOX 21161                MAPLE RIDGE SQUARE RPO", "city": "MAPLE RIDGE", "province": "BC", "country": "CA", "postalCode": "V2X1P7", "twitter": "None", "instagram": "None", "facebook": "None", "youtube": "None", "website": "None", "summary": "None", "logo": "None", "latitude": 49.21686600000005, "longitude": -122.60537449999993}, "872324710RR0001": {"name": "CANADIAN HERITAGE PHOTOGRAPHY FOUNDATION", "designationCode": "C", "categoryCode": "50", "address": "710 - 30 EGLINTON AVE W", "city": "MISSISSAUGA", "province": "ON", "country": "CA", "postalCode": "L5R3E7", "twitter": "None", "instagram": "None", "facebook": "None", "youtube": "None", "website": "None", "summary": "None", "logo": "None", "latitude": 43.605785109037136, "longitude": -79.65407255793802}, "891388167RR0001": {"name": "CANADIAN HERITAGE PRESERVATION FOUNDATION", "designationCode": "B", "categoryCode": "53", "address": "1600 - 333 SEYMOUR ST", "city": "VANCOUVER", "province": "BC", "country": "CA", "postalCode": "V6B0A4", "twitter": "None", "instagram": "None", "facebook": "None", "youtube": "None", "website": "None", "summary": "None", "logo": "None", "latitude": 49.28514037942167, "longitude": -123.11218777257757}, "870981768RR0001": {"name": "CANADIAN HINDU DIVINE LIGHT ORGANIZATION (TORONTO)", "designationCode": "C", "categoryCode": "48", "address": "80 NASHDENE ROAD              BUILDING B, UNIT 207", "city": "SCARBOROUGH", "province": "ON", "country": "CA", "postalCode": "M1V5E4", "twitter": "None", "instagram": "None", "facebook": "None", "youtube": "None", "website": "None", "summary": "None", "logo": "None", "latitude": 43.818864187950496, "longitude": -79.25283970027107}, "139988323RR0001": {"name": "CANADIAN HISTORICAL AIRCRAFT ASSOCIATION", "designationCode": "C", "categoryCode": "50", "address": "104-2600 AIRPORT ROAD", "city": "WINDSOR", "province": "ON", "country": "CA", "postalCode": "N8V1A1", "twitter": "None", "instagram": "None", "facebook": "None", "youtube": "None", "website": "None", "summary": "None", "logo": "None", "latitude": 42.268323203628604, "longitude": -82.96827279139808}, "855692778RR0001": {"name": "CANADIAN HOCKEY LEAGUE SCHOLARSHIP TRUST", "designationCode": "C", "categoryCode": "21", "address": "305 MILNER AVENUE #201", "city": "TORONTO", "province": "ON", "country": "CA", "postalCode": "M1B3V4", "twitter": "None", "instagram": "None", "facebook": "None", "youtube": "None", "website": "None", "summary": "None", "logo": "None", "latitude": 43.78970578709123, "longitude": -79.23619752954593}, "141135202RR0001": {"name": "CANADIAN HOLY GHOST & FIRE EVANGELISM ASSOCIATION", "designationCode": "B", "categoryCode": "49", "address": "1152-113 ST S.W.", "city": "EDMONTON", "province": "AB", "country": "CA", "postalCode": "T6W1P5", "twitter": "None", "instagram": "None", "facebook": "None", "youtube": "None", "website": "None", "summary": "None", "logo": "None", "latitude": 53.42120655314793, "longitude": -113.51995867141763}, "119219194RR0001": {"name": "CANADIAN HOME AND SCHOOL FEDERATION/LA FEDERATION CANADIENNE FOYER-ECOLE", "designationCode": "C", "categoryCode": "09", "address": "618 BRONSON SETTLEMENT RD", "city": "RED BANK QUEENS CO", "province": "NB", "country": "CA", "postalCode": "E4A2K9", "twitter": "None", "instagram": "None", "facebook": "None", "youtube": "None", "website": "None", "summary": "None", "logo": "None", "latitude": 46.16745794751593, "longitude": -65.82725283484343}, "889126066RR0001": {"name": "CANADIAN HOME ECONOMICS FOUNDATION / LA FONDATION CANADIENNE POUR L'ECONOMIE FAMILIALE", "designationCode": "A", "categoryCode": "23", "address": "P.O. BOX 2582 STN. MAIN", "city": "WINNIPEG", "province": "MB", "country": "CA", "postalCode": "R3C4B3", "twitter": "None", "instagram": "None", "facebook": "None", "youtube": "None", "website": "None", "summary": "None", "logo": "None", "latitude": 49.886161958421624, "longitude": -97.13345310241456}, "137604195RR0001": {"name": "CANADIAN HOSPICE PALLIATIVE CARE ASSOCIATION / ASSOCIATION CANADIENNE DE SOINS PALLIATIFS", "designationCode": "C", "categoryCode": "19", "address": "60 CAMBRIDGE ST N, ANNEXE D   SAINT-VINCENT HOSPITAL", "city": "OTTAWA", "province": "ON", "country": "CA", "postalCode": "K1R7A5", "twitter": "None", "instagram": "None", "facebook": "None", "youtube": "None", "website": "None", "summary": "None", "logo": "None", "latitude": 45.412971000000056, "longitude": -75.70789549999994}, "100765882RR0001": {"name": "CANADIAN HOSPITALITY FOUNDATION", "designationCode": "A", "categoryCode": "23", "address": "339 - 300 ADELAIDE ST E", "city": "TORONTO", "province": "ON", "country": "CA", "postalCode": "M5A1N1", "twitter": "None", "instagram": "None", "facebook": "None", "youtube": "None", "website": "None", "summary": "None", "logo": "None", "latitude": 43.651790144498825, "longitude": -79.37017167056817}, "898364468RR0001": {"name": "CANADIAN HOST FAMILY AGRICULTURE EXCHANGE FOUNDATION", "designationCode": "C", "categoryCode": "23", "address": "SITE 16, C-33, RR#1", "city": "FORT ST-JOHN", "province": "BC", "country": "CA", "postalCode": "V1J4M6", "twitter": "None", "instagram": "None", "facebook": "None", "youtube": "None", "website": "None", "summary": "None", "logo": "None", "latitude": 56.25253500000005, "longitude": -120.84748099999993}, "118833300RR0001": {"name": "CANADIAN HUMAN RIGHTS REPORTER INC./LE BABILLARD CANADIEN DES DROITS DE LA PERSONNE", "designationCode": "C", "categoryCode": "21", "address": "212-8696 BARNARD ST", "city": "VANCOUVER", "province": "BC", "country": "CA", "postalCode": "V6P5G5", "twitter": "None", "instagram": "None", "facebook": "None", "youtube": "None", "website": "None", "summary": "None", "logo": "None", "latitude": 49.2073647171793, "longitude": -123.14511095775903}, "118833284RR0001": {"name": "CANADIAN HUMANIST PUBLICATIONS", "designationCode": "C", "categoryCode": "21", "address": "PO BOX 3769 STN C", "city": "OTTAWA", "province": "ON", "country": "CA", "postalCode": "K1Y4J8", "twitter": "None", "instagram": "None", "facebook": "None", "youtube": "None", "website": "None", "summary": "None", "logo": "None", "latitude": 45.42177300000006, "longitude": -75.69115999999994}, "873029102RR0001": {"name": "CANADIAN HUMANITARIAN ORGANIZATION FOR INTERNATIONAL RELIEF", "designationCode": "C", "categoryCode": "01", "address": "1-675 3RD STREET SE", "city": "MEDICINE HAT", "province": "AB", "country": "CA", "postalCode": "T1A0H4", "twitter": "None", "instagram": "None", "facebook": "None", "youtube": "None", "website": "None", "summary": "None", "logo": "None", "latitude": 50.04042620676329, "longitude": -110.67377083138099}, "118965243RR0001": {"name": "CANADIAN HUNGARIAN CULTURAL SOCIETY OF EDMONTON", "designationCode": "C", "categoryCode": "22", "address": "12847 68 STREET", "city": "EDMONTON", "province": "AB", "country": "CA", "postalCode": "T5C0E6", "twitter": "None", "instagram": "None", "facebook": "None", "youtube": "None", "website": "None", "summary": "None", "logo": "None", "latitude": 53.587331161809686, "longitude": -113.4460577490625}, "816034276RR0001": {"name": "CANADIAN IMMUNODEFICIENCIES PATIENT ORGANIZATION/ORGANISATION CANADIENNE DES PERSONNES IMMUNODEFICIENTES", "designationCode": "C", "categoryCode": "11", "address": "25 LA GRAVE STREET", "city": "WINNIPEG", "province": "MB", "country": "CA", "postalCode": "R3V1J1", "twitter": "None", "instagram": "None", "facebook": "None", "youtube": "None", "website": "None", "summary": "None", "logo": "None", "latitude": 49.90903925872609, "longitude": -97.12545846131741}, "891481145RR0001": {"name": "CANADIAN IMOTSKI COMMUNITY AND IMMIGRANT SERVICES OF ONTARIO", "designationCode": "C", "categoryCode": "09", "address": "3009 DUNDAS STREET WEST", "city": "TORONTO", "province": "ON", "country": "CA", "postalCode": "M6P1Z4", "twitter": "None", "instagram": "None", "facebook": "None", "youtube": "None", "website": "None", "summary": "None", "logo": "None", "latitude": 43.66544452510252, "longitude": -79.46944152844941}, "887612992RR0001": {"name": "CANADIAN IMPERIAL BANK OF COMMERCE CHARITABLE DONATIONS- PERSONNEL - VLM", "designationCode": "B", "categoryCode": "75", "address": "2 SHEPPARD AV. EAST", "city": "TORONTO", "province": "ON", "country": "CA", "postalCode": "M2N7A4", "twitter": "None", "instagram": "None", "facebook": "None", "youtube": "None", "website": "None", "summary": "None", "logo": "None", "latitude": 43.761646172369915, "longitude": -79.41050845934556}, "118833326RR0001": {"name": "CANADIAN IMPERIAL BANK OF COMMERCE EMPLOYEES CHARITY TRUST REGIONAL OFFICE", "designationCode": "B", "categoryCode": "75", "address": "PROCESSING OUTSOURCING        2 SHEPPARD AVE EAST", "city": "TORONTO", "province": "ON", "country": "CA", "postalCode": "M2N7A4", "twitter": "None", "instagram": "None", "facebook": "None", "youtube": "None", "website": "None", "summary": "None", "logo": "None", "latitude": 43.761646172369915, "longitude": -79.41050845934556}}