{"119090959RR0001": {"name": "PEOPLE PLAYERS INC.", "designationCode": "C", "categoryCode": "22", "address": "343 EVANS AVENUE", "city": "ETOBICOKE", "province": "ON", "country": "CA", "postalCode": "M8Z1K2", "twitter": "None", "instagram": "None", "facebook": "None", "youtube": "None", "website": "None", "summary": "None", "logo": "None", "latitude": 43.616490785124505, "longitude": -79.52082289214519}, "119091114RR0001": {"name": "PEOPLE TO PEOPLE", "designationCode": "C", "categoryCode": "59", "address": "125 PATTERSON CRES", "city": "BRANDON", "province": "MB", "country": "CA", "postalCode": "R7A6T7", "twitter": "None", "instagram": "None", "facebook": "None", "youtube": "None", "website": "None", "summary": "None", "logo": "None", "latitude": 49.86590283516057, "longitude": -99.95156773284678}, "894191212RR0001": {"name": "PEOPLE TO PEOPLE AID ORGANIZATION (CANADA)", "designationCode": "C", "categoryCode": "09", "address": "207-1245 DANFORTH AVE.", "city": "TORONTO", "province": "ON", "country": "CA", "postalCode": "M4J5B5", "twitter": "None", "instagram": "None", "facebook": "None", "youtube": "None", "website": "None", "summary": "None", "logo": "None", "latitude": 43.68178180930822, "longitude": -79.33076784748114}, "131583783RR0001": {"name": "PEOPLE, WORDS & CHANGE", "designationCode": "C", "categoryCode": "20", "address": "202 - 400 MCARTHUR AVE", "city": "OTTAWA", "province": "ON", "country": "CA", "postalCode": "K1K1G8", "twitter": "None", "instagram": "None", "facebook": "None", "youtube": "None", "website": "None", "summary": "None", "logo": "None", "latitude": 45.43209257949122, "longitude": -75.64885863765944}, "857698401RR0001": {"name": "PEOPLE'S AID INTERNATIONAL", "designationCode": "C", "categoryCode": "09", "address": "29 BURLEIGH HEIGHTS DRIVE", "city": "NORTH YORK", "province": "ON", "country": "CA", "postalCode": "M2K1Y8", "twitter": "None", "instagram": "None", "facebook": "None", "youtube": "None", "website": "None", "summary": "None", "logo": "None", "latitude": 43.77970083484344, "longitude": -79.38790778919734}, "893352260RR0001": {"name": "PEOPLE'S BAPTIST CHURCH OF KELOWNA, B.C.", "designationCode": "C", "categoryCode": "39", "address": "187 ASHER RD", "city": "KELOWNA", "province": "BC", "country": "CA", "postalCode": "V1X3H5", "twitter": "None", "instagram": "None", "facebook": "None", "youtube": "None", "website": "None", "summary": "None", "logo": "None", "latitude": 49.89015906262163, "longitude": -119.39114609533301}, "890247778RR0001": {"name": "PEOPLE'S CEMETERY MOUNT ROYAL", "designationCode": "C", "categoryCode": "59", "address": "BOX 151", "city": "O'LEARY", "province": "PE", "country": "CA", "postalCode": "C0B1V0", "twitter": "None", "instagram": "None", "facebook": "None", "youtube": "None", "website": "None", "summary": "None", "logo": "None", "latitude": 46.71305115704506, "longitude": -64.19110057190973}, "107445264RR0001": {"name": "PEOPLE'S FULL GOSPEL CHURCH INC.", "designationCode": "C", "categoryCode": "36", "address": "170 MAUREEN STREET", "city": "WINNIPEG", "province": "MB", "country": "CA", "postalCode": "R3K1M2", "twitter": "None", "instagram": "None", "facebook": "None", "youtube": "None", "website": "None", "summary": "None", "logo": "None", "latitude": 49.86932704884876, "longitude": -97.30373416544502}, "887225795RR0001": {"name": "PEOPLE'S LAW SCHOOL: THE PUBLIC LEGAL EDUCATION SOCIETY", "designationCode": "C", "categoryCode": "20", "address": "#150-900 HOWE ST.", "city": "VANCOUVER", "province": "BC", "country": "CA", "postalCode": "V6Z2M4", "twitter": "None", "instagram": "None", "facebook": "None", "youtube": "None", "website": "None", "summary": "None", "logo": "None", "latitude": 49.28059170439736, "longitude": -123.12292408531957}, "119119733RR0001": {"name": "PEOPLE'S MEMORIAL UNITED CHURCH", "designationCode": "C", "categoryCode": "44", "address": "PO BOX 464", "city": "RIDGEWAY", "province": "ON", "country": "CA", "postalCode": "L0S1N0", "twitter": "None", "instagram": "None", "facebook": "None", "youtube": "None", "website": "None", "summary": "None", "logo": "None", "latitude": 42.86752540440902, "longitude": -79.05886267228345}, "867612400RR0001": {"name": "PEOPLE'S PERFORMING ART CENTRE", "designationCode": "C", "categoryCode": "23", "address": "63 ROSEGLEN CRESCENT", "city": "NORTH YORK", "province": "ON", "country": "CA", "postalCode": "M3N1G7", "twitter": "None", "instagram": "None", "facebook": "None", "youtube": "None", "website": "None", "summary": "None", "logo": "None", "latitude": 43.74613397613821, "longitude": -79.51892917842945}, "872138318RR0001": {"name": "PEOPLE'S TABERNACLE CHURCH, WORLD MISSIONS AND BIBLE LEARNING CENTER", "designationCode": "C", "categoryCode": "39", "address": "6910 KALAR RD                 UNIT 15", "city": "NIAGARA FALLS", "province": "ON", "country": "CA", "postalCode": "L2H2T7", "twitter": "None", "instagram": "None", "facebook": "None", "youtube": "None", "website": "None", "summary": "None", "logo": "None", "latitude": 43.074468366639735, "longitude": -79.1355159001677}, "889683264RR0001": {"name": "PEOPLE'S WORSHIP CENTRE", "designationCode": "C", "categoryCode": "39", "address": "215 KENNEDY RD", "city": "SCARBOROUGH", "province": "ON", "country": "CA", "postalCode": "M1N3P4", "twitter": "None", "instagram": "None", "facebook": "None", "youtube": "None", "website": "None", "summary": "None", "logo": "None", "latitude": 43.70598667361067, "longitude": -79.2571189891513}, "132021981RR0001": {"name": "PEOPLES BIBLE CHURCH", "designationCode": "C", "categoryCode": "36", "address": "BOX 67", "city": "MINITONAS", "province": "MB", "country": "CA", "postalCode": "R0L1G0", "twitter": "None", "instagram": "None", "facebook": "None", "youtube": "None", "website": "None", "summary": "None", "logo": "None", "latitude": 52.086580000000026, "longitude": -101.03713999999997}, "830999553RR0001": {"name": "PEOPLES CHRISTIAN ACADEMY (PCA) INC.", "designationCode": "C", "categoryCode": "20", "address": "245 RENFREW DRIVE", "city": "MARKHAM", "province": "ON", "country": "CA", "postalCode": "L3R6G3", "twitter": "None", "instagram": "None", "facebook": "None", "youtube": "None", "website": "None", "summary": "None", "logo": "None", "latitude": 43.86101282434051, "longitude": -79.36504912955205}, "874056005RR0001": {"name": "PEOPLES CHURCH OF SARNIA-LAMBTON", "designationCode": "C", "categoryCode": "39", "address": "3888 LONDON LINE              PO BOX 520", "city": "WYOMING", "province": "ON", "country": "CA", "postalCode": "N0N1T0", "twitter": "None", "instagram": "None", "facebook": "None", "youtube": "None", "website": "None", "summary": "None", "logo": "None", "latitude": 42.980419504904745, "longitude": -82.16459236219633}, "119250892RR0001": {"name": "PEOPLES CHURCH OF THE ASSOCIATED GOSPEL CHURCHES IN THE PROVINCE OF QUEBEC", "designationCode": "C", "categoryCode": "39", "address": "2097 UNION AVENUE", "city": "MONTREAL", "province": "QC", "country": "CA", "postalCode": "H3A2C3", "twitter": "None", "instagram": "None", "facebook": "None", "youtube": "None", "website": "None", "summary": "None", "logo": "None", "latitude": 45.50534012989782, "longitude": -73.57243178406145}, "107835431RR0001": {"name": "PEOPLES FULL GOSPEL CHURCH", "designationCode": "C", "categoryCode": "39", "address": "14455 104TH AVE", "city": "SURREY", "province": "BC", "country": "CA", "postalCode": "V3R1M1", "twitter": "None", "instagram": "None", "facebook": "None", "youtube": "None", "website": "None", "summary": "None", "logo": "None", "latitude": 49.191553507646056, "longitude": -122.82122233236194}, "119091056RR0001": {"name": "PEOPLES FULL GOSPEL CHURCH OF LINDSAY", "designationCode": "C", "categoryCode": "39", "address": "20 CAMBRIDGE ST N", "city": "LINDSAY", "province": "ON", "country": "CA", "postalCode": "K9V4C3", "twitter": "None", "instagram": "None", "facebook": "None", "youtube": "None", "website": "None", "summary": "None", "logo": "None", "latitude": 44.35557992506777, "longitude": -78.7397883287266}, "130637051RR0001": {"name": "PEOPLES MINISTRIES INC.", "designationCode": "C", "categoryCode": "39", "address": "374 SHEPPARD AVENUE EAST", "city": "WILLOWDALE", "province": "ON", "country": "CA", "postalCode": "M2N3B6", "twitter": "None", "instagram": "None", "facebook": "None", "youtube": "None", "website": "None", "summary": "None", "logo": "None", "latitude": 43.76545014077519, "longitude": -79.39320693730144}, "893761726RR0001": {"name": "PEOPLES PENTECOSTAL CHURCH", "designationCode": "C", "categoryCode": "36", "address": "424 SECOND LINE EAST", "city": "SAULT STE. MARIE", "province": "ON", "country": "CA", "postalCode": "P6B4K1", "twitter": "None", "instagram": "None", "facebook": "None", "youtube": "None", "website": "None", "summary": "None", "logo": "None", "latitude": 46.53825707484795, "longitude": -84.32932957514463}, "119090975RR0001": {"name": "PEOPLES' CEMETERY OF MOUNT STEWART", "designationCode": "C", "categoryCode": "59", "address": "PO BOX 148", "city": "MOUNT STEWART", "province": "PE", "country": "CA", "postalCode": "C0A1T0", "twitter": "None", "instagram": "None", "facebook": "None", "youtube": "None", "website": "None", "summary": "None", "logo": "None", "latitude": 46.33696289701434, "longitude": -62.85434065264637}, "891868978RR0001": {"name": "PEOPLES' MUSEUM SOCIETY OF / DE ST PAUL & DISTRICT", "designationCode": "C", "categoryCode": "50", "address": "BOX 410", "city": "ST PAUL", "province": "AB", "country": "CA", "postalCode": "T0A3A0", "twitter": "None", "instagram": "None", "facebook": "None", "youtube": "None", "website": "None", "summary": "None", "logo": "None", "latitude": 53.99207006217902, "longitude": -111.26834992613558}, "107835506RR0001": {"name": "PEOPLES' PENTECOSTAL CHURCH, EDMONTON,", "designationCode": "C", "categoryCode": "39", "address": "15641 96 AVE", "city": "EDMONTON", "province": "AB", "country": "CA", "postalCode": "T5P2R7", "twitter": "None", "instagram": "None", "facebook": "None", "youtube": "None", "website": "None", "summary": "None", "logo": "None", "latitude": 53.53303851341712, "longitude": -113.59124180682672}, "130015258RR0001": {"name": "PEOPLEWORX SOCIETY", "designationCode": "C", "categoryCode": "59", "address": "11 OPPORTUNITY LANE", "city": "COLDBROOK", "province": "NS", "country": "CA", "postalCode": "B4R0A5", "twitter": "None", "instagram": "None", "facebook": "None", "youtube": "None", "website": "None", "summary": "None", "logo": "None", "latitude": 45.0709887705001, "longitude": -64.56014168890276}, "891133548RR0001": {"name": "PERCY AGRICULTURAL SOCIETY", "designationCode": "C", "categoryCode": "59", "address": "P.O. BOX 357", "city": "WARKWORTH", "province": "ON", "country": "CA", "postalCode": "K0K3K0", "twitter": "None", "instagram": "None", "facebook": "None", "youtube": "None", "website": "None", "summary": "None", "logo": "None", "latitude": 44.20071000000007, "longitude": -77.88983999999994}, "821329679RR0001": {"name": "PERCY E. MOORE HOSPITAL PALLIATIVE CARE ROOM INCORPORATED", "designationCode": "C", "categoryCode": "11", "address": "PO BOX 83", "city": "FISHER BRANCH", "province": "MB", "country": "CA", "postalCode": "R0C0Z0", "twitter": "None", "instagram": "None", "facebook": "None", "youtube": "None", "website": "None", "summary": "None", "logo": "None", "latitude": 51.08144020941467, "longitude": -97.61850910684359}, "119091189RR0001": {"name": "PERDUE AND DISTRICT NEW HORIZONS ASSOCIATION", "designationCode": "C", "categoryCode": "56", "address": "BOX 183", "city": "PERDUE", "province": "SK", "country": "CA", "postalCode": "S0K3C0", "twitter": "None", "instagram": "None", "facebook": "None", "youtube": "None", "website": "None", "summary": "None", "logo": "None", "latitude": 52.13422819405385, "longitude": -107.23358805782026}, "135266070RR0001": {"name": "PERDUE RECREATIONAL COMPLEX INC.", "designationCode": "C", "categoryCode": "56", "address": "BOX 57", "city": "PERDUE", "province": "SK", "country": "CA", "postalCode": "S0K3C0", "twitter": "None", "instagram": "None", "facebook": "None", "youtube": "None", "website": "None", "summary": "None", "logo": "None", "latitude": 52.13422819405385, "longitude": -107.23358805782026}, "107835860RR0001": {"name": "PERDUE UNITED CHURCH", "designationCode": "C", "categoryCode": "44", "address": "BOX 248", "city": "PERDUE", "province": "SK", "country": "CA", "postalCode": "S0K3C0", "twitter": "None", "instagram": "None", "facebook": "None", "youtube": "None", "website": "None", "summary": "None", "logo": "None", "latitude": 52.13422819405385, "longitude": -107.23358805782026}, "119091221RR0001": {"name": "PEREAUX BAPTIST CHURCH", "designationCode": "C", "categoryCode": "31", "address": "1399 PEREAU RD.", "city": "CANNING KINGS CO", "province": "NS", "country": "CA", "postalCode": "B0P1H0", "twitter": "None", "instagram": "None", "facebook": "None", "youtube": "None", "website": "None", "summary": "None", "logo": "None", "latitude": 45.203483189018364, "longitude": -64.37967201361866}, "119091239RR0001": {"name": "PERES CAMILLIENS", "designationCode": "C", "categoryCode": "46", "address": "3325 RUE LOYOLA", "city": "QUEBEC", "province": "QC", "country": "CA", "postalCode": "G1E2S1", "twitter": "None", "instagram": "None", "facebook": "None", "youtube": "None", "website": "None", "summary": "None", "logo": "None", "latitude": 46.8527265023946, "longitude": -71.20897142648141}, "889339420RR0001": {"name": "PERES SEPARES INC", "designationCode": "C", "categoryCode": "09", "address": "3937 RUE ADAM", "city": "MONTR\u00c9AL", "province": "QC", "country": "CA", "postalCode": "H1W2A1", "twitter": "None", "instagram": "None", "facebook": "None", "youtube": "None", "website": "None", "summary": "None", "logo": "None", "latitude": 45.547594563708174, "longitude": -73.5384082609208}, "108167602RR0001": {"name": "PERETZ CENTRE FOR SECULAR JEWISH CULTURE", "designationCode": "C", "categoryCode": "20", "address": "6184 ASH ST", "city": "VANCOUVER", "province": "BC", "country": "CA", "postalCode": "V5Z3G9", "twitter": "None", "instagram": "None", "facebook": "None", "youtube": "None", "website": "None", "summary": "None", "logo": "None", "latitude": 49.228899988343244, "longitude": -123.11794051661977}, "895983492RR0001": {"name": "PERFECT LOVE TABERNACLE", "designationCode": "C", "categoryCode": "49", "address": "1596 DELLBROOK AVENUE", "city": "PICKERING", "province": "ON", "country": "CA", "postalCode": "L1X2N2", "twitter": "None", "instagram": "None", "facebook": "None", "youtube": "None", "website": "None", "summary": "None", "logo": "None", "latitude": 43.860936744101295, "longitude": -79.08854007402674}, "899749881RR0001": {"name": "PERFORMING ARTS B.C. FESTIVALS SOCIETY", "designationCode": "C", "categoryCode": "22", "address": "PO BOX 1484 STN A", "city": "COMOX", "province": "BC", "country": "CA", "postalCode": "V9M8A2", "twitter": "None", "instagram": "None", "facebook": "None", "youtube": "None", "website": "None", "summary": "None", "logo": "None", "latitude": 49.673733000000055, "longitude": -124.92743299999994}, "897655999RR0001": {"name": "PERFORMING ARTS CONSORTIUM OF WINNIPEG, INC.", "designationCode": "C", "categoryCode": "56", "address": "180 MARKET AVE", "city": "WINNIPEG", "province": "MB", "country": "CA", "postalCode": "R3B0P7", "twitter": "None", "instagram": "None", "facebook": "None", "youtube": "None", "website": "None", "summary": "None", "logo": "None", "latitude": 49.8990900824054, "longitude": -97.13765876882667}, "119091353RR0001": {"name": "PERFORMING ARTS LAKEFIELD", "designationCode": "C", "categoryCode": "22", "address": "PO BOX 999", "city": "LAKEFIELD", "province": "ON", "country": "CA", "postalCode": "K0L2H0", "twitter": "None", "instagram": "None", "facebook": "None", "youtube": "None", "website": "None", "summary": "None", "logo": "None", "latitude": 44.42679000000004, "longitude": -78.26996999999994}, "863632881RR0001": {"name": "PERFORMING ARTS LODGE STRATFORD INC.", "designationCode": "C", "categoryCode": "01", "address": "P.O. BOX 21045", "city": "STRATFORD", "province": "ON", "country": "CA", "postalCode": "N5A7V4", "twitter": "None", "instagram": "None", "facebook": "None", "youtube": "None", "website": "None", "summary": "None", "logo": "None", "latitude": 43.37013300000005, "longitude": -80.98191349999993}, "850879677RR0001": {"name": "PERFORMING ARTS LODGES HALIFAX LTD.", "designationCode": "C", "categoryCode": "09", "address": "1660 HOLLIS ST SUITE 103", "city": "HALIFAX", "province": "NS", "country": "CA", "postalCode": "B3J1V7", "twitter": "None", "instagram": "None", "facebook": "None", "youtube": "None", "website": "None", "summary": "None", "logo": "None", "latitude": 44.64677391978765, "longitude": -63.572485792544214}, "119091361RR0001": {"name": "PERFORMING ARTS LODGES, TORONTO (PAL TORONTO)", "designationCode": "C", "categoryCode": "01", "address": "#328-110 THE ESPLANADE", "city": "TORONTO", "province": "ON", "country": "CA", "postalCode": "M5E1X9", "twitter": "None", "instagram": "None", "facebook": "None", "youtube": "None", "website": "None", "summary": "None", "logo": "None", "latitude": 43.64783487512251, "longitude": -79.37220341592116}, "890767791RR0001": {"name": "PERI-RESSOURCES SERVICE D'EDUCATION POUR FEMMES ENCEINTES ET LES PERES INC", "designationCode": "C", "categoryCode": "09", "address": "280, RUE PRINCIPALE", "city": "LAC-AUX-SABLES", "province": "QC", "country": "CA", "postalCode": "G0X1M0", "twitter": "None", "instagram": "None", "facebook": "None", "youtube": "None", "website": "None", "summary": "None", "logo": "None", "latitude": 46.85845835330953, "longitude": -72.39906618261304}, "889814323RR0001": {"name": "PERIMETER INSTITUTE", "designationCode": "C", "categoryCode": "23", "address": "31 CAROLINE STREET NORTH", "city": "WATERLOO", "province": "ON", "country": "CA", "postalCode": "N2L2Y5", "twitter": "None", "instagram": "None", "facebook": "None", "youtube": "None", "website": "None", "summary": "None", "logo": "None", "latitude": 43.465324609341366, "longitude": -80.52580506010179}, "897742755RR0001": {"name": "PERISCOPE DES BASQUES", "designationCode": "C", "categoryCode": "11", "address": "15 RUE NOTRE-DAME E", "city": "TROIS-PISTOLES", "province": "QC", "country": "CA", "postalCode": "G0L4K0", "twitter": "None", "instagram": "None", "facebook": "None", "youtube": "None", "website": "None", "summary": "None", "logo": "None", "latitude": 48.12569411157596, "longitude": -69.17449370053087}, "121262133RR0001": {"name": "PERKINSFIELD PARKS & RECREATION ASSOCIATION INC", "designationCode": "C", "categoryCode": "56", "address": "211 TOWNLINE RD", "city": "BARRIE", "province": "ON", "country": "CA", "postalCode": "L4N9C4", "twitter": "None", "instagram": "None", "facebook": "None", "youtube": "None", "website": "None", "summary": "None", "logo": "None", "latitude": 44.34830779961336, "longitude": -79.74197461045077}, "121878037RR0001": {"name": "PERPETUAL BAZAAR", "designationCode": "C", "categoryCode": "59", "address": "111 MAIN ST N", "city": "BRAMPTON", "province": "ON", "country": "CA", "postalCode": "L6X1M8", "twitter": "None", "instagram": "None", "facebook": "None", "youtube": "None", "website": "None", "summary": "None", "logo": "None", "latitude": 43.68699563751522, "longitude": -79.76149800764605}, "850456369RR0001": {"name": "PERRY AND RAE DELLIO FAMILY CHARITABLE FOUNDATION", "designationCode": "B", "categoryCode": "03", "address": "77 THE BRIDLE PATH", "city": "TORONTO", "province": "ON", "country": "CA", "postalCode": "M3B2B2", "twitter": "None", "instagram": "None", "facebook": "None", "youtube": "None", "website": "None", "summary": "None", "logo": "None", "latitude": 43.73443308878205, "longitude": -79.36620988986634}, "138110879RR0001": {"name": "PERRY HOUSE CHILD CARE SERVICES", "designationCode": "C", "categoryCode": "01", "address": "129 PERRY ST", "city": "WHITBY", "province": "ON", "country": "CA", "postalCode": "L1N4B7", "twitter": "None", "instagram": "None", "facebook": "None", "youtube": "None", "website": "None", "summary": "None", "logo": "None", "latitude": 43.88108897613823, "longitude": -78.94075920396467}, "891029068RR0001": {"name": "PERRYVALE COMMUNITY HALL SOCIETY", "designationCode": "C", "categoryCode": "56", "address": "BOX 100", "city": "PERRYVALE", "province": "AB", "country": "CA", "postalCode": "T0G1T0", "twitter": "None", "instagram": "None", "facebook": "None", "youtube": "None", "website": "None", "summary": "None", "logo": "None", "latitude": 54.47087000000005, "longitude": -113.38875999999999}, "829587849RR0001": {"name": "PERS\u00c9V\u00c9RONS ENSEMBLE", "designationCode": "C", "categoryCode": "21", "address": "600 - 465 RUE BIBEAU", "city": "SAINT-EUSTACHE", "province": "QC", "country": "CA", "postalCode": "J7R0C8", "twitter": "None", "instagram": "None", "facebook": "None", "youtube": "None", "website": "None", "summary": "None", "logo": "None", "latitude": 45.569206769923206, "longitude": -73.91517042948252}, "119091437RR0001": {"name": "PERSEPHONE THEATRE", "designationCode": "C", "categoryCode": "22", "address": "100 SPADINA CRES E", "city": "SASKATOON", "province": "SK", "country": "CA", "postalCode": "S7K0L3", "twitter": "None", "instagram": "None", "facebook": "None", "youtube": "None", "website": "None", "summary": "None", "logo": "None", "latitude": 52.12307543770549, "longitude": -106.66676850141364}, "890266067RR0001": {"name": "PERSIAN MOSLEM FOUNDATION", "designationCode": "C", "categoryCode": "60", "address": "1655 RUFUS AVE", "city": "NORTH VANCOUVER", "province": "BC", "country": "CA", "postalCode": "V7L4J3", "twitter": "None", "instagram": "None", "facebook": "None", "youtube": "None", "website": "None", "summary": "None", "logo": "None", "latitude": 49.32371078711987, "longitude": -123.04628323469309}, "118889948RR0001": {"name": "PERSONAL ATTENDANT CARE INC.", "designationCode": "C", "categoryCode": "01", "address": "200-1650 DUNDAS ST E", "city": "WHITBY", "province": "ON", "country": "CA", "postalCode": "L1N2K8", "twitter": "None", "instagram": "None", "facebook": "None", "youtube": "None", "website": "None", "summary": "None", "logo": "None", "latitude": 43.88785844851327, "longitude": -78.90674735485152}, "106974066RR0001": {"name": "PERSONAL CHOICE INDEPENDENT LIVING/CHOIX PERSONNEL VIE AUTON", "designationCode": "C", "categoryCode": "01", "address": "OFC-520 BRONSON AVE", "city": "OTTAWA", "province": "ON", "country": "CA", "postalCode": "K1R7Y9", "twitter": "None", "instagram": "None", "facebook": "None", "youtube": "None", "website": "None", "summary": "None", "logo": "None", "latitude": 45.411116769816765, "longitude": -75.70555012989392}, "119091486RR0001": {"name": "PERSONNES HANDICAPEES EN ACTION DE LA RIVE-SUD", "designationCode": "C", "categoryCode": "09", "address": "6150, ST-GEORGES              BUREAU 166", "city": "L\u00c9VIS", "province": "QC", "country": "CA", "postalCode": "G6V4J8", "twitter": "None", "instagram": "None", "facebook": "None", "youtube": "None", "website": "None", "summary": "None", "logo": "None", "latitude": 46.80785820483004, "longitude": -71.17824999708581}, "132527490RR0001": {"name": "PERSONS LIVING WITH AIDS NETWORK OF SASKATCHEWAN", "designationCode": "C", "categoryCode": "09", "address": "127C AVENUE D N", "city": "SASKATOON", "province": "SK", "country": "CA", "postalCode": "S7L1M5", "twitter": "None", "instagram": "None", "facebook": "None", "youtube": "None", "website": "None", "summary": "None", "logo": "None", "latitude": 52.1297558808826, "longitude": -106.67513125721341}, "825299944RR0001": {"name": "PERSPECTIVE ARTS FOUNDATION", "designationCode": "C", "categoryCode": "22", "address": "BOX 62, 1250-1500 W GEORGIA ST", "city": "VANCOUVER", "province": "BC", "country": "CA", "postalCode": "V6G2Z6", "twitter": "None", "instagram": "None", "facebook": "None", "youtube": "None", "website": "None", "summary": "None", "logo": "None", "latitude": 49.29013479542975, "longitude": -123.1300069287031}, "119450757RR0001": {"name": "PERSPECTIVE COMMUNAUTIARE EN SANTE MENTALE (W I )", "designationCode": "C", "categoryCode": "09", "address": "16115 BOUL GOUIN O", "city": "SAINTE-GENEVIEVE", "province": "QC", "country": "CA", "postalCode": "H9H1C7", "twitter": "None", "instagram": "None", "facebook": "None", "youtube": "None", "website": "None", "summary": "None", "logo": "None", "latitude": 45.479486533469746, "longitude": -73.8727034940847}, "107836686RR0001": {"name": "PERTH & DISTRICT AGRICULTURAL SOCIETY", "designationCode": "C", "categoryCode": "56", "address": "P.O. BOX 158                  50 ARTHUR ST.", "city": "PERTH", "province": "ON", "country": "CA", "postalCode": "K7H3E3", "twitter": "None", "instagram": "None", "facebook": "None", "youtube": "None", "website": "None", "summary": "None", "logo": "None", "latitude": 44.89249444263119, "longitude": -76.24557615883315}, "119091510RR0001": {"name": "PERTH AND DISTRICT SENIOR CRAFT FELLOWSHIP", "designationCode": "C", "categoryCode": "09", "address": "125 GORE STREET EAST", "city": "PERTH", "province": "ON", "country": "CA", "postalCode": "K7H1J6", "twitter": "None", "instagram": "None", "facebook": "None", "youtube": "None", "website": "None", "summary": "None", "logo": "None", "latitude": 44.89770906008036, "longitude": -76.24673081476278}, "119091528RR0001": {"name": "PERTH AND DISTRICT UNION PUBLIC LIBRARY BOARD", "designationCode": "C", "categoryCode": "50", "address": "30 HERRIOTT ST", "city": "PERTH", "province": "ON", "country": "CA", "postalCode": "K7H1T2", "twitter": "None", "instagram": "None", "facebook": "None", "youtube": "None", "website": "None", "summary": "None", "logo": "None", "latitude": 44.900881555081156, "longitude": -76.24876723284677}, "898122650RR0001": {"name": "PERTH AND SMITHS FALLS DISTRICT HOSPITAL", "designationCode": "C", "categoryCode": "10", "address": "60 CORNELIA ST. W.", "city": "SMITHS FALLS", "province": "ON", "country": "CA", "postalCode": "K7A2H9", "twitter": "None", "instagram": "None", "facebook": "None", "youtube": "None", "website": "None", "summary": "None", "logo": "None", "latitude": 44.90662412362888, "longitude": -76.02528468544331}, "127301901RR0001": {"name": "PERTH CEMETERY COMPANY", "designationCode": "C", "categoryCode": "59", "address": "57 FOSTER STREET              P.O. BOX 2031", "city": "PERTH", "province": "ON", "country": "CA", "postalCode": "K7H1R9", "twitter": "None", "instagram": "None", "facebook": "None", "youtube": "None", "website": "None", "summary": "None", "logo": "None", "latitude": 44.900874324456105, "longitude": -76.25179620788846}, "119091551RR0001": {"name": "PERTH CHILDREN'S HOUSE", "designationCode": "C", "categoryCode": "20", "address": "36 FOSTER ST.", "city": "PERTH", "province": "ON", "country": "CA", "postalCode": "K7H1R7", "twitter": "None", "instagram": "None", "facebook": "None", "youtube": "None", "website": "None", "summary": "None", "logo": "None", "latitude": 44.90160286482205, "longitude": -76.25051681083742}, "134071745RR0001": {"name": "PERTH COMMUNITY CHOIR", "designationCode": "C", "categoryCode": "22", "address": "30 HARRIS STREET NORTH", "city": "PERTH", "province": "ON", "country": "CA", "postalCode": "K7H2X7", "twitter": "None", "instagram": "None", "facebook": "None", "youtube": "None", "website": "None", "summary": "None", "logo": "None", "latitude": 44.908393966962954, "longitude": -76.2539569428127}, "861236115RR0001": {"name": "PERTH COUNTY PIPE BAND INC.", "designationCode": "C", "categoryCode": "22", "address": "R.R. #33                      1526 BLAIR ROAD", "city": "CAMBRIDGE", "province": "ON", "country": "CA", "postalCode": "N3H4R8", "twitter": "None", "instagram": "None", "facebook": "None", "youtube": "None", "website": "None", "summary": "None", "logo": "None", "latitude": 43.383463373333484, "longitude": -80.37958952677597}, "130639396RR0001": {"name": "PERTH COUNTY TRANSITION HOME FOR WOMEN", "designationCode": "C", "categoryCode": "09", "address": "270 FREELAND DRIVE", "city": "STRATFORD", "province": "ON", "country": "CA", "postalCode": "N4Z1G8", "twitter": "None", "instagram": "None", "facebook": "None", "youtube": "None", "website": "None", "summary": "None", "logo": "None", "latitude": 43.363804777136565, "longitude": -81.01084648490945}, "892280843RR0001": {"name": "PERTH COUNTY 4-H CLUB LEADERS' ASSOCIATION", "designationCode": "C", "categoryCode": "29", "address": "RR # 2", "city": "WELLESLEY", "province": "ON", "country": "CA", "postalCode": "N0B2T0", "twitter": "None", "instagram": "None", "facebook": "None", "youtube": "None", "website": "None", "summary": "None", "logo": "None", "latitude": 43.473507000000055, "longitude": -80.75355649999993}, "119091619RR0001": {"name": "PERTH GOSPEL MEETING ROOM TRUST", "designationCode": "C", "categoryCode": "39", "address": "511 WILDLIFE ROAD", "city": "PERTH", "province": "ON", "country": "CA", "postalCode": "K7H3C7", "twitter": "None", "instagram": "None", "facebook": "None", "youtube": "None", "website": "None", "summary": "None", "logo": "None", "latitude": 45.56237357448239, "longitude": -77.44726906499214}, "890634041RR0001": {"name": "PERTH KIWANIS FOUNDATION", "designationCode": "C", "categoryCode": "21", "address": "PO BOX 20123 RPO PERTH MEWS", "city": "PERTH", "province": "ON", "country": "CA", "postalCode": "K7H3M6", "twitter": "None", "instagram": "None", "facebook": "None", "youtube": "None", "website": "None", "summary": "None", "logo": "None", "latitude": 44.998779502065425, "longitude": -76.10036189876075}, "133978213RR0001": {"name": "PERTH PERFORMING ARTS COMMITTEE", "designationCode": "C", "categoryCode": "22", "address": "8 - 111 CRICHTON ST", "city": "OTTAWA", "province": "ON", "country": "CA", "postalCode": "K1M1V8", "twitter": "None", "instagram": "None", "facebook": "None", "youtube": "None", "website": "None", "summary": "None", "logo": "None", "latitude": 45.44080215901107, "longitude": -75.68701117098493}, "857757207RR0001": {"name": "PERTH ROAD UNITED CHURCH", "designationCode": "B", "categoryCode": "44", "address": "P.O. BOX 1020                 5614 PERTH ROAD CRESCENT", "city": "PERTH ROAD VILLAGE", "province": "ON", "country": "CA", "postalCode": "K0H2L0", "twitter": "None", "instagram": "None", "facebook": "None", "youtube": "None", "website": "None", "summary": "None", "logo": "None", "latitude": 44.46947728282072, "longitude": -76.49128351869723}, "107669848RR0013": {"name": "PERTH SEVENTH-DAY ADVENTIST CHURCH", "designationCode": "C", "categoryCode": "41", "address": "121 SALISBURY RD", "city": "MONCTON", "province": "NB", "country": "CA", "postalCode": "E1E1A6", "twitter": "None", "instagram": "None", "facebook": "None", "youtube": "None", "website": "None", "summary": "None", "logo": "None", "latitude": 46.0711640413756, "longitude": -64.82144086984238}, "107797383RR0096": {"name": "PERTH SEVENTH-DAY ADVENTIST CHURCH", "designationCode": "C", "categoryCode": "41", "address": "PO BOX 20038 RPO PERTH MEWS", "city": "PERTH", "province": "ON", "country": "CA", "postalCode": "K7H3M6", "twitter": "None", "instagram": "None", "facebook": "None", "youtube": "None", "website": "None", "summary": "None", "logo": "None", "latitude": 44.998779502065425, "longitude": -76.10036189876075}, "140660192RR0001": {"name": "PERTH THEATRE PROJECT", "designationCode": "C", "categoryCode": "22", "address": "2 - 63 GORE ST E", "city": "PERTH", "province": "ON", "country": "CA", "postalCode": "K7H1H8", "twitter": "None", "instagram": "None", "facebook": "None", "youtube": "None", "website": "None", "summary": "None", "logo": "None", "latitude": 44.896735179700514, "longitude": -76.24566957600969}, "119276202RR0001": {"name": "PERTH-ANDOVER BAPTIST CHURCH", "designationCode": "C", "categoryCode": "31", "address": "194 BARRETT STREET", "city": "PERTH-ANDOVER", "province": "NB", "country": "CA", "postalCode": "E7H1C8", "twitter": "None", "instagram": "None", "facebook": "None", "youtube": "None", "website": "None", "summary": "None", "logo": "None", "latitude": 46.74294073894436, "longitude": -67.70753427524363}, "889959391RR0001": {"name": "PERTH-ANDOVER HOTEL-DIEU FOUNDATION INC", "designationCode": "A", "categoryCode": "13", "address": "10 WOODLAND HILL", "city": "PERTH-ANDOVER", "province": "NB", "country": "CA", "postalCode": "E7H5H5", "twitter": "None", "instagram": "None", "facebook": "None", "youtube": "None", "website": "None", "summary": "None", "logo": "None", "latitude": 46.729259341497176, "longitude": -67.70913684523546}, "119288918RR0495": {"name": "PERTH-ANDOVER NEW BRUNSWICK CONGREGATION OF JEHOVAH'S WITNESSES", "designationCode": "C", "categoryCode": "61", "address": "60 ROUTE 190", "city": "CARLINGFORD", "province": "NB", "country": "CA", "postalCode": "E7H4J5", "twitter": "None", "instagram": "None", "facebook": "None", "youtube": "None", "website": "None", "summary": "None", "logo": "None", "latitude": 46.749319187170066, "longitude": -67.73800506414966}, "119288918RR0732": {"name": "PERTH, ONTARIO, CONGREGATION OF JEHOVAH'S WITNESSES", "designationCode": "C", "categoryCode": "61", "address": "311 - 1 ROSAMOND ST E", "city": "ALMONTE", "province": "ON", "country": "CA", "postalCode": "K0A1A0", "twitter": "None", "instagram": "None", "facebook": "None", "youtube": "None", "website": "None", "summary": "None", "logo": "None", "latitude": 45.22751107710868, "longitude": -76.20085802570289}, "836518860RR0001": {"name": "PET SAVE", "designationCode": "C", "categoryCode": "54", "address": "P.O. BOX 2769                 STATION A", "city": "SUDBURY", "province": "ON", "country": "CA", "postalCode": "P3A5J3", "twitter": "None", "instagram": "None", "facebook": "None", "youtube": "None", "website": "None", "summary": "None", "logo": "None", "latitude": 46.48958700000006, "longitude": -80.99011249999994}, "844868877RR0001": {"name": "PET SUPPORT CARE FOR THE COMMUNITY OF TORONTO", "designationCode": "C", "categoryCode": "54", "address": "202 ROXTON ROAD", "city": "TORONTO", "province": "ON", "country": "CA", "postalCode": "M6J2Y5", "twitter": "None", "instagram": "None", "facebook": "None", "youtube": "None", "website": "None", "summary": "None", "logo": "None", "latitude": 43.65405082791853, "longitude": -79.42126508217424}, "896561776RR0001": {"name": "PET THERAPY SOCIETY OF NORTHERN ALBERTA", "designationCode": "C", "categoryCode": "09", "address": "14620 111 AVE NW", "city": "EDMONTON", "province": "AB", "country": "CA", "postalCode": "T5M2P4", "twitter": "None", "instagram": "None", "facebook": "None", "youtube": "None", "website": "None", "summary": "None", "logo": "None", "latitude": 53.558966501009614, "longitude": -113.57352}, "125059261RR0001": {"name": "PETAH TIKVA - ANSHE CASTILLA CONGREGATION", "designationCode": "C", "categoryCode": "42", "address": "20 DANBY AVENUE", "city": "DOWNSVIEW", "province": "ON", "country": "CA", "postalCode": "M3H2J3", "twitter": "None", "instagram": "None", "facebook": "None", "youtube": "None", "website": "None", "summary": "None", "logo": "None", "latitude": 43.748769180737135, "longitude": -79.43853852833384}, "812143675RR0001": {"name": "PETALES QUEBEC", "designationCode": "C", "categoryCode": "09", "address": "11000 BOUL SAINT-VITAL", "city": "MONTREAL-NORD", "province": "QC", "country": "CA", "postalCode": "H1H4T6", "twitter": "None", "instagram": "None", "facebook": "None", "youtube": "None", "website": "None", "summary": "None", "logo": "None", "latitude": 45.588993581164644, "longitude": -73.64509258399191}, "119091700RR0001": {"name": "PETARD CORPORATION", "designationCode": "C", "categoryCode": "51", "address": "44 HILHOLM RD", "city": "TORONTO", "province": "ON", "country": "CA", "postalCode": "M5P1M3", "twitter": "None", "instagram": "None", "facebook": "None", "youtube": "None", "website": "None", "summary": "None", "logo": "None", "latitude": 43.69623283345846, "longitude": -79.4099253079519}, "855942835RR0001": {"name": "PETAWAWA CENTENNIAL FAMILY HEALTH CENTRE", "designationCode": "C", "categoryCode": "11", "address": "154 CIVIC CENTRE ROAD", "city": "PETAWAWA", "province": "ON", "country": "CA", "postalCode": "K8H3H5", "twitter": "None", "instagram": "None", "facebook": "None", "youtube": "None", "website": "None", "summary": "None", "logo": "None", "latitude": 45.89320200610489, "longitude": -77.25596411696777}, "896610201RR0001": {"name": "PETAWAWA HERITAGE SOCIETY", "designationCode": "C", "categoryCode": "52", "address": "24 RUNGE DR", "city": "PEMBROKE", "province": "ON", "country": "CA", "postalCode": "K8A8P2", "twitter": "None", "instagram": "None", "facebook": "None", "youtube": "None", "website": "None", "summary": "None", "logo": "None", "latitude": 45.865074096918086, "longitude": -77.22600467343779}, "892850082RR0001": {"name": "PETAWAWA MILITARY FAMILY RESOURCE CENTRE INCORPORATED", "designationCode": "C", "categoryCode": "59", "address": "10-16 REGALBUTO STREET", "city": "PETAWAWA", "province": "ON", "country": "CA", "postalCode": "K8H1L3", "twitter": "None", "instagram": "None", "facebook": "None", "youtube": "None", "website": "None", "summary": "None", "logo": "None", "latitude": 45.906249290335786, "longitude": -77.27019533329916}, "119091718RR0001": {"name": "PETAWAWA PRESBYTERIAN CHURCH", "designationCode": "C", "categoryCode": "37", "address": "24 ETHEL STREET", "city": "PETAWAWA", "province": "ON", "country": "CA", "postalCode": "K8H2C1", "twitter": "None", "instagram": "None", "facebook": "None", "youtube": "None", "website": "None", "summary": "None", "logo": "None", "latitude": 45.8969580016448, "longitude": -77.27569122652838}, "824916274RR0001": {"name": "PETAWAWA ROTARY FOUNDATION INC", "designationCode": "A", "categoryCode": "63", "address": "204B HAWKINS", "city": "KILLALOE", "province": "ON", "country": "CA", "postalCode": "K0J2A0", "twitter": "None", "instagram": "None", "facebook": "None", "youtube": "None", "website": "None", "summary": "None", "logo": "None", "latitude": 45.5574758330118, "longitude": -77.37569042262834}, "893063768RR0001": {"name": "PETER & JOANNE BROWN FOUNDATION", "designationCode": "B", "categoryCode": "03", "address": "1600 - 333 SEYMOUR ST", "city": "VANCOUVER", "province": "BC", "country": "CA", "postalCode": "V6B0A4", "twitter": "None", "instagram": "None", "facebook": "None", "youtube": "None", "website": "None", "summary": "None", "logo": "None", "latitude": 49.28514037942167, "longitude": -123.11218777257757}, "891321044RR0001": {"name": "PETER D CURRY CHANCELLOR'S AWARD FOUNDATION", "designationCode": "B", "categoryCode": "25", "address": "447 PORTAGE AVENUE            INVESTORS GROUP TRUST CO. LTD.", "city": "WINNIPEG", "province": "MB", "country": "CA", "postalCode": "R3C3B6", "twitter": "None", "instagram": "None", "facebook": "None", "youtube": "None", "website": "None", "summary": "None", "logo": "None", "latitude": 49.899525000000054, "longitude": -97.14112999999993}, "899795942RR0001": {"name": "PETER ELZINGA FAMILY FOUNDATION", "designationCode": "B", "categoryCode": "21", "address": "4367-99 STREET", "city": "EDMONTON", "province": "AB", "country": "CA", "postalCode": "T6E5E4", "twitter": "None", "instagram": "None", "facebook": "None", "youtube": "None", "website": "None", "summary": "None", "logo": "None", "latitude": 53.481555869553915, "longitude": -113.48597642333701}, "864688551RR0001": {"name": "PETER GZOWSKI FOUNDATION FOR LITERACY", "designationCode": "A", "categoryCode": "23", "address": "199 BAY STREET SUITE 4000     COMMERCE COURT WEST", "city": "TORONTO", "province": "ON", "country": "CA", "postalCode": "M5L1A9", "twitter": "None", "instagram": "None", "facebook": "None", "youtube": "None", "website": "None", "summary": "None", "logo": "None", "latitude": 43.64868300000006, "longitude": -79.38544399999994}, "894294792RR0001": {"name": "PETER JIM/ROSIE JIM FOUNDATION", "designationCode": "B", "categoryCode": "03", "address": "8285 MAIN STREET", "city": "VANCOUVER", "province": "BC", "country": "CA", "postalCode": "V5X3L7", "twitter": "None", "instagram": "None", "facebook": "None", "youtube": "None", "website": "None", "summary": "None", "logo": "None", "latitude": 49.20953495337295, "longitude": -123.10231443620494}, "866664451RR0001": {"name": "PETER MCDONALD MINISTRIES", "designationCode": "C", "categoryCode": "43", "address": "34 BRIARSDALE DR", "city": "ST CATHARINES", "province": "ON", "country": "CA", "postalCode": "L2T2Z5", "twitter": "None", "instagram": "None", "facebook": "None", "youtube": "None", "website": "None", "summary": "None", "logo": "None", "latitude": 43.14183533337154, "longitude": -79.22597814472857}, "107839359RR0001": {"name": "PETER PAN CO-OPERATIVE PRE-SCHOOL OF HAMILTON INC.", "designationCode": "C", "categoryCode": "20", "address": "P.O. BOX 30011                RPO UPPER JAMES", "city": "HAMILTON", "province": "ON", "country": "CA", "postalCode": "L9B0E4", "twitter": "None", "instagram": "None", "facebook": "None", "youtube": "None", "website": "None", "summary": "None", "logo": "None"}, "107839417RR0001": {"name": "PETER PAN DAY NURSERY INC.", "designationCode": "C", "categoryCode": "01", "address": "165 KERR AVENUE", "city": "DAUPHIN", "province": "MB", "country": "CA", "postalCode": "R7N3M7", "twitter": "None", "instagram": "None", "facebook": "None", "youtube": "None", "website": "None", "summary": "None", "logo": "None", "latitude": 51.14754475084146, "longitude": -100.03482253711964}, "891251779RR0001": {"name": "PETER PAUL CHARITABLE FOUNDATION INC", "designationCode": "B", "categoryCode": "03", "address": "4800 DUNDAS STREET WEST       STE 210", "city": "TORONTO", "province": "ON", "country": "CA", "postalCode": "M9A1B1", "twitter": "None", "instagram": "None", "facebook": "None", "youtube": "None", "website": "None", "summary": "None", "logo": "None", "latitude": 43.65128994284136, "longitude": -79.5265369087078}, "890743990RR0001": {"name": "PETER WALL CHARITABLE FOUNDATION", "designationCode": "C", "categoryCode": "20", "address": "5TH FLOOR - 1088 BURRARD ST", "city": "VANCOUVER", "province": "BC", "country": "CA", "postalCode": "V6Z2R9", "twitter": "None", "instagram": "None", "facebook": "None", "youtube": "None", "website": "None", "summary": "None", "logo": "None", "latitude": 49.280396733250804, "longitude": -123.12702646817505}}