{"860149210RR0001": {"name": "Saint Andrew's By-The-Rideau Anglican Church", "designationCode": "C", "categoryCode": "30", "address": "P.O BOX 614                   72 CONCESSION ST", "city": "WESTPORT", "province": "ON", "country": "CA", "postalCode": "K0G1X0", "twitter": "None", "instagram": "None", "facebook": "None", "youtube": "None", "website": "None", "summary": "None", "logo": "None", "latitude": 44.67357362992596, "longitude": -76.39677203647078}, "899847321RR0001": {"name": "Saint Andrews Rural Cemetery", "designationCode": "C", "categoryCode": "59", "address": "25 PRINCESS ROYAL ST", "city": "ST. ANDREWS", "province": "NB", "country": "CA", "postalCode": "E5B1Z8", "twitter": "None", "instagram": "None", "facebook": "None", "youtube": "None", "website": "None", "summary": "None", "logo": "None", "latitude": 45.07228105384042, "longitude": -67.05073759227314}, "119109833RR0014": {"name": "Saint Benedict", "designationCode": "C", "categoryCode": "38", "address": "45 RADCLIFFE DR.", "city": "HALIFAX", "province": "NS", "country": "CA", "postalCode": "B3M0E1", "twitter": "None", "instagram": "None", "facebook": "None", "youtube": "None", "website": "None", "summary": "None", "logo": "None", "latitude": 44.665764472415965, "longitude": -63.658929537653336}, "835434739RR0001": {"name": "Saint Benedict's Table", "designationCode": "C", "categoryCode": "30", "address": "175 COLONY STREET", "city": "WINNIPEG", "province": "MB", "country": "CA", "postalCode": "R3C1W2", "twitter": "None", "instagram": "None", "facebook": "None", "youtube": "None", "website": "None", "summary": "None", "logo": "None", "latitude": 49.8857761887299, "longitude": -97.15126997648493}, "125710665RR0001": {"name": "Saint Charbel Maronite Catholic Parish Ottawa", "designationCode": "C", "categoryCode": "39", "address": "245 DONALD ST", "city": "OTTAWA", "province": "ON", "country": "CA", "postalCode": "K1K1N1", "twitter": "None", "instagram": "None", "facebook": "None", "youtube": "None", "website": "None", "summary": "None", "logo": "None", "latitude": 45.42768042498085, "longitude": -75.65775571302436}, "801169202RR0001": {"name": "Saint Charbel Maronite Parish - Mississauga", "designationCode": "C", "categoryCode": "38", "address": "7250 WEST CREDIT AVE", "city": "MISSISSAUGA", "province": "ON", "country": "CA", "postalCode": "L5N5N1", "twitter": "None", "instagram": "None", "facebook": "None", "youtube": "None", "website": "None", "summary": "None", "logo": "None", "latitude": 43.60934778683142, "longitude": -79.76000907273918}, "835457532RR0001": {"name": "Saint Elias Maronite Catholic Church - London", "designationCode": "C", "categoryCode": "39", "address": "267 ADELAIDE STREET SOUTH", "city": "LONDON", "province": "ON", "country": "CA", "postalCode": "N5Z3K7", "twitter": "None", "instagram": "None", "facebook": "None", "youtube": "None", "website": "None", "summary": "None", "logo": "None", "latitude": 42.9617377437824, "longitude": -81.21901477552042}, "809795719RR0001": {"name": "Saint Elizabeth Community Enterprise", "designationCode": "A", "categoryCode": "13", "address": "90 ALLSTATE PARKWAY           SUITE 300", "city": "MARKHAM", "province": "ON", "country": "CA", "postalCode": "L3R6H3", "twitter": "None", "instagram": "None", "facebook": "None", "youtube": "None", "website": "None", "summary": "None", "logo": "None", "latitude": 43.85413063693829, "longitude": -79.3679925219276}, "884726753RR0001": {"name": "Saint Elizabeth Foundation", "designationCode": "C", "categoryCode": "11", "address": "90 ALLSTATE PARKWAY,SUITE 300", "city": "MARKHAM", "province": "ON", "country": "CA", "postalCode": "L3R6H3", "twitter": "None", "instagram": "None", "facebook": "None", "youtube": "None", "website": "None", "summary": "None", "logo": "None", "latitude": 43.85413063693829, "longitude": -79.3679925219276}, "831977251RR0001": {"name": "Saint Elizabeth Health Services", "designationCode": "C", "categoryCode": "09", "address": "90 ALL STATE PARKWAY          SUITE 300", "city": "MARKHAM", "province": "ON", "country": "CA", "postalCode": "L3R6H3", "twitter": "None", "instagram": "None", "facebook": "None", "youtube": "None", "website": "None", "summary": "None", "logo": "None", "latitude": 43.85436000000006, "longitude": -79.36817299999993}, "812234003RR0001": {"name": "Saint Francis de Sales Catholic Parish Inc.", "designationCode": "C", "categoryCode": "38", "address": "POST OFFICE BOX 75", "city": "GEORGETOWN", "province": "PE", "country": "CA", "postalCode": "C0A1L0", "twitter": "None", "instagram": "None", "facebook": "None", "youtube": "None", "website": "None", "summary": "None", "logo": "None", "latitude": 46.198799489087506, "longitude": -62.55041554596116}, "848623575RR0021": {"name": "Saint Francis of Assisi Church", "designationCode": "C", "categoryCode": "38", "address": "214 KING AVE E", "city": "NEWCASTLE", "province": "ON", "country": "CA", "postalCode": "L1B1H5", "twitter": "None", "instagram": "None", "facebook": "None", "youtube": "None", "website": "None", "summary": "None", "logo": "None", "latitude": 43.918489045270725, "longitude": -78.5846688043452}, "872069778RR0001": {"name": "Saint Francis Scholarship Fund Foundation", "designationCode": "C", "categoryCode": "21", "address": "877 NORTHMOUNT DR. N.W.", "city": "CALGARY", "province": "AB", "country": "CA", "postalCode": "T2L0A3", "twitter": "None", "instagram": "None", "facebook": "None", "youtube": "None", "website": "None", "summary": "None", "logo": "None", "latitude": 51.08535995392121, "longitude": -114.10130816209814}, "809379746RR0001": {"name": "Saint George's Coptic Orthodox Church Inc.", "designationCode": "C", "categoryCode": "39", "address": "66 NEWLAND CRESCENT", "city": "CHARLOTTETOWN", "province": "PE", "country": "CA", "postalCode": "C1A4H7", "twitter": "None", "instagram": "None", "facebook": "None", "youtube": "None", "website": "None", "summary": "None", "logo": "None", "latitude": 46.24614554232789, "longitude": -63.137081641121895}, "824546154RR0001": {"name": "Saint I. Tesviteanul Romanian Orthodox Church", "designationCode": "C", "categoryCode": "39", "address": "31 CHURCH STREET", "city": "SCHOMBERG", "province": "ON", "country": "CA", "postalCode": "L0G1T0", "twitter": "None", "instagram": "None", "facebook": "None", "youtube": "None", "website": "None", "summary": "None", "logo": "None", "latitude": 44.00033359172489, "longitude": -79.68404946266378}, "131506008RR0001": {"name": "Saint James Lutheran Church", "designationCode": "C", "categoryCode": "32", "address": "871 CAVALIER DR", "city": "WINNIPEG", "province": "MB", "country": "CA", "postalCode": "R2Y1C7", "twitter": "None", "instagram": "None", "facebook": "None", "youtube": "None", "website": "None", "summary": "None", "logo": "None", "latitude": 49.892966202896815, "longitude": -97.30100347077212}, "835554817RR0001": {"name": "Saint James Music Academy", "designationCode": "C", "categoryCode": "22", "address": "303 CORDOVA ST E", "city": "VANCOUVER", "province": "BC", "country": "CA", "postalCode": "V6A1L4", "twitter": "None", "instagram": "None", "facebook": "None", "youtube": "None", "website": "None", "summary": "None", "logo": "None", "latitude": 49.2822545115412, "longitude": -123.09718997155059}, "848623575RR0022": {"name": "Saint James-The-Great", "designationCode": "C", "categoryCode": "38", "address": "82 JOSEPH STREET              PO BOX 32", "city": "MACTIER", "province": "ON", "country": "CA", "postalCode": "P0C1H0", "twitter": "None", "instagram": "None", "facebook": "None", "youtube": "None", "website": "None", "summary": "None", "logo": "None", "latitude": 45.138276858733875, "longitude": -79.77238271951657}, "774586721RR0001": {"name": "Saint John in the Wilderness Orthodox Sanctuary Society", "designationCode": "C", "categoryCode": "39", "address": "POST OFFICE BOX 313           6 MCINTYRE ROAD", "city": "KASLO", "province": "BC", "country": "CA", "postalCode": "V0G1M0", "twitter": "None", "instagram": "None", "facebook": "None", "youtube": "None", "website": "None", "summary": "None", "logo": "None", "latitude": 49.91053000000005, "longitude": -116.90458999999998}, "833514466RR0001": {"name": "Saint John Church of Christ", "designationCode": "C", "categoryCode": "39", "address": "61 BEL-AIR AVE", "city": "ROTHESAY", "province": "NB", "country": "CA", "postalCode": "E2E0L5", "twitter": "None", "instagram": "None", "facebook": "None", "youtube": "None", "website": "None", "summary": "None", "logo": "None", "latitude": 45.40623746617315, "longitude": -65.97928478886207}, "122001399RR0001": {"name": "Saint John Diocesan Cemetery Co. Inc.", "designationCode": "C", "categoryCode": "59", "address": "PO BOX 2281", "city": "SAINT JOHN", "province": "NB", "country": "CA", "postalCode": "E2L3V1", "twitter": "None", "instagram": "None", "facebook": "None", "youtube": "None", "website": "None", "summary": "None", "logo": "None", "latitude": 45.27342600000006, "longitude": -66.06407149999993}, "118919554RR0001": {"name": "Saint John First Wesleyan Church", "designationCode": "C", "categoryCode": "39", "address": "399 BOARS HEAD RD", "city": "SAINT JOHN", "province": "NB", "country": "CA", "postalCode": "E2K5C1", "twitter": "None", "instagram": "None", "facebook": "None", "youtube": "None", "website": "None", "summary": "None", "logo": "None", "latitude": 45.2923667510244, "longitude": -66.10830940106176}, "854579984RR0001": {"name": "Saint John Korean Church", "designationCode": "C", "categoryCode": "37", "address": "1760 ROTHESAY RD", "city": "ROTHESAY", "province": "NB", "country": "CA", "postalCode": "E2H2J5", "twitter": "None", "instagram": "None", "facebook": "None", "youtube": "None", "website": "None", "summary": "None", "logo": "None", "latitude": 45.34809581028089, "longitude": -66.01724102808288}, "118787233RR0001": {"name": "Saint John Shelter Ltd.", "designationCode": "C", "categoryCode": "54", "address": "295 BAYSIDE DRIVE", "city": "SAINT JOHN", "province": "NB", "country": "CA", "postalCode": "E2J1B1", "twitter": "None", "instagram": "None", "facebook": "None", "youtube": "None", "website": "None", "summary": "None", "logo": "None", "latitude": 45.277493603958575, "longitude": -66.03391397778299}, "805938701RR0001": {"name": "Saint John Waterfront Foundation Inc.", "designationCode": "C", "categoryCode": "53", "address": "1 MARKET SQ                   SUITE:301", "city": "SAINT JOHN", "province": "NB", "country": "CA", "postalCode": "E2L4Z6", "twitter": "None", "instagram": "None", "facebook": "None", "youtube": "None", "website": "None", "summary": "None", "logo": "None", "latitude": 45.27290845537185, "longitude": -66.06242835943401}, "826944522RR0001": {"name": "Saint John Women's Empowerment Network Inc.", "designationCode": "C", "categoryCode": "09", "address": "75 ADELAIDE ST", "city": "SAINT JOHN", "province": "NB", "country": "CA", "postalCode": "E2K1W4", "twitter": "None", "instagram": "None", "facebook": "None", "youtube": "None", "website": "None", "summary": "None", "logo": "None", "latitude": 45.276755532056086, "longitude": -66.080461546223}, "847969623RR0001": {"name": "Saint Jude's Health Management Institute", "designationCode": "C", "categoryCode": "09", "address": "101-310-15TH AVENUE SW", "city": "CALGARY", "province": "AB", "country": "CA", "postalCode": "T2R0P8", "twitter": "None", "instagram": "None", "facebook": "None", "youtube": "None", "website": "None", "summary": "None", "logo": "None", "latitude": 51.0389284041228, "longitude": -114.07625974760475}, "811576388RR0001": {"name": "Saint Lawrence Community Support Association", "designationCode": "C", "categoryCode": "09", "address": "PO BOX 21331 RPO CO-OP PLAZA", "city": "GRANDE PRAIRIE", "province": "AB", "country": "CA", "postalCode": "T8V6W7", "twitter": "None", "instagram": "None", "facebook": "None", "youtube": "None", "website": "None", "summary": "None", "logo": "None", "latitude": 55.17067000000003, "longitude": -118.78942999999998}, "839023371RR0001": {"name": "Saint Luke Romanian Orthodox Church", "designationCode": "C", "categoryCode": "39", "address": "100 ELDERBERRY TRAIL", "city": "AURORA", "province": "ON", "country": "CA", "postalCode": "L4G6X2", "twitter": "None", "instagram": "None", "facebook": "None", "youtube": "None", "website": "None", "summary": "None", "logo": "None", "latitude": 43.96075580102699, "longitude": -79.47749210897888}, "824621312RR0001": {"name": "Saint Mark and Saint Mary of Egypt Coptic Orthodox Church of Ottawa", "designationCode": "C", "categoryCode": "39", "address": "555 PARKDALE AVE", "city": "OTTAWA", "province": "ON", "country": "CA", "postalCode": "K1Y1H9", "twitter": "None", "instagram": "None", "facebook": "None", "youtube": "None", "website": "None", "summary": "None", "logo": "None", "latitude": 45.396480624213666, "longitude": -75.72647244056235}, "119189900RR0001": {"name": "Saint Mary's University", "designationCode": "C", "categoryCode": "20", "address": "923 ROBIE ST", "city": "HALIFAX", "province": "NS", "country": "CA", "postalCode": "B3H3C3", "twitter": "None", "instagram": "None", "facebook": "None", "youtube": "None", "website": "None", "summary": "None", "logo": "None", "latitude": 44.6326423648221, "longitude": -63.58312188047902}, "832510655RR0001": {"name": "Saint Matthew's Anglican Church", "designationCode": "C", "categoryCode": "30", "address": "2087 MCMILLAN ROAD", "city": "ABBOTSFORD", "province": "BC", "country": "CA", "postalCode": "V2S4Y3", "twitter": "None", "instagram": "None", "facebook": "None", "youtube": "None", "website": "None", "summary": "None", "logo": "None", "latitude": 49.04039346928396, "longitude": -122.26062568690617}, "855473864RR0001": {"name": "Saint Moses The Black Coptic Relief Organization", "designationCode": "C", "categoryCode": "09", "address": "29 RIZAL AVENUE,", "city": "MARKHAM", "province": "ON", "country": "CA", "postalCode": "L6B0L1", "twitter": "None", "instagram": "None", "facebook": "None", "youtube": "None", "website": "None", "summary": "None", "logo": "None", "latitude": 43.862689751024405, "longitude": -79.22324518275727}, "119109833RR0058": {"name": "Saint Mother Teresa of Kolkata Parish", "designationCode": "C", "categoryCode": "38", "address": "6032 NORMANDY DR", "city": "HALIFAX", "province": "NS", "country": "CA", "postalCode": "B3K2S9", "twitter": "None", "instagram": "None", "facebook": "None", "youtube": "None", "website": "None", "summary": "None", "logo": "None", "latitude": 44.66649792893427, "longitude": -63.613364366062804}, "107910259RR0234": {"name": "Saint Mother Teresa Albanian Mission", "designationCode": "C", "categoryCode": "38", "address": "739 BROWNS LINE", "city": "TORONTO", "province": "ON", "country": "CA", "postalCode": "M8W3V7", "twitter": "None", "instagram": "None", "facebook": "None", "youtube": "None", "website": "None", "summary": "None", "logo": "None"}, "815902564RR0001": {"name": "Saint Nectarios Romanian Orthodox Church", "designationCode": "C", "categoryCode": "39", "address": "1840 BLOOR STREET,            UNIT 506", "city": "MISSISSAUGA", "province": "ON", "country": "CA", "postalCode": "L4X1T2", "twitter": "None", "instagram": "None", "facebook": "None", "youtube": "None", "website": "None", "summary": "None", "logo": "None", "latitude": 43.62582587728688, "longitude": -79.58458389725352}, "839891702RR0001": {"name": "Saint Nicholas Greek Orthodox Church Ladies Philoptochos Society", "designationCode": "C", "categoryCode": "39", "address": "3780 CHEMIN DU SOUVENIR", "city": "LAVAL", "province": "QC", "country": "CA", "postalCode": "H7V1Y3", "twitter": "None", "instagram": "None", "facebook": "None", "youtube": "None", "website": "None", "summary": "None", "logo": "None", "latitude": 45.549724528420754, "longitude": -73.75460961073922}, "807973037RR0001": {"name": "Saint Nicholas Greek Orthodox Youth Association", "designationCode": "C", "categoryCode": "39", "address": "3780 CHEMIN DU SOUVENIR", "city": "LAVAL", "province": "QC", "country": "CA", "postalCode": "H7V1Y3", "twitter": "None", "instagram": "None", "facebook": "None", "youtube": "None", "website": "None", "summary": "None", "logo": "None", "latitude": 45.549724528420754, "longitude": -73.75460961073922}, "737063727RR0001": {"name": "Saint Nicholas Orthodox Church of Kamloops", "designationCode": "C", "categoryCode": "39", "address": "7-930 STAGECOACH DR", "city": "KAMLOOPS", "province": "BC", "country": "CA", "postalCode": "V2B0A9", "twitter": "None", "instagram": "None", "facebook": "None", "youtube": "None", "website": "None", "summary": "None", "logo": "None", "latitude": 50.72581767280262, "longitude": -120.36414134756805}, "844541953RR0001": {"name": "Saint Patrick's Church Restoration Society", "designationCode": "C", "categoryCode": "52", "address": "2263 BRUNSWICK STREET", "city": "HALIFAX", "province": "NS", "country": "CA", "postalCode": "B3K2Y9", "twitter": "None", "instagram": "None", "facebook": "None", "youtube": "None", "website": "None", "summary": "None", "logo": "None", "latitude": 44.65402080379695, "longitude": -63.58316681554062}, "825512197RR0001": {"name": "Saint Peter and Saint Paul Coptic Orthodox Church of Oakville", "designationCode": "C", "categoryCode": "39", "address": "1177 INVICTA DR", "city": "OAKVILLE", "province": "ON", "country": "CA", "postalCode": "L6H4M1", "twitter": "None", "instagram": "None", "facebook": "None", "youtube": "None", "website": "None", "summary": "None", "logo": "None", "latitude": 43.47545219652018, "longitude": -79.67682582679335}, "834854606RR0001": {"name": "Saint Peter by the Park (ANiC)", "designationCode": "C", "categoryCode": "30", "address": "55 VICTORIA AVE N", "city": "HAMILTON", "province": "ON", "country": "CA", "postalCode": "L8L5E3", "twitter": "None", "instagram": "None", "facebook": "None", "youtube": "None", "website": "None", "summary": "None", "logo": "None", "latitude": 43.254832892319186, "longitude": -79.8560836211839}, "827956285RR0001": {"name": "Saint Petka Serbian Orthodox Church in Saskatoon Corp.", "designationCode": "C", "categoryCode": "39", "address": "23 RAINY COURT", "city": "SASKATOON", "province": "SK", "country": "CA", "postalCode": "S7K4G1", "twitter": "None", "instagram": "None", "facebook": "None", "youtube": "None", "website": "None", "summary": "None", "logo": "None", "latitude": 52.163056992209725, "longitude": -106.6201472749435}, "108098559RR0003": {"name": "Saint Petka Serbian Orthodox Parish, Windsor, Ontario", "designationCode": "C", "categoryCode": "39", "address": "203-1501 LAKESHORE ROAD", "city": "LAKESHORE", "province": "ON", "country": "CA", "postalCode": "N0R1K0", "twitter": "None", "instagram": "None", "facebook": "None", "youtube": "None", "website": "None", "summary": "None", "logo": "None", "latitude": 42.293564444728204, "longitude": -82.58960978678435}, "813208709RR0001": {"name": "Saint Seraphim Orthodox Church", "designationCode": "C", "categoryCode": "39", "address": "2314 - 52 MABELLE AVE", "city": "ETOBICOKE", "province": "ON", "country": "CA", "postalCode": "M9A4X9", "twitter": "None", "instagram": "None", "facebook": "None", "youtube": "None", "website": "None", "summary": "None", "logo": "None", "latitude": 43.64618450126941, "longitude": -79.52968616331023}, "132410671RR0506": {"name": "Saint Stephen's Parish Conference", "designationCode": "C", "categoryCode": "09", "address": "1360 EAST 24TH STREET", "city": "NORTH VANCOUVER", "province": "BC", "country": "CA", "postalCode": "V7J1R5", "twitter": "None", "instagram": "None", "facebook": "None", "youtube": "None", "website": "None", "summary": "None", "logo": "None", "latitude": 49.330455442148875, "longitude": -123.03705146863639}, "118841055RR0015": {"name": "Saint Theresa's Mission", "designationCode": "C", "categoryCode": "38", "address": "5119 5TH AVE", "city": "WHITEHORSE", "province": "YT", "country": "CA", "postalCode": "Y1A1L5", "twitter": "None", "instagram": "None", "facebook": "None", "youtube": "None", "website": "None", "summary": "None", "logo": "None", "latitude": 60.7190449431637, "longitude": -135.0584880610393}, "832943393RR0001": {"name": "Saint Thomas Traditional Anglican Church", "designationCode": "C", "categoryCode": "30", "address": "2220B EMBLETON CRES", "city": "COURTENAY", "province": "BC", "country": "CA", "postalCode": "V9N8W9", "twitter": "None", "instagram": "None", "facebook": "None", "youtube": "None", "website": "None", "summary": "None", "logo": "None", "latitude": 49.681610837950934, "longitude": -125.02149629917237}, "838074862RR0001": {"name": "Saint Zoe Parish Church", "designationCode": "C", "categoryCode": "39", "address": "13 PATHLINK GATE", "city": "BRAMPTON", "province": "ON", "country": "CA", "postalCode": "L6P2G2", "twitter": "None", "instagram": "None", "facebook": "None", "youtube": "None", "website": "None", "summary": "None", "logo": "None", "latitude": 43.76950786678397, "longitude": -79.69391503468182}, "812995983RR0001": {"name": "Saint-\u00c9loi Chapel Foundation, Inc. / Fondation Chapelle Saint-Eloi, Inc.", "designationCode": "C", "categoryCode": "38", "address": "493 CH DE L'EGLISE", "city": "SAINT-ANDRE", "province": "NB", "country": "CA", "postalCode": "E3Y2Y2", "twitter": "None", "instagram": "None", "facebook": "None", "youtube": "None", "website": "None", "summary": "None", "logo": "None", "latitude": 47.10104052899767, "longitude": -67.76397972300768}, "132410671RR0488": {"name": "Saint-Vincent de Paul Society - St. Michael's of Dunville ON", "designationCode": "C", "categoryCode": "09", "address": "116 LOCK ST E", "city": "DUNNVILLE", "province": "ON", "country": "CA", "postalCode": "N1A1J7", "twitter": "None", "instagram": "None", "facebook": "None", "youtube": "None", "website": "None", "summary": "None", "logo": "None", "latitude": 42.9028089380483, "longitude": -79.6192518739057}, "107020331RR0018": {"name": "Saints Joachim and Ann Parish", "designationCode": "C", "categoryCode": "38", "address": "135 SIMPSON DRIVE", "city": "SAINT JOHN", "province": "NB", "country": "CA", "postalCode": "E2H2C5", "twitter": "None", "instagram": "None", "facebook": "None", "youtube": "None", "website": "None", "summary": "None", "logo": "None", "latitude": 45.3213082028968, "longitude": -66.02063595700828}, "840054712RR0001": {"name": "Sakyadhita Canada Association of Buddhist Women", "designationCode": "C", "categoryCode": "35", "address": "7 BENT TREE PLACE", "city": "CALGARY", "province": "AB", "country": "CA", "postalCode": "T3Z3A3", "twitter": "None", "instagram": "None", "facebook": "None", "youtube": "None", "website": "None", "summary": "None", "logo": "None", "latitude": 51.01652516197914, "longitude": -114.27974122310414}, "809655038RR0001": {"name": "Salaama Educational Foundation", "designationCode": "B", "categoryCode": "20", "address": "560 WESTMOUNT RD N", "city": "WATERLOO", "province": "ON", "country": "CA", "postalCode": "N2L0A9", "twitter": "None", "instagram": "None", "facebook": "None", "youtube": "None", "website": "None", "summary": "None", "logo": "None", "latitude": 43.485506013618654, "longitude": -80.56692555643747}, "107950586RR0001": {"name": "Salem Community Bible Church", "designationCode": "C", "categoryCode": "34", "address": "691 ALEXANDER AVE", "city": "WINNIPEG", "province": "MB", "country": "CA", "postalCode": "R3E1J1", "twitter": "None", "instagram": "None", "facebook": "None", "youtube": "None", "website": "None", "summary": "None", "logo": "None", "latitude": 49.90744396476991, "longitude": -97.15463518691222}, "809154776RR0001": {"name": "Salem United Church", "designationCode": "C", "categoryCode": "44", "address": "8 HILLCREST ST E", "city": "TEESWATER", "province": "ON", "country": "CA", "postalCode": "N0G2S0", "twitter": "None", "instagram": "None", "facebook": "None", "youtube": "None", "website": "None", "summary": "None", "logo": "None", "latitude": 44.00072399423409, "longitude": -81.2865022214516}, "811038892RR0001": {"name": "Salem-Mariposa Church Building & Cemetery", "designationCode": "C", "categoryCode": "52", "address": "22 DUKE ST", "city": "LINDSAY", "province": "ON", "country": "CA", "postalCode": "K9V2K4", "twitter": "None", "instagram": "None", "facebook": "None", "youtube": "None", "website": "None", "summary": "None", "logo": "None", "latitude": 44.350113752969875, "longitude": -78.73035064720547}, "748241890RR0001": {"name": "Salib Foundation", "designationCode": "B", "categoryCode": "03", "address": "800-1730 ST. LAURENT BLVD", "city": "OTTAWA", "province": "ON", "country": "CA", "postalCode": "K1G5L1", "twitter": "None", "instagram": "None", "facebook": "None", "youtube": "None", "website": "None", "summary": "None", "logo": "None", "latitude": 45.406067145969324, "longitude": -75.62717223584694}, "825861974RR0001": {"name": "Salisbury Helping Hands Inc.", "designationCode": "C", "categoryCode": "09", "address": "64 DOUGLAS STREET", "city": "SALISBURY", "province": "NB", "country": "CA", "postalCode": "E4J3E3", "twitter": "None", "instagram": "None", "facebook": "None", "youtube": "None", "website": "None", "summary": "None", "logo": "None", "latitude": 46.02539830106851, "longitude": -65.04056573352146}, "837986140RR0001": {"name": "Salish Sea Marine Rescue Society", "designationCode": "C", "categoryCode": "59", "address": "P.O. BOX 25", "city": "PENDER ISLAND", "province": "BC", "country": "CA", "postalCode": "V0N2M0", "twitter": "None", "instagram": "None", "facebook": "None", "youtube": "None", "website": "None", "summary": "None", "logo": "None", "latitude": 50.21150400000001, "longitude": -126.60219899999998}, "802946012RR0001": {"name": "Salmon Arm Mennonite Church", "designationCode": "C", "categoryCode": "34", "address": "597 GRANDVIEW BENCH ROAD", "city": "SALMON ARM", "province": "BC", "country": "CA", "postalCode": "V1E2Y1", "twitter": "None", "instagram": "None", "facebook": "None", "youtube": "None", "website": "None", "summary": "None", "logo": "None", "latitude": 50.6564730574773, "longitude": -119.1514096559617}, "876436163RR0001": {"name": "Salon des jeunes de Thurso", "designationCode": "C", "categoryCode": "09", "address": "134 RUE ALEXANDRE", "city": "THURSO", "province": "QC", "country": "CA", "postalCode": "J0X3B0", "twitter": "None", "instagram": "None", "facebook": "None", "youtube": "None", "website": "None", "summary": "None", "logo": "None", "latitude": 45.597226782152845, "longitude": -75.24758350354176}, "864191424RR0001": {"name": "Salt Spring Farmers' Heritage Foundation", "designationCode": "C", "categoryCode": "50", "address": "351 RAINBOW ROAD              P. O. BOX 661, GANGES PO", "city": "SALT SPRING ISLAND", "province": "BC", "country": "CA", "postalCode": "V8K2W3", "twitter": "None", "instagram": "None", "facebook": "None", "youtube": "None", "website": "None", "summary": "None", "logo": "None", "latitude": 48.854095189052046, "longitude": -123.51725944874386}, "857491427RR0001": {"name": "Salt Spring Film Festival Society", "designationCode": "C", "categoryCode": "22", "address": "PO BOX 741 GANGES", "city": "SALT SPRING ISLAND", "province": "BC", "country": "CA", "postalCode": "V8K2W3", "twitter": "None", "instagram": "None", "facebook": "None", "youtube": "None", "website": "None", "summary": "None", "logo": "None", "latitude": 48.85312235658836, "longitude": -123.46678846442953}, "841753288RR0001": {"name": "Salt Spring Fire Rescue Foundation", "designationCode": "C", "categoryCode": "59", "address": "105 LOWER GANGES RD", "city": "SALT SPRING ISLAND", "province": "BC", "country": "CA", "postalCode": "V8K2T1", "twitter": "None", "instagram": "None", "facebook": "None", "youtube": "None", "website": "None", "summary": "None", "logo": "None", "latitude": 48.85282096947312, "longitude": -123.49964700164479}, "848383659RR0001": {"name": "Salt Spring Island Farmland Trust Society", "designationCode": "C", "categoryCode": "52", "address": "107 CASTLE CROSS ROAD", "city": "SALT SPRING ISLAND", "province": "BC", "country": "CA", "postalCode": "V8K2G1", "twitter": "None", "instagram": "None", "facebook": "None", "youtube": "None", "website": "None", "summary": "None", "logo": "None", "latitude": 48.83312557861921, "longitude": -123.48142911370881}, "811053255RR0001": {"name": "Salt Spring Island Foundation", "designationCode": "A", "categoryCode": "03", "address": "PO 244                        GANGES POST OFFICE", "city": "SALT SPRING ISLAND", "province": "BC", "country": "CA", "postalCode": "V8K2V9", "twitter": "None", "instagram": "None", "facebook": "None", "youtube": "None", "website": "None", "summary": "None", "logo": "None", "latitude": 48.85312235658836, "longitude": -123.46678846442953}, "849052790RR0001": {"name": "Salt Spring Literacy Society", "designationCode": "C", "categoryCode": "21", "address": "PO 288", "city": "SALT SPRING ISLAND", "province": "BC", "country": "CA", "postalCode": "V8K2V9", "twitter": "None", "instagram": "None", "facebook": "None", "youtube": "None", "website": "None", "summary": "None", "logo": "None", "latitude": 48.85955700000005, "longitude": -123.50808349999994}, "854152469RR0001": {"name": "Saltwater Education Society", "designationCode": "C", "categoryCode": "20", "address": "LOWER 2311 ROSEWALL CRES", "city": "COURTENAY", "province": "BC", "country": "CA", "postalCode": "V9N8R9", "twitter": "None", "instagram": "None", "facebook": "None", "youtube": "None", "website": "None", "summary": "None", "logo": "None", "latitude": 49.6704934346184, "longitude": -124.99885846347185}, "825240138RR0001": {"name": "Salvation Church", "designationCode": "C", "categoryCode": "39", "address": "2800 DON MILLS RD", "city": "NORTH YORK", "province": "ON", "country": "CA", "postalCode": "M2J3B6", "twitter": "None", "instagram": "None", "facebook": "None", "youtube": "None", "website": "None", "summary": "None", "logo": "None", "latitude": 43.78002035832985, "longitude": -79.34947577240469}, "811726728RR0001": {"name": "Salvation Ministries Canada (Home of Success)", "designationCode": "C", "categoryCode": "39", "address": "5560 KENNEDY RD", "city": "MISSISSAUGA", "province": "ON", "country": "CA", "postalCode": "L4Z2A9", "twitter": "None", "instagram": "None", "facebook": "None", "youtube": "None", "website": "None", "summary": "None", "logo": "None", "latitude": 43.626739871227365, "longitude": -79.65643198675578}, "812628030RR0001": {"name": "Salvus Clinic Inc.", "designationCode": "C", "categoryCode": "11", "address": "22 CHURCH STREET              SUITE T190", "city": "MONCTON", "province": "NB", "country": "CA", "postalCode": "E1C0P7", "twitter": "None", "instagram": "None", "facebook": "None", "youtube": "None", "website": "None", "summary": "None", "logo": "None", "latitude": 46.08913284179702, "longitude": -64.77832395449812}, "809189145RR0001": {"name": "Salzberg Family Foundation / Fondation Famille Salzberg", "designationCode": "B", "categoryCode": "03", "address": "608 - 6300 AV DU PARC", "city": "MONTREAL", "province": "QC", "country": "CA", "postalCode": "H2V4H8", "twitter": "None", "instagram": "None", "facebook": "None", "youtube": "None", "website": "None", "summary": "None", "logo": "None", "latitude": 45.52650066192527, "longitude": -73.61232384168142}, "827516626RR0001": {"name": "Sam Bo Jung Sa Buddhist Society", "designationCode": "C", "categoryCode": "35", "address": "1375 15TH ST W", "city": "NORTH VANCOUVER", "province": "BC", "country": "CA", "postalCode": "V7P1N1", "twitter": "None", "instagram": "None", "facebook": "None", "youtube": "None", "website": "None", "summary": "None", "logo": "None", "latitude": 49.322071499567315, "longitude": -123.11263286081135}, "839206158RR0001": {"name": "Sam Project for Sustainability Through Agriculture and Micro-Enterprises Society", "designationCode": "C", "categoryCode": "09", "address": "85 JANE PL", "city": "COMOX", "province": "BC", "country": "CA", "postalCode": "V9M3N4", "twitter": "None", "instagram": "None", "facebook": "None", "youtube": "None", "website": "None", "summary": "None", "logo": "None", "latitude": 49.66999374089054, "longitude": -124.92285187181736}, "815708094RR0001": {"name": "Samaj Sewa Association", "designationCode": "A", "categoryCode": "03", "address": "308 RUTHERFORD ROAD SOUTH", "city": "BRAMPTON", "province": "ON", "country": "CA", "postalCode": "L6W3K7", "twitter": "None", "instagram": "None", "facebook": "None", "youtube": "None", "website": "None", "summary": "None", "logo": "None", "latitude": 43.68332023928073, "longitude": -79.72103358321345}, "848773206RR0001": {"name": "Samaritan Place Corp.", "designationCode": "C", "categoryCode": "09", "address": "375 CORNISH ROAD", "city": "SASKATOON", "province": "SK", "country": "CA", "postalCode": "S7T0P3", "twitter": "None", "instagram": "None", "facebook": "None", "youtube": "None", "website": "None", "summary": "None", "logo": "None", "latitude": 52.086331194010015, "longitude": -106.62895625062038}, "826502338RR0001": {"name": "Samaritan Place Foundation Inc.", "designationCode": "A", "categoryCode": "03", "address": "375 CORNISH ROAD", "city": "SASKATOON", "province": "SK", "country": "CA", "postalCode": "S7T0P3", "twitter": "None", "instagram": "None", "facebook": "None", "youtube": "None", "website": "None", "summary": "None", "logo": "None", "latitude": 52.086331194010015, "longitude": -106.62895625062038}, "802266205RR0001": {"name": "Samaritan's Heart Ministries Inc.", "designationCode": "C", "categoryCode": "49", "address": "36-371 YONGE STREET,", "city": "KINGSTON", "province": "ON", "country": "CA", "postalCode": "K7M1G2", "twitter": "None", "instagram": "None", "facebook": "None", "youtube": "None", "website": "None", "summary": "None", "logo": "None", "latitude": 44.229377242022046, "longitude": -76.51837408379038}, "863387429RR0001": {"name": "Sampradaya Dance Academy", "designationCode": "C", "categoryCode": "22", "address": "5-3250 RIDGEWAY DR", "city": "MISSISSAUGA", "province": "ON", "country": "CA", "postalCode": "L5L5Y6", "twitter": "None", "instagram": "None", "facebook": "None", "youtube": "None", "website": "None", "summary": "None", "logo": "None", "latitude": 43.51952302270796, "longitude": -79.69809904795378}, "746004092RR0001": {"name": "Samuel Centre for Social Connectedness (SCSC)", "designationCode": "C", "categoryCode": "20", "address": "2360 DIXIE ROAD", "city": "MISSISSAUGA", "province": "ON", "country": "CA", "postalCode": "L4Y1Z7", "twitter": "None", "instagram": "None", "facebook": "None", "youtube": "None", "website": "None", "summary": "None", "logo": "None", "latitude": 43.60423660999628, "longitude": -79.57691751891079}, "808150874RR0001": {"name": "Samuel's Mantle Training Society", "designationCode": "C", "categoryCode": "39", "address": "206 - 2316 MCCALLUM RD", "city": "ABBOTSFORD", "province": "BC", "country": "CA", "postalCode": "V2S3P4", "twitter": "None", "instagram": "None", "facebook": "None", "youtube": "None", "website": "None", "summary": "None", "logo": "None", "latitude": 49.044077947544565, "longitude": -122.29338957100845}, "889043592RR0001": {"name": "San Lorenzo Ruiz Anglican Church", "designationCode": "C", "categoryCode": "30", "address": "525 BLOOR ST.EAST", "city": "TORONTO", "province": "ON", "country": "CA", "postalCode": "M4W1J1", "twitter": "None", "instagram": "None", "facebook": "None", "youtube": "None", "website": "None", "summary": "None", "logo": "None", "latitude": 43.672179616134926, "longitude": -79.37386786678395}, "818021594RR0001": {"name": "Sanad Collective", "designationCode": "C", "categoryCode": "60", "address": "1722 MONTREAL ROAD", "city": "OTTAWA", "province": "ON", "country": "CA", "postalCode": "K1J1J4", "twitter": "None", "instagram": "None", "facebook": "None", "youtube": "None", "website": "None", "summary": "None", "logo": "None", "latitude": 45.44600259781308, "longitude": -75.61068408396326}, "845829597RR0001": {"name": "Sanatan Dharma Temple - Le Temple de Sanatan Religion", "designationCode": "C", "categoryCode": "48", "address": "4711 AVENUE PLAMONDON         302", "city": "MONTREAL", "province": "QC", "country": "CA", "postalCode": "H3W1E4", "twitter": "None", "instagram": "None", "facebook": "None", "youtube": "None", "website": "None", "summary": "None", "logo": "None", "latitude": 45.4965453377863, "longitude": -73.63976825662165}, "838617231RR0001": {"name": "Sanatan Hindu Cultural Society", "designationCode": "C", "categoryCode": "48", "address": "266 PANAMOUNT HILL NW", "city": "CALGARY", "province": "AB", "country": "CA", "postalCode": "T3K5M3", "twitter": "None", "instagram": "None", "facebook": "None", "youtube": "None", "website": "None", "summary": "None", "logo": "None", "latitude": 51.15503641326677, "longitude": -114.07417868039134}, "850716606RR0001": {"name": "Sanatan Mandir Cultural Society of Fort McMurray", "designationCode": "C", "categoryCode": "48", "address": "PO BOX 120 RPO EAGLE RIDGE", "city": "FORT MCMURRAY", "province": "AB", "country": "CA", "postalCode": "T9K2Y4", "twitter": "None", "instagram": "None", "facebook": "None", "youtube": "None", "website": "None", "summary": "None", "logo": "None", "latitude": 56.75279855194136, "longitude": -111.440763}, "831903869RR0001": {"name": "Sanctuaire \u00e9vang\u00e9lique p\u00eacheur d'homme", "designationCode": "C", "categoryCode": "39", "address": "12047 AV JOSEPH-TASSE", "city": "MONTREAL", "province": "QC", "country": "CA", "postalCode": "H1E6A7", "twitter": "None", "instagram": "None", "facebook": "None", "youtube": "None", "website": "None", "summary": "None", "logo": "None", "latitude": 45.63266797030983, "longitude": -73.59332147625379}, "829162965RR0001": {"name": "Sanctuaire du Sacr\u00e9-Coeur et de Saint-Padre-Pio", "designationCode": "C", "categoryCode": "49", "address": "3650, BOUL. DE LA ROUSSELIERE", "city": "MONTREAL", "province": "QC", "country": "CA", "postalCode": "H1A2X9", "twitter": "None", "instagram": "None", "facebook": "None", "youtube": "None", "website": "None", "summary": "None", "logo": "None", "latitude": 45.67050432283996, "longitude": -73.51178670863827}, "769062696RR0001": {"name": "Sanctuaire Ahaso Spemki/Ahaso Spemki Sanctuary", "designationCode": "C", "categoryCode": "54", "address": "960 CH DES PERES", "city": "MAGOG", "province": "QC", "country": "CA", "postalCode": "J1X5R9", "twitter": "None", "instagram": "None", "facebook": "None", "youtube": "None", "website": "None", "summary": "None", "logo": "None", "latitude": 45.25485485838978, "longitude": -72.21569913573484}, "842775231RR0001": {"name": "Sanctuary of Refuge Ministries", "designationCode": "C", "categoryCode": "39", "address": "16 CHIPSTEAD AVENUE,", "city": "BRAMPTON", "province": "ON", "country": "CA", "postalCode": "L6X4G8", "twitter": "None", "instagram": "None", "facebook": "None", "youtube": "None", "website": "None", "summary": "None", "logo": "None", "latitude": 43.674990422153584, "longitude": -79.79122152943036}, "841769284RR0001": {"name": "Sanctuary Mental Health Society", "designationCode": "C", "categoryCode": "19", "address": "SECOND FLOOR,107 EAST 3RD AVE.", "city": "VANCOUVER", "province": "BC", "country": "CA", "postalCode": "V5T1C7", "twitter": "None", "instagram": "None", "facebook": "None", "youtube": "None", "website": "None", "summary": "None", "logo": "None", "latitude": 49.26826948600598, "longitude": -123.1025127485429}, "802861435RR0001": {"name": "Sanctum Care Group Inc.", "designationCode": "C", "categoryCode": "10", "address": "134 AVENUE O S", "city": "SASKATOON", "province": "SK", "country": "CA", "postalCode": "S7M2R5", "twitter": "None", "instagram": "None", "facebook": "None", "youtube": "None", "website": "None", "summary": "None", "logo": "None", "latitude": 52.1278922514571, "longitude": -106.69211727944517}, "828238311RR0001": {"name": "Sanctus School for Worshippers", "designationCode": "C", "categoryCode": "20", "address": "3230 SETTLEMENT TRAIL", "city": "LONDON", "province": "ON", "country": "CA", "postalCode": "N6P1V4", "twitter": "None", "instagram": "None", "facebook": "None", "youtube": "None", "website": "None", "summary": "None", "logo": "None", "latitude": 42.93177242353857, "longitude": -81.3134799390618}, "881259717RR0001": {"name": "Sand Hills Music Festival Association", "designationCode": "C", "categoryCode": "22", "address": "PO BOX 834", "city": "LEADER", "province": "SK", "country": "CA", "postalCode": "S0N1H0", "twitter": "None", "instagram": "None", "facebook": "None", "youtube": "None", "website": "None", "summary": "None", "logo": "None", "latitude": 50.883410000000026, "longitude": -109.55153999999999}, "808484083RR0001": {"name": "Sandals Foundation - Canada", "designationCode": "A", "categoryCode": "03", "address": "4211 YONGE STREET             SUITE 320", "city": "TORONTO", "province": "ON", "country": "CA", "postalCode": "M2P2A9", "twitter": "None", "instagram": "None", "facebook": "None", "youtube": "None", "website": "None", "summary": "None", "logo": "None", "latitude": 43.74807628948581, "longitude": -79.40760466426252}, "119288918RR1697": {"name": "Sandalwood Congregation of Jehovah's Witnesses, Brampton, Ontario", "designationCode": "C", "categoryCode": "61", "address": "1985 NORTH PARK DR", "city": "BRAMPTON", "province": "ON", "country": "CA", "postalCode": "L6S4G2", "twitter": "None", "instagram": "None", "facebook": "None", "youtube": "None", "website": "None", "summary": "None", "logo": "None", "latitude": 43.74423230584577, "longitude": -79.73238545764346}, "825135734RR0001": {"name": "Sandhill Charitable Trust", "designationCode": "B", "categoryCode": "45", "address": "POST OFFICE BOX 249", "city": "BEISEKER", "province": "AB", "country": "CA", "postalCode": "T0M0G0", "twitter": "None", "instagram": "None", "facebook": "None", "youtube": "None", "website": "None", "summary": "None", "logo": "None"}, "866987159RR0001": {"name": "Sandol Fellowship Church", "designationCode": "C", "categoryCode": "36", "address": "112 - 9547 152 ST", "city": "SURREY", "province": "BC", "country": "CA", "postalCode": "V3R5Y5", "twitter": "None", "instagram": "None", "facebook": "None", "youtube": "None", "website": "None", "summary": "None", "logo": "None", "latitude": 49.175883701915865, "longitude": -122.80119499001668}, "828377036RR0001": {"name": "Sandstone City Resource Society", "designationCode": "C", "categoryCode": "09", "address": "102-2616 18TH ST NE", "city": "CALGARY", "province": "AB", "country": "CA", "postalCode": "T2E7R1", "twitter": "None", "instagram": "None", "facebook": "None", "youtube": "None", "website": "None", "summary": "None", "logo": "None", "latitude": 51.089581605703884, "longitude": -114.01519886071046}}