{"892164443RR0001": {"name": "ST JAMES' CHURCH", "designationCode": "C", "categoryCode": "30", "address": "234 MONTGOMERY ROAD", "city": "ROSENEATH", "province": "ON", "country": "CA", "postalCode": "K0K2X0", "twitter": "None", "instagram": "None", "facebook": "None", "youtube": "None", "website": "None", "summary": "None", "logo": "None", "latitude": 44.14756189350031, "longitude": -78.07199105710595}, "889164778RR0002": {"name": "ST JAMES'CHURCH", "designationCode": "C", "categoryCode": "30", "address": "34 BOUCHER ST. E.", "city": "MEAFORD", "province": "ON", "country": "CA", "postalCode": "N4L1B9", "twitter": "None", "instagram": "None", "facebook": "None", "youtube": "None", "website": "None", "summary": "None", "logo": "None", "latitude": 44.605252150729854, "longitude": -80.58960758993587}, "119288918RR0267": {"name": "ST JEAN, QUEBEC, CONGREGATION OF JEHOVAH'S WITNESSES", "designationCode": "C", "categoryCode": "61", "address": "50 RUE DES BERNACHES", "city": "ST-JEAN-SUR-RICHELIEU", "province": "QC", "country": "CA", "postalCode": "J2W2G4", "twitter": "None", "instagram": "None", "facebook": "None", "youtube": "None", "website": "None", "summary": "None", "logo": "None", "latitude": 45.35077210851754, "longitude": -73.25986424966807}, "133098434RR0001": {"name": "ST JEROME'S PARISH", "designationCode": "C", "categoryCode": "38", "address": "8530 CHINGUACOUSY RD.", "city": "BRAMPTON", "province": "ON", "country": "CA", "postalCode": "L6Y5G4", "twitter": "None", "instagram": "None", "facebook": "None", "youtube": "None", "website": "None", "summary": "None", "logo": "None", "latitude": 43.65739474571562, "longitude": -79.76904193568532}, "132331828RR0001": {"name": "ST JOACHIM CHILDREN'S CENTRE OF ANCASTER INC", "designationCode": "C", "categoryCode": "01", "address": "75 CONCERTO COURT", "city": "ANCASTER", "province": "ON", "country": "CA", "postalCode": "L9G4V6", "twitter": "None", "instagram": "None", "facebook": "None", "youtube": "None", "website": "None", "summary": "None", "logo": "None", "latitude": 43.207842005568594, "longitude": -79.98834992244204}, "130599442RR0030": {"name": "ST JOACHIM PARISH", "designationCode": "C", "categoryCode": "38", "address": "86 CRAWFORD STREET            BOX 938", "city": "SOUTH PORCOPINE", "province": "ON", "country": "CA", "postalCode": "P0N1H0", "twitter": "None", "instagram": "None", "facebook": "None", "youtube": "None", "website": "None", "summary": "None", "logo": "None", "latitude": 48.47952989667487, "longitude": -81.20853779334824}, "130693005RR0001": {"name": "ST JOHN BOSCO PARISH OF CLAREVIEW-HERMITAGE", "designationCode": "C", "categoryCode": "38", "address": "13503 - 40TH STREET NW", "city": "EDMONTON", "province": "AB", "country": "CA", "postalCode": "T5A3L9", "twitter": "None", "instagram": "None", "facebook": "None", "youtube": "None", "website": "None", "summary": "None", "logo": "None", "latitude": 53.5963007879566, "longitude": -113.40232482451434}, "119178788RR0001": {"name": "ST JOHN CHURCH & CEMETERY ASSOCIATION", "designationCode": "C", "categoryCode": "32", "address": "PO BOX 52", "city": "CABRI", "province": "SK", "country": "CA", "postalCode": "S0N0J0", "twitter": "None", "instagram": "None", "facebook": "None", "youtube": "None", "website": "None", "summary": "None", "logo": "None", "latitude": 50.620695000000055, "longitude": -108.45713149999993}, "132410671RR0190": {"name": "ST JOHN CONFERENCE IN CA", "designationCode": "C", "categoryCode": "09", "address": "8604 48TH AVENUE NORTHWEST    APARTMENT", "city": "CALGARY", "province": "AB", "country": "CA", "postalCode": "T3B5E6", "twitter": "None", "instagram": "None", "facebook": "None", "youtube": "None", "website": "None", "summary": "None", "logo": "None", "latitude": 51.095887457152514, "longitude": -114.2113815}, "887254035RR0001": {"name": "ST JOHN COUNCIL FOR ALBERTA", "designationCode": "C", "categoryCode": "11", "address": "12304-118 AVE", "city": "EDMONTON", "province": "AB", "country": "CA", "postalCode": "T5L5G8", "twitter": "None", "instagram": "None", "facebook": "None", "youtube": "None", "website": "None", "summary": "None", "logo": "None", "latitude": 53.57033250490477, "longitude": -113.53464}, "871315677RR0001": {"name": "ST JOHN FOUNDATION (BRITISH COLUMBIA AND YUKON)", "designationCode": "A", "categoryCode": "11", "address": "6111 CAMBIE STREET", "city": "VANCOUVER", "province": "BC", "country": "CA", "postalCode": "V5Z3B2", "twitter": "None", "instagram": "None", "facebook": "None", "youtube": "None", "website": "None", "summary": "None", "logo": "None", "latitude": 49.229682551081645, "longitude": -123.11660128585717}, "107876476RR0092": {"name": "ST JOHN FRANCIS REGIS PARISH", "designationCode": "C", "categoryCode": "38", "address": "P.O.BOX 220                   3 SHAWINIGAN PLACE", "city": "MANITOUWADGE", "province": "ON", "country": "CA", "postalCode": "P0T2C0", "twitter": "None", "instagram": "None", "facebook": "None", "youtube": "None", "website": "None", "summary": "None", "logo": "None", "latitude": 49.12396800000006, "longitude": -85.83205399999993}, "119178895RR0001": {"name": "ST JOHN FREE PUBLIC LIBRARY", "designationCode": "C", "categoryCode": "50", "address": "1 MARKET SQUARE", "city": "SAINT JOHN", "province": "NB", "country": "CA", "postalCode": "E2L4Z6", "twitter": "None", "instagram": "None", "facebook": "None", "youtube": "None", "website": "None", "summary": "None", "logo": "None", "latitude": 45.27290845537185, "longitude": -66.06242835943401}, "119178903RR0001": {"name": "ST JOHN HIGH SCHOOL CENTENNIAL SCHOLARSHIP FUND TRUST", "designationCode": "C", "categoryCode": "21", "address": "170-200 PRINCE WILLIAM ST", "city": "SAINT JOHN", "province": "NB", "country": "CA", "postalCode": "E2L2B7", "twitter": "None", "instagram": "None", "facebook": "None", "youtube": "None", "website": "None", "summary": "None", "logo": "None", "latitude": 45.26918468748913, "longitude": -66.06112768549858}, "119178911RR0002": {"name": "ST JOHN IN THE WILDERNESS ANGLICAN CHURCH", "designationCode": "C", "categoryCode": "30", "address": "2896 OLD LAKESHORE RD", "city": "BRIGHTS GROVE", "province": "ON", "country": "CA", "postalCode": "N0N1C0", "twitter": "None", "instagram": "None", "facebook": "None", "youtube": "None", "website": "None", "summary": "None", "logo": "None", "latitude": 43.03576404225011, "longitude": -82.23763448966845}, "119179000RR0001": {"name": "ST JOHN LUTHERAN CHURCH", "designationCode": "C", "categoryCode": "32", "address": "4513 MAPLE STREET", "city": "VEGREVILLE", "province": "AB", "country": "CA", "postalCode": "T9C1L3", "twitter": "None", "instagram": "None", "facebook": "None", "youtube": "None", "website": "None", "summary": "None", "logo": "None", "latitude": 53.49147316763808, "longitude": -112.06617683951798}, "125118620RR0001": {"name": "ST JOHN LUTHERAN CHURCH", "designationCode": "C", "categoryCode": "32", "address": "377 HODGSON ROAD", "city": "WILLIAMS LAKE", "province": "BC", "country": "CA", "postalCode": "V2G3P7", "twitter": "None", "instagram": "None", "facebook": "None", "youtube": "None", "website": "None", "summary": "None", "logo": "None", "latitude": 52.11265887925253, "longitude": -122.13940596017967}, "119179059RR0001": {"name": "ST JOHN LUTHERN CHURCH", "designationCode": "C", "categoryCode": "32", "address": "BOX 65", "city": "LANG", "province": "SK", "country": "CA", "postalCode": "S0G2W0", "twitter": "None", "instagram": "None", "facebook": "None", "youtube": "None", "website": "None", "summary": "None", "logo": "None", "latitude": 49.91991900000005, "longitude": -104.37514099999993}, "889672267RR0001": {"name": "ST JOHN OF RILA BULGARIAN ORTHODOX CHURCH", "designationCode": "B", "categoryCode": "39", "address": "4871 WILMOTT STREET", "city": "NIAGARA FALLS", "province": "ON", "country": "CA", "postalCode": "L2E1Z5", "twitter": "None", "instagram": "None", "facebook": "None", "youtube": "None", "website": "None", "summary": "None", "logo": "None", "latitude": 43.103176500432696, "longitude": -79.07457111226844}, "128967353RR0095": {"name": "ST JOHN THE APOSTLE PARISH", "designationCode": "C", "categoryCode": "38", "address": "2340 BASELINE ROAD", "city": "NEPEAN", "province": "ON", "country": "CA", "postalCode": "K2C0C9", "twitter": "None", "instagram": "None", "facebook": "None", "youtube": "None", "website": "None", "summary": "None", "logo": "None", "latitude": 45.34529267245683, "longitude": -75.77733932927485}, "119182277RR0001": {"name": "ST JOHN THE BAPTIST", "designationCode": "C", "categoryCode": "30", "address": "PO BOX 217", "city": "LAKEFIELD", "province": "ON", "country": "CA", "postalCode": "K0L2H0", "twitter": "None", "instagram": "None", "facebook": "None", "youtube": "None", "website": "None", "summary": "None", "logo": "None", "latitude": 44.42679000000004, "longitude": -78.26996999999994}, "119182061RR0001": {"name": "ST JOHN THE BAPTIST ANGLICAN CHURCH", "designationCode": "C", "categoryCode": "30", "address": "719 DUNDAS ST EAST", "city": "MISSISSAUGA", "province": "ON", "country": "CA", "postalCode": "L4Y2B5", "twitter": "None", "instagram": "None", "facebook": "None", "youtube": "None", "website": "None", "summary": "None", "logo": "None", "latitude": 43.595211309481115, "longitude": -79.59942113936154}, "119182111RR0002": {"name": "ST JOHN THE BAPTIST CHURCH", "designationCode": "C", "categoryCode": "30", "address": "PO BOX 313", "city": "MANITOU", "province": "MB", "country": "CA", "postalCode": "R0G1G0", "twitter": "None", "instagram": "None", "facebook": "None", "youtube": "None", "website": "None", "summary": "None", "logo": "None", "latitude": 49.23673000000008, "longitude": -98.53495999999996}, "119182129RR0001": {"name": "ST JOHN THE BAPTIST CHURCH", "designationCode": "C", "categoryCode": "30", "address": "108 2ND AVE NE", "city": "SWIFT CURRENT", "province": "SK", "country": "CA", "postalCode": "S9H2C7", "twitter": "None", "instagram": "None", "facebook": "None", "youtube": "None", "website": "None", "summary": "None", "logo": "None", "latitude": 50.2838348731606, "longitude": -107.79732523053816}, "119208031RR0012": {"name": "ST JOHN THE BAPTIST CHURCH", "designationCode": "C", "categoryCode": "30", "address": "BOX 15", "city": "WATSON LAKE", "province": "YT", "country": "CA", "postalCode": "Y0A1C0", "twitter": "None", "instagram": "None", "facebook": "None", "youtube": "None", "website": "None", "summary": "None", "logo": "None", "latitude": 60.062928000000056, "longitude": -128.71524049999994}, "119182236RR0001": {"name": "ST JOHN THE BAPTIST ROMAN CATHOLIC CHURCH", "designationCode": "C", "categoryCode": "38", "address": "GENERAL DELIVERY", "city": "HADASHVILLE", "province": "MB", "country": "CA", "postalCode": "R0E0X0", "twitter": "None", "instagram": "None", "facebook": "None", "youtube": "None", "website": "None", "summary": "None", "logo": "None", "latitude": 49.68886200000006, "longitude": -95.90829199999993}, "890749195RR0001": {"name": "ST JOHN THE BAPTIST ROMAN CATHOLIC CHURCH", "designationCode": "C", "categoryCode": "38", "address": "BOX 177", "city": "DYSART", "province": "SK", "country": "CA", "postalCode": "S0G1H0", "twitter": "None", "instagram": "None", "facebook": "None", "youtube": "None", "website": "None", "summary": "None", "logo": "None", "latitude": 50.945730000000026, "longitude": -104.03088999999994}, "119182285RR0001": {"name": "ST JOHN THE BAPTIST UKRAINIAN CATHOLIC CHURCH", "designationCode": "C", "categoryCode": "38", "address": "101 AV EASTVIEW", "city": "POINTE-CLAIRE", "province": "QC", "country": "CA", "postalCode": "H9R1H3", "twitter": "None", "instagram": "None", "facebook": "None", "youtube": "None", "website": "None", "summary": "None", "logo": "None", "latitude": 45.46571787512251, "longitude": -73.8073071601649}, "119182301RR0001": {"name": "ST JOHN THE BAPTIST UKRAINIAN CATHOLIC CHURCH, SILVER, MANITOBA", "designationCode": "C", "categoryCode": "38", "address": "BOX 653", "city": "ARBORG", "province": "MB", "country": "CA", "postalCode": "R0C0A0", "twitter": "None", "instagram": "None", "facebook": "None", "youtube": "None", "website": "None", "summary": "None", "logo": "None", "latitude": 50.91022850109325, "longitude": -97.2043884534773}, "119182335RR0001": {"name": "ST JOHN THE DIVINE RUSSIAN ORTHODOX CHURCH", "designationCode": "C", "categoryCode": "39", "address": "1094 DROUILLARD RD", "city": "WINDSOR", "province": "ON", "country": "CA", "postalCode": "N8Y2P8", "twitter": "None", "instagram": "None", "facebook": "None", "youtube": "None", "website": "None", "summary": "None", "logo": "None", "latitude": 42.320132831813694, "longitude": -82.99921170133894}, "119182509RR0001": {"name": "ST JOHN THE EVANGELIST", "designationCode": "C", "categoryCode": "30", "address": "PO BOX 400", "city": "CLARESHOLM", "province": "AB", "country": "CA", "postalCode": "T0L0T0", "twitter": "None", "instagram": "None", "facebook": "None", "youtube": "None", "website": "None", "summary": "None", "logo": "None", "latitude": 50.026080000000036, "longitude": -113.58213999999998}, "889719563RR0001": {"name": "ST JOHN THE EVANGELIST ANGLICAN CHURCH", "designationCode": "C", "categoryCode": "30", "address": "LOT 2, CONC.5, MARGARET TWP.", "city": "BISCOTASING", "province": "ON", "country": "CA", "postalCode": "P0M1C0", "twitter": "None", "instagram": "None", "facebook": "None", "youtube": "None", "website": "None", "summary": "None", "logo": "None", "latitude": 47.293926000000056, "longitude": -82.10518099999993}, "866501083RR0001": {"name": "ST JOHN THE EVANGELIST COUNCIL NO 4895 CHARITABLE TRUST", "designationCode": "A", "categoryCode": "65", "address": "133 BROCK STREET NORTH        P.O. BOX 342", "city": "WHITBY", "province": "ON", "country": "CA", "postalCode": "L1N4H3", "twitter": "None", "instagram": "None", "facebook": "None", "youtube": "None", "website": "None", "summary": "None", "logo": "None", "latitude": 43.88070933112119, "longitude": -78.94238067162011}, "119182475RR0001": {"name": "ST JOHN THE EVANGELIST PARISH", "designationCode": "C", "categoryCode": "38", "address": "2 ACADEMY DR", "city": "MORDEN", "province": "MB", "country": "CA", "postalCode": "R6M2E8", "twitter": "None", "instagram": "None", "facebook": "None", "youtube": "None", "website": "None", "summary": "None", "logo": "None", "latitude": 49.179692615990064, "longitude": -98.11419038400992}, "128967353RR0068": {"name": "ST JOHN THE EVANGELIST PARISH", "designationCode": "C", "categoryCode": "38", "address": "2546 STAGECOACH ROAD", "city": "OSGOODE", "province": "ON", "country": "CA", "postalCode": "K0A2W0", "twitter": "None", "instagram": "None", "facebook": "None", "youtube": "None", "website": "None", "summary": "None", "logo": "None", "latitude": 45.195343937930524, "longitude": -75.56759166909056}, "887932242RR0001": {"name": "ST JOHN THE EVANGILIST PARISH OF PRUDHOMME", "designationCode": "C", "categoryCode": "38", "address": "PO BOX 59", "city": "PRUD'HOMME", "province": "SK", "country": "CA", "postalCode": "S0K3K0", "twitter": "None", "instagram": "None", "facebook": "None", "youtube": "None", "website": "None", "summary": "None", "logo": "None", "latitude": 52.33337000000006, "longitude": -105.90114999999997}, "130270176RR0001": {"name": "ST JOHN THE THEOLOGIAN UKRAINIAN CATHOLIC CHURCH", "designationCode": "C", "categoryCode": "39", "address": "91 LAKESHORE ROAD", "city": "ST CATHARINES", "province": "ON", "country": "CA", "postalCode": "L2N2T6", "twitter": "None", "instagram": "None", "facebook": "None", "youtube": "None", "website": "None", "summary": "None", "logo": "None", "latitude": 43.203259628714385, "longitude": -79.24501566812806}, "119181832RR0001": {"name": "ST JOHN UNITED CHURCH", "designationCode": "C", "categoryCode": "44", "address": "195 EAST 38TH STREET", "city": "HAMILTON", "province": "ON", "country": "CA", "postalCode": "L8V4G1", "twitter": "None", "instagram": "None", "facebook": "None", "youtube": "None", "website": "None", "summary": "None", "logo": "None", "latitude": 43.23214375031237, "longitude": -79.83921050953322}, "141084814RR0001": {"name": "ST JOHN VALLEY MENNONITE CHURCH", "designationCode": "C", "categoryCode": "34", "address": "194 ROYALTON RD", "city": "ROYALTON", "province": "NB", "country": "CA", "postalCode": "E7K2G2", "twitter": "None", "instagram": "None", "facebook": "None", "youtube": "None", "website": "None", "summary": "None", "logo": "None", "latitude": 46.47073811102769, "longitude": -67.76591576403749}, "132409459RR0001": {"name": "ST JOHN VIANNEY CHURCH (MISSION OF STONEWALL)", "designationCode": "C", "categoryCode": "38", "address": "PO BOX 1159", "city": "STONEWALL", "province": "MB", "country": "CA", "postalCode": "R0C2Z0", "twitter": "None", "instagram": "None", "facebook": "None", "youtube": "None", "website": "None", "summary": "None", "logo": "None", "latitude": 50.36947800000006, "longitude": -96.84479599999993}, "870078029RR0001": {"name": "ST JOHN VIANNEY PARISH COUNCIL NO 10370 CHARITABLE WELFARE TRUST", "designationCode": "A", "categoryCode": "65", "address": "13 BALDWIN LANE", "city": "BARRIE", "province": "ON", "country": "CA", "postalCode": "L4N2W1", "twitter": "None", "instagram": "None", "facebook": "None", "youtube": "None", "website": "None", "summary": "None", "logo": "None", "latitude": 44.36781447792722, "longitude": -79.69105358381903}, "128136918RR0017": {"name": "ST JOHN VIANNY CATHOLIC PARISH", "designationCode": "C", "categoryCode": "38", "address": "PO BOX 7", "city": "LA RONGE", "province": "SK", "country": "CA", "postalCode": "S0J1L0", "twitter": "None", "instagram": "None", "facebook": "None", "youtube": "None", "website": "None", "summary": "None", "logo": "None", "latitude": 55.104968852218384, "longitude": -105.2789552305204}, "889161790RR0002": {"name": "ST JOHN'S", "designationCode": "C", "categoryCode": "30", "address": "PO BOX 1059", "city": "PORT ELGIN", "province": "ON", "country": "CA", "postalCode": "N0H2C0", "twitter": "None", "instagram": "None", "facebook": "None", "youtube": "None", "website": "None", "summary": "None", "logo": "None", "latitude": 44.43698400000005, "longitude": -81.38664349999993}, "119181592RR0001": {"name": "ST JOHN'S - ST PAUL'S PASTORAL CHARGE", "designationCode": "C", "categoryCode": "44", "address": "PO BOX 147", "city": "MOUNT UNIACKE", "province": "NS", "country": "CA", "postalCode": "B0N1Z0", "twitter": "None", "instagram": "None", "facebook": "None", "youtube": "None", "website": "None", "summary": "None", "logo": "None", "latitude": 44.95820100000006, "longitude": -63.90217699999994}, "119179133RR0001": {"name": "ST JOHN'S ANGLICAN CEMETERY, INNISVILLE", "designationCode": "C", "categoryCode": "30", "address": "1337 FERGUSON FALLS RD", "city": "LANARK", "province": "ON", "country": "CA", "postalCode": "K0G1K0", "twitter": "None", "instagram": "None", "facebook": "None", "youtube": "None", "website": "None", "summary": "None", "logo": "None", "latitude": 45.05005683915892, "longitude": -76.286054424527}, "119179356RR0001": {"name": "ST JOHN'S ANGLICAN CHURCH", "designationCode": "C", "categoryCode": "30", "address": "BOX 967", "city": "NIPAWIN", "province": "SK", "country": "CA", "postalCode": "S0E1E0", "twitter": "None", "instagram": "None", "facebook": "None", "youtube": "None", "website": "None", "summary": "None", "logo": "None", "latitude": 53.396118, "longitude": -104.00834700000001}, "119179372RR0001": {"name": "ST JOHN'S ANGLICAN CHURCH", "designationCode": "C", "categoryCode": "30", "address": "PO BOX 144", "city": "LIVELONG", "province": "SK", "country": "CA", "postalCode": "S0M1J0", "twitter": "None", "instagram": "None", "facebook": "None", "youtube": "None", "website": "None", "summary": "None", "logo": "None", "latitude": 53.446839000000054, "longitude": -108.70880299999993}, "119179935RR0001": {"name": "ST JOHN'S ANGLICAN CHURCH", "designationCode": "C", "categoryCode": "30", "address": "29 CHURCH ST", "city": "COOKSTOWN", "province": "ON", "country": "CA", "postalCode": "L0L1L0", "twitter": "None", "instagram": "None", "facebook": "None", "youtube": "None", "website": "None", "summary": "None", "logo": "None", "latitude": 44.190698510685024, "longitude": -79.69747461497958}, "130402019RR0026": {"name": "ST JOHN'S ANGLICAN CHURCH", "designationCode": "C", "categoryCode": "30", "address": "P.O. BOX 64                   135 MCDOUGAL ROAD", "city": "FORT SMITH", "province": "NT", "country": "CA", "postalCode": "X0E0P0", "twitter": "None", "instagram": "None", "facebook": "None", "youtube": "None", "website": "None", "summary": "None", "logo": "None", "latitude": 60.005600513372144, "longitude": -111.87381866623065}, "131358038RR0001": {"name": "ST JOHN'S ANGLICAN CHURCH", "designationCode": "C", "categoryCode": "30", "address": "4821 50 ST", "city": "OLDS", "province": "AB", "country": "CA", "postalCode": "T4H1E4", "twitter": "None", "instagram": "None", "facebook": "None", "youtube": "None", "website": "None", "summary": "None", "logo": "None", "latitude": 51.79141168220903, "longitude": -114.10200830322003}, "867463051RR0001": {"name": "ST JOHN'S ANGLICAN CHURCH", "designationCode": "C", "categoryCode": "30", "address": "BOX 238", "city": "WABASCA", "province": "AB", "country": "CA", "postalCode": "T0G2K0", "twitter": "None", "instagram": "None", "facebook": "None", "youtube": "None", "website": "None", "summary": "None", "logo": "None", "latitude": 55.987460000000056, "longitude": -113.91912999999994}, "889415246RR0002": {"name": "ST JOHN'S ANGLICAN CHURCH", "designationCode": "C", "categoryCode": "30", "address": "4808 50 AVENUE", "city": "COLD LAKE", "province": "AB", "country": "CA", "postalCode": "T9M1Y2", "twitter": "None", "instagram": "None", "facebook": "None", "youtube": "None", "website": "None", "summary": "None", "logo": "None", "latitude": 54.413431143458475, "longitude": -110.20116125283859}, "873425334RR0001": {"name": "ST JOHN'S ANGLICAN CHURCH CEMETERY", "designationCode": "C", "categoryCode": "49", "address": "P.O. BOX 194", "city": "BLACKSTOCK", "province": "ON", "country": "CA", "postalCode": "L0B1B0", "twitter": "None", "instagram": "None", "facebook": "None", "youtube": "None", "website": "None", "summary": "None", "logo": "None", "latitude": 44.10823000000005, "longitude": -78.82079999999996}, "119179174RR0002": {"name": "ST JOHN'S ANGLICAN CHURCH FISHERTON", "designationCode": "C", "categoryCode": "30", "address": "PO BOX 424", "city": "FISHER BRANCH", "province": "MB", "country": "CA", "postalCode": "R0C0Z0", "twitter": "None", "instagram": "None", "facebook": "None", "youtube": "None", "website": "None", "summary": "None", "logo": "None", "latitude": 51.08144020941467, "longitude": -97.61850910684359}, "119179182RR0001": {"name": "ST JOHN'S ANGLICAN CHURCH, FOAM LAKE", "designationCode": "C", "categoryCode": "30", "address": "PO BOX 51", "city": "FOAM LAKE", "province": "SK", "country": "CA", "postalCode": "S0A1A0", "twitter": "None", "instagram": "None", "facebook": "None", "youtube": "None", "website": "None", "summary": "None", "logo": "None", "latitude": 51.63984000000005, "longitude": -103.53940999999998}, "131785560RR0001": {"name": "ST JOHN'S ANGLICAN CHURCH, SUNBURY", "designationCode": "C", "categoryCode": "30", "address": "1497 SUNBURY ROAD             RR#2", "city": "INVERARY", "province": "ON", "country": "CA", "postalCode": "K0H1X0", "twitter": "None", "instagram": "None", "facebook": "None", "youtube": "None", "website": "None", "summary": "None", "logo": "None", "latitude": 44.401321028020014, "longitude": -76.32703437396532}, "119179497RR0002": {"name": "ST JOHN'S ANGLICAN CHURCH, WESTPHAL", "designationCode": "C", "categoryCode": "30", "address": "1215 MAIN ST", "city": "DARTMOUTH", "province": "NS", "country": "CA", "postalCode": "B2Z1B2", "twitter": "None", "instagram": "None", "facebook": "None", "youtube": "None", "website": "None", "summary": "None", "logo": "None", "latitude": 44.70371299809542, "longitude": -63.46705737665172}, "119179539RR0001": {"name": "ST JOHN'S BOYS' AND GIRLS' CLUB", "designationCode": "C", "categoryCode": "09", "address": "P.O. BOX 5012                 40 MUNDY POND ROAD", "city": "ST. JOHN'S", "province": "NL", "country": "CA", "postalCode": "A1C5V3", "twitter": "None", "instagram": "None", "facebook": "None", "youtube": "None", "website": "None", "summary": "None", "logo": "None", "latitude": 47.56082100000006, "longitude": -52.71219349999993}, "119179554RR0002": {"name": "ST JOHN'S BY THE LAKE ANGLICAN CHURCH", "designationCode": "C", "categoryCode": "30", "address": "PO BOX 1003", "city": "GRAND BEND", "province": "ON", "country": "CA", "postalCode": "N0M1T0", "twitter": "None", "instagram": "None", "facebook": "None", "youtube": "None", "website": "None", "summary": "None", "logo": "None", "latitude": 43.235389489558244, "longitude": -81.68905893037018}, "131769556RR0001": {"name": "ST JOHN'S BY THE SEA EVANGELICAL LUTHERAN CHURCH", "designationCode": "C", "categoryCode": "32", "address": "# 2548, ROUTE 332    ,        RR#1", "city": "ROSE BAY", "province": "NS", "country": "CA", "postalCode": "B0J2X0", "twitter": "None", "instagram": "None", "facebook": "None", "youtube": "None", "website": "None", "summary": "None", "logo": "None", "latitude": 44.30283884410091, "longitude": -64.29927179896114}, "119179570RR0001": {"name": "ST JOHN'S CATHEDRAL", "designationCode": "C", "categoryCode": "30", "address": "816 SPADINA CRES E", "city": "SASKATOON", "province": "SK", "country": "CA", "postalCode": "S7K3H4", "twitter": "None", "instagram": "None", "facebook": "None", "youtube": "None", "website": "None", "summary": "None", "logo": "None", "latitude": 52.12946199948041, "longitude": -106.65508460788236}, "886792399RR0001": {"name": "ST JOHN'S CHINESE CHRISTIAN CHURCH INC", "designationCode": "C", "categoryCode": "39", "address": "30 NEWTOWN ROAD", "city": "ST JOHN'S", "province": "NL", "country": "CA", "postalCode": "A1C4E1", "twitter": "None", "instagram": "None", "facebook": "None", "youtube": "None", "website": "None", "summary": "None", "logo": "None", "latitude": 47.56689019790516, "longitude": -52.71784465139367}, "892980368RR0001": {"name": "ST JOHN'S CHRISTIAN CHILD-CARE CENTRE", "designationCode": "C", "categoryCode": "01", "address": "22 WILLOW STREET", "city": "WATERLOO", "province": "ON", "country": "CA", "postalCode": "N2J1V5", "twitter": "None", "instagram": "None", "facebook": "None", "youtube": "None", "website": "None", "summary": "None", "logo": "None", "latitude": 43.464763590916824, "longitude": -80.51756233533438}, "119179778RR0001": {"name": "ST JOHN'S CHURCH", "designationCode": "C", "categoryCode": "30", "address": "126 RUE DE SUNNY BANK", "city": "GASPE", "province": "QC", "country": "CA", "postalCode": "G4X2M8", "twitter": "None", "instagram": "None", "facebook": "None", "youtube": "None", "website": "None", "summary": "None", "logo": "None", "latitude": 48.83354039107845, "longitude": -64.60905473189447}, "119179786RR0001": {"name": "ST JOHN'S CHURCH", "designationCode": "C", "categoryCode": "30", "address": "1 POND STREET", "city": "MARBLETON", "province": "QC", "country": "CA", "postalCode": "J0B2L0", "twitter": "None", "instagram": "None", "facebook": "None", "youtube": "None", "website": "None", "summary": "None", "logo": "None"}, "119179794RR0001": {"name": "ST JOHN'S CHURCH", "designationCode": "C", "categoryCode": "30", "address": "2 - 6615 RUE FERMONT", "city": "COMPTON", "province": "QC", "country": "CA", "postalCode": "J0B1L0", "twitter": "None", "instagram": "None", "facebook": "None", "youtube": "None", "website": "None", "summary": "None", "logo": "None", "latitude": 45.246759232327186, "longitude": -71.83003726715322}, "119179844RR0001": {"name": "ST JOHN'S CHURCH", "designationCode": "C", "categoryCode": "30", "address": "9595 QUEEN ST", "city": "HARWOOD", "province": "ON", "country": "CA", "postalCode": "K0K2H0", "twitter": "None", "instagram": "None", "facebook": "None", "youtube": "None", "website": "None", "summary": "None", "logo": "None", "latitude": 44.13990548736228, "longitude": -78.18338020203143}, "119179893RR0001": {"name": "ST JOHN'S CHURCH", "designationCode": "C", "categoryCode": "30", "address": "1758 COUNTY RD 10", "city": "CAVAN", "province": "ON", "country": "CA", "postalCode": "L0A1C0", "twitter": "None", "instagram": "None", "facebook": "None", "youtube": "None", "website": "None", "summary": "None", "logo": "None", "latitude": 44.214973951882634, "longitude": -78.47520167834575}, "119180016RR0001": {"name": "ST JOHN'S CHURCH", "designationCode": "C", "categoryCode": "30", "address": "5 NORALINE AVENUE", "city": "MIDHURST", "province": "ON", "country": "CA", "postalCode": "L0L1X1", "twitter": "None", "instagram": "None", "facebook": "None", "youtube": "None", "website": "None", "summary": "None", "logo": "None", "latitude": 44.44023046384864, "longitude": -79.71882358456193}, "119180198RR0002": {"name": "ST JOHN'S CHURCH", "designationCode": "C", "categoryCode": "30", "address": "33 MCGUINESS DR", "city": "BRANTFORD", "province": "ON", "country": "CA", "postalCode": "N3T6M6", "twitter": "None", "instagram": "None", "facebook": "None", "youtube": "None", "website": "None", "summary": "None", "logo": "None", "latitude": 43.12566264167016, "longitude": -80.29647789953253}, "119180214RR0002": {"name": "ST JOHN'S CHURCH", "designationCode": "C", "categoryCode": "30", "address": "179 MILLBANK DR", "city": "LONDON", "province": "ON", "country": "CA", "postalCode": "N6C4V9", "twitter": "None", "instagram": "None", "facebook": "None", "youtube": "None", "website": "None", "summary": "None", "logo": "None", "latitude": 42.9488912087252, "longitude": -81.21107417987174}, "119180222RR0002": {"name": "ST JOHN'S CHURCH", "designationCode": "C", "categoryCode": "30", "address": "20 FLORA STREET", "city": "ST THOMAS", "province": "ON", "country": "CA", "postalCode": "N5P2X4", "twitter": "None", "instagram": "None", "facebook": "None", "youtube": "None", "website": "None", "summary": "None", "logo": "None", "latitude": 42.77978285700277, "longitude": -81.18896445630105}, "119180263RR0003": {"name": "ST JOHN'S CHURCH", "designationCode": "C", "categoryCode": "30", "address": "34 GODFREY DR                 PO BOX 631", "city": "COPPER CLIFF", "province": "ON", "country": "CA", "postalCode": "P0M1N0", "twitter": "None", "instagram": "None", "facebook": "None", "youtube": "None", "website": "None", "summary": "None", "logo": "None", "latitude": 46.47699202192853, "longitude": -81.06896974678254}, "119180313RR0001": {"name": "ST JOHN'S CHURCH", "designationCode": "C", "categoryCode": "30", "address": "BOX 74", "city": "KELWOOD", "province": "MB", "country": "CA", "postalCode": "R0J0Y0", "twitter": "None", "instagram": "None", "facebook": "None", "youtube": "None", "website": "None", "summary": "None", "logo": "None", "latitude": 50.624870000000044, "longitude": -99.46165999999994}, "119180321RR0001": {"name": "ST JOHN'S CHURCH", "designationCode": "C", "categoryCode": "30", "address": "BOX 517", "city": "MINNEDOSA", "province": "MB", "country": "CA", "postalCode": "R0J1E0", "twitter": "None", "instagram": "None", "facebook": "None", "youtube": "None", "website": "None", "summary": "None", "logo": "None", "latitude": 50.35204290882316, "longitude": -100.20187636199029}, "119180347RR0001": {"name": "ST JOHN'S CHURCH", "designationCode": "C", "categoryCode": "30", "address": "PO BOX 430", "city": "RESTON", "province": "MB", "country": "CA", "postalCode": "R0M1X0", "twitter": "None", "instagram": "None", "facebook": "None", "youtube": "None", "website": "None", "summary": "None", "logo": "None", "latitude": 49.18753799999999, "longitude": -100.49400221363014}, "119180362RR0001": {"name": "ST JOHN'S CHURCH", "designationCode": "C", "categoryCode": "38", "address": "BOX 54", "city": "MARQUIS", "province": "SK", "country": "CA", "postalCode": "S0H2X0", "twitter": "None", "instagram": "None", "facebook": "None", "youtube": "None", "website": "None", "summary": "None", "logo": "None", "latitude": 50.63336000000004, "longitude": -105.71786999999995}, "119180370RR0001": {"name": "ST JOHN'S CHURCH", "designationCode": "C", "categoryCode": "30", "address": "TREASURER                     BOX 130", "city": "BORDEN", "province": "SK", "country": "CA", "postalCode": "S0K0N0", "twitter": "None", "instagram": "None", "facebook": "None", "youtube": "None", "website": "None", "summary": "None", "logo": "None", "latitude": 52.37279920269652, "longitude": -107.14668130840676}, "127178440RR0001": {"name": "ST JOHN'S CHURCH", "designationCode": "C", "categoryCode": "30", "address": "3223 UPPER BIG CHUTE RD       RR 1", "city": "COLDWATER", "province": "ON", "country": "CA", "postalCode": "L0K1E0", "twitter": "None", "instagram": "None", "facebook": "None", "youtube": "None", "website": "None", "summary": "None", "logo": "None", "latitude": 44.78064760874791, "longitude": -79.59365950571878}, "129144549RR0039": {"name": "ST JOHN'S CHURCH", "designationCode": "C", "categoryCode": "30", "address": "PO BOX 755", "city": "FRUITVALE", "province": "BC", "country": "CA", "postalCode": "V0G1L0", "twitter": "None", "instagram": "None", "facebook": "None", "youtube": "None", "website": "None", "summary": "None", "logo": "None", "latitude": 49.115270000000066, "longitude": -117.54598999999996}, "131823478RR0001": {"name": "ST JOHN'S CHURCH", "designationCode": "C", "categoryCode": "30", "address": "BOX 198 701 TURNBERRY ST.", "city": "BRUSSELS", "province": "ON", "country": "CA", "postalCode": "N0G1H0", "twitter": "None", "instagram": "None", "facebook": "None", "youtube": "None", "website": "None", "summary": "None", "logo": "None", "latitude": 43.74018000000001, "longitude": -81.25291700499166}, "134065358RR0001": {"name": "ST JOHN'S CHURCH", "designationCode": "C", "categoryCode": "30", "address": "150 VICTORIA ST E", "city": "WHITBY", "province": "ON", "country": "CA", "postalCode": "L1N9L8", "twitter": "None", "instagram": "None", "facebook": "None", "youtube": "None", "website": "None", "summary": "None", "logo": "None", "latitude": 43.86263203805737, "longitude": -78.93330902305372}, "886306398RR0001": {"name": "ST JOHN'S CHURCH", "designationCode": "C", "categoryCode": "30", "address": "5 - 423 AVENUE RD", "city": "TORONTO", "province": "ON", "country": "CA", "postalCode": "M4V2H7", "twitter": "None", "instagram": "None", "facebook": "None", "youtube": "None", "website": "None", "summary": "None", "logo": "None", "latitude": 43.68300772468113, "longitude": -79.39994901079139}, "887810067RR0001": {"name": "ST JOHN'S CHURCH", "designationCode": "C", "categoryCode": "30", "address": "3779 BASELINE ROAD", "city": "ELMVALE", "province": "ON", "country": "CA", "postalCode": "L0L1P0", "twitter": "None", "instagram": "None", "facebook": "None", "youtube": "None", "website": "None", "summary": "None", "logo": "None", "latitude": 44.62021209632919, "longitude": -79.85155611415928}, "889340378RR0002": {"name": "ST JOHN'S CHURCH", "designationCode": "C", "categoryCode": "30", "address": "PO BOX 295", "city": "INGONISH", "province": "NS", "country": "CA", "postalCode": "B0C1K0", "twitter": "None", "instagram": "None", "facebook": "None", "youtube": "None", "website": "None", "summary": "None", "logo": "None", "latitude": 46.69308600000005, "longitude": -60.36474499999993}, "889728242RR0001": {"name": "ST JOHN'S CHURCH", "designationCode": "C", "categoryCode": "30", "address": "PO BOX 606", "city": "WYOMING", "province": "ON", "country": "CA", "postalCode": "N0N1T0", "twitter": "None", "instagram": "None", "facebook": "None", "youtube": "None", "website": "None", "summary": "None", "logo": "None", "latitude": 42.950270000000046, "longitude": -82.11870999999996}, "891606170RR0002": {"name": "ST JOHN'S CHURCH", "designationCode": "C", "categoryCode": "30", "address": "46 RIDOUT STREET WEST", "city": "TILLSONBURG", "province": "ON", "country": "CA", "postalCode": "N4G2E3", "twitter": "None", "instagram": "None", "facebook": "None", "youtube": "None", "website": "None", "summary": "None", "logo": "None", "latitude": 42.86039464892719, "longitude": -80.72971877124519}, "892466772RR0002": {"name": "ST JOHN'S CHURCH", "designationCode": "C", "categoryCode": "30", "address": "9530 LAKE ROAD", "city": "KETTLE AND STONE PT. F.N.", "province": "ON", "country": "CA", "postalCode": "N0N1J1", "twitter": "None", "instagram": "None", "facebook": "None", "youtube": "None", "website": "None", "summary": "None", "logo": "None", "latitude": 43.198085294477465, "longitude": -82.02089360560335}, "890723380RR0001": {"name": "ST JOHN'S CHURCH (CHRYSLER)", "designationCode": "C", "categoryCode": "30", "address": "BOX 131 1641 CTY RD #12", "city": "CRYSLER", "province": "ON", "country": "CA", "postalCode": "K0A1R0", "twitter": "None", "instagram": "None", "facebook": "None", "youtube": "None", "website": "None", "summary": "None", "logo": "None", "latitude": 45.22302699861503, "longitude": -75.15633629932489}, "889710844RR0002": {"name": "ST JOHN'S CHURCH (WOODHOUSE) SIMCOE", "designationCode": "C", "categoryCode": "30", "address": "144 DECOU RD", "city": "SIMCOE", "province": "ON", "country": "CA", "postalCode": "N3Y4K2", "twitter": "None", "instagram": "None", "facebook": "None", "youtube": "None", "website": "None", "summary": "None", "logo": "None", "latitude": 42.82369762724343, "longitude": -80.28652873535692}, "119179612RR0001": {"name": "ST JOHN'S CHURCH AND CEMETERY ENDOWMENT FUND", "designationCode": "C", "categoryCode": "52", "address": "BOX 587 83 COCKBURN ST", "city": "RICHMOND", "province": "ON", "country": "CA", "postalCode": "K0A2Z0", "twitter": "None", "instagram": "None", "facebook": "None", "youtube": "None", "website": "None", "summary": "None", "logo": "None", "latitude": 45.18964613653425, "longitude": -75.82808280117122}, "119179661RR0001": {"name": "ST JOHN'S CHURCH DUNSFORD", "designationCode": "C", "categoryCode": "30", "address": "1948 STURGEON RD", "city": "DUNSFORD", "province": "ON", "country": "CA", "postalCode": "K0M1L0", "twitter": "None", "instagram": "None", "facebook": "None", "youtube": "None", "website": "None", "summary": "None", "logo": "None", "latitude": 44.450030251745545, "longitude": -78.64159091779707}, "135959849RR0001": {"name": "ST JOHN'S CHURCH WEST TORONTO", "designationCode": "C", "categoryCode": "30", "address": "288 HUMBERSIDE AVENUE", "city": "TORONTO", "province": "ON", "country": "CA", "postalCode": "M6P1L5", "twitter": "None", "instagram": "None", "facebook": "None", "youtube": "None", "website": "None", "summary": "None", "logo": "None", "latitude": 43.66032510355454, "longitude": -79.46901008272252}, "130376643RR0001": {"name": "ST JOHN'S CHURCH YORK MILLS", "designationCode": "C", "categoryCode": "30", "address": "19 DON RIDGE DR", "city": "NORTH YORK", "province": "ON", "country": "CA", "postalCode": "M2P1H3", "twitter": "None", "instagram": "None", "facebook": "None", "youtube": "None", "website": "None", "summary": "None", "logo": "None", "latitude": 43.74840381057856, "longitude": -79.40450641292006}, "119179687RR0002": {"name": "ST JOHN'S CHURCH, GARDEN RIVER, ONTARIO", "designationCode": "C", "categoryCode": "30", "address": "1625 HWY 17B", "city": "GARDEN RIVER", "province": "ON", "country": "CA", "postalCode": "P6A7B9", "twitter": "None", "instagram": "None", "facebook": "None", "youtube": "None", "website": "None", "summary": "None", "logo": "None", "latitude": 46.534290386939, "longitude": -84.13680199503398}, "119180495RR0001": {"name": "ST JOHN'S COLLEGE", "designationCode": "C", "categoryCode": "20", "address": "U OF M CAMPUS                 92 DYSART RD", "city": "WINNIPEG", "province": "MB", "country": "CA", "postalCode": "R3T2M5", "twitter": "None", "instagram": "None", "facebook": "None", "youtube": "None", "website": "None", "summary": "None", "logo": "None", "latitude": 49.811162212870755, "longitude": -97.13703399758101}, "134420892RR0001": {"name": "ST JOHN'S EV LUTHERAN CHURCH", "designationCode": "C", "categoryCode": "32", "address": "BOX 173", "city": "WAPELLA", "province": "SK", "country": "CA", "postalCode": "S0G4Z0", "twitter": "None", "instagram": "None", "facebook": "None", "youtube": "None", "website": "None", "summary": "None", "logo": "None", "latitude": 50.260980000000075, "longitude": -101.96996999999999}, "119180578RR0001": {"name": "ST JOHN'S EVANGELICAL LUTHERAN CHURCH", "designationCode": "C", "categoryCode": "32", "address": "47 MCLACHLIN ST", "city": "ARNPRIOR", "province": "ON", "country": "CA", "postalCode": "K7S2Z1", "twitter": "None", "instagram": "None", "facebook": "None", "youtube": "None", "website": "None", "summary": "None", "logo": "None", "latitude": 45.435142602849034, "longitude": -76.36421722424737}, "119180602RR0001": {"name": "ST JOHN'S EVANGELICAL LUTHERAN CHURCH", "designationCode": "C", "categoryCode": "32", "address": "274 CONCORD AVENUE", "city": "TORONTO", "province": "ON", "country": "CA", "postalCode": "M6H2P5", "twitter": "None", "instagram": "None", "facebook": "None", "youtube": "None", "website": "None", "summary": "None", "logo": "None", "latitude": 43.66105508076062, "longitude": -79.42662555040661}, "119180610RR0001": {"name": "ST JOHN'S EVANGELICAL LUTHERAN CHURCH", "designationCode": "C", "categoryCode": "32", "address": "22 WILLOW ST", "city": "WATERLOO", "province": "ON", "country": "CA", "postalCode": "N2J1V5", "twitter": "None", "instagram": "None", "facebook": "None", "youtube": "None", "website": "None", "summary": "None", "logo": "None", "latitude": 43.464763590916824, "longitude": -80.51756233533438}}