{"855132643RR0001": {"name": "Loran Scholars Foundation / Fondation Boursiers Loran", "designationCode": "C", "categoryCode": "21", "address": "502 - 460 RICHMOND ST WEST", "city": "TORONTO", "province": "ON", "country": "CA", "postalCode": "M5V1Y1", "twitter": "None", "instagram": "None", "facebook": "None", "youtube": "None", "website": "None", "summary": "None", "logo": "None", "latitude": 43.64792255983254, "longitude": -79.39538964100468}, "851120485RR0001": {"name": "Lord of the Harvest Church Inc.", "designationCode": "C", "categoryCode": "39", "address": "409 - 611 JEFFERSON AVE", "city": "WINNIPEG", "province": "MB", "country": "CA", "postalCode": "R2V0P4", "twitter": "None", "instagram": "None", "facebook": "None", "youtube": "None", "website": "None", "summary": "None", "logo": "None", "latitude": 49.94054998698693, "longitude": -97.140825515379}, "808826317RR0001": {"name": "Lord of the Nations Church", "designationCode": "C", "categoryCode": "39", "address": "7024 COTE-DES-NEIGES", "city": "MONTREAL", "province": "QC", "country": "CA", "postalCode": "H3S2C1", "twitter": "None", "instagram": "None", "facebook": "None", "youtube": "None", "website": "None", "summary": "None", "logo": "None", "latitude": 45.50414976406616, "longitude": -73.64004382627375}, "852982313RR0001": {"name": "Lord Of The Nations Full Gospel Church Of Wainwright And Area", "designationCode": "C", "categoryCode": "39", "address": "1305 14 ST", "city": "WAINWRIGHT", "province": "AB", "country": "CA", "postalCode": "T9W1E8", "twitter": "None", "instagram": "None", "facebook": "None", "youtube": "None", "website": "None", "summary": "None", "logo": "None", "latitude": 52.84239026533555, "longitude": -110.85043511278805}, "842335804RR0001": {"name": "Lord Stanley Memorial Monument Inc./Monument M\u00e9morial Lord Stanley Inc.", "designationCode": "C", "categoryCode": "59", "address": "123 SLATER STREET             3RD FLOOR", "city": "OTTAWA", "province": "ON", "country": "CA", "postalCode": "K1P5H2", "twitter": "None", "instagram": "None", "facebook": "None", "youtube": "None", "website": "None", "summary": "None", "logo": "None", "latitude": 45.42071141078527, "longitude": -75.69659091147776}, "805140613RR0001": {"name": "Lord's Cove Cemetery Committee", "designationCode": "C", "categoryCode": "59", "address": "SITE 11, BOX 8", "city": "LORD'S COVE", "province": "NL", "country": "CA", "postalCode": "A0E2C0", "twitter": "None", "instagram": "None", "facebook": "None", "youtube": "None", "website": "None", "summary": "None", "logo": "None", "latitude": 47.48337600000005, "longitude": -52.768155499999935}, "823023445RR0001": {"name": "Loreburn Charitable Trust", "designationCode": "B", "categoryCode": "45", "address": "3425-2ND AVENUE SOUTH", "city": "LETHBRIDGE", "province": "AB", "country": "CA", "postalCode": "T1J4V1", "twitter": "None", "instagram": "None", "facebook": "None", "youtube": "None", "website": "None", "summary": "None", "logo": "None", "latitude": 49.696839530439966, "longitude": -112.78914308381903}, "808135891RR0001": {"name": "Lorne Cemetery Company Society", "designationCode": "C", "categoryCode": "59", "address": "BOX 1703", "city": "STELLARTON", "province": "NS", "country": "CA", "postalCode": "B0K1S0", "twitter": "None", "instagram": "None", "facebook": "None", "youtube": "None", "website": "None", "summary": "None", "logo": "None", "latitude": 45.56177000000008, "longitude": -62.65966999999995}, "839113669RR0001": {"name": "Lorne Wellness Centre Inc.", "designationCode": "C", "categoryCode": "11", "address": "BOX 141", "city": "SWAN LAKE", "province": "MB", "country": "CA", "postalCode": "R0G2S0", "twitter": "None", "instagram": "None", "facebook": "None", "youtube": "None", "website": "None", "summary": "None", "logo": "None", "latitude": 49.81247467797347, "longitude": -97.17004926307303}, "831733688RR0001": {"name": "Lornes Blanket Society", "designationCode": "C", "categoryCode": "09", "address": "BOX 1402", "city": "WHITECOURT", "province": "AB", "country": "CA", "postalCode": "T7S1P3", "twitter": "None", "instagram": "None", "facebook": "None", "youtube": "None", "website": "None", "summary": "None", "logo": "None", "latitude": 54.12540300000006, "longitude": -115.66208149999994}, "843752254RR0001": {"name": "Lorraine Ng Charitable Foundation", "designationCode": "B", "categoryCode": "03", "address": "128 CLARENDON DR", "city": "RICHMOND HILL", "province": "ON", "country": "CA", "postalCode": "L4B3W1", "twitter": "None", "instagram": "None", "facebook": "None", "youtube": "None", "website": "None", "summary": "None", "logo": "None", "latitude": 43.87123982292689, "longitude": -79.39208571867985}, "814065249RR0001": {"name": "Lost River Charitable Trust", "designationCode": "B", "categoryCode": "45", "address": "3425 2ND AVENUE SOUTH", "city": "LETHBRIDGE", "province": "AB", "country": "CA", "postalCode": "T1J4V1", "twitter": "None", "instagram": "None", "facebook": "None", "youtube": "None", "website": "None", "summary": "None", "logo": "None", "latitude": 49.696839530439966, "longitude": -112.78914308381903}, "820760882RR0001": {"name": "Lotsadogs Rescue", "designationCode": "C", "categoryCode": "54", "address": "8795 BALDWIN STREET NORTH", "city": "ASHBURN", "province": "ON", "country": "CA", "postalCode": "L0B1A0", "twitter": "None", "instagram": "None", "facebook": "None", "youtube": "None", "website": "None", "summary": "None", "logo": "None", "latitude": 44.00601299561391, "longitude": -78.9648711326983}, "824271480RR0001": {"name": "Lotus Centre for Special Music Education", "designationCode": "B", "categoryCode": "20", "address": "13 - 1002 BEAVERBROOK RD", "city": "KANATA", "province": "ON", "country": "CA", "postalCode": "K2K1L1", "twitter": "None", "instagram": "None", "facebook": "None", "youtube": "None", "website": "None", "summary": "None", "logo": "None", "latitude": 45.327254636691684, "longitude": -75.90539844333865}, "838833812RR0001": {"name": "Louanges et pri\u00e8res dans la maison de Dieu / Worship and Prayers in the House of God / Tehilat Tefilat Beth-El", "designationCode": "C", "categoryCode": "49", "address": "216 - 5775 AV VICTORIA", "city": "MONTREAL", "province": "QC", "country": "CA", "postalCode": "H3W2R4", "twitter": "None", "instagram": "None", "facebook": "None", "youtube": "None", "website": "None", "summary": "None", "logo": "None", "latitude": 45.49298918486342, "longitude": -73.63447911544243}, "892469966RR0001": {"name": "Loughborough Christmas & Emergency Relief Committee", "designationCode": "C", "categoryCode": "09", "address": "BOX 88", "city": "SYDENHAM", "province": "ON", "country": "CA", "postalCode": "K0H2T0", "twitter": "None", "instagram": "None", "facebook": "None", "youtube": "None", "website": "None", "summary": "None", "logo": "None", "latitude": 44.369393050018516, "longitude": -76.57237772157914}, "810471482RR0001": {"name": "Lougheed Charitable Trust", "designationCode": "B", "categoryCode": "45", "address": "3425 2ND AVENUE SOUTH", "city": "LETHBRIDGE", "province": "AB", "country": "CA", "postalCode": "T1J4V1", "twitter": "None", "instagram": "None", "facebook": "None", "youtube": "None", "website": "None", "summary": "None", "logo": "None", "latitude": 49.696839530439966, "longitude": -112.78914308381903}, "129289484RR0001": {"name": "Lougheed Childhood Services Society", "designationCode": "C", "categoryCode": "20", "address": "BOX 311", "city": "LOUGHEED", "province": "AB", "country": "CA", "postalCode": "T0B2V0", "twitter": "None", "instagram": "None", "facebook": "None", "youtube": "None", "website": "None", "summary": "None", "logo": "None", "latitude": 52.6714013175275, "longitude": -112.22238202605135}, "119258200RR0001": {"name": "Louis Riel School Division Trust Fund", "designationCode": "C", "categoryCode": "21", "address": "900 ST. MARY'S ROAD", "city": "WINNIPEG", "province": "MB", "country": "CA", "postalCode": "R2M3R3", "twitter": "None", "instagram": "None", "facebook": "None", "youtube": "None", "website": "None", "summary": "None", "logo": "None", "latitude": 49.84483395253623, "longitude": -97.11291288239318}, "849502950RR0001": {"name": "Louise Russo W.A.V.E. (WORKING AGAINST VIOLENCE EVERYDAY)", "designationCode": "C", "categoryCode": "21", "address": "24 BRADMORE AVE.,", "city": "TORONTO", "province": "ON", "country": "CA", "postalCode": "M9M1J9", "twitter": "None", "instagram": "None", "facebook": "None", "youtube": "None", "website": "None", "summary": "None", "logo": "None", "latitude": 43.723252402186944, "longitude": -79.53875735483874}, "814623302RR0001": {"name": "Love and Hope / Amour et espoir Canada Inc.", "designationCode": "C", "categoryCode": "09", "address": "480 ANDRAS ROAD", "city": "DOLLARD-DES-ORMEAUX", "province": "QC", "country": "CA", "postalCode": "H9B1R8", "twitter": "None", "instagram": "None", "facebook": "None", "youtube": "None", "website": "None", "summary": "None", "logo": "None", "latitude": 45.503986157943196, "longitude": -73.78867351650419}, "817785868RR0001": {"name": "Love and Life Ministry", "designationCode": "C", "categoryCode": "39", "address": "3041 JAGUAR VALLEY DR #303", "city": "MISSISSAUGA", "province": "ON", "country": "CA", "postalCode": "L5A2H9", "twitter": "None", "instagram": "None", "facebook": "None", "youtube": "None", "website": "None", "summary": "None", "logo": "None", "latitude": 43.582473427722164, "longitude": -79.6158231962317}, "819650664RR0001": {"name": "Love and Mercy Benevolent Society", "designationCode": "C", "categoryCode": "39", "address": "1547 BRAMBLE LANE", "city": "COQUITLAM", "province": "BC", "country": "CA", "postalCode": "V3E2T3", "twitter": "None", "instagram": "None", "facebook": "None", "youtube": "None", "website": "None", "summary": "None", "logo": "None", "latitude": 49.30088311962603, "longitude": -122.81334344751592}, "833671050RR0001": {"name": "Love of Lord's Korean Church", "designationCode": "C", "categoryCode": "39", "address": "48 LENTO COURT,", "city": "WOODBRIDGE", "province": "ON", "country": "CA", "postalCode": "L4L8Y7", "twitter": "None", "instagram": "None", "facebook": "None", "youtube": "None", "website": "None", "summary": "None", "logo": "None", "latitude": 43.791154165156556, "longitude": -79.55665896615488}, "711102327RR0001": {"name": "Love City Church Fellowship", "designationCode": "C", "categoryCode": "39", "address": "10836 BRAE RD SW", "city": "CALGARY", "province": "AB", "country": "CA", "postalCode": "T2W1E1", "twitter": "None", "instagram": "None", "facebook": "None", "youtube": "None", "website": "None", "summary": "None", "logo": "None", "latitude": 50.95514532361938, "longitude": -114.10411588550984}, "759528292RR0001": {"name": "Love Corps Alberta", "designationCode": "C", "categoryCode": "47", "address": "8711 82 AVE NW", "city": "EDMONTON", "province": "AB", "country": "CA", "postalCode": "T6C0Y9", "twitter": "None", "instagram": "None", "facebook": "None", "youtube": "None", "website": "None", "summary": "None", "logo": "None", "latitude": 53.51802251009891, "longitude": -113.46176152553522}, "816346290RR0001": {"name": "Love Corps Mission Society", "designationCode": "C", "categoryCode": "47", "address": "15964 88TH AVE", "city": "SURREY", "province": "BC", "country": "CA", "postalCode": "V4N1H5", "twitter": "None", "instagram": "None", "facebook": "None", "youtube": "None", "website": "None", "summary": "None", "logo": "None", "latitude": 49.162729506780686, "longitude": -122.779773}, "841816002RR0001": {"name": "Love Is The Answer", "designationCode": "C", "categoryCode": "09", "address": "5436 CHESTNUT CRES", "city": "LADNER", "province": "BC", "country": "CA", "postalCode": "V4K1J4", "twitter": "None", "instagram": "None", "facebook": "None", "youtube": "None", "website": "None", "summary": "None", "logo": "None", "latitude": 49.0847109526677, "longitude": -123.07120193776366}, "849928031RR0001": {"name": "Love Jerusalem International", "designationCode": "C", "categoryCode": "47", "address": "409-5200 LAKESHORE BOULEVARD", "city": "BURLINGTON", "province": "ON", "country": "CA", "postalCode": "L7L1C5", "twitter": "None", "instagram": "None", "facebook": "None", "youtube": "None", "website": "None", "summary": "None", "logo": "None", "latitude": 43.360244756295835, "longitude": -79.744581683895}, "855715710RR0001": {"name": "Love Made Real Ministries", "designationCode": "C", "categoryCode": "47", "address": "47 VERONA DR", "city": "ARNPRIOR", "province": "ON", "country": "CA", "postalCode": "K7S0C4", "twitter": "None", "instagram": "None", "facebook": "None", "youtube": "None", "website": "None", "summary": "None", "logo": "None", "latitude": 45.42548850248857, "longitude": -76.37657408922885}, "797761699RR0001": {"name": "Love New Canadians", "designationCode": "C", "categoryCode": "49", "address": "252 CITADEL HILLS PL NW", "city": "CALGARY", "province": "AB", "country": "CA", "postalCode": "T3G3V6", "twitter": "None", "instagram": "None", "facebook": "None", "youtube": "None", "website": "None", "summary": "None", "logo": "None", "latitude": 51.13831011740435, "longitude": -114.16762976129618}, "862638665RR0001": {"name": "Love Revolution", "designationCode": "C", "categoryCode": "39", "address": "221 REMEMBRANCE RD", "city": "BRAMPTON", "province": "ON", "country": "CA", "postalCode": "L7A4P1", "twitter": "None", "instagram": "None", "facebook": "None", "youtube": "None", "website": "None", "summary": "None", "logo": "None", "latitude": 43.699144996628526, "longitude": -79.8478060550474}, "811405331RR0001": {"name": "Love Revolution Communities Society", "designationCode": "C", "categoryCode": "39", "address": "1342 RICHMOND ST", "city": "KELOWNA", "province": "BC", "country": "CA", "postalCode": "V1Y3S8", "twitter": "None", "instagram": "None", "facebook": "None", "youtube": "None", "website": "None", "summary": "None", "logo": "None", "latitude": 49.890266999999994, "longitude": -119.47083312839726}, "734709090RR0001": {"name": "Love Those Seniors & More Association", "designationCode": "C", "categoryCode": "54", "address": "2564 CONSTABLE ROAD", "city": "MISSISSAUGA", "province": "ON", "country": "CA", "postalCode": "L5J1W2", "twitter": "None", "instagram": "None", "facebook": "None", "youtube": "None", "website": "None", "summary": "None", "logo": "None", "latitude": 43.50791959948652, "longitude": -79.65010064152592}, "826445736RR0001": {"name": "Love, Betty Cancer Foundation", "designationCode": "C", "categoryCode": "11", "address": "5955 MALDEN RD", "city": "WINDSOR", "province": "ON", "country": "CA", "postalCode": "N9H1S6", "twitter": "None", "instagram": "None", "facebook": "None", "youtube": "None", "website": "None", "summary": "None", "logo": "None", "latitude": 42.245488955575084, "longitude": -83.06100855113992}, "820551380RR0001": {"name": "Loved From Head to Toe", "designationCode": "C", "categoryCode": "09", "address": "230 YELLOW BIRCH DR", "city": "KITCHENER", "province": "ON", "country": "CA", "postalCode": "N2N2P4", "twitter": "None", "instagram": "None", "facebook": "None", "youtube": "None", "website": "None", "summary": "None", "logo": "None", "latitude": 43.41212969499096, "longitude": -80.54994213295623}, "833104359RR0001": {"name": "Loving Arms Charitable Corporation", "designationCode": "C", "categoryCode": "09", "address": "228 CHARTWELL ROAD", "city": "OAKVILLE", "province": "ON", "country": "CA", "postalCode": "L6J3Z8", "twitter": "None", "instagram": "None", "facebook": "None", "youtube": "None", "website": "None", "summary": "None", "logo": "None", "latitude": 43.45735375682415, "longitude": -79.66351185518451}, "822293213RR0001": {"name": "Loving Rose Mission", "designationCode": "C", "categoryCode": "11", "address": "35 CANYON AVENUE              SUITE 201", "city": "TORONTO", "province": "ON", "country": "CA", "postalCode": "M3H4Y2", "twitter": "None", "instagram": "None", "facebook": "None", "youtube": "None", "website": "None", "summary": "None", "logo": "None", "latitude": 43.757919701367605, "longitude": -79.43748485354067}, "821665312RR0001": {"name": "Loving Spoonful Kingston", "designationCode": "C", "categoryCode": "09", "address": "PO BOX 1321 KINGSTON MAIN", "city": "KINGSTON", "province": "ON", "country": "CA", "postalCode": "K7L5C6", "twitter": "None", "instagram": "None", "facebook": "None", "youtube": "None", "website": "None", "summary": "None", "logo": "None"}, "811202530RR0001": {"name": "Lower Coverdale Baptist Church Inc.", "designationCode": "C", "categoryCode": "31", "address": "1121 ROUTE 114", "city": "LOWER COVERDALE", "province": "NB", "country": "CA", "postalCode": "E1J1A3", "twitter": "None", "instagram": "None", "facebook": "None", "youtube": "None", "website": "None", "summary": "None", "logo": "None", "latitude": 46.055099582578144, "longitude": -64.72893699530877}, "719281693RR0001": {"name": "Lower Mainland Humane Society", "designationCode": "C", "categoryCode": "54", "address": "16355 92 AVE", "city": "SURREY", "province": "BC", "country": "CA", "postalCode": "V4N3C9", "twitter": "None", "instagram": "None", "facebook": "None", "youtube": "None", "website": "None", "summary": "None", "logo": "None", "latitude": 49.170184522072766, "longitude": -122.76900360935426}, "832307664RR0001": {"name": "Loyal Edmonton Regiment Advisory Council", "designationCode": "C", "categoryCode": "52", "address": "118-10440 108 AVE NW", "city": "EDMONTON", "province": "AB", "country": "CA", "postalCode": "T5H3Z9", "twitter": "None", "instagram": "None", "facebook": "None", "youtube": "None", "website": "None", "summary": "None", "logo": "None", "latitude": 53.55297257400861, "longitude": -113.50003207386438}, "847373867RR0001": {"name": "Loyan Foundation", "designationCode": "C", "categoryCode": "29", "address": "5-37 VARNA DRIVE,", "city": "TORONTO", "province": "ON", "country": "CA", "postalCode": "M6S2L6", "twitter": "None", "instagram": "None", "facebook": "None", "youtube": "None", "website": "None", "summary": "None", "logo": "None", "latitude": 43.72169415542363, "longitude": -79.44119381572166}, "844318030RR0001": {"name": "Lu-Nid maison de la famille", "designationCode": "C", "categoryCode": "09", "address": "690 RUE DE MONSEIGNEUR-PANET  UNITE 105", "city": "NICOLET", "province": "QC", "country": "CA", "postalCode": "J3T1W1", "twitter": "None", "instagram": "None", "facebook": "None", "youtube": "None", "website": "None", "summary": "None", "logo": "None", "latitude": 46.22988447988997, "longitude": -72.61078254828931}, "892470774RR0001": {"name": "Lua Shayenne Dance Company", "designationCode": "C", "categoryCode": "22", "address": "205 - 142 VAUGHAN RD", "city": "YORK", "province": "ON", "country": "CA", "postalCode": "M6C2M2", "twitter": "None", "instagram": "None", "facebook": "None", "youtube": "None", "website": "None", "summary": "None", "logo": "None", "latitude": 43.68516507493224, "longitude": -79.42177628492684}, "807729108RR0001": {"name": "Lubov SSMI Foundation Inc.", "designationCode": "A", "categoryCode": "03", "address": "1085 MAIN STREET", "city": "WINNIPEG", "province": "MB", "country": "CA", "postalCode": "R2W3S1", "twitter": "None", "instagram": "None", "facebook": "None", "youtube": "None", "website": "None", "summary": "None", "logo": "None", "latitude": 49.915920122395995, "longitude": -97.13150259475465}, "801039330RR0001": {"name": "Lucky Cat Haven Society", "designationCode": "C", "categoryCode": "54", "address": "34 VICKERY ROAD", "city": "VICTORIA", "province": "BC", "country": "CA", "postalCode": "V9B1M4", "twitter": "None", "instagram": "None", "facebook": "None", "youtube": "None", "website": "None", "summary": "None", "logo": "None", "latitude": 48.46273599030514, "longitude": -123.43363385025111}, "819050113RR0001": {"name": "Ludwig von Mises Institute Canada", "designationCode": "C", "categoryCode": "21", "address": "206 - 8 HUMBERSTONE DR", "city": "NORTH YORK", "province": "ON", "country": "CA", "postalCode": "M2N7C1", "twitter": "None", "instagram": "None", "facebook": "None", "youtube": "None", "website": "None", "summary": "None", "logo": "None", "latitude": 43.75773513240797, "longitude": -79.40804887122735}, "107034134RR0001": {"name": "Lumacare Services", "designationCode": "C", "categoryCode": "09", "address": "497 WILSON AVE", "city": "NORTH YORK", "province": "ON", "country": "CA", "postalCode": "M3H1V1", "twitter": "None", "instagram": "None", "facebook": "None", "youtube": "None", "website": "None", "summary": "None", "logo": "None", "latitude": 43.73492680930822, "longitude": -79.44547709602405}, "843202250RR0001": {"name": "Lumby Teens Christmas Bureau", "designationCode": "B", "categoryCode": "09", "address": "1761 MAPLE STREET             PO BOX 65", "city": "LUMBY", "province": "BC", "country": "CA", "postalCode": "V0E2G0", "twitter": "None", "instagram": "None", "facebook": "None", "youtube": "None", "website": "None", "summary": "None", "logo": "None", "latitude": 50.25248748268774, "longitude": -118.96040900706912}, "806960159RR0001": {"name": "Lumen Veritatis Academy", "designationCode": "C", "categoryCode": "20", "address": "225 BROADWAY STREET", "city": "MISSISSAUGA", "province": "ON", "country": "CA", "postalCode": "L5M1J1", "twitter": "None", "instagram": "None", "facebook": "None", "youtube": "None", "website": "None", "summary": "None", "logo": "None", "latitude": 43.57957647573418, "longitude": -79.71379572159404}, "136644762RR0001": {"name": "Lumi\u00e8re bor\u00e9ale * CALACS Baie-Comeau / Northern Light * CALACS Baie-Comeau / Uashtushkuau * CALACS Baie-Comeau", "designationCode": "C", "categoryCode": "09", "address": "CP 2216 SUCC BUREAU-CHEF", "city": "BAIE-COMEAU", "province": "QC", "country": "CA", "postalCode": "G5C2S9", "twitter": "None", "instagram": "None", "facebook": "None", "youtube": "None", "website": "None", "summary": "None", "logo": "None", "latitude": 49.199890000000096, "longitude": -68.27365851923076}, "825731045RR0001": {"name": "Luminous Voices Music Society", "designationCode": "C", "categoryCode": "22", "address": "2006 25 ST SW", "city": "CALGARY", "province": "AB", "country": "CA", "postalCode": "T3E1X2", "twitter": "None", "instagram": "None", "facebook": "None", "youtube": "None", "website": "None", "summary": "None", "logo": "None", "latitude": 51.03592116180968, "longitude": -114.12072983360268}, "856464383RR0001": {"name": "Luna/Sea Theatre Company Society", "designationCode": "C", "categoryCode": "22", "address": "5667 BILBY STREET", "city": "HALIFAX", "province": "NS", "country": "CA", "postalCode": "B3K1V5", "twitter": "None", "instagram": "None", "facebook": "None", "youtube": "None", "website": "None", "summary": "None", "logo": "None", "latitude": 44.65929336969815, "longitude": -63.59751854330882}, "828822783RR0001": {"name": "Lunachicks Foundation Inc.", "designationCode": "B", "categoryCode": "11", "address": "600 - 105 21ST ST E", "city": "SASKATOON", "province": "SK", "country": "CA", "postalCode": "S7K0B3", "twitter": "None", "instagram": "None", "facebook": "None", "youtube": "None", "website": "None", "summary": "None", "logo": "None", "latitude": 52.127419499999995, "longitude": -106.665876}, "822312104RR0001": {"name": "Lunenburg County Crime Prevention Association", "designationCode": "C", "categoryCode": "59", "address": "6 PINEHURST AVE", "city": "BRIDGEWATER", "province": "NS", "country": "CA", "postalCode": "B4V3G7", "twitter": "None", "instagram": "None", "facebook": "None", "youtube": "None", "website": "None", "summary": "None", "logo": "None", "latitude": 44.38473699194992, "longitude": -64.51005018347843}, "848344156RR0001": {"name": "Lunenburg County Lifestyle Centre", "designationCode": "A", "categoryCode": "53", "address": "302-197 DUFFERIN ST. STE 302  PO BOX 5, STATION M", "city": "BRIDGEWATER", "province": "NS", "country": "CA", "postalCode": "B4V2W6", "twitter": "None", "instagram": "None", "facebook": "None", "youtube": "None", "website": "None", "summary": "None", "logo": "None", "latitude": 44.37021184266074, "longitude": -64.52283427534374}, "815707435RR0001": {"name": "Lunenburg Doc Fest Association", "designationCode": "C", "categoryCode": "22", "address": "379 LINCOLN STREET, PO BOX    1951", "city": "LUNENBURG", "province": "NS", "country": "CA", "postalCode": "B0J2C0", "twitter": "None", "instagram": "None", "facebook": "None", "youtube": "None", "website": "None", "summary": "None", "logo": "None", "latitude": 44.37676430004605, "longitude": -64.30514604356863}, "817228703RR0001": {"name": "Lunenburg Foundation for the Arts", "designationCode": "C", "categoryCode": "22", "address": "POST OFFICE BOX 1911          79 PELHAM STREET", "city": "LUNENBURG", "province": "NS", "country": "CA", "postalCode": "B0J2C0", "twitter": "None", "instagram": "None", "facebook": "None", "youtube": "None", "website": "None", "summary": "None", "logo": "None", "latitude": 44.377007405505175, "longitude": -64.31122676380635}, "833191976RR0001": {"name": "Lunenburg School of the Arts", "designationCode": "C", "categoryCode": "22", "address": "PO BOX 610                    PRINCE STREET", "city": "LUNENBURG", "province": "NS", "country": "CA", "postalCode": "B0J2C0", "twitter": "None", "instagram": "None", "facebook": "None", "youtube": "None", "website": "None", "summary": "None", "logo": "None", "latitude": 44.37880753573864, "longitude": -64.30799632892442}, "809513419RR0001": {"name": "Lung Disease Support Group Inc.", "designationCode": "C", "categoryCode": "11", "address": "1720 PARIS STREET             APT 202", "city": "SUDBURY", "province": "ON", "country": "CA", "postalCode": "P3E3C2", "twitter": "None", "instagram": "None", "facebook": "None", "youtube": "None", "website": "None", "summary": "None", "logo": "None", "latitude": 46.45744367583238, "longitude": -81.00130519880013}, "119025880RR0001": {"name": "Lupus SK Society Inc.", "designationCode": "C", "categoryCode": "11", "address": "PO BOX 88 103 HOSPITAL DR     ROYAL UNIVERSITY HOSPITAL", "city": "SASKATOON", "province": "SK", "country": "CA", "postalCode": "S7N0W8", "twitter": "None", "instagram": "None", "facebook": "None", "youtube": "None", "website": "None", "summary": "None", "logo": "None", "latitude": 52.13176000000004, "longitude": -106.64154999999994}, "859626384RR0001": {"name": "Lurana Shelter Society", "designationCode": "C", "categoryCode": "09", "address": "11035 92 STREET", "city": "EDMONTON", "province": "AB", "country": "CA", "postalCode": "T5H1W5", "twitter": "None", "instagram": "None", "facebook": "None", "youtube": "None", "website": "None", "summary": "None", "logo": "None", "latitude": 53.55958771247611, "longitude": -113.48234069129829}, "119288918RR0304": {"name": "Luseland Congregation of Jehovah's Witnesses, Luseland, Saskatchewan", "designationCode": "C", "categoryCode": "61", "address": "PO BOX 280", "city": "LUSELAND", "province": "SK", "country": "CA", "postalCode": "S0L2A0", "twitter": "None", "instagram": "None", "facebook": "None", "youtube": "None", "website": "None", "summary": "None", "logo": "None", "latitude": 52.08343000000008, "longitude": -109.40149999999994}, "866653637RR0001": {"name": "Lush Valley Food Action Society", "designationCode": "C", "categoryCode": "09", "address": "PO BOX 20008 RPO DOWNTOWN", "city": "COURTENAY", "province": "BC", "country": "CA", "postalCode": "V9N0A7", "twitter": "None", "instagram": "None", "facebook": "None", "youtube": "None", "website": "None", "summary": "None", "logo": "None", "latitude": 49.690750076605745, "longitude": -124.99508997056958}, "855624458RR0001": {"name": "Luso Support Centre", "designationCode": "C", "categoryCode": "01", "address": "2295 ST CLAIR AVENUE WEST,", "city": "TORONTO", "province": "ON", "country": "CA", "postalCode": "M6N1K9", "twitter": "None", "instagram": "None", "facebook": "None", "youtube": "None", "website": "None", "summary": "None", "logo": "None", "latitude": 43.6701409114491, "longitude": -79.47823578628315}, "119026367RR0001": {"name": "Luther Home", "designationCode": "C", "categoryCode": "01", "address": "1081 ANDREWS STREET", "city": "WINNIPEG", "province": "MB", "country": "CA", "postalCode": "R2V2G9", "twitter": "None", "instagram": "None", "facebook": "None", "youtube": "None", "website": "None", "summary": "None", "logo": "None", "latitude": 49.94521418093961, "longitude": -97.1239165143694}, "831866801RR0001": {"name": "Lutheran Camp Mush-A-Mush Society", "designationCode": "C", "categoryCode": "56", "address": "POST OFFICE BOX 196", "city": "BRIDGEWATER", "province": "NS", "country": "CA", "postalCode": "B4V2W8", "twitter": "None", "instagram": "None", "facebook": "None", "youtube": "None", "website": "None", "summary": "None", "logo": "None", "latitude": 44.38048200000006, "longitude": -64.52305099999994}, "868501958RR0001": {"name": "Lutheran Early Learning Centers Inc.", "designationCode": "C", "categoryCode": "01", "address": "PO BOX 1368", "city": "WARMAN", "province": "SK", "country": "CA", "postalCode": "S0K4S0", "twitter": "None", "instagram": "None", "facebook": "None", "youtube": "None", "website": "None", "summary": "None", "logo": "None", "latitude": 52.31985000000006, "longitude": -106.58322349999993}, "851988592RR0001": {"name": "Lutheran Urban Ministry Corporation", "designationCode": "C", "categoryCode": "32", "address": "560 ARLINGTON ST", "city": "WINNIPEG", "province": "MB", "country": "CA", "postalCode": "R3G1Z5", "twitter": "None", "instagram": "None", "facebook": "None", "youtube": "None", "website": "None", "summary": "None", "logo": "None", "latitude": 49.89421962392521, "longitude": -97.16874443190576}, "847009123RR0001": {"name": "Lutherplace Apartments Inc.", "designationCode": "C", "categoryCode": "09", "address": "1039 REGENT STREET", "city": "FREDERICTON", "province": "NB", "country": "CA", "postalCode": "E3B3Y9", "twitter": "None", "instagram": "None", "facebook": "None", "youtube": "None", "website": "None", "summary": "None", "logo": "None", "latitude": 45.94187121593854, "longitude": -66.65535540440864}, "807522438RR0001": {"name": "Lux in Tenebris Foundation/ Fondation lux in Tenebris", "designationCode": "B", "categoryCode": "03", "address": "2300-1010 RUE SHERBROOKE OUEST", "city": "MONTREAL", "province": "QC", "country": "CA", "postalCode": "H3A2R7", "twitter": "None", "instagram": "None", "facebook": "None", "youtube": "None", "website": "None", "summary": "None", "logo": "None", "latitude": 45.50420051526984, "longitude": -73.57425178965626}, "898870001RR0001": {"name": "Lyfeline Ministries", "designationCode": "C", "categoryCode": "39", "address": "59 QUEEN ST", "city": "SUSSEX", "province": "NB", "country": "CA", "postalCode": "E4E2A8", "twitter": "None", "instagram": "None", "facebook": "None", "youtube": "None", "website": "None", "summary": "None", "logo": "None", "latitude": 45.72562562891688, "longitude": -65.51397844298559}, "890314875RR0001": {"name": "Lyme Ontario", "designationCode": "C", "categoryCode": "11", "address": "PO BOX 10082                  RPO MEADOWLNDS MALL", "city": "ANCASTER", "province": "ON", "country": "CA", "postalCode": "L9K1P2", "twitter": "None", "instagram": "None", "facebook": "None", "youtube": "None", "website": "None", "summary": "None", "logo": "None", "latitude": 43.22201630937883, "longitude": -79.94693881493815}, "815221312RR0001": {"name": "Lymphedema Association of Manitoba Inc.", "designationCode": "C", "categoryCode": "11", "address": "PO BOX 70047                  KENASTON BOULEVARD", "city": "WINNIPEG", "province": "MB", "country": "CA", "postalCode": "R3P0X6", "twitter": "None", "instagram": "None", "facebook": "None", "youtube": "None", "website": "None", "summary": "None", "logo": "None", "latitude": 49.839328868097475, "longitude": -97.20888453637167}, "844468074RR0001": {"name": "Lymphedema Association of Saskatchewan Inc.", "designationCode": "C", "categoryCode": "11", "address": "PO BOX 28068", "city": "SASKATOON", "province": "SK", "country": "CA", "postalCode": "S7M5V8", "twitter": "None", "instagram": "None", "facebook": "None", "youtube": "None", "website": "None", "summary": "None", "logo": "None", "latitude": 52.13049000000005, "longitude": -106.65926449999994}, "828408567RR0001": {"name": "Lynda Burke Memorial Scholarship Society", "designationCode": "C", "categoryCode": "21", "address": "1256 HASTINGS ROAD", "city": "HASTINGS", "province": "NS", "country": "CA", "postalCode": "B4H3Y3", "twitter": "None", "instagram": "None", "facebook": "None", "youtube": "None", "website": "None", "summary": "None", "logo": "None", "latitude": 45.8394560044434, "longitude": -64.12441119767493}, "119288918RR1601": {"name": "Lynn Valley Congregation of Jehovah's Witnesses, Vancouver, British Columbia", "designationCode": "C", "categoryCode": "61", "address": "2202 - 188 ESPLANADE E", "city": "NORTH VANCOUVER", "province": "BC", "country": "CA", "postalCode": "V7L4Y1", "twitter": "None", "instagram": "None", "facebook": "None", "youtube": "None", "website": "None", "summary": "None", "logo": "None", "latitude": 49.3099480962316, "longitude": -123.07672786252981}, "847737285RR0001": {"name": "Lynn Valley Parent Advisory Council", "designationCode": "C", "categoryCode": "21", "address": "3207 INSTITUTE RD", "city": "NORTH VANCOUVER", "province": "BC", "country": "CA", "postalCode": "V7K3E5", "twitter": "None", "instagram": "None", "facebook": "None", "youtube": "None", "website": "None", "summary": "None", "logo": "None", "latitude": 49.33889977990651, "longitude": -123.03682417381222}, "811757103RR0001": {"name": "Lynn Valley Services Society", "designationCode": "C", "categoryCode": "56", "address": "940 LYNN VALLEY ROAD", "city": "NORTH VANCOUVER", "province": "BC", "country": "CA", "postalCode": "V7J1Z7", "twitter": "None", "instagram": "None", "facebook": "None", "youtube": "None", "website": "None", "summary": "None", "logo": "None", "latitude": 49.331928980581615, "longitude": -123.0480371775058}, "861252310RR0001": {"name": "Lyrical Lines Education Network", "designationCode": "C", "categoryCode": "22", "address": "75 UNIVERSITY AVE W", "city": "WATERLOO", "province": "ON", "country": "CA", "postalCode": "N2L3C5", "twitter": "None", "instagram": "None", "facebook": "None", "youtube": "None", "website": "None", "summary": "None", "logo": "None", "latitude": 43.474871381037815, "longitude": -80.52850186744779}, "118987700RR0001": {"name": "LA BANDE VIDEO ET FILM DE QUEBEC", "designationCode": "C", "categoryCode": "59", "address": "541 RUE SAINT-VALLIER EST     BP#2 1ER E", "city": "QUEBEC", "province": "QC", "country": "CA", "postalCode": "G1K3P9", "twitter": "None", "instagram": "None", "facebook": "None", "youtube": "None", "website": "None", "summary": "None", "logo": "None", "latitude": 46.812717534826064, "longitude": -71.22146098306311}, "866618002RR0001": {"name": "LA BANQUE ALIMENTAIRE \"J'AI FAIM\"", "designationCode": "C", "categoryCode": "09", "address": "188 RUE CANADA", "city": "ST-QUENTIN", "province": "NB", "country": "CA", "postalCode": "E8A1G9", "twitter": "None", "instagram": "None", "facebook": "None", "youtube": "None", "website": "None", "summary": "None", "logo": "None", "latitude": 47.510469, "longitude": -67.39212269693672}, "891547390RR0001": {"name": "LA BANQUE DE NOURRITURE DE CHATEAUGUAY", "designationCode": "C", "categoryCode": "09", "address": "830 BOUL. FORD #418", "city": "CHATEAUGUAY", "province": "QC", "country": "CA", "postalCode": "J6J4Z2", "twitter": "None", "instagram": "None", "facebook": "None", "youtube": "None", "website": "None", "summary": "None", "logo": "None", "latitude": 45.34708593707031, "longitude": -73.69373478749523}, "142833755RR0001": {"name": "LA BARATTE", "designationCode": "C", "categoryCode": "09", "address": "2120 RUE BOIVIN", "city": "STE-FOY", "province": "QC", "country": "CA", "postalCode": "G1V1N7", "twitter": "None", "instagram": "None", "facebook": "None", "youtube": "None", "website": "None", "summary": "None", "logo": "None", "latitude": 46.790467226787264, "longitude": -71.27086906165934}, "118987809RR0001": {"name": "LA BIBLE PARLE-ASSEMBLEE CHRETIENNE", "designationCode": "C", "categoryCode": "31", "address": "C.P.70065 LAVAL -OUEST", "city": "LAVAL", "province": "QC", "country": "CA", "postalCode": "H7R5Z2", "twitter": "None", "instagram": "None", "facebook": "None", "youtube": "None", "website": "None", "summary": "None", "logo": "None", "latitude": 45.554616762049214, "longitude": -73.81007405308395}, "108192105RR0001": {"name": "LA BIBLIOTHEQUE PUBLIQUE DE WATERLOO", "designationCode": "A", "categoryCode": "50", "address": "650 DE LA COUR", "city": "WATERLOO", "province": "QC", "country": "CA", "postalCode": "J0E2N0", "twitter": "None", "instagram": "None", "facebook": "None", "youtube": "None", "website": "None", "summary": "None", "logo": "None", "latitude": 45.34651549515258, "longitude": -72.5162040341049}, "102901220RR0001": {"name": "LA BIVOIE INC.", "designationCode": "C", "categoryCode": "20", "address": "420 COLLARD OUEST", "city": "ALMA", "province": "QC", "country": "CA", "postalCode": "G8B1N2", "twitter": "None", "instagram": "None", "facebook": "None", "youtube": "None", "website": "None", "summary": "None", "logo": "None", "latitude": 48.5479842964107, "longitude": -71.64892674161801}, "895692051RR0001": {"name": "LA BOITE A LETTRES DE HEARST CENTRE D'ALPHABETISATION", "designationCode": "C", "categoryCode": "21", "address": "62B 9E RUE                    C.P. 2948", "city": "HEARST", "province": "ON", "country": "CA", "postalCode": "P0L1N0", "twitter": "None", "instagram": "None", "facebook": "None", "youtube": "None", "website": "None", "summary": "None", "logo": "None", "latitude": 49.68450043008718, "longitude": -83.66603736329816}, "118987833RR0001": {"name": "LA BOITE A LETTRES DE LONGUEUIL", "designationCode": "C", "categoryCode": "21", "address": "1012 BOUL. STE-FOY", "city": "LONGUEUIL", "province": "QC", "country": "CA", "postalCode": "J4K1W2", "twitter": "None", "instagram": "None", "facebook": "None", "youtube": "None", "website": "None", "summary": "None", "logo": "None", "latitude": 45.51997242270185, "longitude": -73.49701536938103}, "107580706RR0001": {"name": "LA BOITE A SOLEIL CO-OPERATIVE INC.", "designationCode": "C", "categoryCode": "20", "address": "674 TANGUAY AVE", "city": "WELLAND", "province": "ON", "country": "CA", "postalCode": "L3B6B2", "twitter": "None", "instagram": "None", "facebook": "None", "youtube": "None", "website": "None", "summary": "None", "logo": "None", "latitude": 42.98973953952926, "longitude": -79.22206927837729}, "875437329RR0001": {"name": "LA BONNE AUBERGE COMMUNITY SERVICES", "designationCode": "C", "categoryCode": "09", "address": "19 JACQUELINE BLVD", "city": "HAMILTON", "province": "ON", "country": "CA", "postalCode": "L9B2R1", "twitter": "None", "instagram": "None", "facebook": "None", "youtube": "None", "website": "None", "summary": "None", "logo": "None", "latitude": 43.1989989975185, "longitude": -79.88444281320335}, "134012996RR0001": {"name": "LA BONNE ETOILE JOLIETTE INC", "designationCode": "C", "categoryCode": "09", "address": "517 ARCHAMBEAULT", "city": "JOLIETTE", "province": "QC", "country": "CA", "postalCode": "J6E2W6", "twitter": "None", "instagram": "None", "facebook": "None", "youtube": "None", "website": "None", "summary": "None", "logo": "None", "latitude": 46.026149050782, "longitude": -73.44377597264712}, "144664380RR0001": {"name": "LA BOU\u00c9E D'ESPOIR INC.", "designationCode": "C", "categoryCode": "11", "address": "257 RUE PRINCIPALE CP 231", "city": "LA SARRE", "province": "QC", "country": "CA", "postalCode": "J9Z2X5", "twitter": "None", "instagram": "None", "facebook": "None", "youtube": "None", "website": "None", "summary": "None", "logo": "None", "latitude": 48.804848329447736, "longitude": -79.20524876807686}, "871439840RR0001": {"name": "LA BOUCH\u00c9E G\u00c9N\u00c9REUSE", "designationCode": "C", "categoryCode": "09", "address": "145, BOUL. WILFRID-HAMEL", "city": "QU\u00c9BEC", "province": "QC", "country": "CA", "postalCode": "G1L4H8", "twitter": "None", "instagram": "None", "facebook": "None", "youtube": "None", "website": "None", "summary": "None", "logo": "None", "latitude": 46.82839202469851, "longitude": -71.24436180861572}, "118987858RR0001": {"name": "LA BOUEE REGIONALE LAC-MEGANTIC INC.", "designationCode": "C", "categoryCode": "09", "address": "CP 232 BUREAU CHEF.", "city": "LAC-MEGANTIC", "province": "QC", "country": "CA", "postalCode": "G6B2S6", "twitter": "None", "instagram": "None", "facebook": "None", "youtube": "None", "website": "None", "summary": "None", "logo": "None", "latitude": 45.574557000000055, "longitude": -70.88209099999993}, "894652593RR0001": {"name": "LA BOUFFE ADDITIONNELLE", "designationCode": "C", "categoryCode": "01", "address": "16 PRINCE                     SUITE 105", "city": "HUNTINGDON", "province": "QC", "country": "CA", "postalCode": "J0S1H0", "twitter": "None", "instagram": "None", "facebook": "None", "youtube": "None", "website": "None", "summary": "None", "logo": "None", "latitude": 45.08645963477391, "longitude": -74.17466653499893}, "898327622RR0001": {"name": "LA BOUFFE DU CARREFOUR", "designationCode": "C", "categoryCode": "09", "address": "3780 GRANDE ALLEE", "city": "SAINT-HUBERT", "province": "QC", "country": "CA", "postalCode": "J4T2V7", "twitter": "None", "instagram": "None", "facebook": "None", "youtube": "None", "website": "None", "summary": "None", "logo": "None", "latitude": 45.49105811627916, "longitude": -73.46778028991848}, "130263288RR0001": {"name": "LA BOURGADE INC.", "designationCode": "C", "categoryCode": "09", "address": "527-1001 BOUL. MAISONNEUVE ESTB.P. 527", "city": "MONTREAL", "province": "QC", "country": "CA", "postalCode": "H2L4P9", "twitter": "None", "instagram": "None", "facebook": "None", "youtube": "None", "website": "None", "summary": "None", "logo": "None", "latitude": 45.51787679352518, "longitude": -73.55879543343497}, "890626492RR0001": {"name": "LA BOUSSOLE, CENTRE COMMUNAUTAIRE SOCIETE", "designationCode": "C", "categoryCode": "21", "address": "651 BROADWAY E", "city": "VANCOUVER", "province": "BC", "country": "CA", "postalCode": "V5T1X7", "twitter": "None", "instagram": "None", "facebook": "None", "youtube": "None", "website": "None", "summary": "None", "logo": "None", "latitude": 49.262550529913234, "longitude": -123.09007357290034}}