{"132410671RR0457": {"name": "THE SOCIETY OF SAINT-VINCENT DE PAUL, ST. GREGORY CONFERENCE OF CAMBRIDGE ON", "designationCode": "C", "categoryCode": "09", "address": "10 ST. GREGORY'S DRIVE", "city": "CAMBRIDGE", "province": "ON", "country": "CA", "postalCode": "N1S3Z1", "twitter": "None", "instagram": "None", "facebook": "None", "youtube": "None", "website": "None", "summary": "None", "logo": "None", "latitude": 43.348010306480006, "longitude": -80.32805951249347}, "119254696RR0001": {"name": "THE SOCIETY OF ST PIUS X (ONTARIO)", "designationCode": "C", "categoryCode": "46", "address": "45 GUTHRIE AVENUE", "city": "TORONTO", "province": "ON", "country": "CA", "postalCode": "M8Y3L2", "twitter": "None", "instagram": "None", "facebook": "None", "youtube": "None", "website": "None", "summary": "None", "logo": "None", "latitude": 43.63138698335159, "longitude": -79.48851073339503}, "131451882RR0001": {"name": "THE SOCIETY OF ST VINCENT DE PAUL - PARTICULAR COUNCIL OF BRANT", "designationCode": "C", "categoryCode": "09", "address": "P.O. BOX 23060", "city": "BRANTFORD", "province": "ON", "country": "CA", "postalCode": "N3R6K4", "twitter": "None", "instagram": "None", "facebook": "None", "youtube": "None", "website": "None", "summary": "None", "logo": "None", "latitude": 43.16825400000006, "longitude": -80.26515799999993}, "132410671RR0349": {"name": "THE SOCIETY OF ST VINCENT DE PAUL - ST THOMAS AQUINAS CONFERENCE", "designationCode": "C", "categoryCode": "09", "address": "316 QUEENSTON STREET", "city": "ST.CATHARINES", "province": "ON", "country": "CA", "postalCode": "L2P2X4", "twitter": "None", "instagram": "None", "facebook": "None", "youtube": "None", "website": "None", "summary": "None", "logo": "None", "latitude": 43.15969239878275, "longitude": -79.21756176842264}, "132410671RR0324": {"name": "THE SOCIETY OF ST VINCENT DE PAUL ST JOHN THE BAPTIST CONFERENCE", "designationCode": "C", "categoryCode": "09", "address": "225 BROCK STREET", "city": "AMHERSTBURG", "province": "ON", "country": "CA", "postalCode": "N9V2H3", "twitter": "None", "instagram": "None", "facebook": "None", "youtube": "None", "website": "None", "summary": "None", "logo": "None", "latitude": 42.10270106662236, "longitude": -83.1041507404355}, "132410671RR0094": {"name": "THE SOCIETY OF ST VINCENT DE PAUL ST LOUIS CONFERENCE", "designationCode": "C", "categoryCode": "56", "address": "53 ALLEN ST E", "city": "WATERLOO", "province": "ON", "country": "CA", "postalCode": "N2J1J3", "twitter": "None", "instagram": "None", "facebook": "None", "youtube": "None", "website": "None", "summary": "None", "logo": "None", "latitude": 43.46216905854361, "longitude": -80.51702316455098}, "132410671RR0289": {"name": "THE SOCIETY OF ST VINCENT DE PAUL ST MICHAEL'S CONFERENCE FORT ERIE", "designationCode": "C", "categoryCode": "09", "address": "3967 LOWER COACH RD", "city": "STEVENSVILLE", "province": "ON", "country": "CA", "postalCode": "L0S1S0", "twitter": "None", "instagram": "None", "facebook": "None", "youtube": "None", "website": "None", "summary": "None", "logo": "None", "latitude": 42.941930524525624, "longitude": -79.06371099861502}, "132410671RR0136": {"name": "THE SOCIETY OF ST VINCENT DE PAUL, HOLY FAMILY CONFERENCE", "designationCode": "C", "categoryCode": "09", "address": "1372 KING ST W.", "city": "TORONTO", "province": "ON", "country": "CA", "postalCode": "M6K1H3", "twitter": "None", "instagram": "None", "facebook": "None", "youtube": "None", "website": "None", "summary": "None", "logo": "None", "latitude": 43.637559169051706, "longitude": -79.43425661977025}, "132410671RR0161": {"name": "THE SOCIETY OF ST VINCENT DE PAUL, HOLY SPIRIT CONFERENCE,", "designationCode": "C", "categoryCode": "09", "address": "3526 SHEPPARD AVE.EAST", "city": "TORONTO", "province": "ON", "country": "CA", "postalCode": "M1T3K7", "twitter": "None", "instagram": "None", "facebook": "None", "youtube": "None", "website": "None", "summary": "None", "logo": "None", "latitude": 43.78011410744968, "longitude": -79.30223987803669}, "132410671RR0103": {"name": "THE SOCIETY OF ST VINCENT DE PAUL, ST ANDREW'S CONFERENCE (REXDALE)", "designationCode": "C", "categoryCode": "09", "address": "2547 KIPLING AVE", "city": "ETOBICOKE", "province": "ON", "country": "CA", "postalCode": "M9V3A8", "twitter": "None", "instagram": "None", "facebook": "None", "youtube": "None", "website": "None", "summary": "None", "logo": "None", "latitude": 43.745922889549234, "longitude": -79.58329095637406}, "132410671RR0105": {"name": "THE SOCIETY OF ST VINCENT DE PAUL, ST ANN CONFERENCE, PENTICTON", "designationCode": "C", "categoryCode": "09", "address": "1296 MAIN ST", "city": "PENTICTON", "province": "BC", "country": "CA", "postalCode": "V2A5G2", "twitter": "None", "instagram": "None", "facebook": "None", "youtube": "None", "website": "None", "summary": "None", "logo": "None", "latitude": 49.48517736663973, "longitude": -119.58632192824176}, "132410671RR0054": {"name": "THE SOCIETY OF ST VINCENT DE PAUL, ST BASIL'S CONFERENCE, TORONTO", "designationCode": "C", "categoryCode": "09", "address": "50 ST JOSEPH STREET", "city": "TORONTO", "province": "ON", "country": "CA", "postalCode": "M5S1J4", "twitter": "None", "instagram": "None", "facebook": "None", "youtube": "None", "website": "None", "summary": "None", "logo": "None", "latitude": 43.6655071329849, "longitude": -79.38830671039862}, "132410671RR0198": {"name": "THE SOCIETY OF ST VINCENT DE PAUL, ST PATRICK CONFERENCE, LONDON, ONTARIO", "designationCode": "C", "categoryCode": "09", "address": "377 OAKLAND AVE", "city": "LONDON", "province": "ON", "country": "CA", "postalCode": "N5W5R4", "twitter": "None", "instagram": "None", "facebook": "None", "youtube": "None", "website": "None", "summary": "None", "logo": "None"}, "132410671RR0127": {"name": "THE SOCIETY OF ST VINCENT DE PAUL, ST PETER'S CONFERENCE, TORONTO", "designationCode": "C", "categoryCode": "09", "address": "659 MARKHAM ST.", "city": "TORONTO", "province": "ON", "country": "CA", "postalCode": "M6G2M1", "twitter": "None", "instagram": "None", "facebook": "None", "youtube": "None", "website": "None", "summary": "None", "logo": "None", "latitude": 43.66558500305841, "longitude": -79.4126499751286}, "126212174RR0001": {"name": "THE SOCIETY OF ST. VINCENT DE PAUL (PETERBOROUGH)", "designationCode": "C", "categoryCode": "09", "address": "256 MURRAY STREET", "city": "PETERBOROUGH", "province": "ON", "country": "CA", "postalCode": "K9H2S9", "twitter": "None", "instagram": "None", "facebook": "None", "youtube": "None", "website": "None", "summary": "None", "logo": "None", "latitude": 44.308315665248784, "longitude": -78.324500236517}, "132410671RR0408": {"name": "THE SOCIETY OF ST. VINCENT DE PAUL - ST. MARY CONFERENCE - GRAFTON (ONTARIO)", "designationCode": "C", "categoryCode": "09", "address": "904 - 1055 BIRCHWOOD TRAIL", "city": "COBOURG", "province": "ON", "country": "CA", "postalCode": "K9A5Y1", "twitter": "None", "instagram": "None", "facebook": "None", "youtube": "None", "website": "None", "summary": "None", "logo": "None", "latitude": 43.98184202780928, "longitude": -78.1701351434069}, "862173085RR0001": {"name": "THE SOCIETY OF ST. VINCENT DE PAUL OF CENTRAL OKANAGAN", "designationCode": "C", "categoryCode": "09", "address": "208-1170 BROOKSIDE AVE.,", "city": "KELOWNA", "province": "BC", "country": "CA", "postalCode": "V1Y5T4", "twitter": "None", "instagram": "None", "facebook": "None", "youtube": "None", "website": "None", "summary": "None", "logo": "None", "latitude": 49.87818330783633, "longitude": -119.47515629113057}, "133233445RR0001": {"name": "THE SOCIETY OF ST. VINCENT DE PAUL OF HALIFAX", "designationCode": "C", "categoryCode": "09", "address": "HALIFAX SHOPPING CENTRE       P O BOX 29051", "city": "HALIFAX", "province": "NS", "country": "CA", "postalCode": "B3L4T8", "twitter": "None", "instagram": "None", "facebook": "None", "youtube": "None", "website": "None", "summary": "None", "logo": "None", "latitude": 44.64922000000007, "longitude": -63.61743999999999}, "133552059RR0002": {"name": "THE SOCIETY OF ST. VINCENT DE PAUL ST. PETER'S CONFERENCE OFGODERICH", "designationCode": "C", "categoryCode": "09", "address": "PO BOX 382 STN MAIN", "city": "GODERICH", "province": "ON", "country": "CA", "postalCode": "N7A4C6", "twitter": "None", "instagram": "None", "facebook": "None", "youtube": "None", "website": "None", "summary": "None", "logo": "None", "latitude": 43.71881028701384, "longitude": -81.62792840345546}, "138315205RR0001": {"name": "THE SOCIETY OF ST. VINCENT DE PAUL VANCOUVER ARCHIDIOCESAN CENTRAL COUNCIL", "designationCode": "C", "categoryCode": "09", "address": "1738 E. HASTINGS ST", "city": "VANCOUVER", "province": "BC", "country": "CA", "postalCode": "V5L1S9", "twitter": "None", "instagram": "None", "facebook": "None", "youtube": "None", "website": "None", "summary": "None", "logo": "None", "latitude": 49.28119547013694, "longitude": -123.06940407951987}, "132410671RR0409": {"name": "THE SOCIETY OF ST. VINCENT DE PAUL-OUR LADY OF FATIMA CONFERENCE", "designationCode": "C", "categoryCode": "09", "address": "10 ELIZABETH SQUARE           BOX 155", "city": "ELLIOT LAKE", "province": "ON", "country": "CA", "postalCode": "P5A1Y7", "twitter": "None", "instagram": "None", "facebook": "None", "youtube": "None", "website": "None", "summary": "None", "logo": "None", "latitude": 46.3841703491546, "longitude": -82.64792677477061}, "132410671RR0475": {"name": "THE SOCIETY OF ST. VINCENT DE PAUL, OUR LADY OF PERPETUAL HELP CONFERENCE WINDSOR", "designationCode": "C", "categoryCode": "09", "address": "804 GRAND MARAIS ROAD EAST", "city": "WINDSOR", "province": "ON", "country": "CA", "postalCode": "N8X3H8", "twitter": "None", "instagram": "None", "facebook": "None", "youtube": "None", "website": "None", "summary": "None", "logo": "None", "latitude": 42.28259939304033, "longitude": -83.00163177035589}, "132410671RR0359": {"name": "THE SOCIETY OF ST-VINCENT DE PAUL PARTICULAR COUNCIL", "designationCode": "C", "categoryCode": "09", "address": "29 SPRINGBANK DR", "city": "ST CATHARINES", "province": "ON", "country": "CA", "postalCode": "L2S2K1", "twitter": "None", "instagram": "None", "facebook": "None", "youtube": "None", "website": "None", "summary": "None", "logo": "None", "latitude": 43.15658777295295, "longitude": -79.25859369098025}, "119254779RR0001": {"name": "THE SOCIETY OF THE FRIENDS OF THE EARLY MUSIC STUDIO", "designationCode": "C", "categoryCode": "22", "address": "1338 GREGORY RD", "city": "KELOWNA", "province": "BC", "country": "CA", "postalCode": "V1Z3P2", "twitter": "None", "instagram": "None", "facebook": "None", "youtube": "None", "website": "None", "summary": "None", "logo": "None", "latitude": 49.84514147100232, "longitude": -119.57137152844942}, "890518269RR0001": {"name": "THE SOCIETY OF THE FRIENDS OF THE EDMONTON PUBLIC LIBRARY", "designationCode": "A", "categoryCode": "53", "address": "7 WINSTON CHURCHILL SQUARE", "city": "EDMONTON", "province": "AB", "country": "CA", "postalCode": "T5J2V4", "twitter": "None", "instagram": "None", "facebook": "None", "youtube": "None", "website": "None", "summary": "None", "logo": "None", "latitude": 53.543268465602104, "longitude": -113.49060039354845}, "108097833RR0001": {"name": "THE SOCIETY OF THE SACRED HEART OF JESUS", "designationCode": "C", "categoryCode": "46", "address": "391 RYMAL RD W", "city": "HAMILTON", "province": "ON", "country": "CA", "postalCode": "L9B1V2", "twitter": "None", "instagram": "None", "facebook": "None", "youtube": "None", "website": "None", "summary": "None", "logo": "None", "latitude": 43.205810900340616, "longitude": -79.90679787414155}, "865229165RR0001": {"name": "THE SOCRATES EDUCATIONAL FOUNDATION/LA FONDATION EDUCATIONNELLE SOCRATE", "designationCode": "C", "categoryCode": "21", "address": "32 CRESWELL", "city": "DOLLARD DES ORMEAUX", "province": "QC", "country": "CA", "postalCode": "H9B1W7", "twitter": "None", "instagram": "None", "facebook": "None", "youtube": "None", "website": "None", "summary": "None", "logo": "None", "latitude": 45.49268424424374, "longitude": -73.79040605978436}, "891447823RR0001": {"name": "THE SODALITY OF ST. EDMUND, KING AND MARTYR", "designationCode": "C", "categoryCode": "30", "address": "102 FREDERICK BANTING PLACE", "city": "WATERLOO", "province": "ON", "country": "CA", "postalCode": "N2T1C4", "twitter": "None", "instagram": "None", "facebook": "None", "youtube": "None", "website": "None", "summary": "None", "logo": "None", "latitude": 43.45604033807476, "longitude": -80.56599313627446}, "105251086RR0001": {"name": "THE SOKOL MANOR INC.", "designationCode": "C", "categoryCode": "09", "address": "30 13TH STREET NORTH", "city": "BRANDON", "province": "MB", "country": "CA", "postalCode": "R7A6T1", "twitter": "None", "instagram": "None", "facebook": "None", "youtube": "None", "website": "None", "summary": "None", "logo": "None", "latitude": 49.851042699831204, "longitude": -99.95561530556206}, "119155935RR0001": {"name": "THE SOLAR ENERGY SOCIETY OF CANADA (1985) INC. SOCIETE D'ENERGIE SOLAIRE DU CANADA (1985) INC.", "designationCode": "C", "categoryCode": "21", "address": "1700 DES BROUSSAILLES", "city": "OTTAWA", "province": "ON", "country": "CA", "postalCode": "K1C5T1", "twitter": "None", "instagram": "None", "facebook": "None", "youtube": "None", "website": "None", "summary": "None", "logo": "None", "latitude": 45.44750694809282, "longitude": -75.54392478048342}, "889877726RR0001": {"name": "THE SOLID ROCK COMMUNITY CHURCH", "designationCode": "C", "categoryCode": "39", "address": "P.O. BOX 35114 - FLEETWOOD P.OUNIT 409-15940 FRASER HIGHWAY", "city": "SURREY", "province": "BC", "country": "CA", "postalCode": "V4N9E9", "twitter": "None", "instagram": "None", "facebook": "None", "youtube": "None", "website": "None", "summary": "None", "logo": "None", "latitude": 49.157780307173425, "longitude": -122.78026127872307}, "107303323RR0001": {"name": "THE SOLID ROCK FELLOWSHIP", "designationCode": "C", "categoryCode": "36", "address": "46200 YALE ROAD EAST", "city": "CHILLIWACK", "province": "BC", "country": "CA", "postalCode": "V2P2P3", "twitter": "None", "instagram": "None", "facebook": "None", "youtube": "None", "website": "None", "summary": "None", "logo": "None", "latitude": 49.171592893127254, "longitude": -121.95025346251956}, "892769365RR0001": {"name": "THE SOLID ROCK FOUNDATION", "designationCode": "B", "categoryCode": "43", "address": "17770 DALY ROAD", "city": "SURREY", "province": "BC", "country": "CA", "postalCode": "V4N4M5", "twitter": "None", "instagram": "None", "facebook": "None", "youtube": "None", "website": "None", "summary": "None", "logo": "None", "latitude": 49.188960001096525, "longitude": -122.72985424689811}, "857836779RR0001": {"name": "THE SOLTRON FOUNDATION", "designationCode": "B", "categoryCode": "05", "address": "1455 PEEL STREET, SUITE 424", "city": "MONTREAL", "province": "QC", "country": "CA", "postalCode": "H3A1T5", "twitter": "None", "instagram": "None", "facebook": "None", "youtube": "None", "website": "None", "summary": "None", "logo": "None", "latitude": 45.5005420905128, "longitude": -73.57398842988654}, "888999042RR0001": {"name": "THE SONOR FOUNDATION", "designationCode": "B", "categoryCode": "13", "address": "130 ADELAIDE STREET WEST      SUITE 2120", "city": "TORONTO", "province": "ON", "country": "CA", "postalCode": "M5J2T3", "twitter": "None", "instagram": "None", "facebook": "None", "youtube": "None", "website": "None", "summary": "None", "logo": "None", "latitude": 43.64931314741162, "longitude": -79.38362708272251}, "892325846RR0001": {"name": "THE SONSHINE FAMILY FOUNDATION", "designationCode": "B", "categoryCode": "03", "address": "500-2300 YONGE STREET", "city": "TORONTO", "province": "ON", "country": "CA", "postalCode": "M4P1E4", "twitter": "None", "instagram": "None", "facebook": "None", "youtube": "None", "website": "None", "summary": "None", "logo": "None", "latitude": 43.70721096779967, "longitude": -79.39846036808203}, "868114133RR0001": {"name": "THE SONSHINE LUNCH CLUB", "designationCode": "C", "categoryCode": "09", "address": "7 2787 WENTWORTH RD", "city": "COURTENAY", "province": "BC", "country": "CA", "postalCode": "V9N6B7", "twitter": "None", "instagram": "None", "facebook": "None", "youtube": "None", "website": "None", "summary": "None", "logo": "None", "latitude": 49.71613973659768, "longitude": -124.98939578919733}, "869279638RR0001": {"name": "THE SONSHINE STREET PRESCHOOL", "designationCode": "C", "categoryCode": "01", "address": "20098-22ND AVENUE", "city": "LANGLEY", "province": "BC", "country": "CA", "postalCode": "V2Z1X4", "twitter": "None", "instagram": "None", "facebook": "None", "youtube": "None", "website": "None", "summary": "None", "logo": "None", "latitude": 49.042035546742625, "longitude": -122.66664355536962}, "119254837RR0001": {"name": "THE SOO LINE HISTORICAL SOCIETY INC.", "designationCode": "C", "categoryCode": "50", "address": "BOX 1016-411 INDUSTRIAL LANE", "city": "WEYBURN", "province": "SK", "country": "CA", "postalCode": "S4H2L2", "twitter": "None", "instagram": "None", "facebook": "None", "youtube": "None", "website": "None", "summary": "None", "logo": "None", "latitude": 49.65890232937177, "longitude": -103.85408694397599}, "889900338RR0001": {"name": "THE SOOK CHING FOUNDATION", "designationCode": "B", "categoryCode": "03", "address": "755 ANDOVER CRES", "city": "WEST VANCOUVER", "province": "BC", "country": "CA", "postalCode": "V7S1Y5", "twitter": "None", "instagram": "None", "facebook": "None", "youtube": "None", "website": "None", "summary": "None", "logo": "None"}, "874329220RR0001": {"name": "THE SOOKE PHILHARMONIC SOCIETY", "designationCode": "C", "categoryCode": "22", "address": "BOX 767", "city": "SOOKE", "province": "BC", "country": "CA", "postalCode": "V9Z1H7", "twitter": "None", "instagram": "None", "facebook": "None", "youtube": "None", "website": "None", "summary": "None", "logo": "None", "latitude": 48.381873000000056, "longitude": -123.73120249999994}, "858472632RR0001": {"name": "THE SOPHIA HILTON FOUNDATION OF CANADA INC.", "designationCode": "C", "categoryCode": "03", "address": "4941 HILTON HARRIS ROAD       R.R  1", "city": "GORE'S LANDING", "province": "ON", "country": "CA", "postalCode": "K0K2E0", "twitter": "None", "instagram": "None", "facebook": "None", "youtube": "None", "website": "None", "summary": "None", "logo": "None", "latitude": 44.10141571986143, "longitude": -78.24283323763689}, "887442150RR0001": {"name": "THE SOUND INVESTMENT COMMUNITY CHOIR", "designationCode": "C", "categoryCode": "22", "address": "15 BROCK CRESCENT", "city": "COLLINGWOOD", "province": "ON", "country": "CA", "postalCode": "L9Y4A4", "twitter": "None", "instagram": "None", "facebook": "None", "youtube": "None", "website": "None", "summary": "None", "logo": "None", "latitude": 44.485396070482295, "longitude": -80.21292123518509}, "867722688RR0001": {"name": "THE SOUP HAVEN", "designationCode": "C", "categoryCode": "09", "address": "186 ALLANBROOKE DR", "city": "YORKTON", "province": "SK", "country": "CA", "postalCode": "S3N3G5", "twitter": "None", "instagram": "None", "facebook": "None", "youtube": "None", "website": "None", "summary": "None", "logo": "None", "latitude": 51.197147329447745, "longitude": -102.48637680128678}, "869510479RR0001": {"name": "THE SOUP KITCHEN", "designationCode": "C", "categoryCode": "09", "address": "PO BOX 4392", "city": "HAY RIVER", "province": "NT", "country": "CA", "postalCode": "X0E1G3", "twitter": "None", "instagram": "None", "facebook": "None", "youtube": "None", "website": "None", "summary": "None", "logo": "None", "latitude": 60.82057500000006, "longitude": -115.78217299999994}, "890680762RR0001": {"name": "THE SOURCE CLUB SOCIETY", "designationCode": "C", "categoryCode": "09", "address": "4476 CUMBERLAND PLACE", "city": "POWELL RIVER", "province": "BC", "country": "CA", "postalCode": "V8A2X4", "twitter": "None", "instagram": "None", "facebook": "None", "youtube": "None", "website": "None", "summary": "None", "logo": "None", "latitude": 49.83711258090486, "longitude": -124.5220574482084}, "892691841RR0001": {"name": "THE SOURIS DISTRICT DONOR'S CHOICE", "designationCode": "A", "categoryCode": "05", "address": "PO BOX 1153", "city": "SOURIS", "province": "MB", "country": "CA", "postalCode": "R0K2C0", "twitter": "None", "instagram": "None", "facebook": "None", "youtube": "None", "website": "None", "summary": "None", "logo": "None", "latitude": 49.59915625917259, "longitude": -99.8622610573006}, "890774185RR0001": {"name": "THE SOUTH ALBERTA ASSOCIATION OF EVANGELICAL BAPTIST CHURCHES OF ALTA SASK AND THE NWT", "designationCode": "C", "categoryCode": "49", "address": "1009 EAST LAKE BLVD", "city": "AIRDRIE", "province": "AB", "country": "CA", "postalCode": "T4A1R3", "twitter": "None", "instagram": "None", "facebook": "None", "youtube": "None", "website": "None", "summary": "None", "logo": "None", "latitude": 51.27730782528323, "longitude": -113.98988706438288}, "890996432RR0001": {"name": "THE SOUTH ALBERTA LIGHT HORSE REGIMENT FOUNDATION", "designationCode": "C", "categoryCode": "51", "address": "101-11111-82 AVE NW", "city": "EDMONTON", "province": "AB", "country": "CA", "postalCode": "T6G0T3", "twitter": "None", "instagram": "None", "facebook": "None", "youtube": "None", "website": "None", "summary": "None", "logo": "None", "latitude": 53.516424386621736, "longitude": -113.52559988294027}, "890549348RR0001": {"name": "THE SOUTH BURNABY GOSPEL HALL SOCIETY", "designationCode": "C", "categoryCode": "47", "address": "200-3777 MARINE WAY", "city": "BURNABY", "province": "BC", "country": "CA", "postalCode": "V5J5A7", "twitter": "None", "instagram": "None", "facebook": "None", "youtube": "None", "website": "None", "summary": "None", "logo": "None", "latitude": 49.20551742920048, "longitude": -123.02056607079953}, "869259622RR0001": {"name": "THE SOUTH COUNTRY CHRISTIAN FELLOWSHIP BAPTIST CHURCH", "designationCode": "C", "categoryCode": "39", "address": "PO BOX 117", "city": "JAFFRAY", "province": "BC", "country": "CA", "postalCode": "V0B1T0", "twitter": "None", "instagram": "None", "facebook": "None", "youtube": "None", "website": "None", "summary": "None", "logo": "None", "latitude": 49.37577300000001, "longitude": -115.30324575}, "107996274RR0001": {"name": "THE SOUTH HILL CHILD CARE CO-OPERATIVE ASSOCIATION LIMITED", "designationCode": "C", "categoryCode": "01", "address": "2805 1ST AVE W", "city": "PRINCE ALBERT", "province": "SK", "country": "CA", "postalCode": "S6V5A6", "twitter": "None", "instagram": "None", "facebook": "None", "youtube": "None", "website": "None", "summary": "None", "logo": "None", "latitude": 53.18754191035259, "longitude": -105.75720978409011}, "135732030RR0001": {"name": "THE SOUTH ISLAND MUSICAL THEATRE SOCIETY", "designationCode": "C", "categoryCode": "22", "address": "PO BOX 1106", "city": "DUNCAN", "province": "BC", "country": "CA", "postalCode": "V9L3Y2", "twitter": "None", "instagram": "None", "facebook": "None", "youtube": "None", "website": "None", "summary": "None", "logo": "None", "latitude": 48.77908800000006, "longitude": -123.70739299999994}, "890271448RR0001": {"name": "THE SOUTH SASKATCHEWAN COMMUNITY FOUNDATION INC.", "designationCode": "A", "categoryCode": "53", "address": "3934 GORDON ROAD", "city": "REGINA", "province": "SK", "country": "CA", "postalCode": "S4S6Y3", "twitter": "None", "instagram": "None", "facebook": "None", "youtube": "None", "website": "None", "summary": "None", "logo": "None", "latitude": 50.40558080040141, "longitude": -104.63744333055406}, "861570497RR0001": {"name": "THE SOUTH SASKATCHEWAN YOUTH ORCHESTRA INC.", "designationCode": "C", "categoryCode": "22", "address": "3442 RIDEOUT BAY", "city": "REGINA", "province": "SK", "country": "CA", "postalCode": "S4S7C2", "twitter": "None", "instagram": "None", "facebook": "None", "youtube": "None", "website": "None", "summary": "None", "logo": "None", "latitude": 50.39858250678068, "longitude": -104.63107402553523}, "870355013RR0001": {"name": "THE SOUTH SHORE CHILDREN'S CHORUS/LA CHORALE DES ENFANTS DE LA RIVE-SUD", "designationCode": "C", "categoryCode": "22", "address": "8840 ROUYN", "city": "BROSSARD", "province": "QC", "country": "CA", "postalCode": "J4X2T9", "twitter": "None", "instagram": "None", "facebook": "None", "youtube": "None", "website": "None", "summary": "None", "logo": "None", "latitude": 45.44058991840268, "longitude": -73.47506175962275}, "119255008RR0001": {"name": "THE SOUTH SHORE COMMUNITY ORGANISATION", "designationCode": "C", "categoryCode": "56", "address": "P.O. BOX 17", "city": "CRAPAUD", "province": "PE", "country": "CA", "postalCode": "C0A1J0", "twitter": "None", "instagram": "None", "facebook": "None", "youtube": "None", "website": "None", "summary": "None", "logo": "None", "latitude": 46.23952000000003, "longitude": -63.49867999999998}, "119255016RR0001": {"name": "THE SOUTH SHORE GENEALOGICAL SOCIETY", "designationCode": "C", "categoryCode": "50", "address": "PO BOX 901", "city": "LUNENBURG", "province": "NS", "country": "CA", "postalCode": "B0J2C0", "twitter": "None", "instagram": "None", "facebook": "None", "youtube": "None", "website": "None", "summary": "None", "logo": "None", "latitude": 44.37886006217898, "longitude": -64.31792993782098}, "891450579RR0001": {"name": "THE SOUTH SIMCOE THEATRE", "designationCode": "C", "categoryCode": "22", "address": "1 HAMILTON ST", "city": "COOKSTOWN", "province": "ON", "country": "CA", "postalCode": "L0L1L0", "twitter": "None", "instagram": "None", "facebook": "None", "youtube": "None", "website": "None", "summary": "None", "logo": "None", "latitude": 44.18917982763009, "longitude": -79.7005452053783}, "119254902RR0001": {"name": "THE SOUTH-EAST ALBERTA AGRICULTURAL SOCIETY", "designationCode": "C", "categoryCode": "56", "address": "BOX 81", "city": "ORION", "province": "AB", "country": "CA", "postalCode": "T0K1S0", "twitter": "None", "instagram": "None", "facebook": "None", "youtube": "None", "website": "None", "summary": "None", "logo": "None", "latitude": 49.453130000000044, "longitude": -110.81296999999995}, "822109468RR0001": {"name": "THE SOUTHAMPTON ARTS SOCIETY", "designationCode": "C", "categoryCode": "22", "address": "201 HIGH STREET               BOX 115", "city": "SOUTHAMPTON", "province": "ON", "country": "CA", "postalCode": "N0H2L0", "twitter": "None", "instagram": "None", "facebook": "None", "youtube": "None", "website": "None", "summary": "None", "logo": "None", "latitude": 44.49550603696918, "longitude": -81.3714606309964}, "101630820RR0001": {"name": "THE SOUTHDOWN INSTITUTE", "designationCode": "C", "categoryCode": "57", "address": "18798 OLD YONGE ST", "city": "HOLLAND LANDING", "province": "ON", "country": "CA", "postalCode": "L9N0L1", "twitter": "None", "instagram": "None", "facebook": "None", "youtube": "None", "website": "None", "summary": "None", "logo": "None", "latitude": 44.08634955730287, "longitude": -79.48800739517512}, "891523144RR0001": {"name": "THE SOUTHEAST GERI-FITNESS COMMITTEE - MAPLE LEAF ZONE", "designationCode": "C", "categoryCode": "11", "address": "5 SPRING STREET", "city": "PETITCODIAC", "province": "NB", "country": "CA", "postalCode": "E4Z4W3", "twitter": "None", "instagram": "None", "facebook": "None", "youtube": "None", "website": "None", "summary": "None", "logo": "None", "latitude": 45.92884187924879, "longitude": -65.17638949558527}, "119254944RR0001": {"name": "THE SOUTHERN ALBERTA SELF-HELP ASSOCIATION", "designationCode": "C", "categoryCode": "01", "address": "1239 5 AVE S", "city": "LETHBRIDGE", "province": "AB", "country": "CA", "postalCode": "T1J0V6", "twitter": "None", "instagram": "None", "facebook": "None", "youtube": "None", "website": "None", "summary": "None", "logo": "None", "latitude": 49.69339145325739, "longitude": -112.82657208243405}, "896314853RR0001": {"name": "THE SOUTHERN KINGS AND QUEENS FOOD BANK INC", "designationCode": "C", "categoryCode": "09", "address": "222 RTE 17, RR 2", "city": "MONTAGUE", "province": "PE", "country": "CA", "postalCode": "C0A1R0", "twitter": "None", "instagram": "None", "facebook": "None", "youtube": "None", "website": "None", "summary": "None", "logo": "None", "latitude": 46.16100855063775, "longitude": -62.63167353289281}, "892809765RR0001": {"name": "THE SOUTHERN KINGS AND QUEENS HOME HEALTH CARE EQUIPMENT COMMITTEE", "designationCode": "C", "categoryCode": "19", "address": "PO BOX 1646", "city": "MONTAGUE", "province": "PE", "country": "CA", "postalCode": "C0A1R0", "twitter": "None", "instagram": "None", "facebook": "None", "youtube": "None", "website": "None", "summary": "None", "logo": "None", "latitude": 46.14343222329997, "longitude": -62.75594020244682}, "119254951RR0001": {"name": "THE SOUTHERN MANITOBA CHORAL SOCIETY", "designationCode": "C", "categoryCode": "22", "address": "BOX 97", "city": "ALTONA", "province": "MB", "country": "CA", "postalCode": "R0G0B0", "twitter": "None", "instagram": "None", "facebook": "None", "youtube": "None", "website": "None", "summary": "None", "logo": "None", "latitude": 49.10353800000006, "longitude": -97.55120149999993}, "890267198RR0001": {"name": "THE SOUTHWEST MANITOBA REGIONAL FOUNDATION", "designationCode": "A", "categoryCode": "55", "address": "BOX 338", "city": "DELORAINE", "province": "MB", "country": "CA", "postalCode": "R0M0M0", "twitter": "None", "instagram": "None", "facebook": "None", "youtube": "None", "website": "None", "summary": "None", "logo": "None", "latitude": 49.19157000000007, "longitude": -100.49399999999997}, "891019143RR0001": {"name": "THE SPANISH CHURCH OF GOD OF PROPHECY", "designationCode": "C", "categoryCode": "39", "address": "12162 97TH AVE", "city": "SURREY", "province": "BC", "country": "CA", "postalCode": "V3V2C9", "twitter": "None", "instagram": "None", "facebook": "None", "youtube": "None", "website": "None", "summary": "None", "logo": "None", "latitude": 49.17887046681873, "longitude": -122.8858425}, "107998718RR0001": {"name": "THE SPARWOOD PUBLIC LIBRARY ASSOCIATION", "designationCode": "C", "categoryCode": "50", "address": "P.O. BOX 1060", "city": "SPARWOOD", "province": "BC", "country": "CA", "postalCode": "V0B2G0", "twitter": "None", "instagram": "None", "facebook": "None", "youtube": "None", "website": "None", "summary": "None", "logo": "None", "latitude": 49.71825130304497, "longitude": -114.89137413399925}, "135709558RR0001": {"name": "THE SPEAKER-MABEE MEMORIAL FOUNDATION", "designationCode": "B", "categoryCode": "13", "address": "228 HIGH ST                   PO BOX 282", "city": "FORT ERIE", "province": "ON", "country": "CA", "postalCode": "L2A5M9", "twitter": "None", "instagram": "None", "facebook": "None", "youtube": "None", "website": "None", "summary": "None", "logo": "None", "latitude": 42.91136526008775, "longitude": -78.91590775826243}, "119159317RR0001": {"name": "THE SPEC ASSOCIATION FOR CHILDREN AND FAMILIES", "designationCode": "C", "categoryCode": "09", "address": "101 327 3RD STREET WEST", "city": "BROOKS", "province": "AB", "country": "CA", "postalCode": "T1R0E7", "twitter": "None", "instagram": "None", "facebook": "None", "youtube": "None", "website": "None", "summary": "None", "logo": "None", "latitude": 50.56994250000001, "longitude": -111.89866049999999}, "119255115RR0001": {"name": "THE SPECIAL NEEDS EMPLOYMENT SERVICE INC", "designationCode": "C", "categoryCode": "59", "address": "265 FRONT STREET NORTH        SUITE 411", "city": "SARNIA", "province": "ON", "country": "CA", "postalCode": "N7T7X1", "twitter": "None", "instagram": "None", "facebook": "None", "youtube": "None", "website": "None", "summary": "None", "logo": "None", "latitude": 42.97559181869098, "longitude": -82.40715764319809}, "119255123RR0001": {"name": "THE SPECIAL PHYSICAL EQUIPMENT COMMITTEE FOR SENIORS", "designationCode": "C", "categoryCode": "09", "address": "PO BOX 814 STN B", "city": "HAPPY VALLEY - GOOSE BAY", "province": "NL", "country": "CA", "postalCode": "A0P1E0", "twitter": "None", "instagram": "None", "facebook": "None", "youtube": "None", "website": "None", "summary": "None", "logo": "None", "latitude": 53.29581900000005, "longitude": -60.29593999999993}, "119159358RR0001": {"name": "THE SPEECH AND STUTTERING INSTITUTE", "designationCode": "C", "categoryCode": "03", "address": "2-150 DUNCAN MILL RD", "city": "TORONTO", "province": "ON", "country": "CA", "postalCode": "M3B3M4", "twitter": "None", "instagram": "None", "facebook": "None", "youtube": "None", "website": "None", "summary": "None", "logo": "None", "latitude": 43.76124869499096, "longitude": -79.35708221677527}, "119255156RR0001": {"name": "THE SPERLING COMMUNITY CENTRE DISTRICT", "designationCode": "C", "categoryCode": "56", "address": "BOX 100", "city": "SPERLING", "province": "MB", "country": "CA", "postalCode": "R0G2M0", "twitter": "None", "instagram": "None", "facebook": "None", "youtube": "None", "website": "None", "summary": "None", "logo": "None", "latitude": 49.50816000000003, "longitude": -97.70514999999995}, "793947714RR0001": {"name": "THE SPIEL FOUNDATION", "designationCode": "B", "categoryCode": "03", "address": "1-226 10TH E ST", "city": "NORTH VANCOUVER", "province": "BC", "country": "CA", "postalCode": "V7L2E1", "twitter": "None", "instagram": "None", "facebook": "None", "youtube": "None", "website": "None", "summary": "None", "logo": "None", "latitude": 49.316823, "longitude": -123.06788325}, "119255164RR0001": {"name": "THE SPINA BIFIDA & HYDROCEPHALUS ASSOCIATION OF BRITISH COLUMBIA", "designationCode": "C", "categoryCode": "09", "address": "102-15910 FRASER HIGHWAY SUITE228", "city": "SURREY", "province": "BC", "country": "CA", "postalCode": "V4N0X9", "twitter": "None", "instagram": "None", "facebook": "None", "youtube": "None", "website": "None", "summary": "None", "logo": "None", "latitude": 49.15837132160014, "longitude": -122.7817819063992}, "867160954RR0001": {"name": "THE SPIRIT AND WORD MINISTRIES", "designationCode": "C", "categoryCode": "47", "address": "51 JUNO CRES", "city": "SUTTON WEST", "province": "ON", "country": "CA", "postalCode": "L0E1R0", "twitter": "None", "instagram": "None", "facebook": "None", "youtube": "None", "website": "None", "summary": "None", "logo": "None", "latitude": 44.30805111489416, "longitude": -79.33153567185033}, "840246854RR0001": {"name": "THE SPIRIT OF FREEDOM MINISTRIES", "designationCode": "C", "categoryCode": "47", "address": "PO BOX 416", "city": "MAPLE RIDGE", "province": "BC", "country": "CA", "postalCode": "V2X8K9", "twitter": "None", "instagram": "None", "facebook": "None", "youtube": "None", "website": "None", "summary": "None", "logo": "None", "latitude": 49.21686600000005, "longitude": -122.60537449999993}, "840499818RR0001": {"name": "THE SPIRIT OF TRUTH CHURCH", "designationCode": "C", "categoryCode": "39", "address": "PO BOX 55079 FAIRVIEW MALL RPO1800 SHEPPARD AVE. E.", "city": "WILLOWDALE", "province": "ON", "country": "CA", "postalCode": "M2J5B9", "twitter": "None", "instagram": "None", "facebook": "None", "youtube": "None", "website": "None", "summary": "None", "logo": "None", "latitude": 43.777190000000076, "longitude": -79.34461999999996}, "119255198RR0001": {"name": "THE SPIRIT RIVER SETTLEMENT HISTORICAL SOCIETY", "designationCode": "C", "categoryCode": "50", "address": "PO BOX 221", "city": "SPIRIT RIVER", "province": "AB", "country": "CA", "postalCode": "T0H3G0", "twitter": "None", "instagram": "None", "facebook": "None", "youtube": "None", "website": "None", "summary": "None", "logo": "None", "latitude": 58.38582002553528, "longitude": -116.01813004501088}, "140348806RR0001": {"name": "THE SPIRITUAL ASSEMBLY OF THE BAHA'IS OF ABBOTSFORD", "designationCode": "C", "categoryCode": "33", "address": "PO BOX 625 STN A", "city": "ABBOTSFORD", "province": "BC", "country": "CA", "postalCode": "V2T6Z8", "twitter": "None", "instagram": "None", "facebook": "None", "youtube": "None", "website": "None", "summary": "None", "logo": "None", "latitude": 49.05161700000005, "longitude": -122.32930399999994}, "119256394RR0001": {"name": "THE SPIRITUAL ASSEMBLY OF THE BAHA'IS OF AIRDRIE", "designationCode": "C", "categoryCode": "33", "address": "PO BOX 10412", "city": "AIRDRIE", "province": "AB", "country": "CA", "postalCode": "T4A0H6", "twitter": "None", "instagram": "None", "facebook": "None", "youtube": "None", "website": "None", "summary": "None", "logo": "None", "latitude": 51.28868400000006, "longitude": -114.01344349999994}, "119159812RR0001": {"name": "THE SPIRITUAL ASSEMBLY OF THE BAHA'IS OF AJAX", "designationCode": "B", "categoryCode": "33", "address": "PO BOX 51115                  197 SALEM DR N", "city": "AJAX", "province": "ON", "country": "CA", "postalCode": "L1T0K7", "twitter": "None", "instagram": "None", "facebook": "None", "youtube": "None", "website": "None", "summary": "None", "logo": "None", "latitude": 43.910838842374126, "longitude": -79.03608338351894}, "842515728RR0001": {"name": "THE SPIRITUAL ASSEMBLY OF THE BAHA'IS OF ANMORE", "designationCode": "B", "categoryCode": "33", "address": "#100 A HEMLOCK DR", "city": "ANMORE", "province": "BC", "country": "CA", "postalCode": "V3H4W9", "twitter": "None", "instagram": "None", "facebook": "None", "youtube": "None", "website": "None", "summary": "None", "logo": "None", "latitude": 49.315458491777036, "longitude": -122.85613205398464}, "887279198RR0001": {"name": "THE SPIRITUAL ASSEMBLY OF THE BAHA'IS OF AURORA ONT", "designationCode": "C", "categoryCode": "33", "address": "PO BOX 516", "city": "AURORA", "province": "ON", "country": "CA", "postalCode": "L4G3L6", "twitter": "None", "instagram": "None", "facebook": "None", "youtube": "None", "website": "None", "summary": "None", "logo": "None", "latitude": 44.00671200000005, "longitude": -79.44972199999994}, "828430322RR0001": {"name": "THE SPIRITUAL ASSEMBLY OF THE BAHA'IS OF BAIE D'URFE", "designationCode": "B", "categoryCode": "33", "address": "683 VICTORIA DRIVE", "city": "BAIE D'URFE", "province": "QC", "country": "CA", "postalCode": "H9X2K1", "twitter": "None", "instagram": "None", "facebook": "None", "youtube": "None", "website": "None", "summary": "None", "logo": "None", "latitude": 45.4139956078537, "longitude": -73.92235989122265}, "119255818RR0001": {"name": "THE SPIRITUAL ASSEMBLY OF THE BAHA'IS OF BARRIE", "designationCode": "C", "categoryCode": "33", "address": "P. O. BOX 1202", "city": "BARRIE", "province": "ON", "country": "CA", "postalCode": "L4M5E2", "twitter": "None", "instagram": "None", "facebook": "None", "youtube": "None", "website": "None", "summary": "None", "logo": "None", "latitude": 44.38929300000005, "longitude": -79.68626449999994}, "133521930RR0001": {"name": "THE SPIRITUAL ASSEMBLY OF THE BAHA'IS OF BEAUMONT", "designationCode": "C", "categoryCode": "33", "address": "4901 - 55 AVE, BOX 5", "city": "BEAUMONT", "province": "AB", "country": "CA", "postalCode": "T4X1M9", "twitter": "None", "instagram": "None", "facebook": "None", "youtube": "None", "website": "None", "summary": "None", "logo": "None", "latitude": 53.35682731384489, "longitude": -113.41292968615512}, "894903533RR0001": {"name": "THE SPIRITUAL ASSEMBLY OF THE BAHA'IS OF BELLEVILLE", "designationCode": "C", "categoryCode": "33", "address": "177 BLEECKER AVE", "city": "BELLEVILLE", "province": "ON", "country": "CA", "postalCode": "K8N3T8", "twitter": "None", "instagram": "None", "facebook": "None", "youtube": "None", "website": "None", "summary": "None", "logo": "None", "latitude": 44.16600660672853, "longitude": -77.36951851312864}, "119256477RR0001": {"name": "THE SPIRITUAL ASSEMBLY OF THE BAHA'IS OF BONNYVILLE", "designationCode": "C", "categoryCode": "33", "address": "BOX 6251", "city": "BONNYVILLE", "province": "AB", "country": "CA", "postalCode": "T9N2G8", "twitter": "None", "instagram": "None", "facebook": "None", "youtube": "None", "website": "None", "summary": "None", "logo": "None", "latitude": 54.267945000000054, "longitude": -110.75332399999994}, "889348843RR0001": {"name": "THE SPIRITUAL ASSEMBLY OF THE BAHA'IS OF BRAMPTON", "designationCode": "C", "categoryCode": "33", "address": "P.O.BOX 51030 111-25 PEEL C DR", "city": "BRAMALEA", "province": "ON", "country": "CA", "postalCode": "L6T5M2", "twitter": "None", "instagram": "None", "facebook": "None", "youtube": "None", "website": "None", "summary": "None", "logo": "None", "latitude": 43.71731362994847, "longitude": -79.72348416328963}, "119256204RR0001": {"name": "THE SPIRITUAL ASSEMBLY OF THE BAHA'IS OF BRANDON INC", "designationCode": "C", "categoryCode": "33", "address": "BOX 21073 WEPO", "city": "BRANDON", "province": "MB", "country": "CA", "postalCode": "R7B3W8", "twitter": "None", "instagram": "None", "facebook": "None", "youtube": "None", "website": "None", "summary": "None", "logo": "None", "latitude": 49.84965600000005, "longitude": -99.96197299999993}, "119255537RR0001": {"name": "THE SPIRITUAL ASSEMBLY OF THE BAHA'IS OF BROCKVILLE", "designationCode": "B", "categoryCode": "33", "address": "P.O. BOX 2037", "city": "BROCKVILLE", "province": "ON", "country": "CA", "postalCode": "K6V6N5", "twitter": "None", "instagram": "None", "facebook": "None", "youtube": "None", "website": "None", "summary": "None", "logo": "None", "latitude": 44.59037100000006, "longitude": -75.68301049999994}, "890412778RR0001": {"name": "THE SPIRITUAL ASSEMBLY OF THE BAHA'IS OF BURLINGTON", "designationCode": "C", "categoryCode": "33", "address": "PO BOX 62037 BURL. MALL P/O", "city": "BURLINGTON", "province": "ON", "country": "CA", "postalCode": "L7R4K2", "twitter": "None", "instagram": "None", "facebook": "None", "youtube": "None", "website": "None", "summary": "None", "logo": "None", "latitude": 43.326195000000055, "longitude": -79.79863399999994}, "890101595RR0001": {"name": "THE SPIRITUAL ASSEMBLY OF THE BAHA'IS OF CAMBRIDGE", "designationCode": "B", "categoryCode": "33", "address": "P.O. BOX 1710", "city": "CAMBRIDGE", "province": "ON", "country": "CA", "postalCode": "N1R7G8", "twitter": "None", "instagram": "None", "facebook": "None", "youtube": "None", "website": "None", "summary": "None", "logo": "None", "latitude": 43.36140300000005, "longitude": -80.31533299999994}, "119255289RR0001": {"name": "THE SPIRITUAL ASSEMBLY OF THE BAHA'IS OF CAPE BRETON REGIONAL MUNICIPALITY", "designationCode": "B", "categoryCode": "33", "address": "155 O'NEILS LANE", "city": "NORTH WEST ARM", "province": "NS", "country": "CA", "postalCode": "B2A4W7", "twitter": "None", "instagram": "None", "facebook": "None", "youtube": "None", "website": "None", "summary": "None", "logo": "None", "latitude": 46.15180291064104, "longitude": -60.284753165300785}, "119256618RR0001": {"name": "THE SPIRITUAL ASSEMBLY OF THE BAHA'IS OF CENTRAL SAANICH", "designationCode": "C", "categoryCode": "33", "address": "BOX 212", "city": "SAANICHTON", "province": "BC", "country": "CA", "postalCode": "V8M2C3", "twitter": "None", "instagram": "None", "facebook": "None", "youtube": "None", "website": "None", "summary": "None", "logo": "None", "latitude": 48.595209000000054, "longitude": -123.41690449999993}, "138853494RR0001": {"name": "THE SPIRITUAL ASSEMBLY OF THE BAHA'IS OF CHATHAM-KENT", "designationCode": "B", "categoryCode": "33", "address": "PO BOX 1235  STN MAIN", "city": "CHATHAM", "province": "ON", "country": "CA", "postalCode": "N7M5R9", "twitter": "None", "instagram": "None", "facebook": "None", "youtube": "None", "website": "None", "summary": "None", "logo": "None", "latitude": 42.404613000000055, "longitude": -82.18960099999994}}