{"864005459RR0001": {"name": "CENTRE WAMPUM", "designationCode": "C", "categoryCode": "20", "address": "2001 BOUL ST-LAURENT", "city": "MONTREAL", "province": "QC", "country": "CA", "postalCode": "H2X2T3", "twitter": "None", "instagram": "None", "facebook": "None", "youtube": "None", "website": "None", "summary": "None", "logo": "None", "latitude": 45.511426141006325, "longitude": -73.56703143337765}, "876523804RR0001": {"name": "CENTRE WELLINGTON FOOD BANK", "designationCode": "C", "categoryCode": "39", "address": "P.O. BOX 279", "city": "FERGUS", "province": "ON", "country": "CA", "postalCode": "N1M2W8", "twitter": "None", "instagram": "None", "facebook": "None", "youtube": "None", "website": "None", "summary": "None", "logo": "None", "latitude": 43.705428000000055, "longitude": -80.37816199999993}, "135045508RR0001": {"name": "CENTRE YORK CENTRE SUPERVISED ACCESS CENTRE", "designationCode": "C", "categoryCode": "09", "address": "26 MONTREAL RD", "city": "CORNWALL", "province": "ON", "country": "CA", "postalCode": "K6H1B1", "twitter": "None", "instagram": "None", "facebook": "None", "youtube": "None", "website": "None", "summary": "None", "logo": "None", "latitude": 45.018460340008, "longitude": -74.71531648043738}, "118848456RR0001": {"name": "CENTRE YOUVILLE CENTRE OTTAWA-CARLETON INC.", "designationCode": "C", "categoryCode": "09", "address": "150 MANN AVE", "city": "OTTAWA", "province": "ON", "country": "CA", "postalCode": "K1N8P4", "twitter": "None", "instagram": "None", "facebook": "None", "youtube": "None", "website": "None", "summary": "None", "logo": "None", "latitude": 45.42214854478072, "longitude": -75.6695532811186}, "118848464RR0001": {"name": "CENTRE 50 D'AGE D'OR INC.", "designationCode": "C", "categoryCode": "56", "address": "10, RUE VILLA", "city": "COCAGNE", "province": "NB", "country": "CA", "postalCode": "E4R3M6", "twitter": "None", "instagram": "None", "facebook": "None", "youtube": "None", "website": "None", "summary": "None", "logo": "None", "latitude": 46.34515318665134, "longitude": -64.61567949708915}, "118848472RR0001": {"name": "CENTRE 507 ASSOCIATION OF OTTAWA", "designationCode": "C", "categoryCode": "09", "address": "507 BANK ST", "city": "OTTAWA", "province": "ON", "country": "CA", "postalCode": "K2P1Z5", "twitter": "None", "instagram": "None", "facebook": "None", "youtube": "None", "website": "None", "summary": "None", "logo": "None", "latitude": 45.41022871663104, "longitude": -75.6924693914538}, "100889997RR0001": {"name": "CENTRE-ETAPE, ATELIER DE FORMATION POUR LES FEMMES INC.", "designationCode": "C", "categoryCode": "09", "address": "3535, BOUL. SAINTE-ANNE       PORTE 200", "city": "QUEBEC", "province": "QC", "country": "CA", "postalCode": "G1E3L6", "twitter": "None", "instagram": "None", "facebook": "None", "youtube": "None", "website": "None", "summary": "None", "logo": "None", "latitude": 46.854035757169896, "longitude": -71.19315264406474}, "136959533RR0001": {"name": "CENTRE-FEMMES :LA JARDILEC: INC", "designationCode": "C", "categoryCode": "09", "address": "25 RUE GERARD OUELLET", "city": "ST-JEAN-PORT-JOLI", "province": "QC", "country": "CA", "postalCode": "G0R3G0", "twitter": "None", "instagram": "None", "facebook": "None", "youtube": "None", "website": "None", "summary": "None", "logo": "None", "latitude": 47.21265767943906, "longitude": -70.2652603246003}, "120823638RR0001": {"name": "CENTRE-FEMMES AUX PLURIELLES", "designationCode": "C", "categoryCode": "09", "address": "62 RUE DE LA GREVE", "city": "LA MALBAIE", "province": "QC", "country": "CA", "postalCode": "G5A2R3", "twitter": "None", "instagram": "None", "facebook": "None", "youtube": "None", "website": "None", "summary": "None", "logo": "None", "latitude": 47.66447913656294, "longitude": -70.10060199512391}, "129244034RR0001": {"name": "CENTRE-FEMMES CATHERINE LEBLOND INC.", "designationCode": "C", "categoryCode": "57", "address": "222 RUE JEAN RIOUX", "city": "TROIS-PISTOLES", "province": "QC", "country": "CA", "postalCode": "G0L4K0", "twitter": "None", "instagram": "None", "facebook": "None", "youtube": "None", "website": "None", "summary": "None", "logo": "None", "latitude": 48.12609440908317, "longitude": -69.17667512464635}, "120494950RR0001": {"name": "CENTRE-FEMMES D'AUJOURD'HUI", "designationCode": "C", "categoryCode": "09", "address": "1008 RUE MAINGUY", "city": "QU\u00c9BEC", "province": "QC", "country": "CA", "postalCode": "G1V3S6", "twitter": "None", "instagram": "None", "facebook": "None", "youtube": "None", "website": "None", "summary": "None", "logo": "None", "latitude": 46.77264003246012, "longitude": -71.29529932266708}, "118846989RR0001": {"name": "CENTRE-FEMMES DE LOTBINIERE", "designationCode": "C", "categoryCode": "09", "address": "139 RUE PRINCIPALE", "city": "SAINT-FLAVIEN", "province": "QC", "country": "CA", "postalCode": "G0S2M0", "twitter": "None", "instagram": "None", "facebook": "None", "youtube": "None", "website": "None", "summary": "None", "logo": "None", "latitude": 46.515559095216005, "longitude": -71.5988366108548}, "107607012RR0001": {"name": "CENTRE-FEMMES DU GRAND-PORTAGE", "designationCode": "C", "categoryCode": "59", "address": "50, RUE AMYOT", "city": "RIVIERE-DU-LOUP", "province": "QC", "country": "CA", "postalCode": "G5R3E9", "twitter": "None", "instagram": "None", "facebook": "None", "youtube": "None", "website": "None", "summary": "None", "logo": "None", "latitude": 47.83301855508117, "longitude": -69.53745953984638}, "891769440RR0001": {"name": "CENTRE-FEMMES, LA PASSERELLE DU KAMOURASKA", "designationCode": "C", "categoryCode": "09", "address": "710 RUE TACH\u00c9", "city": "ST-PASCAL", "province": "QC", "country": "CA", "postalCode": "G0L3Y0", "twitter": "None", "instagram": "None", "facebook": "None", "youtube": "None", "website": "None", "summary": "None", "logo": "None", "latitude": 47.52383371882407, "longitude": -69.80157814879661}, "889211504RR0001": {"name": "CENTRE-SOLEIL INC.", "designationCode": "C", "categoryCode": "20", "address": "81, CHEM QUAIL RIDGE", "city": "WINNIPEG", "province": "MB", "country": "CA", "postalCode": "R2Y2A9", "twitter": "None", "instagram": "None", "facebook": "None", "youtube": "None", "website": "None", "summary": "None", "logo": "None", "latitude": 49.89804264253552, "longitude": -97.28577153751004}, "887252997RR0001": {"name": "CENTRELEA CEMETERY COMPANY", "designationCode": "C", "categoryCode": "59", "address": "PO BOX 709", "city": "BRIDGETOWN", "province": "NS", "country": "CA", "postalCode": "B0S1C0", "twitter": "None", "instagram": "None", "facebook": "None", "youtube": "None", "website": "None", "summary": "None", "logo": "None", "latitude": 44.85015000000004, "longitude": -65.29881999999998}, "134317460RR0001": {"name": "CENTRELEA UNITED BAPTIST CHURCH", "designationCode": "C", "categoryCode": "31", "address": "RR#3", "city": "BRIDGETOWN ANNAPOLIS CO.", "province": "NS", "country": "CA", "postalCode": "B0S1C0", "twitter": "None", "instagram": "None", "facebook": "None", "youtube": "None", "website": "None", "summary": "None", "logo": "None", "latitude": 44.841350000000034, "longitude": -65.28904999999997}, "132388091RR0001": {"name": "CENTREPOINTE CHILD CARE CORPORATION", "designationCode": "C", "categoryCode": "01", "address": "75 HEMMINGWOOD WAY", "city": "OTTAWA", "province": "ON", "country": "CA", "postalCode": "K2G5T6", "twitter": "None", "instagram": "None", "facebook": "None", "youtube": "None", "website": "None", "summary": "None", "logo": "None", "latitude": 45.345326194586924, "longitude": -75.77038600320265}, "119288918RR0892": {"name": "CENTREPOINTE CONGREGATION OF JEHOVAH'S WITNESSES", "designationCode": "C", "categoryCode": "61", "address": "7-385 PASEO PRIVATE", "city": "NEPEAN", "province": "ON", "country": "CA", "postalCode": "K2G4P1", "twitter": "None", "instagram": "None", "facebook": "None", "youtube": "None", "website": "None", "summary": "None", "logo": "None", "latitude": 45.34347237414156, "longitude": -75.76442215182637}, "107450116RR0001": {"name": "CENTRES FOR SENIORS WINDSOR", "designationCode": "C", "categoryCode": "01", "address": "635 MCEWAN AVE", "city": "WINDSOR", "province": "ON", "country": "CA", "postalCode": "N9B2E9", "twitter": "None", "instagram": "None", "facebook": "None", "youtube": "None", "website": "None", "summary": "None", "logo": "None", "latitude": 42.306989931155954, "longitude": -83.05438800392379}, "826360661RR0001": {"name": "CENTRETOWN CHURCHES SOCIAL ACTION COMMITTEE (CCSAC)", "designationCode": "C", "categoryCode": "09", "address": "507 BANK ST", "city": "OTTAWA", "province": "ON", "country": "CA", "postalCode": "K2P1Z5", "twitter": "None", "instagram": "None", "facebook": "None", "youtube": "None", "website": "None", "summary": "None", "logo": "None", "latitude": 45.41022871663104, "longitude": -75.6924693914538}, "106903073RR0001": {"name": "CENTRETOWN COMMUNITY HEALTH CENTRE INC.", "designationCode": "C", "categoryCode": "11", "address": "420 COOPER ST", "city": "OTTAWA", "province": "ON", "country": "CA", "postalCode": "K2P2N6", "twitter": "None", "instagram": "None", "facebook": "None", "youtube": "None", "website": "None", "summary": "None", "logo": "None", "latitude": 45.41564961085482, "longitude": -75.69781246805948}, "106903263RR0001": {"name": "CENTREVILLE BAPTIST CHURCH", "designationCode": "C", "categoryCode": "31", "address": "756 CENTRAL ST.", "city": "CENTREVILLE", "province": "NB", "country": "CA", "postalCode": "E7K2M7", "twitter": "None", "instagram": "None", "facebook": "None", "youtube": "None", "website": "None", "summary": "None", "logo": "None", "latitude": 46.43179914351648, "longitude": -67.70796808563671}, "118848399RR0001": {"name": "CENTREVILLE BAPTIST CHURCH", "designationCode": "C", "categoryCode": "31", "address": "10143 HIGHWAY 1               RR 2", "city": "WOLFVILLE", "province": "NS", "country": "CA", "postalCode": "B4P2R2", "twitter": "None", "instagram": "None", "facebook": "None", "youtube": "None", "website": "None", "summary": "None", "logo": "None", "latitude": 45.085620135776324, "longitude": -64.39384244658028}, "106903214RR0001": {"name": "CENTREVILLE CHILD CARE INC.", "designationCode": "C", "categoryCode": "20", "address": "P O BOX 625", "city": "CENTREVILLE", "province": "NB", "country": "CA", "postalCode": "E7K3H5", "twitter": "None", "instagram": "None", "facebook": "None", "youtube": "None", "website": "None", "summary": "None", "logo": "None", "latitude": 46.42971900000006, "longitude": -67.71115249999993}, "857816771RR0001": {"name": "CENTREVILLE COMMUNITY HALL ASSOCIATION", "designationCode": "B", "categoryCode": "56", "address": "P.O. BOX 36", "city": "CENTREVILLE", "province": "NS", "country": "CA", "postalCode": "B0P1J0", "twitter": "None", "instagram": "None", "facebook": "None", "youtube": "None", "website": "None", "summary": "None", "logo": "None", "latitude": 45.14065816541881, "longitude": -64.48438511708392}, "119288918RR0119": {"name": "CENTREVILLE CONGREGATION OF JEHOVAH'S WITNESSES", "designationCode": "C", "categoryCode": "61", "address": "PO BOX 172", "city": "CENTREVILLE", "province": "NS", "country": "CA", "postalCode": "B0P1J0", "twitter": "None", "instagram": "None", "facebook": "None", "youtube": "None", "website": "None", "summary": "None", "logo": "None", "latitude": 45.14065816541881, "longitude": -64.48438511708392}, "118848365RR0001": {"name": "CENTREVILLE PASTORAL CHARGE", "designationCode": "C", "categoryCode": "44", "address": "19 GREG SETTLEMENT RD", "city": "CENTREVILLE", "province": "NB", "country": "CA", "postalCode": "E7K2L6", "twitter": "None", "instagram": "None", "facebook": "None", "youtube": "None", "website": "None", "summary": "None", "logo": "None", "latitude": 46.43374200000005, "longitude": -67.70737249999993}, "129955928RR0001": {"name": "CENTREVILLE PRESBYTERIAN CHURCH,", "designationCode": "C", "categoryCode": "37", "address": "1679 ZION ROAD  RR#1", "city": "MILLBROOK", "province": "ON", "country": "CA", "postalCode": "L0A1G0", "twitter": "None", "instagram": "None", "facebook": "None", "youtube": "None", "website": "None", "summary": "None", "logo": "None", "latitude": 44.15381736555721, "longitude": -78.37547774833006}, "118848407RR0001": {"name": "CENTREVILLE UNITED BAPTIST CHURCH", "designationCode": "C", "categoryCode": "31", "address": "BOX 730", "city": "NORTH EAST POINT", "province": "NS", "country": "CA", "postalCode": "B0W2P0", "twitter": "None", "instagram": "None", "facebook": "None", "youtube": "None", "website": "None", "summary": "None", "logo": "None", "latitude": 43.51018000000005, "longitude": -65.60624999999993}, "889429395RR0001": {"name": "CENTREVILLE UNITED CHURCH", "designationCode": "C", "categoryCode": "44", "address": "264 CURL RD                   RR 2", "city": "YARKER", "province": "ON", "country": "CA", "postalCode": "K0K3N0", "twitter": "None", "instagram": "None", "facebook": "None", "youtube": "None", "website": "None", "summary": "None", "logo": "None", "latitude": 44.35507055786875, "longitude": -76.80443692313749}, "853276749RR0001": {"name": "CENTRE3 FOR PRINT AND MEDIA ARTS", "designationCode": "C", "categoryCode": "22", "address": "173 JAMES STREET NORTH", "city": "HAMILTON", "province": "ON", "country": "CA", "postalCode": "L8R2K9", "twitter": "None", "instagram": "None", "facebook": "None", "youtube": "None", "website": "None", "summary": "None", "logo": "None", "latitude": 43.26118237691153, "longitude": -79.86715370151182}, "106903438RR0001": {"name": "CENTRO CLINTON DAY CARE CENTRE", "designationCode": "C", "categoryCode": "01", "address": "460 MANNING AVE", "city": "TORONTO", "province": "ON", "country": "CA", "postalCode": "M6G2V7", "twitter": "None", "instagram": "None", "facebook": "None", "youtube": "None", "website": "None", "summary": "None", "logo": "None", "latitude": 43.657736668878805, "longitude": -79.41356318627705}, "866721798RR0001": {"name": "CENTRO CRISTIANO EVANGELISTICO", "designationCode": "C", "categoryCode": "36", "address": "2225 BOUL DES OISEAUX", "city": "LAVAL", "province": "QC", "country": "CA", "postalCode": "H7L6A8", "twitter": "None", "instagram": "None", "facebook": "None", "youtube": "None", "website": "None", "summary": "None", "logo": "None", "latitude": 45.59707429032253, "longitude": -73.76894168027577}, "107504060RR0001": {"name": "CENTRO DONNE INC.", "designationCode": "C", "categoryCode": "09", "address": "200-489 COLLEGE ST.", "city": "TORONTO", "province": "ON", "country": "CA", "postalCode": "M6G1A5", "twitter": "None", "instagram": "None", "facebook": "None", "youtube": "None", "website": "None", "summary": "None", "logo": "None", "latitude": 43.65612194030255, "longitude": -79.40932477226045}, "829942960RR0001": {"name": "CENTRO INTERNACIONAL DE ADORACION", "designationCode": "C", "categoryCode": "36", "address": "131 ALESSIO DR", "city": "HAMILTON", "province": "ON", "country": "CA", "postalCode": "L9B0E8", "twitter": "None", "instagram": "None", "facebook": "None", "youtube": "None", "website": "None", "summary": "None", "logo": "None", "latitude": 43.20897701194522, "longitude": -79.90749428045477}, "862428760RR0001": {"name": "CENTRO MISIONERO CRISTO PARA LAS NACIONES", "designationCode": "C", "categoryCode": "39", "address": "1236 BASRAM AVE", "city": "NEW WESTMINSTER", "province": "BC", "country": "CA", "postalCode": "V3M6X3", "twitter": "None", "instagram": "None", "facebook": "None", "youtube": "None", "website": "None", "summary": "None", "logo": "None", "latitude": 49.18260956367949, "longitude": -122.95168256728617}, "132929464RR0001": {"name": "CENTRO STUDI MISSIONARI", "designationCode": "C", "categoryCode": "39", "address": "58-8500 TORBRAM ROAD", "city": "BRAMPTON", "province": "ON", "country": "CA", "postalCode": "L6T5C6", "twitter": "None", "instagram": "None", "facebook": "None", "youtube": "None", "website": "None", "summary": "None", "logo": "None", "latitude": 43.724002873968665, "longitude": -79.69310875538089}, "118848514RR0001": {"name": "CENTURY HOUSE SENIOR CITIZENS ACTIVITY ASSOCIATION", "designationCode": "C", "categoryCode": "56", "address": "620 8TH STREET", "city": "NEW WESTMINISTER", "province": "BC", "country": "CA", "postalCode": "V3M3S2", "twitter": "None", "instagram": "None", "facebook": "None", "youtube": "None", "website": "None", "summary": "None", "logo": "None", "latitude": 49.21170650647513, "longitude": -122.92481162182658}, "131791972RR0001": {"name": "CENTURY MEADOWS BAPTIST CHURCH", "designationCode": "C", "categoryCode": "31", "address": "3720 66 STREET", "city": "CAMROSE", "province": "AB", "country": "CA", "postalCode": "T4V3N4", "twitter": "None", "instagram": "None", "facebook": "None", "youtube": "None", "website": "None", "summary": "None", "logo": "None", "latitude": 53.004413280949656, "longitude": -112.85651074061288}, "862761418RR0001": {"name": "CEPAL-CANADIAN-PALESTINIAN EDUCATIONAL EXCHANGE", "designationCode": "C", "categoryCode": "20", "address": "301 RED ROCK ROAD RR #5", "city": "KILLALOE", "province": "ON", "country": "CA", "postalCode": "K0J2A0", "twitter": "None", "instagram": "None", "facebook": "None", "youtube": "None", "website": "None", "summary": "None", "logo": "None", "latitude": 45.63410304827183, "longitude": -77.47776587595922}, "118848548RR0001": {"name": "CEPHAS CHRISTIAN REFORMED CHURCH OF PETERBOROUGH", "designationCode": "C", "categoryCode": "39", "address": "220 GOODFELLOW ROAD", "city": "PETERBOROUGH", "province": "ON", "country": "CA", "postalCode": "K9J5X3", "twitter": "None", "instagram": "None", "facebook": "None", "youtube": "None", "website": "None", "summary": "None", "logo": "None", "latitude": 44.29194215098964, "longitude": -78.34437754022174}, "857012249RR0001": {"name": "CERC - THE CATHOLIC EDUCATION RESOURCE CENTRE", "designationCode": "C", "categoryCode": "22", "address": "3284 HERNANDO AVENUE", "city": "POWELL RIVER", "province": "BC", "country": "CA", "postalCode": "V8A1B8", "twitter": "None", "instagram": "None", "facebook": "None", "youtube": "None", "website": "None", "summary": "None", "logo": "None", "latitude": 49.80451670609947, "longitude": -124.52496138285547}, "892645508RR0001": {"name": "CERCLE AMICAL DU QUEBEC / FRIENDSHIP CIRCLE OF QUEBEC", "designationCode": "C", "categoryCode": "09", "address": "4585 BOURRET", "city": "MONTREAL", "province": "QC", "country": "CA", "postalCode": "H3S1X1", "twitter": "None", "instagram": "None", "facebook": "None", "youtube": "None", "website": "None", "summary": "None", "logo": "None", "latitude": 45.495458957268085, "longitude": -73.63273412311715}, "107607285RR0001": {"name": "CERCLE CULTUREL ET HISTORIQUE HILARION CYR INC.", "designationCode": "C", "categoryCode": "22", "address": "180 RUE ST-JEAN UNIT\u00c9 A", "city": "SAINT-L\u00c9ONARD", "province": "NB", "country": "CA", "postalCode": "E7E2B9", "twitter": "None", "instagram": "None", "facebook": "None", "youtube": "None", "website": "None", "summary": "None", "logo": "None", "latitude": 47.16414616717258, "longitude": -67.92349224182776}, "140807322RR0001": {"name": "CERCLE D'EXPRESSION ARTISTIQUE NYATA NYATA/THE NYATA NYATA CIRCLE OF ARTISTIC EXPRESSION", "designationCode": "C", "categoryCode": "22", "address": "4374 BOUL SAINT-LAURENT       2I\u00c8ME \u00c9TAGE", "city": "MONTR\u00c9AL", "province": "QC", "country": "CA", "postalCode": "H2W1Z5", "twitter": "None", "instagram": "None", "facebook": "None", "youtube": "None", "website": "None", "summary": "None", "logo": "None", "latitude": 45.51921972410421, "longitude": -73.58448524966808}, "118848555RR0001": {"name": "CERCLE DES HANDICAPES VISUELS DE VILLE-MARIE", "designationCode": "C", "categoryCode": "59", "address": "3200, AVE DE LA P\u00c9PINI\u00c8RE,    APP. 225", "city": "MONTR\u00c9AL", "province": "QC", "country": "CA", "postalCode": "H1N3R3", "twitter": "None", "instagram": "None", "facebook": "None", "youtube": "None", "website": "None", "summary": "None", "logo": "None", "latitude": 45.577733242253174, "longitude": -73.54269191482464}, "130275415RR0001": {"name": "CERCLE DES MYCOLOGUES DE MONTREAL", "designationCode": "C", "categoryCode": "21", "address": "4101 EST, RUE SHERBROOKE", "city": "MONTREAL", "province": "QC", "country": "CA", "postalCode": "H1X2B2", "twitter": "None", "instagram": "None", "facebook": "None", "youtube": "None", "website": "None", "summary": "None", "logo": "None", "latitude": 45.556460725295054, "longitude": -73.55448215612533}, "118848597RR0001": {"name": "CERCLE MOLIERE INC.", "designationCode": "C", "categoryCode": "22", "address": "340, BOULEVARD PROVENCHER", "city": "WINNIPEG", "province": "MB", "country": "CA", "postalCode": "R2H0G7", "twitter": "None", "instagram": "None", "facebook": "None", "youtube": "None", "website": "None", "summary": "None", "logo": "None", "latitude": 49.89396984869324, "longitude": -97.11442403133495}, "897714267RR0001": {"name": "CERCLE POLAIRE", "designationCode": "C", "categoryCode": "09", "address": "5000 3IEME AVENUE OUEST       BUREAU 202", "city": "CHARLESBOURG", "province": "QC", "country": "CA", "postalCode": "G1H7J1", "twitter": "None", "instagram": "None", "facebook": "None", "youtube": "None", "website": "None", "summary": "None", "logo": "None", "latitude": 46.845751420220346, "longitude": -71.25781720826383}, "891231789RR0001": {"name": "CERCLE SPORTIF ET CULTUREL DE LA POLYVALENTE ROLAND-PEPIN INCORPOREE", "designationCode": "C", "categoryCode": "21", "address": "CP 220                        45 A RUE DU VILLAGE", "city": "CAMPBELLTON", "province": "NB", "country": "CA", "postalCode": "E3N3G4", "twitter": "None", "instagram": "None", "facebook": "None", "youtube": "None", "website": "None", "summary": "None", "logo": "None", "latitude": 47.99815294363617, "longitude": -66.66206131447959}, "118848621RR0001": {"name": "CEREAL GOLDEN CENTRE GROUP", "designationCode": "C", "categoryCode": "56", "address": "BOX 187", "city": "CEREAL", "province": "AB", "country": "CA", "postalCode": "T0J0N0", "twitter": "None", "instagram": "None", "facebook": "None", "youtube": "None", "website": "None", "summary": "None", "logo": "None", "latitude": 51.42011000000008, "longitude": -110.80188999999996}, "118848639RR0001": {"name": "CEREAL UNITED CHURCH", "designationCode": "C", "categoryCode": "44", "address": "PO BOX 392", "city": "OYEN", "province": "AB", "country": "CA", "postalCode": "T0J2J0", "twitter": "None", "instagram": "None", "facebook": "None", "youtube": "None", "website": "None", "summary": "None", "logo": "None", "latitude": 51.366820000000075, "longitude": -110.46831999999995}, "118848654RR0001": {"name": "CEREBRAL PALSY ASSOCIATION IN ALBERTA", "designationCode": "C", "categoryCode": "11", "address": "12001 44 ST SE", "city": "CALGARY", "province": "AB", "country": "CA", "postalCode": "T2Z4G9", "twitter": "None", "instagram": "None", "facebook": "None", "youtube": "None", "website": "None", "summary": "None", "logo": "None", "latitude": 50.943375, "longitude": -113.97200563364872}, "106904204RR0001": {"name": "CEREBRAL PALSY ASSOCIATION OF BRITISH COLUMBIA", "designationCode": "C", "categoryCode": "11", "address": "330-409 GRANVILLE ST", "city": "VANCOUVER", "province": "BC", "country": "CA", "postalCode": "V6C1T2", "twitter": "None", "instagram": "None", "facebook": "None", "youtube": "None", "website": "None", "summary": "None", "logo": "None", "latitude": 49.28514383654554, "longitude": -123.11419112049143}, "106904212RR0001": {"name": "CEREBRAL PALSY ASSOCIATION OF MANITOBA INC.", "designationCode": "C", "categoryCode": "11", "address": "903 - 213 NOTRE DAME AVE", "city": "WINNIPEG", "province": "MB", "country": "CA", "postalCode": "R3B1N3", "twitter": "None", "instagram": "None", "facebook": "None", "youtube": "None", "website": "None", "summary": "None", "logo": "None", "latitude": 49.89807964475497, "longitude": -97.14873632237749}, "106904196RR0001": {"name": "CEREBRAL PALSY ASSOCIATION OF NL INC.", "designationCode": "C", "categoryCode": "11", "address": "PO BOX 515 RPO CENTENNIAL SQ", "city": "MOUNT PEARL", "province": "NL", "country": "CA", "postalCode": "A1N2W4", "twitter": "None", "instagram": "None", "facebook": "None", "youtube": "None", "website": "None", "summary": "None", "logo": "None", "latitude": 47.518883104315194, "longitude": -52.80540259064278}, "122079452RR0001": {"name": "CEREBRAL PALSY ASSOCIATION OF QUEBEC, INC /L'ASSOCIATION DE PARALYSIE CEREBRALE DU QUEBEC INC.", "designationCode": "C", "categoryCode": "11", "address": "CP 1781", "city": "SHERBROOKE", "province": "QC", "country": "CA", "postalCode": "J1H5N8", "twitter": "None", "instagram": "None", "facebook": "None", "youtube": "None", "website": "None", "summary": "None", "logo": "None", "latitude": 45.403251000000054, "longitude": -71.88894349999994}, "118848720RR0001": {"name": "CEREBRAL PALSY FOUNDATION (SAINT JOHN) INCORPORATED", "designationCode": "C", "categoryCode": "11", "address": "PO BOX 2152 STN MAIN", "city": "SAINT JOHN", "province": "NB", "country": "CA", "postalCode": "E2L3V1", "twitter": "None", "instagram": "None", "facebook": "None", "youtube": "None", "website": "None", "summary": "None", "logo": "None"}, "118848738RR0001": {"name": "CEREBRAL PALSY PARENT COUNCIL OF TORONTO", "designationCode": "C", "categoryCode": "11", "address": "204-4261 HWY 7", "city": "MARKHAM", "province": "ON", "country": "CA", "postalCode": "L3R9W6", "twitter": "None", "instagram": "None", "facebook": "None", "youtube": "None", "website": "None", "summary": "None", "logo": "None", "latitude": 43.860127869179486, "longitude": -79.31494590616899}, "118848746RR0001": {"name": "CEREBRAL PALSY SPORTS ASSOCIATION OF B.C.", "designationCode": "C", "categoryCode": "56", "address": "780 MARINE DR SW", "city": "VANCOUVER", "province": "BC", "country": "CA", "postalCode": "V6P5Y7", "twitter": "None", "instagram": "None", "facebook": "None", "youtube": "None", "website": "None", "summary": "None", "logo": "None", "latitude": 49.207299508713916, "longitude": -123.12382893141574}, "860937911RR0001": {"name": "CERIC", "designationCode": "C", "categoryCode": "21", "address": "300 - 2 ST CLAIR AVE E", "city": "TORONTO", "province": "ON", "country": "CA", "postalCode": "M4T2T5", "twitter": "None", "instagram": "None", "facebook": "None", "youtube": "None", "website": "None", "summary": "None", "logo": "None", "latitude": 43.68819219458694, "longitude": -79.39364569637594}, "134447143RR0001": {"name": "CERTEX-CENTRE DE RECUPERATION ET DE RECYCLAGE DU TEXTILE INC./CERTEX-TEXTILE RECUPERATION AND RECYCLING CENTRE INC.", "designationCode": "C", "categoryCode": "59", "address": "7500 GRANDE ALLEE", "city": "SAINT-HUBERT", "province": "QC", "country": "CA", "postalCode": "J3Y5K2", "twitter": "None", "instagram": "None", "facebook": "None", "youtube": "None", "website": "None", "summary": "None", "logo": "None", "latitude": 45.45750605099426, "longitude": -73.41719508357006}, "129138145RR0001": {"name": "CES CAREER EDUCATION SOCIETY", "designationCode": "C", "categoryCode": "29", "address": "3741 DELBROOK AVENUE", "city": "NORTH VANCOUVER", "province": "BC", "country": "CA", "postalCode": "V7N3Z4", "twitter": "None", "instagram": "None", "facebook": "None", "youtube": "None", "website": "None", "summary": "None", "logo": "None", "latitude": 49.34343962247079, "longitude": -123.08540515858479}, "861730661RR0001": {"name": "CES CHINA EVANGELICAL SEMINARY SOCIETY", "designationCode": "C", "categoryCode": "20", "address": "15110 THRIFT AVE", "city": "WHITE ROCK", "province": "BC", "country": "CA", "postalCode": "V4B2K7", "twitter": "None", "instagram": "None", "facebook": "None", "youtube": "None", "website": "None", "summary": "None", "logo": "None", "latitude": 49.027568481245446, "longitude": -122.80366333236194}, "779327899RR0001": {"name": "CESAM - Centre D'enrichissement Sportif et Acad\u00e9mique de Montr\u00e9al", "designationCode": "C", "categoryCode": "21", "address": "1215 RUE BEAUBIEN E", "city": "MONTREAL", "province": "QC", "country": "CA", "postalCode": "H2S1T8", "twitter": "None", "instagram": "None", "facebook": "None", "youtube": "None", "website": "None", "summary": "None", "logo": "None", "latitude": 45.538994691384275, "longitude": -73.60044664824834}, "100904085RR0001": {"name": "CETAL", "designationCode": "C", "categoryCode": "59", "address": "179 BLVD LAURIER", "city": "LAURIER STATION", "province": "QC", "country": "CA", "postalCode": "G0S1N0", "twitter": "None", "instagram": "None", "facebook": "None", "youtube": "None", "website": "None", "summary": "None", "logo": "None", "latitude": 46.54305071438068, "longitude": -71.625488050782}, "118848779RR0001": {"name": "CEYLON UNITED CHURCH", "designationCode": "C", "categoryCode": "44", "address": "BOX 34", "city": "CEYLON", "province": "SK", "country": "CA", "postalCode": "S0C0T0", "twitter": "None", "instagram": "None", "facebook": "None", "youtube": "None", "website": "None", "summary": "None", "logo": "None", "latitude": 49.45007000000004, "longitude": -104.60106999999999}, "138070578RR0001": {"name": "CFB ESQUIMALT MILITARY FAMILY RESOURCE CENTRE", "designationCode": "C", "categoryCode": "59", "address": "MILITARY FAMILY RESOURCE CTR  PO BOX 17000 STN FORCES", "city": "VICTORIA", "province": "BC", "country": "CA", "postalCode": "V9A7N2", "twitter": "None", "instagram": "None", "facebook": "None", "youtube": "None", "website": "None", "summary": "None", "logo": "None", "latitude": 48.42854700000005, "longitude": -123.36445249999994}, "873827398RR0001": {"name": "CFB SUFFIELD MILITARY FAMILY RESOURCE CENTRE SOCIETY", "designationCode": "C", "categoryCode": "59", "address": "P.O. BOX 190", "city": "RALSTON", "province": "AB", "country": "CA", "postalCode": "T0J2N0", "twitter": "None", "instagram": "None", "facebook": "None", "youtube": "None", "website": "None", "summary": "None", "logo": "None", "latitude": 50.25546000000003, "longitude": -111.17309999999998}, "831936539RR0001": {"name": "CFI-Christian Friends of Israel Association", "designationCode": "C", "categoryCode": "09", "address": "35-7850 KING GEORGE BOULEVARD", "city": "SURREY", "province": "BC", "country": "CA", "postalCode": "V3W5B2", "twitter": "None", "instagram": "None", "facebook": "None", "youtube": "None", "website": "None", "summary": "None", "logo": "None", "latitude": 49.144869, "longitude": -122.84555999497968}, "868601246RR0001": {"name": "CFMTA TRUST", "designationCode": "C", "categoryCode": "22", "address": "7-6179 NO. 1 RD", "city": "RICHMOND", "province": "BC", "country": "CA", "postalCode": "V7C1T4", "twitter": "None", "instagram": "None", "facebook": "None", "youtube": "None", "website": "None", "summary": "None", "logo": "None", "latitude": 49.1685189928917, "longitude": -123.1812977864631}, "887575868RR0001": {"name": "CFRN TV GOOD NEIGHBOUR FUND SOCIETY", "designationCode": "C", "categoryCode": "09", "address": "18520 STONY PLAIN RD", "city": "EDMONTON", "province": "AB", "country": "CA", "postalCode": "T5S1A8", "twitter": "None", "instagram": "None", "facebook": "None", "youtube": "None", "website": "None", "summary": "None", "logo": "None", "latitude": 53.54136446609666, "longitude": -113.64137193741702}, "138532114RR0001": {"name": "CFS ST JOHN'S FAMILY RESOURCE CENTRE INC", "designationCode": "C", "categoryCode": "09", "address": "145 CHURCHILL AVE", "city": "ST. JOHN'S", "province": "NL", "country": "CA", "postalCode": "A1A0N9", "twitter": "None", "instagram": "None", "facebook": "None", "youtube": "None", "website": "None", "summary": "None", "logo": "None", "latitude": 47.583298564487556, "longitude": -52.69730254830048}, "889290995RR0001": {"name": "CFUW - WEST VANCOUVER EDUCATIONAL TRUST FUND", "designationCode": "C", "categoryCode": "21", "address": "PO BOX 33096                  RPO WEST VANCOUVER", "city": "WEST VANCOUVER", "province": "BC", "country": "CA", "postalCode": "V7V4W7", "twitter": "None", "instagram": "None", "facebook": "None", "youtube": "None", "website": "None", "summary": "None", "logo": "None", "latitude": 49.331148000000056, "longitude": -123.16023349999993}, "890742992RR0001": {"name": "CFUW ABBOTSFORD EDUCATION TRUST FUND", "designationCode": "A", "categoryCode": "21", "address": "2166 ORCHARD DR.", "city": "ABBOTSFORD", "province": "BC", "country": "CA", "postalCode": "V3G2B7", "twitter": "None", "instagram": "None", "facebook": "None", "youtube": "None", "website": "None", "summary": "None", "logo": "None", "latitude": 49.04121526672055, "longitude": -122.25226977803152}, "118848928RR0001": {"name": "CFUW K-W CHARITABLE FUND", "designationCode": "C", "categoryCode": "21", "address": "88 MCCARRON CRES", "city": "WATERLOO", "province": "ON", "country": "CA", "postalCode": "N2L5N2", "twitter": "None", "instagram": "None", "facebook": "None", "youtube": "None", "website": "None", "summary": "None", "logo": "None", "latitude": 43.458482817386965, "longitude": -80.55215360681544}, "889407599RR0001": {"name": "CFUW WELLAND & DISTRICT CHARITABLE TRUST SCHOLARSHIP FUND", "designationCode": "C", "categoryCode": "21", "address": "97 WELLANDVALE DR", "city": "WELLAND", "province": "ON", "country": "CA", "postalCode": "L3C7C6", "twitter": "None", "instagram": "None", "facebook": "None", "youtube": "None", "website": "None", "summary": "None", "logo": "None", "latitude": 43.02079553231589, "longitude": -79.2536805}, "890204043RR0001": {"name": "CFUW-NORTH TORONTO SCHOLARSHIP FUND", "designationCode": "A", "categoryCode": "21", "address": "66 IVY AVE", "city": "TORONTO", "province": "ON", "country": "CA", "postalCode": "M4L2H7", "twitter": "None", "instagram": "None", "facebook": "None", "youtube": "None", "website": "None", "summary": "None", "logo": "None", "latitude": 43.672864241762234, "longitude": -79.3317974819666}, "118848951RR0001": {"name": "CGC CHARITABLE FOUNDATION", "designationCode": "B", "categoryCode": "05", "address": "350 BURNHAMTHORPE RD. W.      5TH FLOOR", "city": "MISSISSAUGA", "province": "ON", "country": "CA", "postalCode": "L5B3J1", "twitter": "None", "instagram": "None", "facebook": "None", "youtube": "None", "website": "None", "summary": "None", "logo": "None", "latitude": 43.5857056466618, "longitude": -79.64443192613562}, "890309370RR0001": {"name": "CGC VOLUNTEER FIRE DEPARTMENT", "designationCode": "C", "categoryCode": "59", "address": "1634 SHORE RD, RR#3           GUNNING COVE", "city": "SHELBURNE CO.", "province": "NS", "country": "CA", "postalCode": "B0T1W0", "twitter": "None", "instagram": "None", "facebook": "None", "youtube": "None", "website": "None", "summary": "None", "logo": "None", "latitude": 43.57026600000006, "longitude": -65.35813399999994}, "139023501RR0001": {"name": "CH.A.D.D. Canada Inc.", "designationCode": "C", "categoryCode": "11", "address": "BOX 191                       234-5149 COUNTRY HILLS BLVD NW", "city": "CALGARY", "province": "AB", "country": "CA", "postalCode": "T3A5K8", "twitter": "None", "instagram": "None", "facebook": "None", "youtube": "None", "website": "None", "summary": "None", "logo": "None", "latitude": 51.13869750678068, "longitude": -114.15904297446477}, "898974951RR0001": {"name": "CH.I.L.D. FOUNDATION", "designationCode": "C", "categoryCode": "11", "address": "201-2150 WESTERN PKY          UBC CAMPUS", "city": "VANCOUVER", "province": "BC", "country": "CA", "postalCode": "V6T1V6", "twitter": "None", "instagram": "None", "facebook": "None", "youtube": "None", "website": "None", "summary": "None", "logo": "None", "latitude": 49.26604464806251, "longitude": -123.24357702572316}, "888466927RR0001": {"name": "CHABAD AT FLAMINGO INC", "designationCode": "C", "categoryCode": "47", "address": "8001 BATHURST STREET", "city": "THORNHILL", "province": "ON", "country": "CA", "postalCode": "L4J8L5", "twitter": "None", "instagram": "None", "facebook": "None", "youtube": "None", "website": "None", "summary": "None", "logo": "None", "latitude": 43.821735914247746, "longitude": -79.45265592665524}, "827920943RR0001": {"name": "CHABAD CHAI CENTER/CENTRE CHABAD CHAI", "designationCode": "C", "categoryCode": "42", "address": "170-5120 DE COURTRAI AVENUE", "city": "MONTR\u00c9AL", "province": "QC", "country": "CA", "postalCode": "H3W1A7", "twitter": "None", "instagram": "None", "facebook": "None", "youtube": "None", "website": "None", "summary": "None", "logo": "None", "latitude": 45.49714715300892, "longitude": -73.64589968725812}, "703989293RR0001": {"name": "CHABAD DE SHERBROOKE ET DES CANTONS DE L'EST CHABAD OF SHERBROOKE AND EASTERN TOWNSHIPS", "designationCode": "C", "categoryCode": "42", "address": "6650 AV DE WESTBURY", "city": "MONTREAL", "province": "QC", "country": "CA", "postalCode": "H3W2X6", "twitter": "None", "instagram": "None", "facebook": "None", "youtube": "None", "website": "None", "summary": "None", "logo": "None", "latitude": 45.49327598277465, "longitude": -73.64486679935355}, "813263134RR0001": {"name": "CHABAD HOUSE JEWISH STUDENT CENTRE SOCIETY - UEL", "designationCode": "C", "categoryCode": "42", "address": "1867 ACADIA RD", "city": "VANCOUVER", "province": "BC", "country": "CA", "postalCode": "V6T1R2", "twitter": "None", "instagram": "None", "facebook": "None", "youtube": "None", "website": "None", "summary": "None", "logo": "None", "latitude": 49.26991246284649, "longitude": -123.24097171100298}, "898341847RR0001": {"name": "CHABAD LUBAVITCH (HAMILTON)", "designationCode": "C", "categoryCode": "42", "address": "177 STERLING STREET", "city": "HAMILTON", "province": "ON", "country": "CA", "postalCode": "L8S4J7", "twitter": "None", "instagram": "None", "facebook": "None", "youtube": "None", "website": "None", "summary": "None", "logo": "None", "latitude": 43.262236583386354, "longitude": -79.91505367208147}, "838763274RR0001": {"name": "CHABAD LUBAVITCH OF AURORA INC.", "designationCode": "C", "categoryCode": "42", "address": "53 COLONIAL CRESCENT", "city": "RICHMOND HILL", "province": "ON", "country": "CA", "postalCode": "L4E3X3", "twitter": "None", "instagram": "None", "facebook": "None", "youtube": "None", "website": "None", "summary": "None", "logo": "None", "latitude": 43.940635849270166, "longitude": -79.44354485178032}, "118849025RR0001": {"name": "CHABAD LUBAVITCH OF MARKHAM", "designationCode": "C", "categoryCode": "42", "address": "83 GREEN LN", "city": "THORNHILL", "province": "ON", "country": "CA", "postalCode": "L3T6K6", "twitter": "None", "instagram": "None", "facebook": "None", "youtube": "None", "website": "None", "summary": "None", "logo": "None", "latitude": 43.822739830948315, "longitude": -79.3942358845289}, "894327816RR0001": {"name": "CHABAD LUBAVITCH OF RICHMOND HILL", "designationCode": "C", "categoryCode": "42", "address": "10500 BATHURST ST", "city": "MAPLE", "province": "ON", "country": "CA", "postalCode": "L6A0H2", "twitter": "None", "instagram": "None", "facebook": "None", "youtube": "None", "website": "None", "summary": "None", "logo": "None", "latitude": 43.881069060217044, "longitude": -79.4666990883484}, "119025450RR0001": {"name": "CHABAD LUBAVITCH OF SOUTHERN ONTARIO", "designationCode": "C", "categoryCode": "49", "address": "770 CHABAD GATE", "city": "THORNHILL", "province": "ON", "country": "CA", "postalCode": "L4J3V9", "twitter": "None", "instagram": "None", "facebook": "None", "youtube": "None", "website": "None", "summary": "None", "logo": "None", "latitude": 43.79962254227055, "longitude": -79.44553197584976}, "886650548RR0001": {"name": "CHABAD LUBAVITCH SOCIETY OF ATLANTIC CANADA", "designationCode": "C", "categoryCode": "21", "address": "1171 WATERLOO STREET", "city": "HALIFAX", "province": "NS", "country": "CA", "postalCode": "B3H3L6", "twitter": "None", "instagram": "None", "facebook": "None", "youtube": "None", "website": "None", "summary": "None", "logo": "None", "latitude": 44.635490570084805, "longitude": -63.58725125893026}, "831506670RR0001": {"name": "CHABAD OF CENTREPOINTE", "designationCode": "C", "categoryCode": "42", "address": "23 PALISADE ST", "city": "NEPEAN", "province": "ON", "country": "CA", "postalCode": "K2G5M6", "twitter": "None", "instagram": "None", "facebook": "None", "youtube": "None", "website": "None", "summary": "None", "logo": "None", "latitude": 45.33669386704378, "longitude": -75.76926335397336}, "118940626RR0001": {"name": "CHABAD OF DOWNTOWN MONTREAL", "designationCode": "B", "categoryCode": "05", "address": "4750 VEZINA AVENUE", "city": "MONTREAL", "province": "QC", "country": "CA", "postalCode": "H3W1B8", "twitter": "None", "instagram": "None", "facebook": "None", "youtube": "None", "website": "None", "summary": "None", "logo": "None", "latitude": 45.497357738819396, "longitude": -73.6428766451326}, "896577392RR0001": {"name": "CHABAD OF DOWNTOWN VANCOUVER", "designationCode": "C", "categoryCode": "20", "address": "633 PRIOR ST", "city": "VANCOUVER", "province": "BC", "country": "CA", "postalCode": "V6A2G7", "twitter": "None", "instagram": "None", "facebook": "None", "youtube": "None", "website": "None", "summary": "None", "logo": "None", "latitude": 49.27663251875456, "longitude": -123.09088008090484}, "879943611RR0001": {"name": "CHABAD OF MIDTOWN TORONTO", "designationCode": "C", "categoryCode": "42", "address": "1344 BATHURST STREET", "city": "TORONTO", "province": "ON", "country": "CA", "postalCode": "M5R3H7", "twitter": "None", "instagram": "None", "facebook": "None", "youtube": "None", "website": "None", "summary": "None", "logo": "None", "latitude": 43.679376157366285, "longitude": -79.4168436519706}, "819086745RR0001": {"name": "CHABAD OF MISSISSAUGA", "designationCode": "C", "categoryCode": "42", "address": "4504 HAYDOCK PARK DRIVE", "city": "MISSISSAUGA", "province": "ON", "country": "CA", "postalCode": "L5M3C6", "twitter": "None", "instagram": "None", "facebook": "None", "youtube": "None", "website": "None", "summary": "None", "logo": "None", "latitude": 43.556450585608054, "longitude": -79.70029714706584}, "890808140RR0001": {"name": "CHABAD OF THE TOWN OF MOUNT ROYAL", "designationCode": "C", "categoryCode": "42", "address": "4054 JEAN TALON W", "city": "MONTREAL", "province": "QC", "country": "CA", "postalCode": "H4P1V5", "twitter": "None", "instagram": "None", "facebook": "None", "youtube": "None", "website": "None", "summary": "None", "logo": "None", "latitude": 45.50119414040075, "longitude": -73.64585671862254}, "888672771RR0001": {"name": "CHABAD'S CHILDREN OF CHERNOBYL/CHABAD ENFANTS DE TCHERNOBYL", "designationCode": "C", "categoryCode": "02", "address": "110 EGLINTON AVENUE WEST      SUITE 401", "city": "TORONTO", "province": "ON", "country": "CA", "postalCode": "M4R1A3", "twitter": "None", "instagram": "None", "facebook": "None", "youtube": "None", "website": "None", "summary": "None", "logo": "None", "latitude": 43.706071150729855, "longitude": -79.40168884139297}}