{"119152601RR0001": {"name": "SNOW ROAD PRESBYTERIAN CHURCH", "designationCode": "C", "categoryCode": "37", "address": "3020 ELPHIN/MABERLY RD.", "city": "MCDONALDS CORNERS", "province": "ON", "country": "CA", "postalCode": "K0G1M0", "twitter": "None", "instagram": "None", "facebook": "None", "youtube": "None", "website": "None", "summary": "None", "logo": "None", "latitude": 44.923373428354395, "longitude": -76.61715454704901}, "869591404RR0001": {"name": "SNOWBOARDERS AND SKIERS FOR CHRIST CANADA", "designationCode": "C", "categoryCode": "49", "address": "2148 TIMBER RIDGE", "city": "WHISTLER", "province": "BC", "country": "CA", "postalCode": "V0N1B2", "twitter": "None", "instagram": "None", "facebook": "None", "youtube": "None", "website": "None", "summary": "None", "logo": "None", "latitude": 50.08909308133754, "longitude": -123.00252437870051}, "132023177RR0001": {"name": "SNOWDEN COMMUNITY CLUB", "designationCode": "C", "categoryCode": "56", "address": "BOX 148", "city": "SNOWDEN", "province": "SK", "country": "CA", "postalCode": "S0J2K0", "twitter": "None", "instagram": "None", "facebook": "None", "youtube": "None", "website": "None", "summary": "None", "logo": "None", "latitude": 53.48168000000004, "longitude": -104.67116999999996}, "119152528RR0001": {"name": "SNOWDON BAPTIST CHURCH", "designationCode": "C", "categoryCode": "31", "address": "5275 EARNSCLIFFE AVE", "city": "MONTREAL", "province": "QC", "country": "CA", "postalCode": "H3X2P7", "twitter": "None", "instagram": "None", "facebook": "None", "youtube": "None", "website": "None", "summary": "None", "logo": "None", "latitude": 45.483284345288105, "longitude": -73.63352217664043}, "898312376RR0001": {"name": "SNOWY OWL AIDS FOUNDATION - LA FONDATION HARFANG DES NEIGES POUR LE SIDA", "designationCode": "A", "categoryCode": "13", "address": "216 MONTEREY DRIVE", "city": "NEPEAN", "province": "ON", "country": "CA", "postalCode": "K2H7A8", "twitter": "None", "instagram": "None", "facebook": "None", "youtube": "None", "website": "None", "summary": "None", "logo": "None", "latitude": 45.33669030775034, "longitude": -75.79535484093162}, "809894132RR0001": {"name": "SNUA Vancouver Scholarship Foundation", "designationCode": "C", "categoryCode": "21", "address": "1202 - 7063 HALL AVE", "city": "BURNABY", "province": "BC", "country": "CA", "postalCode": "V5E0A5", "twitter": "None", "instagram": "None", "facebook": "None", "youtube": "None", "website": "None", "summary": "None", "logo": "None", "latitude": 49.21994498834323, "longitude": -122.95486001719668}, "119152627RR0001": {"name": "SNUG HARBOUR COMMUNITY CHURCH", "designationCode": "C", "categoryCode": "31", "address": "365A HWY 559                  RR #1", "city": "NOBEL", "province": "ON", "country": "CA", "postalCode": "P0G1G0", "twitter": "None", "instagram": "None", "facebook": "None", "youtube": "None", "website": "None", "summary": "None", "logo": "None"}, "130843428RR0001": {"name": "SOARING EAGLE FRIENDSHIP CENTRE", "designationCode": "C", "categoryCode": "56", "address": "2-8 GAGNIER STREET", "city": "HAY RIVER", "province": "NT", "country": "CA", "postalCode": "X0E1G1", "twitter": "None", "instagram": "None", "facebook": "None", "youtube": "None", "website": "None", "summary": "None", "logo": "None", "latitude": 60.80816459337989, "longitude": -115.78970695931785}, "845720879RR0001": {"name": "SOARING EAGLES FOUNDATION", "designationCode": "B", "categoryCode": "03", "address": "1500 WEST GEORGIA ST.         SUITE 1250  BOX 62", "city": "VANCOUVER", "province": "BC", "country": "CA", "postalCode": "V6G2Z6", "twitter": "None", "instagram": "None", "facebook": "None", "youtube": "None", "website": "None", "summary": "None", "logo": "None", "latitude": 49.2900638104334, "longitude": -123.12989899362336}, "119288918RR1281": {"name": "SOBERANIA CONGREGATION OF JEHOVAH'S WITNESSES", "designationCode": "C", "categoryCode": "61", "address": "9110 FAIRMOUNT DRIVE S E", "city": "CALGARY", "province": "AB", "country": "CA", "postalCode": "T2J4X5", "twitter": "None", "instagram": "None", "facebook": "None", "youtube": "None", "website": "None", "summary": "None", "logo": "None", "latitude": 50.97204757507646, "longitude": -114.05916042073994}, "119152635RR0001": {"name": "SOBEY ART FOUNDATION", "designationCode": "B", "categoryCode": "23", "address": "115 KING ST", "city": "STELLARTON", "province": "NS", "country": "CA", "postalCode": "B0K1S0", "twitter": "None", "instagram": "None", "facebook": "None", "youtube": "None", "website": "None", "summary": "None", "logo": "None", "latitude": 45.56046585345377, "longitude": -62.65718627710788}, "141120154RR0001": {"name": "SOBRIETE DU CANADA-SECRETARIAT NATIONAL", "designationCode": "C", "categoryCode": "57", "address": "2321, RUE BOULET", "city": "QUEBEC", "province": "QC", "country": "CA", "postalCode": "G1C1Y9", "twitter": "None", "instagram": "None", "facebook": "None", "youtube": "None", "website": "None", "summary": "None", "logo": "None", "latitude": 46.88260325618895, "longitude": -71.15420537552653}, "107986952RR0001": {"name": "SOBRIETY HOUSE", "designationCode": "C", "categoryCode": "57", "address": "90 FIRST AVE", "city": "OTTAWA", "province": "ON", "country": "CA", "postalCode": "K1S2G4", "twitter": "None", "instagram": "None", "facebook": "None", "youtube": "None", "website": "None", "summary": "None", "logo": "None", "latitude": 45.4057675053957, "longitude": -75.68571236551455}, "895329274RR0001": {"name": "SOCI\u00c9T\u00c9 ALZHEIMER DU CENTRE DU QU\u00c9BEC", "designationCode": "C", "categoryCode": "09", "address": "880 RUE C\u00d4T\u00c9", "city": "ST-CHARLES-DE-DRUMMOND", "province": "QC", "country": "CA", "postalCode": "J2C4Z7", "twitter": "None", "instagram": "None", "facebook": "None", "youtube": "None", "website": "None", "summary": "None", "logo": "None", "latitude": 45.89686795836463, "longitude": -72.46958282708181}, "106843550RR0001": {"name": "SOCI\u00c9T\u00c9 BIBLIQUE CANADIENNE DE MONTR\u00c9AL / CANADIAN BIBLE SOCIETY OF MONTR\u00c9AL", "designationCode": "C", "categoryCode": "47", "address": "1340-625 RUE STE-CATHERINE O", "city": "MONTR\u00c9AL", "province": "QC", "country": "CA", "postalCode": "H3B1B7", "twitter": "None", "instagram": "None", "facebook": "None", "youtube": "None", "website": "None", "summary": "None", "logo": "None", "latitude": 45.5034555, "longitude": -73.56949875000001}, "119007458RR0001": {"name": "SOCI\u00c9T\u00c9 CANADIENNE D'HISTOIRE DE L'EGLISE CATHOLIQUE", "designationCode": "C", "categoryCode": "52", "address": "C.P.500", "city": "TROIS-RIVI\u00c8RES", "province": "QC", "country": "CA", "postalCode": "G9A5H7", "twitter": "None", "instagram": "None", "facebook": "None", "youtube": "None", "website": "None", "summary": "None", "logo": "None", "latitude": 46.34016900000006, "longitude": -72.54503449999993}, "891130742RR0001": {"name": "SOCI\u00c9T\u00c9 CANADIENNE DE LA C.I.D.I.H.", "designationCode": "C", "categoryCode": "11", "address": "525 BOUL WILFRID-HAMEL E      LOCAL A-08", "city": "QUEBEC", "province": "QC", "country": "CA", "postalCode": "G1M2S8", "twitter": "None", "instagram": "None", "facebook": "None", "youtube": "None", "website": "None", "summary": "None", "logo": "None", "latitude": 46.820106819839786, "longitude": -71.2486411447591}, "104902523RR0001": {"name": "SOCI\u00c9T\u00c9 CANADIENNE DE LA SCL\u00c9ROSE EN PLAQUES (DIVISION DU QU\u00c9BEC)", "designationCode": "C", "categoryCode": "11", "address": "550 RUE SHERBROOKE OUEST      TOUR EST, BUREAU 1010", "city": "MONTREAL", "province": "QC", "country": "CA", "postalCode": "H3A1B9", "twitter": "None", "instagram": "None", "facebook": "None", "youtube": "None", "website": "None", "summary": "None", "logo": "None"}, "891342479RR0001": {"name": "SOCI\u00c9T\u00c9 D'HISTOIRE DE DRUMMOND", "designationCode": "C", "categoryCode": "50", "address": "555 DES ECOLES", "city": "DRUMMONDVILLE", "province": "QC", "country": "CA", "postalCode": "J2B1J6", "twitter": "None", "instagram": "None", "facebook": "None", "youtube": "None", "website": "None", "summary": "None", "logo": "None", "latitude": 45.877396358589664, "longitude": -72.48009726755726}, "119153708RR0001": {"name": "SOCI\u00c9T\u00c9 D'HISTOIRE DU LAC-ST-JEAN INC.", "designationCode": "C", "categoryCode": "50", "address": "1671 AVENUE DU PONT NORD", "city": "ALMA", "province": "QC", "country": "CA", "postalCode": "G8B5G2", "twitter": "None", "instagram": "None", "facebook": "None", "youtube": "None", "website": "None", "summary": "None", "logo": "None", "latitude": 48.58157816209814, "longitude": -71.63216158324211}, "119153930RR0001": {"name": "SOCI\u00c9T\u00c9 D'HISTOIRE ET DE G\u00c9N\u00c9ALOGIE DE TROIS-PISTOLES INC.", "designationCode": "C", "categoryCode": "50", "address": "145A RUE DE L'ARENA", "city": "TROIS-PISTOLES", "province": "QC", "country": "CA", "postalCode": "G0L4K0", "twitter": "None", "instagram": "None", "facebook": "None", "youtube": "None", "website": "None", "summary": "None", "logo": "None", "latitude": 48.12155890420815, "longitude": -69.17445716917727}, "119007888RR0001": {"name": "SOCI\u00c9T\u00c9 D'HISTOIRE ET DE G\u00c9N\u00c9ALOGIE DES HAUTES-LAURENTIDES", "designationCode": "A", "categoryCode": "50", "address": "385, RUE DU PONT C.P. 153", "city": "MONT-LAURIER", "province": "QC", "country": "CA", "postalCode": "J9L3G9", "twitter": "None", "instagram": "None", "facebook": "None", "youtube": "None", "website": "None", "summary": "None", "logo": "None", "latitude": 46.55018646627047, "longitude": -75.49839866766672}, "140555962RR0001": {"name": "SOCI\u00c9T\u00c9 D'HISTOIRE ET DE G\u00c9N\u00c9ALOGIE DES QUATRE LIEUX", "designationCode": "C", "categoryCode": "50", "address": "1291 RANG DOUBLE", "city": "ROUGEMONT", "province": "QC", "country": "CA", "postalCode": "J0L1M0", "twitter": "None", "instagram": "None", "facebook": "None", "youtube": "None", "website": "None", "summary": "None", "logo": "None", "latitude": 45.429434213168605, "longitude": -73.04532403370088}, "133683011RR0001": {"name": "SOCI\u00c9T\u00c9 D'HISTOIRE ET DE PATRIMOINE DE LIGNERY", "designationCode": "C", "categoryCode": "52", "address": "248 RUE DE LA FABRIQUE", "city": "SAINT-CONSTANT", "province": "QC", "country": "CA", "postalCode": "J5A2A4", "twitter": "None", "instagram": "None", "facebook": "None", "youtube": "None", "website": "None", "summary": "None", "logo": "None", "latitude": 45.36409033969088, "longitude": -73.56827132503393}, "141001578RR0001": {"name": "SOCI\u00c9T\u00c9 DE G\u00c9N\u00c9ALOGIE DE LONGUEUIL", "designationCode": "C", "categoryCode": "50", "address": "C.P. 21027                    SUCC.JACQUES-CARTIER", "city": "LONGUEUIL", "province": "QC", "country": "CA", "postalCode": "J4J5J4", "twitter": "None", "instagram": "None", "facebook": "None", "youtube": "None", "website": "None", "summary": "None", "logo": "None", "latitude": 45.54261600000005, "longitude": -73.49538049999994}, "107599706RR0001": {"name": "SOCI\u00c9T\u00c9 DE G\u00c9N\u00c9ALOGIE ET D'HISTOIRE DE RIMOUSKI", "designationCode": "C", "categoryCode": "21", "address": "110 RUE EVECHE EST", "city": "RIMOUSKI", "province": "QC", "country": "CA", "postalCode": "G5L1X9", "twitter": "None", "instagram": "None", "facebook": "None", "youtube": "None", "website": "None", "summary": "None", "logo": "None", "latitude": 48.451623000865375, "longitude": -68.5201192134857}, "899462246RR0001": {"name": "SOCI\u00c9T\u00c9 DE L'AUTISME S.A.R. LAURENTIDES", "designationCode": "C", "categoryCode": "11", "address": "474 RUE LA VIOLETTE", "city": "ST JEROME", "province": "QC", "country": "CA", "postalCode": "J7Y2T7", "twitter": "None", "instagram": "None", "facebook": "None", "youtube": "None", "website": "None", "summary": "None", "logo": "None", "latitude": 45.54978793207923, "longitude": -73.1990837697715}, "119153229RR0001": {"name": "SOCI\u00c9T\u00c9 DE RECHERCHE SUR LE CANCER / CANCER RESEARCH SOCIETY", "designationCode": "A", "categoryCode": "13", "address": "625 AV DU PRESIDENT-KENNEDY   402", "city": "MONTREAL", "province": "QC", "country": "CA", "postalCode": "H3A3S5", "twitter": "None", "instagram": "None", "facebook": "None", "youtube": "None", "website": "None", "summary": "None", "logo": "None", "latitude": 45.50488925979565, "longitude": -73.57209408745436}, "823723697RR0001": {"name": "SOCI\u00c9T\u00c9 DE SAINT-VINCENT DE PAUL CONSEIL PARTICULIER DE SHAWINIGAN", "designationCode": "C", "categoryCode": "09", "address": "1250 RUE NOTRE DAME", "city": "SHAWINIGAN", "province": "QC", "country": "CA", "postalCode": "G9N3S4", "twitter": "None", "instagram": "None", "facebook": "None", "youtube": "None", "website": "None", "summary": "None", "logo": "None", "latitude": 46.55942222427709, "longitude": -72.73956259238871}, "120795307RR0001": {"name": "SOCI\u00c9T\u00c9 DE SAINT-VINCENT-DE-PAUL CONSEIL PROVINCIAL DU QU\u00c9BEC", "designationCode": "C", "categoryCode": "09", "address": "3956 PLACE JEANNE D'ARC", "city": "MONTR\u00c9AL", "province": "QC", "country": "CA", "postalCode": "H1W1X1", "twitter": "None", "instagram": "None", "facebook": "None", "youtube": "None", "website": "None", "summary": "None", "logo": "None", "latitude": 45.54814098750652, "longitude": -73.53890404480937}, "119017069RR0001": {"name": "SOCI\u00c9T\u00c9 DES MISSIONNAIRES D'AFRIQUE (P\u00c8RES BLANCS) - CANADA / SOCIETY OF MISSIONARIES OF AFRICA (WHITE FATHERS) - CANADA", "designationCode": "C", "categoryCode": "47", "address": "1640 RUE ST-HUBERT", "city": "MONTR\u00c9AL", "province": "QC", "country": "CA", "postalCode": "H2L3Z3", "twitter": "None", "instagram": "None", "facebook": "None", "youtube": "None", "website": "None", "summary": "None", "logo": "None", "latitude": 45.51686077127951, "longitude": -73.56204223524135}, "107988545RR0001": {"name": "SOCI\u00c9T\u00c9 DES RELIGIEUSES DE NOTRE-DAME DE SION", "designationCode": "C", "categoryCode": "20", "address": "1775 RUE DECARIE", "city": "SAINT-LAURENT", "province": "QC", "country": "CA", "postalCode": "H4L3N5", "twitter": "None", "instagram": "None", "facebook": "None", "youtube": "None", "website": "None", "summary": "None", "logo": "None", "latitude": 45.52084186929413, "longitude": -73.69291675004345}, "895768711RR0001": {"name": "SOCI\u00c9T\u00c9 DES SOINS PALLIATIFS COMT\u00c9 N. INVERNESS / PALLIATIVE CARE SOCIETY N. INERNESS COUNTY", "designationCode": "C", "categoryCode": "11", "address": "P. O. BOX 129", "city": "CHETICAMP", "province": "NS", "country": "CA", "postalCode": "B0E1H0", "twitter": "None", "instagram": "None", "facebook": "None", "youtube": "None", "website": "None", "summary": "None", "logo": "None", "latitude": 46.60719600312706, "longitude": -61.03849596133188}, "142992601RR0001": {"name": "SOCI\u00c9T\u00c9 DU CH\u00c2TEAU DUFRESNE INC.", "designationCode": "C", "categoryCode": "50", "address": "2929, AVENUE JEANNE D'ARC", "city": "MONTR\u00c9AL", "province": "QC", "country": "CA", "postalCode": "H1W3W2", "twitter": "None", "instagram": "None", "facebook": "None", "youtube": "None", "website": "None", "summary": "None", "logo": "None", "latitude": 45.5531836961448, "longitude": -73.55304466564657}, "860970771RR0001": {"name": "SOCI\u00c9T\u00c9 DU MOULIN POUR LA PROMOTION DE LA SANT\u00c9-CORPORATION DU MOULIN FOR THE PROMOTION OF HEALTH", "designationCode": "C", "categoryCode": "11", "address": "215-2741 RUE CHAMBERLAND", "city": "ROCKLAND", "province": "ON", "country": "CA", "postalCode": "K4K0B8", "twitter": "None", "instagram": "None", "facebook": "None", "youtube": "None", "website": "None", "summary": "None", "logo": "None", "latitude": 45.54342002109184, "longitude": -75.30232838467313}, "134213917RR0001": {"name": "SOCI\u00c9T\u00c9 DU MUS\u00c9E D'ARCH\u00c9OLOGIE ET D'HISTOIRE DE MONTR\u00c9AL POINTE-A-CALLI\u00c8RE", "designationCode": "C", "categoryCode": "50", "address": "350 PLACE ROYALE", "city": "MONTREAL", "province": "QC", "country": "CA", "postalCode": "H2Y3Y5", "twitter": "None", "instagram": "None", "facebook": "None", "youtube": "None", "website": "None", "summary": "None", "logo": "None", "latitude": 45.50342253238636, "longitude": -73.55470156973973}, "142677590RR0001": {"name": "SOCI\u00c9T\u00c9 DU PALAIS MONTCALM INC.", "designationCode": "C", "categoryCode": "22", "address": "995, PLACE D'YOUVILLE", "city": "QUEBEC", "province": "QC", "country": "CA", "postalCode": "G1R3P1", "twitter": "None", "instagram": "None", "facebook": "None", "youtube": "None", "website": "None", "summary": "None", "logo": "None", "latitude": 46.81223606050551, "longitude": -71.21349540091752}, "899939417RR0001": {"name": "SOCI\u00c9T\u00c9 DU PATRIMOINE DE RACINE-BROMPTON-GORE", "designationCode": "C", "categoryCode": "50", "address": "107, FLODDEN", "city": "RACINE", "province": "QC", "country": "CA", "postalCode": "J0E1Y0", "twitter": "None", "instagram": "None", "facebook": "None", "youtube": "None", "website": "None", "summary": "None", "logo": "None", "latitude": 45.53246490123466, "longitude": -72.22831881372295}, "890714355RR0001": {"name": "SOCI\u00c9T\u00c9 DU PATRIMOINE RELIGIEUX DU DIOC\u00c8SE DE SAINT-HYACINTHE", "designationCode": "C", "categoryCode": "52", "address": "650 GIROUARD EST", "city": "ST-HYACINTHE", "province": "QC", "country": "CA", "postalCode": "J2S2Y2", "twitter": "None", "instagram": "None", "facebook": "None", "youtube": "None", "website": "None", "summary": "None", "logo": "None", "latitude": 45.63261623495506, "longitude": -72.94180957057556}, "121846877RR0001": {"name": "SOCI\u00c9T\u00c9 G\u00c9N\u00c9ALOGIQUE CANADIENNE-FRAN\u00c7AISE", "designationCode": "C", "categoryCode": "50", "address": "3440, RUE DAVIDSON", "city": "MONTREAL", "province": "QC", "country": "CA", "postalCode": "H1W2Z5", "twitter": "None", "instagram": "None", "facebook": "None", "youtube": "None", "website": "None", "summary": "None", "logo": "None", "latitude": 45.54634909740903, "longitude": -73.55748158327077}, "107989428RR0001": {"name": "SOCI\u00c9T\u00c9 HISTORIQUE D'ODANAK", "designationCode": "C", "categoryCode": "50", "address": "108 WABAN-AKI", "city": "ODANAK", "province": "QC", "country": "CA", "postalCode": "J0G1H0", "twitter": "None", "instagram": "None", "facebook": "None", "youtube": "None", "website": "None", "summary": "None", "logo": "None", "latitude": 46.076211697126695, "longitude": -72.82619897691761}, "141352187RR0001": {"name": "SOCI\u00c9T\u00c9 HISTORIQUE P.E. GENDREAU", "designationCode": "C", "categoryCode": "50", "address": "15 RUE HUMPHRY                CP 89", "city": "TEMISCAMING", "province": "QC", "country": "CA", "postalCode": "J0Z3R0", "twitter": "None", "instagram": "None", "facebook": "None", "youtube": "None", "website": "None", "summary": "None", "logo": "None", "latitude": 46.72117950138798, "longitude": -79.09391100085412}, "106893530RR0001": {"name": "SOCI\u00c9T\u00c9 HISTORIQUE PIERRE-DE-SAUREL INC.", "designationCode": "C", "categoryCode": "50", "address": "6-A RUE SAINT-PIERRE", "city": "SOREL-TRACY", "province": "QC", "country": "CA", "postalCode": "J3P3S2", "twitter": "None", "instagram": "None", "facebook": "None", "youtube": "None", "website": "None", "summary": "None", "logo": "None", "latitude": 46.04697165583708, "longitude": -73.10633380907707}, "138223318RR0001": {"name": "SOCI\u00c9T\u00c9 HISTORIQUE SARTIGAN INC.", "designationCode": "C", "categoryCode": "50", "address": "250 18E RUE, NIVEAU 4", "city": "ST-GEORGES BEAUCE", "province": "QC", "country": "CA", "postalCode": "G5Y4S9", "twitter": "None", "instagram": "None", "facebook": "None", "youtube": "None", "website": "None", "summary": "None", "logo": "None", "latitude": 46.11785100000006, "longitude": -70.67282299999994}, "865358063RR0001": {"name": "SOCI\u00c9T\u00c9 PARKINSON R\u00c9GION DE QU\u00c9BEC", "designationCode": "C", "categoryCode": "09", "address": "245, RUE SOUMANDE, BUREAU 218 HALLES FLEUR DE LYS", "city": "QU\u00c9BEC", "province": "QC", "country": "CA", "postalCode": "G1M3H6", "twitter": "None", "instagram": "None", "facebook": "None", "youtube": "None", "website": "None", "summary": "None", "logo": "None", "latitude": 46.818563848981704, "longitude": -71.25255374473375}, "119008043RR0001": {"name": "SOCI\u00c9T\u00c9 POUR LA PR\u00c9VENTION DE LA CRUAUT\u00c9 AUX ANIMAUX DE L'OUTAOUAIS INC.", "designationCode": "C", "categoryCode": "54", "address": "132 DE VARENNES", "city": "GATINEAU", "province": "QC", "country": "CA", "postalCode": "J8T8G5", "twitter": "None", "instagram": "None", "facebook": "None", "youtube": "None", "website": "None", "summary": "None", "logo": "None", "latitude": 45.48985217626506, "longitude": -75.70882625465974}, "816319552RR0001": {"name": "SOCI\u00c9T\u00c9 PROTECTRICE DES ANIMAUX D'ARTHABASKA", "designationCode": "C", "categoryCode": "54", "address": "691 RUE DE L'ACADIE", "city": "VICTORIAVILLE", "province": "QC", "country": "CA", "postalCode": "G6T1T9", "twitter": "None", "instagram": "None", "facebook": "None", "youtube": "None", "website": "None", "summary": "None", "logo": "None", "latitude": 46.072972857580034, "longitude": -71.9474906532696}, "892860446RR0001": {"name": "SOCI\u00c9T\u00c9 QU\u00c9B\u00c9COISE DE RECHERCHE EN MUSIQUE (SQRM)", "designationCode": "C", "categoryCode": "22", "address": "CP 8888 SUCC CENTRE VILLE", "city": "MONTREAL", "province": "QC", "country": "CA", "postalCode": "H3C3P8", "twitter": "None", "instagram": "None", "facebook": "None", "youtube": "None", "website": "None", "summary": "None", "logo": "None", "latitude": 45.50013000000007, "longitude": -73.57315999999997}, "872348404RR0001": {"name": "SOCIAL AND RELIEF SERVICES OF ONTARIO", "designationCode": "C", "categoryCode": "01", "address": "234 ALBION RD UNIT 703", "city": "TORONTO", "province": "ON", "country": "CA", "postalCode": "M9W6A5", "twitter": "None", "instagram": "None", "facebook": "None", "youtube": "None", "website": "None", "summary": "None", "logo": "None", "latitude": 43.720598185180535, "longitude": -79.544876778724}, "108169087RR0001": {"name": "SOCIAL ENTERPRISE FOR CANADA", "designationCode": "C", "categoryCode": "09", "address": "17705 LESLIE ST UNIT 11", "city": "NEWMARKET", "province": "ON", "country": "CA", "postalCode": "L3Y3E3", "twitter": "None", "instagram": "None", "facebook": "None", "youtube": "None", "website": "None", "summary": "None", "logo": "None", "latitude": 44.07115511463437, "longitude": -79.43320389780179}, "104902960RR0001": {"name": "SOCIAL PLANNING AND RESEARCH COUNCIL OF HAMILTON", "designationCode": "C", "categoryCode": "09", "address": "104 - 350 KING ST E", "city": "HAMILTON", "province": "ON", "country": "CA", "postalCode": "L8N3Y3", "twitter": "None", "instagram": "None", "facebook": "None", "youtube": "None", "website": "None", "summary": "None", "logo": "None", "latitude": 43.25343572548918, "longitude": -79.85887862115524}, "135918233RR0001": {"name": "SOCIAL PLANNING COUNCIL OF CAMBRIDGE & NORTH DUMFRIES", "designationCode": "C", "categoryCode": "09", "address": "14-55 DICKSON ST", "city": "CAMBRIDGE", "province": "ON", "country": "CA", "postalCode": "N1R7A5", "twitter": "None", "instagram": "None", "facebook": "None", "youtube": "None", "website": "None", "summary": "None", "logo": "None", "latitude": 43.359804503462456, "longitude": -80.31234203427779}, "107987158RR0001": {"name": "SOCIAL PLANNING COUNCIL OF KINGSTON & DISTRICT", "designationCode": "C", "categoryCode": "03", "address": "130 CLERGY ST E", "city": "KINGSTON", "province": "ON", "country": "CA", "postalCode": "K7K3S3", "twitter": "None", "instagram": "None", "facebook": "None", "youtube": "None", "website": "None", "summary": "None", "logo": "None", "latitude": 44.232977231201986, "longitude": -76.48896616380024}, "119152718RR0001": {"name": "SOCIAL PLANNING COUNCIL OF METROPOLITAN TORONTO EMPLOYEES CHARITABLE FUND", "designationCode": "C", "categoryCode": "75", "address": "1001-2 CARLTON ST", "city": "TORONTO", "province": "ON", "country": "CA", "postalCode": "M5B1J3", "twitter": "None", "instagram": "None", "facebook": "None", "youtube": "None", "website": "None", "summary": "None", "logo": "None", "latitude": 43.66142348211082, "longitude": -79.38282201832186}, "107987208RR0001": {"name": "SOCIAL PLANNING COUNCIL OF OTTAWA/LE CONSEIL DE PLANIFICATION SOCIALE D'OTTAWA", "designationCode": "C", "categoryCode": "05", "address": "150 GLOUCESTER ST", "city": "OTTAWA", "province": "ON", "country": "CA", "postalCode": "K2P0A6", "twitter": "None", "instagram": "None", "facebook": "None", "youtube": "None", "website": "None", "summary": "None", "logo": "None", "latitude": 45.418458647498525, "longitude": -75.69724297916798}, "119152734RR0001": {"name": "SOCIAL PLANNING COUNCIL OF PEEL", "designationCode": "C", "categoryCode": "09", "address": "209 - 1515 MATHESON BLVD E", "city": "MISSISSAUGA", "province": "ON", "country": "CA", "postalCode": "L4W2P5", "twitter": "None", "instagram": "None", "facebook": "None", "youtube": "None", "website": "None", "summary": "None", "logo": "None", "latitude": 43.64320338196049, "longitude": -79.62941997605131}, "137004818RR0001": {"name": "SOCIAL PLANNING COUNCIL OF SUDBURY", "designationCode": "C", "categoryCode": "09", "address": "30 STE ANNE RD                SUITE 105", "city": "SUDBURY", "province": "ON", "country": "CA", "postalCode": "P3C5E1", "twitter": "None", "instagram": "None", "facebook": "None", "youtube": "None", "website": "None", "summary": "None", "logo": "None", "latitude": 46.49512132849767, "longitude": -80.99615523166241}, "107987232RR0001": {"name": "SOCIAL PLANNING COUNCIL OF WINNIPEG INCORPORATED", "designationCode": "C", "categoryCode": "59", "address": "432 ELLICE AVE", "city": "WINNIPEG", "province": "MB", "country": "CA", "postalCode": "R3B1Y4", "twitter": "None", "instagram": "None", "facebook": "None", "youtube": "None", "website": "None", "summary": "None", "logo": "None", "latitude": 49.89362680930823, "longitude": -97.15057710323741}, "849212279RR0001": {"name": "SOCIAL SERVICES NETWORK FOR THE YORK REGION", "designationCode": "C", "categoryCode": "59", "address": "5A-8 SHADLOCK ST", "city": "MARKHAM", "province": "ON", "country": "CA", "postalCode": "L3S3E1", "twitter": "None", "instagram": "None", "facebook": "None", "youtube": "None", "website": "None", "summary": "None", "logo": "None", "latitude": 43.834970316665796, "longitude": -79.26151479037985}, "137702478RR0001": {"name": "SOCIAL SKILLS INCORPORATED", "designationCode": "C", "categoryCode": "09", "address": "583 ELLICE AVENUE, ROOM 201", "city": "WINNIPEG", "province": "MB", "country": "CA", "postalCode": "R3B1Z7", "twitter": "None", "instagram": "None", "facebook": "None", "youtube": "None", "website": "None", "summary": "None", "logo": "None", "latitude": 49.89294351875456, "longitude": -97.15819972009349}, "862273117RR0001": {"name": "SOCIAL VENTURE PARTNERS CALGARY LTD", "designationCode": "A", "categoryCode": "03", "address": "110 - 105 12 AVE SE", "city": "CALGARY", "province": "AB", "country": "CA", "postalCode": "T2G1A1", "twitter": "None", "instagram": "None", "facebook": "None", "youtube": "None", "website": "None", "summary": "None", "logo": "None", "latitude": 51.04136053621104, "longitude": -114.06274186372553}, "751345497RR0001": {"name": "SOCIALSPORT SOCIETY", "designationCode": "C", "categoryCode": "09", "address": "405 - 6611 COONEY RD", "city": "RICHMOND", "province": "BC", "country": "CA", "postalCode": "V6Y4C5", "twitter": "None", "instagram": "None", "facebook": "None", "youtube": "None", "website": "None", "summary": "None", "logo": "None", "latitude": 49.16582161809683, "longitude": -123.1315529662122}, "892221847RR0001": {"name": "SOCIETA CANADESE PER GLI STUDI D'ITALIANISTICA/CANADIAN SOCIETY FOR ITALIAN STUDIES/SOCIETE CANADIENNE POUR LES ETUDES I", "designationCode": "C", "categoryCode": "21", "address": "79 REDFERN AVE", "city": "HAMILTON", "province": "ON", "country": "CA", "postalCode": "L9C7S6", "twitter": "None", "instagram": "None", "facebook": "None", "youtube": "None", "website": "None", "summary": "None", "logo": "None", "latitude": 43.241026908092394, "longitude": -79.918534464097}, "132188897RR0001": {"name": "SOCIETA UNITA", "designationCode": "C", "categoryCode": "09", "address": "1775 ISLINGTON AVE", "city": "ETOBICOKE", "province": "ON", "country": "CA", "postalCode": "M9P3N2", "twitter": "None", "instagram": "None", "facebook": "None", "youtube": "None", "website": "None", "summary": "None", "logo": "None", "latitude": 43.68208958840666, "longitude": -79.53996981623311}, "886591395RR0001": {"name": "SOCIETE ALZHEIMER DE GRANBY ET REGION INC.", "designationCode": "C", "categoryCode": "11", "address": "356, RUE PRINCIPALE, LOCAL 3", "city": "GRANBY", "province": "QC", "country": "CA", "postalCode": "J2G2W6", "twitter": "None", "instagram": "None", "facebook": "None", "youtube": "None", "website": "None", "summary": "None", "logo": "None", "latitude": 45.40236198883419, "longitude": -72.73224576775881}, "107987463RR0001": {"name": "SOCIETE ALZHEIMER DE L'OUTAOUAIS QUEBECOIS", "designationCode": "C", "categoryCode": "11", "address": "440 BOUL MALONEY O", "city": "GATINEAU", "province": "QC", "country": "CA", "postalCode": "J8P6W2", "twitter": "None", "instagram": "None", "facebook": "None", "youtube": "None", "website": "None", "summary": "None", "logo": "None", "latitude": 45.48445872880741, "longitude": -75.66679689035728}, "888843794RR0001": {"name": "SOCIETE ALZHEIMER DE LA COTE-NORD INC", "designationCode": "C", "categoryCode": "09", "address": "373, AV. JOLLIET", "city": "SEPT-\u00ceLES", "province": "QC", "country": "CA", "postalCode": "G4R2B1", "twitter": "None", "instagram": "None", "facebook": "None", "youtube": "None", "website": "None", "summary": "None", "logo": "None", "latitude": 50.20915753928182, "longitude": -66.37435450978693}, "119152783RR0001": {"name": "SOCIETE ALZHEIMER DE LA SAGAMIE", "designationCode": "C", "categoryCode": "11", "address": "1657 AVE DUPONT NORD", "city": "ALMA", "province": "QC", "country": "CA", "postalCode": "G8B5G2", "twitter": "None", "instagram": "None", "facebook": "None", "youtube": "None", "website": "None", "summary": "None", "logo": "None", "latitude": 48.58105200000006, "longitude": -71.63149399999993}, "886560556RR0001": {"name": "SOCIETE ALZHEIMER DE LA VALLEE DE L'OR INC.", "designationCode": "C", "categoryCode": "11", "address": "734, 4E AVENUE", "city": "VAL-D'OR", "province": "QC", "country": "CA", "postalCode": "J9P1J2", "twitter": "None", "instagram": "None", "facebook": "None", "youtube": "None", "website": "None", "summary": "None", "logo": "None", "latitude": 48.103119365543215, "longitude": -77.78572751664842}, "889968467RR0001": {"name": "SOCIETE ALZHEIMER DE LAVAL 1995", "designationCode": "C", "categoryCode": "09", "address": "2525, BOUL RENE-LAENNEC", "city": "LAVAL", "province": "QC", "country": "CA", "postalCode": "H7K0B2", "twitter": "None", "instagram": "None", "facebook": "None", "youtube": "None", "website": "None", "summary": "None", "logo": "None", "latitude": 45.618529043857095, "longitude": -73.72268541378638}, "107987448RR0001": {"name": "SOCIETE ALZHEIMER DE MONTR\u00c9AL INC./ ALZHEIMER SOCIETY OF MONTREAL INC.", "designationCode": "C", "categoryCode": "11", "address": "4505 RUE NOTRE-DAME O", "city": "MONTREAL", "province": "QC", "country": "CA", "postalCode": "H4C1S3", "twitter": "None", "instagram": "None", "facebook": "None", "youtube": "None", "website": "None", "summary": "None", "logo": "None", "latitude": 45.47441378241668, "longitude": -73.58731541843133}, "104903166RR0001": {"name": "SOCIETE ALZHEIMER DES LAURENTIDES", "designationCode": "C", "categoryCode": "11", "address": "CP 276, 37 PRINCIPALE EST     2E \u00c9TAGE", "city": "STE-AGATHE-DES-MONTS", "province": "QC", "country": "CA", "postalCode": "J8C3A3", "twitter": "None", "instagram": "None", "facebook": "None", "youtube": "None", "website": "None", "summary": "None", "logo": "None", "latitude": 46.046606732702536, "longitude": -74.28531684277795}, "129379533RR0001": {"name": "SOCIETE ALZHEIMER DES MASKOUTAINS - VALLEE DES PATRIOTES", "designationCode": "C", "categoryCode": "09", "address": "2270, AV. MAILHOT", "city": "SAINT-HYACINTHE", "province": "QC", "country": "CA", "postalCode": "J2S4G3", "twitter": "None", "instagram": "None", "facebook": "None", "youtube": "None", "website": "None", "summary": "None", "logo": "None", "latitude": 45.632965909024925, "longitude": -72.95041967104319}, "891814774RR0001": {"name": "SOCIETE ALZHEIMER DU BAS-SAINT-LAURENT", "designationCode": "C", "categoryCode": "09", "address": "301 - 235 AV SAINT-JEROME", "city": "MATANE", "province": "QC", "country": "CA", "postalCode": "G4W3A7", "twitter": "None", "instagram": "None", "facebook": "None", "youtube": "None", "website": "None", "summary": "None", "logo": "None", "latitude": 48.84353149154589, "longitude": -67.53095180463366}, "886770353RR0001": {"name": "SOCIETE ALZHEIMER DU HAUT-RICHELIEU", "designationCode": "C", "categoryCode": "11", "address": "125, RUE JACQUES-CARTIER NORD BUREAU 2", "city": "ST-JEAN-SUR-RICHELIEU", "province": "QC", "country": "CA", "postalCode": "J3B8C9", "twitter": "None", "instagram": "None", "facebook": "None", "youtube": "None", "website": "None", "summary": "None", "logo": "None", "latitude": 45.30303900000001, "longitude": -73.2533738986385}, "893188599RR0001": {"name": "SOCIETE ALZHEIMER DU SUROIT", "designationCode": "C", "categoryCode": "19", "address": "101-340 BOUL DE HAVRE", "city": "SALABERRY-DE-VALLEYFIELD", "province": "QC", "country": "CA", "postalCode": "J6S1S6", "twitter": "None", "instagram": "None", "facebook": "None", "youtube": "None", "website": "None", "summary": "None", "logo": "None", "latitude": 45.262599297795674, "longitude": -74.13543230933686}, "141016840RR0001": {"name": "SOCIETE ALZHEIMER RIVE-SUD", "designationCode": "C", "categoryCode": "11", "address": "1160, BOUL. NOBERT", "city": "LONGUEUIL", "province": "QC", "country": "CA", "postalCode": "J4K2P1", "twitter": "None", "instagram": "None", "facebook": "None", "youtube": "None", "website": "None", "summary": "None", "logo": "None", "latitude": 45.51177516235795, "longitude": -73.4818528988114}, "890659394RR0001": {"name": "SOCIETE ARTS & CULTURE DE CAP-ROUGE", "designationCode": "C", "categoryCode": "50", "address": "C.P. 75084", "city": "CAP-ROUGE", "province": "QC", "country": "CA", "postalCode": "G1Y3C6", "twitter": "None", "instagram": "None", "facebook": "None", "youtube": "None", "website": "None", "summary": "None", "logo": "None", "latitude": 46.74975050183595, "longitude": -71.34155003910848}, "127391746RR0001": {"name": "SOCIETE BEAUCERONNE DE GESTION FAUNIQUE INC", "designationCode": "C", "categoryCode": "52", "address": "551, ROUTE 173                CP 155", "city": "ST-THEOPHILE BEAUCE", "province": "QC", "country": "CA", "postalCode": "G0M2A0", "twitter": "None", "instagram": "None", "facebook": "None", "youtube": "None", "website": "None", "summary": "None", "logo": "None", "latitude": 45.89468929599026, "longitude": -70.44590722093997}, "132466517RR0001": {"name": "SOCIETE BOUDDHIQUE CHANH PHAP INC", "designationCode": "C", "categoryCode": "35", "address": "1616 RUE MONTARVILLE", "city": "SAINT-BRUNO", "province": "QC", "country": "CA", "postalCode": "J3V3T7", "twitter": "None", "instagram": "None", "facebook": "None", "youtube": "None", "website": "None", "summary": "None", "logo": "None", "latitude": 45.5260999020427, "longitude": -73.34015441046816}, "131559007RR0001": {"name": "SOCIETE BOUDDHIQUE LAOTIENNE: S B L", "designationCode": "C", "categoryCode": "35", "address": "3381 BOUL DAGENAIS OUEST", "city": "FABREVILLE-LAVAL", "province": "QC", "country": "CA", "postalCode": "H7P1V5", "twitter": "None", "instagram": "None", "facebook": "None", "youtube": "None", "website": "None", "summary": "None", "logo": "None", "latitude": 45.57893547628245, "longitude": -73.80646397406075}, "119152866RR0001": {"name": "SOCIETE BOUDDHIQUE QUAN-AM INC.", "designationCode": "C", "categoryCode": "35", "address": "410 RUE CLAUDE-MELANCON", "city": "LAVAL", "province": "QC", "country": "CA", "postalCode": "H7N6A2", "twitter": "None", "instagram": "None", "facebook": "None", "youtube": "None", "website": "None", "summary": "None", "logo": "None", "latitude": 45.561378006116854, "longitude": -73.71297415335556}, "890449721RR0001": {"name": "SOCIETE BOUDDHIQUE SOLIDARITE \"BOUSSOL\"/\"BOUSSOL\" SOLIDARITYBUDDHIC CORPORATION", "designationCode": "C", "categoryCode": "35", "address": "12181 BOUL.RIVIERE-DES-PRAIRIE", "city": "MONTREAL", "province": "QC", "country": "CA", "postalCode": "H1C1R3", "twitter": "None", "instagram": "None", "facebook": "None", "youtube": "None", "website": "None", "summary": "None", "logo": "None", "latitude": 45.65294177381834, "longitude": -73.56375188894366}, "119152874RR0001": {"name": "SOCIETE CANADIENNE D'ATHEROSCLEROSE-CANADIAN ATHEROSCLEROSIS SOCIETY", "designationCode": "C", "categoryCode": "11", "address": "2705 BOUL.LAURIER C.R.ML      BUREAU T4-07", "city": "QU\u00c9BEC", "province": "QC", "country": "CA", "postalCode": "G1V4G2", "twitter": "None", "instagram": "None", "facebook": "None", "youtube": "None", "website": "None", "summary": "None", "logo": "None", "latitude": 46.76955306327547, "longitude": -71.28357752677597}, "130575616RR0001": {"name": "SOCIETE CANADIENNE DE LA SCLEROSE EN PLAQUES REGION DE QUEBEC", "designationCode": "C", "categoryCode": "11", "address": "202-245 RUE SOUMANDE", "city": "QU\u00c9BEC", "province": "QC", "country": "CA", "postalCode": "G1M3H6", "twitter": "None", "instagram": "None", "facebook": "None", "youtube": "None", "website": "None", "summary": "None", "logo": "None", "latitude": 46.818563848981704, "longitude": -71.25255374473375}, "879216927RR0001": {"name": "SOCIETE COMMUNAUTAIRE LAVALOISE D'EMPRUNT (SOCLE)", "designationCode": "C", "categoryCode": "03", "address": "512 BOUL. DES LAURENTIDES     PORTE 202", "city": "LAVAL", "province": "QC", "country": "CA", "postalCode": "H7G2V4", "twitter": "None", "instagram": "None", "facebook": "None", "youtube": "None", "website": "None", "summary": "None", "logo": "None", "latitude": 45.570595610595, "longitude": -73.69233460173686}, "104904560RR0001": {"name": "SOCIETE CULTURELLE DU LYS INC.", "designationCode": "C", "categoryCode": "22", "address": "611, RANG DE LA CARRIERE", "city": "UPTON", "province": "QC", "country": "CA", "postalCode": "J0H2E0", "twitter": "None", "instagram": "None", "facebook": "None", "youtube": "None", "website": "None", "summary": "None", "logo": "None", "latitude": 45.658578104683244, "longitude": -72.68204849494292}, "890833619RR0001": {"name": "SOCIETE D'ADMINISTRATION DE LA CHAPELLE NOTRE DAME", "designationCode": "C", "categoryCode": "38", "address": "5935 PORTAGE DES ROCHES NORD", "city": "LATERRIERE", "province": "QC", "country": "CA", "postalCode": "G7N1Z6", "twitter": "None", "instagram": "None", "facebook": "None", "youtube": "None", "website": "None", "summary": "None", "logo": "None", "latitude": 48.31172486759202, "longitude": -71.14656610032323}, "121898886RR0001": {"name": "SOCIETE D'AGRICULTURE DU COMTE DE BROME/BROME COUNTY AGRICULTURAL SOCIETY", "designationCode": "C", "categoryCode": "56", "address": "345 STAGECOACH ROAD", "city": "BROME", "province": "QC", "country": "CA", "postalCode": "J0E1K0", "twitter": "None", "instagram": "None", "facebook": "None", "youtube": "None", "website": "None", "summary": "None", "logo": "None", "latitude": 45.19084417043669, "longitude": -72.56598051330154}, "107851826RR0001": {"name": "SOCIETE D'AGRICULTURE DU COMTE DE PONTIAC, DIVISION A", "designationCode": "C", "categoryCode": "29", "address": "P O BOX 149, R.R.#1           215 LANG STREET", "city": "SHAWVILLE", "province": "QC", "country": "CA", "postalCode": "J0X2Y0", "twitter": "None", "instagram": "None", "facebook": "None", "youtube": "None", "website": "None", "summary": "None", "logo": "None", "latitude": 45.60282111019099, "longitude": -76.48620469233657}, "119152981RR0001": {"name": "SOCIETE D'AIDE AUX IMMIGRANTS du MOYEN-ORIENT MIDDLE-EAST IMMIGRANT AID SOCIETY OF CANADA", "designationCode": "C", "categoryCode": "09", "address": "1405 BOUL HENRI-BOURASSA O    BUREAU 207", "city": "MONTREAL", "province": "QC", "country": "CA", "postalCode": "H3M3B2", "twitter": "None", "instagram": "None", "facebook": "None", "youtube": "None", "website": "None", "summary": "None", "logo": "None", "latitude": 45.539125050522195, "longitude": -73.6783205526283}, "119152999RR0001": {"name": "SOCIETE D'AIDE ET DE SOUTIEN AUX PERSONNES DEMUNIES DE QUEBEC INC.", "designationCode": "C", "categoryCode": "09", "address": "859 MGR GRANDIN #8", "city": "QU\u00c9BEC", "province": "QC", "country": "CA", "postalCode": "G1V3X8", "twitter": "None", "instagram": "None", "facebook": "None", "youtube": "None", "website": "None", "summary": "None", "logo": "None", "latitude": 46.775138898147574, "longitude": -71.30343385316529}, "121155063RR0001": {"name": "SOCIETE D'AMELIORATION DE POINTE ST-CHARLES", "designationCode": "C", "categoryCode": "59", "address": "110-1945 RUE MULLINS", "city": "MONTREAL", "province": "QC", "country": "CA", "postalCode": "H3K1N9", "twitter": "None", "instagram": "None", "facebook": "None", "youtube": "None", "website": "None", "summary": "None", "logo": "None", "latitude": 45.48090306523738, "longitude": -73.56151176897089}, "889094959RR0001": {"name": "SOCIETE D'AMENAGEMENT DU PARCDES ILES DE LA PAIX", "designationCode": "C", "categoryCode": "52", "address": "1 RUE HOTEL DE VILLE", "city": "LERY", "province": "QC", "country": "CA", "postalCode": "J6N1E8", "twitter": "None", "instagram": "None", "facebook": "None", "youtube": "None", "website": "None", "summary": "None", "logo": "None", "latitude": 45.344626469069105, "longitude": -73.80640330723074}, "889751939RR0001": {"name": "SOCIETE D'AMENAGEMENT ET D'EXPLOITATION DU PARC LINEAIRE TEMISCAMINGUE", "designationCode": "C", "categoryCode": "56", "address": "7-B, RUE DES OBLATS NORD", "city": "VILLE-MARIE", "province": "QC", "country": "CA", "postalCode": "J9V1H9", "twitter": "None", "instagram": "None", "facebook": "None", "youtube": "None", "website": "None", "summary": "None", "logo": "None", "latitude": 47.33594273832905, "longitude": -79.43703027163087}, "119153039RR0001": {"name": "SOCIETE D'ANIMAUX FRONTIERE/FRONTIER ANIMAL SOCIETY", "designationCode": "C", "categoryCode": "54", "address": "2405 CHEMIN GRIFFIN", "city": "OGDEN", "province": "QC", "country": "CA", "postalCode": "J0B3E3", "twitter": "None", "instagram": "None", "facebook": "None", "youtube": "None", "website": "None", "summary": "None", "logo": "None", "latitude": 45.0426403874431, "longitude": -72.16378299117052}, "119153047RR0001": {"name": "SOCIETE D'ARCHEOLOGIE ET DE NUMISMATIQUE DE MONTREAL/THE ANTIQUARIAN AND NUMISMATIC SOCIETY OF MONTREAL", "designationCode": "C", "categoryCode": "50", "address": "280 RUE NOTRE-DAME EST", "city": "MONTREAL", "province": "QC", "country": "CA", "postalCode": "H2Y1C5", "twitter": "None", "instagram": "None", "facebook": "None", "youtube": "None", "website": "None", "summary": "None", "logo": "None", "latitude": 45.5088232672688, "longitude": -73.5535256720528}, "102983913RR0001": {"name": "SOCIETE D'ART ET D'HISTOIRE DE BEAUPORT INC.", "designationCode": "C", "categoryCode": "50", "address": "C.P.57033                     583 AVE ROYALE", "city": "QUEBEC", "province": "QC", "country": "CA", "postalCode": "G1E7G3", "twitter": "None", "instagram": "None", "facebook": "None", "youtube": "None", "website": "None", "summary": "None", "logo": "None", "latitude": 46.85928010544871, "longitude": -71.19322052938692}, "104917331RR0001": {"name": "SOCIETE D'ART LYRIQUE DU ROYAUME", "designationCode": "C", "categoryCode": "22", "address": "960 BOUL. SAGUENAY EST", "city": "CHICOUTIMI", "province": "QC", "country": "CA", "postalCode": "G7H1L5", "twitter": "None", "instagram": "None", "facebook": "None", "youtube": "None", "website": "None", "summary": "None", "logo": "None", "latitude": 48.42941657949121, "longitude": -71.0385894174217}, "119153054RR0001": {"name": "SOCIETE D'ASSISTANCE D'HONNEUR-HONOR AID SOCIETY", "designationCode": "C", "categoryCode": "01", "address": "4885 COTE STE. CATHERINE RD #2", "city": "MONTREAL", "province": "QC", "country": "CA", "postalCode": "H3W1M4", "twitter": "None", "instagram": "None", "facebook": "None", "youtube": "None", "website": "None", "summary": "None", "logo": "None", "latitude": 45.49104756370815, "longitude": -73.63435539581029}}