{"133956425RR0001": {"name": "RICE ROAD COMMUNITY CHURCH", "designationCode": "C", "categoryCode": "39", "address": "305 RICE ROAD", "city": "WELLAND", "province": "ON", "country": "CA", "postalCode": "L3C2V9", "twitter": "None", "instagram": "None", "facebook": "None", "youtube": "None", "website": "None", "summary": "None", "logo": "None", "latitude": 43.0171552245369, "longitude": -79.27016052438046}, "891532947RR0001": {"name": "RICETON CO-OPERATIVE RECREATION CENTRE LTD.", "designationCode": "C", "categoryCode": "56", "address": "PO BOX 72", "city": "RICETON", "province": "SK", "country": "CA", "postalCode": "S0G4E0", "twitter": "None", "instagram": "None", "facebook": "None", "youtube": "None", "website": "None", "summary": "None", "logo": "None", "latitude": 50.11184000000003, "longitude": -104.32388999999995}, "119118693RR0001": {"name": "RICH HILL UNITED CHURCH", "designationCode": "C", "categoryCode": "44", "address": "P.O. BOX 448", "city": "NEW TECUMSETH", "province": "ON", "country": "CA", "postalCode": "L0G1W0", "twitter": "None", "instagram": "None", "facebook": "None", "youtube": "None", "website": "None", "summary": "None", "logo": "None", "latitude": 44.021418000000054, "longitude": -79.79257249999993}, "132204694RR0001": {"name": "RICH VALLEY COMMUNITY CHURCH", "designationCode": "C", "categoryCode": "39", "address": "SITE 14 BOX 18 RR 1", "city": "GUNN", "province": "AB", "country": "CA", "postalCode": "T0E1A0", "twitter": "None", "instagram": "None", "facebook": "None", "youtube": "None", "website": "None", "summary": "None", "logo": "None", "latitude": 53.730350000000044, "longitude": -114.34035999999998}, "892318643RR0001": {"name": "RICH VALLEY COMMUNITY HALL ASSOCIATION", "designationCode": "C", "categoryCode": "56", "address": "RR#1 SITE 15 BOX 2", "city": "GUNN", "province": "AB", "country": "CA", "postalCode": "T0E1A0", "twitter": "None", "instagram": "None", "facebook": "None", "youtube": "None", "website": "None", "summary": "None", "logo": "None", "latitude": 53.73034800000005, "longitude": -114.34036399999994}, "886083492RR0001": {"name": "RICH VALLEY HISTORICAL SOCIETY", "designationCode": "C", "categoryCode": "50", "address": "SITE 15 COM8", "city": "GUNN", "province": "AB", "country": "CA", "postalCode": "T0E1A0", "twitter": "None", "instagram": "None", "facebook": "None", "youtube": "None", "website": "None", "summary": "None", "logo": "None", "latitude": 53.73034800000005, "longitude": -114.34036399999994}, "119118552RR0001": {"name": "RICHARD EATON SINGERS", "designationCode": "C", "categoryCode": "22", "address": "11759 GROAT RD NW", "city": "EDMONTON", "province": "AB", "country": "CA", "postalCode": "T5M3K6", "twitter": "None", "instagram": "None", "facebook": "None", "youtube": "None", "website": "None", "summary": "None", "logo": "None", "latitude": 53.56974075240938, "longitude": -113.54923837596016}, "891001091RR0001": {"name": "RICHARD IVEY SCHOOL OF BUSINESS FOUNDATION", "designationCode": "A", "categoryCode": "23", "address": "1255 WESTERN RD", "city": "LONDON", "province": "ON", "country": "CA", "postalCode": "N6G0N1", "twitter": "None", "instagram": "None", "facebook": "None", "youtube": "None", "website": "None", "summary": "None", "logo": "None", "latitude": 43.00434093282941, "longitude": -81.27674117078246}, "871743597RR0001": {"name": "RICHARD LARSEN BARR COLONY FOUNDATION", "designationCode": "A", "categoryCode": "53", "address": "4420-50 AVENUE", "city": "LLOYDMINSTER", "province": "AB", "country": "CA", "postalCode": "T9V0W2", "twitter": "None", "instagram": "None", "facebook": "None", "youtube": "None", "website": "None", "summary": "None", "logo": "None", "latitude": 53.27890701887012, "longitude": -110.00554679260061}, "107894214RR0001": {"name": "RICHARD SECORD OUT OF SCHOOL CARE SOCIETY", "designationCode": "C", "categoryCode": "01", "address": "4025 117 ST", "city": "EDMONTON", "province": "AB", "country": "CA", "postalCode": "T6J1T4", "twitter": "None", "instagram": "None", "facebook": "None", "youtube": "None", "website": "None", "summary": "None", "logo": "None", "latitude": 53.47746884263372, "longitude": -113.53512460035282}, "119118594RR0001": {"name": "RICHARDS MEMORIAL UNITED CHURCH", "designationCode": "C", "categoryCode": "44", "address": "360 EDGEWORTH AVE", "city": "LONDON", "province": "ON", "country": "CA", "postalCode": "N5W5C4", "twitter": "None", "instagram": "None", "facebook": "None", "youtube": "None", "website": "None", "summary": "None", "logo": "None", "latitude": 43.00221184958728, "longitude": -81.1763717949684}, "119118610RR0001": {"name": "RICHARDSON FOUNDATION INC.", "designationCode": "B", "categoryCode": "23", "address": "1 LOMBARD PL  30TH FLOOR", "city": "WINNIPEG", "province": "MB", "country": "CA", "postalCode": "R3B0Y1", "twitter": "None", "instagram": "None", "facebook": "None", "youtube": "None", "website": "None", "summary": "None", "logo": "None", "latitude": 49.895687601816974, "longitude": -97.13720600433791}, "886115393RR0001": {"name": "RICHELIEU VALLEY PASTORAL CHARGE", "designationCode": "C", "categoryCode": "44", "address": "25 RUE LAKEVIEW", "city": "ST-BRUNO DE MONTARVILLE", "province": "QC", "country": "CA", "postalCode": "J3V2L4", "twitter": "None", "instagram": "None", "facebook": "None", "youtube": "None", "website": "None", "summary": "None", "logo": "None", "latitude": 45.52497659951518, "longitude": -73.336429569825}, "104522214RR0001": {"name": "RICHER COMMUNITY CLUB INC.", "designationCode": "C", "categoryCode": "56", "address": "BOX 350", "city": "RICHER", "province": "MB", "country": "CA", "postalCode": "R0E1S0", "twitter": "None", "instagram": "None", "facebook": "None", "youtube": "None", "website": "None", "summary": "None", "logo": "None", "latitude": 49.66257000000007, "longitude": -96.46217999999999}, "897612107RR0001": {"name": "RICHER DAYCARE CENTRE INC.", "designationCode": "C", "categoryCode": "01", "address": "BOX 305", "city": "RICHER", "province": "MB", "country": "CA", "postalCode": "R0E1S0", "twitter": "None", "instagram": "None", "facebook": "None", "youtube": "None", "website": "None", "summary": "None", "logo": "None", "latitude": 49.66257000000007, "longitude": -96.46217999999999}, "136938149RR0002": {"name": "RICHER FELLOWSHIP CHURCH", "designationCode": "C", "categoryCode": "34", "address": "BOX 126", "city": "RICHER", "province": "MB", "country": "CA", "postalCode": "R0E1S0", "twitter": "None", "instagram": "None", "facebook": "None", "youtube": "None", "website": "None", "summary": "None", "logo": "None", "latitude": 49.66257000000007, "longitude": -96.46217999999999}, "107282576RR0001": {"name": "RICHFIELD CHRISTIAN FELLOWSHIP", "designationCode": "C", "categoryCode": "36", "address": "3715-85 STREET", "city": "EDMONTON", "province": "AB", "country": "CA", "postalCode": "T6K3R9", "twitter": "None", "instagram": "None", "facebook": "None", "youtube": "None", "website": "None", "summary": "None", "logo": "None", "latitude": 53.471655367188006, "longitude": -113.4601956656475}, "889857736RR0001": {"name": "RICHIBUCTO RIVER ASSOCIATION", "designationCode": "C", "categoryCode": "59", "address": "3 RIVER ST", "city": "REXTON", "province": "NB", "country": "CA", "postalCode": "E4W2C9", "twitter": "None", "instagram": "None", "facebook": "None", "youtube": "None", "website": "None", "summary": "None", "logo": "None", "latitude": 46.64347820402706, "longitude": -64.87149788268663}, "119118727RR0001": {"name": "RICHIBUCTO RIVER HISTORICAL SOCIETY INC.", "designationCode": "C", "categoryCode": "50", "address": "1 - 79 MAIN STREET", "city": "REXTON", "province": "NB", "country": "CA", "postalCode": "E4S1Z9", "twitter": "None", "instagram": "None", "facebook": "None", "youtube": "None", "website": "None", "summary": "None", "logo": "None", "latitude": 46.651981616878814, "longitude": -64.87748172382939}, "118818491RR0047": {"name": "RICHLANDS SEVENTH-DAY ADVENTIST CHURCH", "designationCode": "C", "categoryCode": "41", "address": "PO 1000", "city": "ABBOTSFORD", "province": "BC", "country": "CA", "postalCode": "V2S4P5", "twitter": "None", "instagram": "None", "facebook": "None", "youtube": "None", "website": "None", "summary": "None", "logo": "None", "latitude": 49.03851300000005, "longitude": -122.29441549999993}, "130090830RR0001": {"name": "RICHMOND ADDICTION SERVICES SOCIETY", "designationCode": "C", "categoryCode": "57", "address": "105 - 8080 ANDERSON RD", "city": "RICHMOND", "province": "BC", "country": "CA", "postalCode": "V6Y0J5", "twitter": "None", "instagram": "None", "facebook": "None", "youtube": "None", "website": "None", "summary": "None", "logo": "None", "latitude": 49.16347248456366, "longitude": -123.135363}, "119118735RR0001": {"name": "RICHMOND AGRICULTURAL SOCIETY", "designationCode": "C", "categoryCode": "56", "address": "BOX 1210", "city": "RICHMOND", "province": "ON", "country": "CA", "postalCode": "K0A2Z0", "twitter": "None", "instagram": "None", "facebook": "None", "youtube": "None", "website": "None", "summary": "None", "logo": "None", "latitude": 45.07289024235629, "longitude": -76.0222203768388}, "107894867RR0001": {"name": "RICHMOND ALLIANCE CHURCH", "designationCode": "C", "categoryCode": "39", "address": "11371 NO 3 ROAD", "city": "RICHMOND", "province": "BC", "country": "CA", "postalCode": "V7A1X3", "twitter": "None", "instagram": "None", "facebook": "None", "youtube": "None", "website": "None", "summary": "None", "logo": "None", "latitude": 49.130528220844226, "longitude": -123.1367103620246}, "119118768RR0001": {"name": "RICHMOND BAPTIST CHURCH", "designationCode": "C", "categoryCode": "31", "address": "6640 BLUNDELL RD", "city": "RICHMOND", "province": "BC", "country": "CA", "postalCode": "V7C1H8", "twitter": "None", "instagram": "None", "facebook": "None", "youtube": "None", "website": "None", "summary": "None", "logo": "None", "latitude": 49.15556053173897, "longitude": -123.15043349999999}, "857726202RR0001": {"name": "RICHMOND BIBLE BAPTIST CHURCH", "designationCode": "C", "categoryCode": "39", "address": "28-8631 BENNETT ROAD", "city": "RICHMOND", "province": "BC", "country": "CA", "postalCode": "V6Y3K7", "twitter": "None", "instagram": "None", "facebook": "None", "youtube": "None", "website": "None", "summary": "None", "logo": "None", "latitude": 49.16088548658289, "longitude": -123.12796041618097}, "130560139RR0001": {"name": "RICHMOND CARING PLACE SOCIETY", "designationCode": "C", "categoryCode": "59", "address": "STE 140                       7000 MINORU BLDG", "city": "RICHMOND", "province": "BC", "country": "CA", "postalCode": "V6Y3Z5", "twitter": "None", "instagram": "None", "facebook": "None", "youtube": "None", "website": "None", "summary": "None", "logo": "None", "latitude": 49.162613713471075, "longitude": -123.14016571347106}, "886383801RR0001": {"name": "RICHMOND CATHOLIC ALPHA", "designationCode": "C", "categoryCode": "49", "address": "7160 CAVELIER COURT", "city": "RICHMOND", "province": "BC", "country": "CA", "postalCode": "V7C4J8", "twitter": "None", "instagram": "None", "facebook": "None", "youtube": "None", "website": "None", "summary": "None", "logo": "None", "latitude": 49.161086748542914, "longitude": -123.17269902441004}, "888328432RR0001": {"name": "RICHMOND CENTRE FOR DISABILITY", "designationCode": "C", "categoryCode": "03", "address": "100-5671 NO 3 RD", "city": "RICHMOND", "province": "BC", "country": "CA", "postalCode": "V6X2C7", "twitter": "None", "instagram": "None", "facebook": "None", "youtube": "None", "website": "None", "summary": "None", "logo": "None", "latitude": 49.17409822685758, "longitude": -123.13688572057791}, "119118792RR0001": {"name": "RICHMOND CHINESE ALLIANCE CHURCH", "designationCode": "C", "categoryCode": "39", "address": "10100 - #1RD", "city": "RICHMOND", "province": "BC", "country": "CA", "postalCode": "V7E1S2", "twitter": "None", "instagram": "None", "facebook": "None", "youtube": "None", "website": "None", "summary": "None", "logo": "None", "latitude": 49.13025900000005, "longitude": -123.17153749999994}, "867792533RR0001": {"name": "RICHMOND CHINESE BAPTIST CHURCH", "designationCode": "C", "categoryCode": "39", "address": "10311 ALBION ROAD", "city": "RICHMOND", "province": "BC", "country": "CA", "postalCode": "V7A3E5", "twitter": "None", "instagram": "None", "facebook": "None", "youtube": "None", "website": "None", "summary": "None", "logo": "None", "latitude": 49.14163552322661, "longitude": -123.10981272300768}, "135216018RR0001": {"name": "RICHMOND CHINESE COMMUNITY SOCIETY", "designationCode": "C", "categoryCode": "22", "address": "205 - 8271 WESTMINSTER HWY", "city": "RICHMOND", "province": "BC", "country": "CA", "postalCode": "V6X1A7", "twitter": "None", "instagram": "None", "facebook": "None", "youtube": "None", "website": "None", "summary": "None", "logo": "None", "latitude": 49.17026649379626, "longitude": -123.1326}, "107894982RR0001": {"name": "RICHMOND CHINESE EVANGELICAL FREE CHURCH", "designationCode": "C", "categoryCode": "39", "address": "12100 BLUNDELL ROAD", "city": "RICHMOND", "province": "BC", "country": "CA", "postalCode": "V6W1B3", "twitter": "None", "instagram": "None", "facebook": "None", "youtube": "None", "website": "None", "summary": "None", "logo": "None", "latitude": 49.155421528420774, "longitude": -123.09012047155059}, "865234835RR0001": {"name": "RICHMOND CHINESE MB CHURCH", "designationCode": "C", "categoryCode": "34", "address": "10200 NO. 5 ROAD", "city": "RICHMOND", "province": "BC", "country": "CA", "postalCode": "V7A4E5", "twitter": "None", "instagram": "None", "facebook": "None", "youtube": "None", "website": "None", "summary": "None", "logo": "None", "latitude": 49.13862943632371, "longitude": -123.09178202423824}, "107396905RR0058": {"name": "RICHMOND CHRISTIAN FELLOWSHIP FOURSQUARE CHURCH", "designationCode": "C", "categoryCode": "39", "address": "140-11300 NO. 5 ROAD", "city": "RICHMOND", "province": "BC", "country": "CA", "postalCode": "V7A5J7", "twitter": "None", "instagram": "None", "facebook": "None", "youtube": "None", "website": "None", "summary": "None", "logo": "None", "latitude": 49.13020800000001, "longitude": -123.09208150825256}, "131081655RR0001": {"name": "RICHMOND CO-OPERATIVE NURSERY SCHOOL INC", "designationCode": "C", "categoryCode": "20", "address": "BOX 629", "city": "RICHMOND", "province": "ON", "country": "CA", "postalCode": "K0A2Z0", "twitter": "None", "instagram": "None", "facebook": "None", "youtube": "None", "website": "None", "summary": "None", "logo": "None", "latitude": 45.07289024235629, "longitude": -76.0222203768388}, "869221861RR0001": {"name": "RICHMOND COMMUNITY BAND SOCIETY", "designationCode": "C", "categoryCode": "22", "address": "10555 YARMISH DR.", "city": "RICHMOND", "province": "BC", "country": "CA", "postalCode": "V7E5E6", "twitter": "None", "instagram": "None", "facebook": "None", "youtube": "None", "website": "None", "summary": "None", "logo": "None", "latitude": 49.13434551788919, "longitude": -123.16232232044537}, "897837258RR0001": {"name": "RICHMOND COMMUNITY FOUNDATION", "designationCode": "A", "categoryCode": "23", "address": "190 - 7000 MINORU BOULEVARD", "city": "RICHMOND", "province": "BC", "country": "CA", "postalCode": "V6Y3Z5", "twitter": "None", "instagram": "None", "facebook": "None", "youtube": "None", "website": "None", "summary": "None", "logo": "None", "latitude": 49.162613713471075, "longitude": -123.14016571347106}, "889088969RR0001": {"name": "RICHMOND COMMUNITY HOSPICE FOUNDATION", "designationCode": "A", "categoryCode": "13", "address": "STE. 310, 7000 MINORU BLVD", "city": "RICHMOND", "province": "BC", "country": "CA", "postalCode": "V6Y3Z5", "twitter": "None", "instagram": "None", "facebook": "None", "youtube": "None", "website": "None", "summary": "None", "logo": "None", "latitude": 49.162613713471075, "longitude": -123.14016571347106}, "119118834RR0001": {"name": "RICHMOND COUNTY HISTORICAL SOCIETY / LA SOCIETE HISTORIQUE DE RICHMOND", "designationCode": "C", "categoryCode": "52", "address": "1161 RTE 243", "city": "MELBOURNE", "province": "QC", "country": "CA", "postalCode": "J0B2B0", "twitter": "None", "instagram": "None", "facebook": "None", "youtube": "None", "website": "None", "summary": "None", "logo": "None", "latitude": 45.643303157515376, "longitude": -72.13948239091454}, "888929825RR0001": {"name": "RICHMOND COUNTY LITERACY NETWORK SOCIETY", "designationCode": "C", "categoryCode": "21", "address": "2453 HWY 206                  PO BOX 69", "city": "ARICHAT", "province": "NS", "country": "CA", "postalCode": "B0E1A0", "twitter": "None", "instagram": "None", "facebook": "None", "youtube": "None", "website": "None", "summary": "None", "logo": "None", "latitude": 45.511523148504374, "longitude": -61.02075487669819}, "856310701RR0001": {"name": "RICHMOND EMMANUEL CHURCH", "designationCode": "C", "categoryCode": "30", "address": "7451  ELMBRIDGE WAY", "city": "RICHMOND", "province": "BC", "country": "CA", "postalCode": "V6X1B8", "twitter": "None", "instagram": "None", "facebook": "None", "youtube": "None", "website": "None", "summary": "None", "logo": "None", "latitude": 49.172050464365874, "longitude": -123.14277072300769}, "861693034RR0001": {"name": "RICHMOND EVANGELICAL CHINESE BIBLE CHURCH", "designationCode": "C", "categoryCode": "39", "address": "708-6081 NO 3 RD", "city": "RICHMOND", "province": "BC", "country": "CA", "postalCode": "V6Y2B2", "twitter": "None", "instagram": "None", "facebook": "None", "youtube": "None", "website": "None", "summary": "None", "logo": "None", "latitude": 49.16951428645726, "longitude": -123.13668028645726}, "817011745RR0001": {"name": "RICHMOND FAITH FELLOWSHIP", "designationCode": "C", "categoryCode": "39", "address": "11960 MONTEGO STREET", "city": "RICHMOND", "province": "BC", "country": "CA", "postalCode": "V6X1H4", "twitter": "None", "instagram": "None", "facebook": "None", "youtube": "None", "website": "None", "summary": "None", "logo": "None", "latitude": 49.18053250288553, "longitude": -123.092361}, "107895179RR0001": {"name": "RICHMOND FAMILY PLACE SOCIETY", "designationCode": "C", "categoryCode": "09", "address": "8660 ASH ST", "city": "RICHMOND", "province": "BC", "country": "CA", "postalCode": "V6Y2S3", "twitter": "None", "instagram": "None", "facebook": "None", "youtube": "None", "website": "None", "summary": "None", "logo": "None", "latitude": 49.150262063247375, "longitude": -123.11972590300657}, "865985949RR0001": {"name": "RICHMOND FIREFIGHTERS SOCIETY", "designationCode": "A", "categoryCode": "03", "address": "1210-11980 HAMMERSMITH WAY", "city": "RICHMOND", "province": "BC", "country": "CA", "postalCode": "V7A0A4", "twitter": "None", "instagram": "None", "facebook": "None", "youtube": "None", "website": "None", "summary": "None", "logo": "None", "latitude": 49.12651766472388, "longitude": -123.10051200046229}, "119078228RR0001": {"name": "RICHMOND FOOD BANK SOCIETY", "designationCode": "C", "categoryCode": "09", "address": "100-5800 CEDARBRIDGE WAY", "city": "RICHMOND", "province": "BC", "country": "CA", "postalCode": "V6X2A7", "twitter": "None", "instagram": "None", "facebook": "None", "youtube": "None", "website": "None", "summary": "None", "logo": "None", "latitude": 49.172876329447746, "longitude": -123.14223800882948}, "119118875RR0001": {"name": "RICHMOND GATEWAY THEATRE SOCIETY", "designationCode": "C", "categoryCode": "22", "address": "6500 GILBERT RD", "city": "RICHMOND", "province": "BC", "country": "CA", "postalCode": "V7C3V4", "twitter": "None", "instagram": "None", "facebook": "None", "youtube": "None", "website": "None", "summary": "None", "logo": "None", "latitude": 49.16555548193018, "longitude": -123.14767779292704}, "861287159RR0001": {"name": "RICHMOND GOSPEL BAPTIST CHURCH", "designationCode": "C", "categoryCode": "31", "address": "203-7431 BLUNDELL RD", "city": "RICHMOND", "province": "BC", "country": "CA", "postalCode": "V6Y3G8", "twitter": "None", "instagram": "None", "facebook": "None", "youtube": "None", "website": "None", "summary": "None", "logo": "None", "latitude": 49.155634504904754, "longitude": -123.1417836931733}, "894543735RR0001": {"name": "RICHMOND GRACE ALLIANCE CHURCH", "designationCode": "C", "categoryCode": "39", "address": "11371 NO 3 RD", "city": "RICHMOND", "province": "BC", "country": "CA", "postalCode": "V7A1X3", "twitter": "None", "instagram": "None", "facebook": "None", "youtube": "None", "website": "None", "summary": "None", "logo": "None", "latitude": 49.130528220844226, "longitude": -123.1367103620246}, "137146551RR0001": {"name": "RICHMOND HILL (CHINESE) BAPTIST CHURCH", "designationCode": "C", "categoryCode": "31", "address": "136 HILLSVIEW DR", "city": "RICHMOND HILL", "province": "ON", "country": "CA", "postalCode": "L4C1T2", "twitter": "None", "instagram": "None", "facebook": "None", "youtube": "None", "website": "None", "summary": "None", "logo": "None", "latitude": 43.864973153037525, "longitude": -79.42214890804397}, "119119014RR0001": {"name": "RICHMOND HILL (ST. MATTHEW'S) PASTORAL CHARGE", "designationCode": "C", "categoryCode": "44", "address": "333 CROSBY AVE", "city": "RICHMOND HILL", "province": "ON", "country": "CA", "postalCode": "L4C2R5", "twitter": "None", "instagram": "None", "facebook": "None", "youtube": "None", "website": "None", "summary": "None", "logo": "None", "latitude": 43.88381022344037, "longitude": -79.42421923633789}, "119118909RR0001": {"name": "RICHMOND HILL BAPTIST CHURCH", "designationCode": "C", "categoryCode": "31", "address": "50 WRIGHT ST", "city": "RICHMOND HILL", "province": "ON", "country": "CA", "postalCode": "L4C4A1", "twitter": "None", "instagram": "None", "facebook": "None", "youtube": "None", "website": "None", "summary": "None", "logo": "None", "latitude": 43.87745286369689, "longitude": -79.44117627517464}, "894262963RR0001": {"name": "RICHMOND HILL BAPTIST CHURCH OF CALGARY, ALBERTA", "designationCode": "C", "categoryCode": "31", "address": "7251 SIERRA MORENA BLVD SW", "city": "CALGARY", "province": "AB", "country": "CA", "postalCode": "T3H3N5", "twitter": "None", "instagram": "None", "facebook": "None", "youtube": "None", "website": "None", "summary": "None", "logo": "None", "latitude": 51.01424273910785, "longitude": -114.17592972269055}, "858025273RR0001": {"name": "RICHMOND HILL CHRISTIAN ACADEMY", "designationCode": "C", "categoryCode": "20", "address": "96 ANTIOCH DRIVE", "city": "TORONTO", "province": "ON", "country": "CA", "postalCode": "M9B5V4", "twitter": "None", "instagram": "None", "facebook": "None", "youtube": "None", "website": "None", "summary": "None", "logo": "None", "latitude": 43.66995075852622, "longitude": -79.56586474536891}, "890180391RR0001": {"name": "RICHMOND HILL COMMUNITY FOOD BANK", "designationCode": "C", "categoryCode": "09", "address": "55 NEWKIRK RD", "city": "RICHMOND HILL", "province": "ON", "country": "CA", "postalCode": "L4C3G4", "twitter": "None", "instagram": "None", "facebook": "None", "youtube": "None", "website": "None", "summary": "None", "logo": "None", "latitude": 43.879221271452394, "longitude": -79.42638794763148}, "890410798RR0001": {"name": "RICHMOND HILL FREE METHODIST CHURCH", "designationCode": "C", "categoryCode": "39", "address": "212 HILLSVIEW DR", "city": "RICHMOND HILL", "province": "ON", "country": "CA", "postalCode": "L4C1T2", "twitter": "None", "instagram": "None", "facebook": "None", "youtube": "None", "website": "None", "summary": "None", "logo": "None", "latitude": 43.8663861801602, "longitude": -79.41572910825772}, "871002671RR0001": {"name": "RICHMOND HILL MOBILITY ACCESSIBILITY CHARITABLE FOUNDATION", "designationCode": "C", "categoryCode": "09", "address": "120 NEWKIRK ROAD, UNIT # 2", "city": "RICHMOND HILL", "province": "ON", "country": "CA", "postalCode": "L4C9S7", "twitter": "None", "instagram": "None", "facebook": "None", "youtube": "None", "website": "None", "summary": "None", "logo": "None", "latitude": 43.88209930691362, "longitude": -79.42918092278781}, "107895252RR0001": {"name": "RICHMOND HILL PENTECOSTAL CHURCH", "designationCode": "C", "categoryCode": "36", "address": "65 BAIF BLVD", "city": "RICHMOND HILL", "province": "ON", "country": "CA", "postalCode": "L4C5E2", "twitter": "None", "instagram": "None", "facebook": "None", "youtube": "None", "website": "None", "summary": "None", "logo": "None", "latitude": 43.85776884869323, "longitude": -79.43739731805078}, "132098179RR0001": {"name": "RICHMOND HILL PRESBYTERIAN CHURCH,", "designationCode": "C", "categoryCode": "37", "address": "10066 YONGE ST", "city": "RICHMOND HILL", "province": "ON", "country": "CA", "postalCode": "L4C1T8", "twitter": "None", "instagram": "None", "facebook": "None", "youtube": "None", "website": "None", "summary": "None", "logo": "None", "latitude": 43.87299659449484, "longitude": -79.43763774115573}, "119118982RR0001": {"name": "RICHMOND HILL PUBLIC LIBRARY BOARD", "designationCode": "C", "categoryCode": "50", "address": "1 ATKINSON STREET", "city": "RICHMOND HILL", "province": "ON", "country": "CA", "postalCode": "L4C0H5", "twitter": "None", "instagram": "None", "facebook": "None", "youtube": "None", "website": "None", "summary": "None", "logo": "None", "latitude": 43.86967049933618, "longitude": -79.44018028198491}, "829747724RR0001": {"name": "RICHMOND HILL ROTARY CLUB CHARITABLE FOUNDATION", "designationCode": "A", "categoryCode": "63", "address": "12 - 100 WEST BEAVER CREEK RD", "city": "RICHMOND HILL", "province": "ON", "country": "CA", "postalCode": "L4B1H4", "twitter": "None", "instagram": "None", "facebook": "None", "youtube": "None", "website": "None", "summary": "None", "logo": "None", "latitude": 43.8513110722551, "longitude": -79.39261929294445}, "107797383RR0005": {"name": "RICHMOND HILL SEVENTH-DAY ADVENTIST CHURCH", "designationCode": "C", "categoryCode": "41", "address": "250 HARDING BOULEVARD         W.P.O. BOX 32212", "city": "RICHMOND HILL", "province": "ON", "country": "CA", "postalCode": "L4C9S3", "twitter": "None", "instagram": "None", "facebook": "None", "youtube": "None", "website": "None", "summary": "None", "logo": "None", "latitude": 43.86815121790044, "longitude": -79.44855576014234}, "107895278RR0001": {"name": "RICHMOND HILL UNITED CHURCH", "designationCode": "C", "categoryCode": "44", "address": "10201 YONGE ST", "city": "RICHMOND HILL", "province": "ON", "country": "CA", "postalCode": "L4C3B2", "twitter": "None", "instagram": "None", "facebook": "None", "youtube": "None", "website": "None", "summary": "None", "logo": "None", "latitude": 43.87618087483404, "longitude": -79.43830794416904}, "119119030RR0001": {"name": "RICHMOND HOSPICE ASSOCIATION", "designationCode": "C", "categoryCode": "11", "address": "310-7000 MINORU BLVD", "city": "RICHMOND", "province": "BC", "country": "CA", "postalCode": "V6Y3Z5", "twitter": "None", "instagram": "None", "facebook": "None", "youtube": "None", "website": "None", "summary": "None", "logo": "None", "latitude": 49.162613713471075, "longitude": -123.14016571347106}, "107895658RR0001": {"name": "RICHMOND HOUSING CORPORATION", "designationCode": "C", "categoryCode": "09", "address": "9361 PEPPERELL STREET", "city": "ST. PETER'S", "province": "NS", "country": "CA", "postalCode": "B0E3B0", "twitter": "None", "instagram": "None", "facebook": "None", "youtube": "None", "website": "None", "summary": "None", "logo": "None", "latitude": 45.657044329987116, "longitude": -60.875631588782596}, "107895294RR0001": {"name": "RICHMOND INTERMEDIATE CARE SOCIETY", "designationCode": "C", "categoryCode": "10", "address": "270 - 11331 COPPERSMITH WAY", "city": "RICHMOND", "province": "BC", "country": "CA", "postalCode": "V7A5J9", "twitter": "None", "instagram": "None", "facebook": "None", "youtube": "None", "website": "None", "summary": "None", "logo": "None", "latitude": 49.13078453043996, "longitude": -123.09902027699232}, "125343459RR0001": {"name": "RICHMOND KINSMEN HOME SUPPORT SOCIETY", "designationCode": "C", "categoryCode": "09", "address": "100-6100 BOWLING GREEN RD", "city": "RICHMOND", "province": "BC", "country": "CA", "postalCode": "V6Y4G2", "twitter": "None", "instagram": "None", "facebook": "None", "youtube": "None", "website": "None", "summary": "None", "logo": "None", "latitude": 49.170135907729936, "longitude": -123.14281645582268}, "889562377RR0001": {"name": "RICHMOND MARINE RESCUE SOCIETY", "designationCode": "C", "categoryCode": "59", "address": "PO BOX 107                    #9-8671 NO. 1 ROAD", "city": "RICHMOND", "province": "BC", "country": "CA", "postalCode": "V7C1V2", "twitter": "None", "instagram": "None", "facebook": "None", "youtube": "None", "website": "None", "summary": "None", "logo": "None", "latitude": 49.1491527473715, "longitude": -123.18139340133075}, "879119816RR0001": {"name": "RICHMOND MUSEUM SOCIETY", "designationCode": "C", "categoryCode": "50", "address": "7700 MINORU GATE", "city": "RICHMOND", "province": "BC", "country": "CA", "postalCode": "V6Y1R9", "twitter": "None", "instagram": "None", "facebook": "None", "youtube": "None", "website": "None", "summary": "None", "logo": "None", "latitude": 49.16285257439792, "longitude": -123.14297202308795}, "889166021RR0001": {"name": "RICHMOND MUSIC FESTIVAL SOCIETY", "designationCode": "C", "categoryCode": "22", "address": "7480 MCMATH RD", "city": "RICHMOND", "province": "BC", "country": "CA", "postalCode": "V6Y3G2", "twitter": "None", "instagram": "None", "facebook": "None", "youtube": "None", "website": "None", "summary": "None", "logo": "None", "latitude": 49.14982754954124, "longitude": -123.13855499059359}, "107895088RR0001": {"name": "RICHMOND MUSIC SCHOOL SOCIETY", "designationCode": "C", "categoryCode": "22", "address": "11371 NO. 3 ROAD", "city": "RICHMOND", "province": "BC", "country": "CA", "postalCode": "V7A1X3", "twitter": "None", "instagram": "None", "facebook": "None", "youtube": "None", "website": "None", "summary": "None", "logo": "None", "latitude": 49.130528220844226, "longitude": -123.1367103620246}, "898746938RR0001": {"name": "RICHMOND NATURE PARK SOCIETY", "designationCode": "C", "categoryCode": "56", "address": "11851 WESTMINSTER HWY", "city": "RICHMOND", "province": "BC", "country": "CA", "postalCode": "V6X1B4", "twitter": "None", "instagram": "None", "facebook": "None", "youtube": "None", "website": "None", "summary": "None", "logo": "None", "latitude": 49.17021347100233, "longitude": -123.09930352553522}, "119119113RR0001": {"name": "RICHMOND PARK MENNONITE BRETHREN CHURCH", "designationCode": "C", "categoryCode": "34", "address": "1525 26TH ST", "city": "BRANDON", "province": "MB", "country": "CA", "postalCode": "R7B3C2", "twitter": "None", "instagram": "None", "facebook": "None", "youtube": "None", "website": "None", "summary": "None", "logo": "None", "latitude": 49.82595355536961, "longitude": -99.97297987823917}, "889867289RR0001": {"name": "RICHMOND PEACE CHINESE MENNONITE CHURCH", "designationCode": "C", "categoryCode": "34", "address": "11571 DANIELS ROAD", "city": "RICHMOND", "province": "BC", "country": "CA", "postalCode": "V6X1M7", "twitter": "None", "instagram": "None", "facebook": "None", "youtube": "None", "website": "None", "summary": "None", "logo": "None", "latitude": 49.18834450822297, "longitude": -123.09370200000001}, "131788416RR0001": {"name": "RICHMOND PENTECOSTAL CHURCH", "designationCode": "C", "categoryCode": "36", "address": "9300 WESTMINSTER HWY", "city": "RICHMOND", "province": "BC", "country": "CA", "postalCode": "V6X1B1", "twitter": "None", "instagram": "None", "facebook": "None", "youtube": "None", "website": "None", "summary": "None", "logo": "None", "latitude": 49.17006550562685, "longitude": -123.1212015}, "107895484RR0001": {"name": "RICHMOND PRESBYTERIAN CHURCH", "designationCode": "C", "categoryCode": "37", "address": "7111 #2 ROAD", "city": "RICHMOND", "province": "BC", "country": "CA", "postalCode": "V7C3L7", "twitter": "None", "instagram": "None", "facebook": "None", "youtube": "None", "website": "None", "summary": "None", "logo": "None", "latitude": 49.161698779906516, "longitude": -123.15890448727538}, "121454003RR0001": {"name": "RICHMOND PUBLIC LIBRARY", "designationCode": "C", "categoryCode": "50", "address": "100 - 7700 MINORU GATE", "city": "RICHMOND", "province": "BC", "country": "CA", "postalCode": "V6Y1R8", "twitter": "None", "instagram": "None", "facebook": "None", "youtube": "None", "website": "None", "summary": "None", "logo": "None", "latitude": 49.16285257439792, "longitude": -123.14297202308795}, "889301248RR0001": {"name": "RICHMOND REGIONAL HIGH SCHOOL SCHOLARSHIP & LOAN FUND ASSOCIATION", "designationCode": "C", "categoryCode": "21", "address": "375 ARMSTRONG STREET", "city": "RICHMOND", "province": "QC", "country": "CA", "postalCode": "J0B2H0", "twitter": "None", "instagram": "None", "facebook": "None", "youtube": "None", "website": "None", "summary": "None", "logo": "None", "latitude": 45.65522049238262, "longitude": -72.13304665240422}, "890176597RR0001": {"name": "RICHMOND RETIRED TEACHERS' ASSOCIATION TRUST FUND FOUNDATION", "designationCode": "C", "categoryCode": "21", "address": "P.O. BOX 97114                7871 WESTMINSTER HIGHWAY", "city": "RICHMOND", "province": "BC", "country": "CA", "postalCode": "V6X8H3", "twitter": "None", "instagram": "None", "facebook": "None", "youtube": "None", "website": "None", "summary": "None", "logo": "None", "latitude": 49.17023750432784, "longitude": -123.13803052553521}, "816024871RR0001": {"name": "RICHMOND RIGHT TO LIFE SOCIETY", "designationCode": "C", "categoryCode": "09", "address": "#105-7580 MINORU BOULEVARD", "city": "RICHMOND", "province": "BC", "country": "CA", "postalCode": "V6Y1Z5", "twitter": "None", "instagram": "None", "facebook": "None", "youtube": "None", "website": "None", "summary": "None", "logo": "None", "latitude": 49.15772983236195, "longitude": -123.14024950825257}, "828765123RR0001": {"name": "RICHMOND SCHOOLYARD SOCIETY", "designationCode": "C", "categoryCode": "20", "address": "2771 WESTMINSTER HWY", "city": "RICHMOND", "province": "BC", "country": "CA", "postalCode": "V7C1A8", "twitter": "None", "instagram": "None", "facebook": "None", "youtube": "None", "website": "None", "summary": "None", "logo": "None", "latitude": 49.170241396118314, "longitude": -123.19446332892142}, "118818491RR0040": {"name": "RICHMOND SEVENTH-DAY ADVENTIST CHURCH", "designationCode": "C", "categoryCode": "41", "address": "PO 1000", "city": "ABBOTSFORD", "province": "BC", "country": "CA", "postalCode": "V2S4P5", "twitter": "None", "instagram": "None", "facebook": "None", "youtube": "None", "website": "None", "summary": "None", "logo": "None", "latitude": 49.03851300000005, "longitude": -122.29441549999993}, "107895591RR0001": {"name": "RICHMOND SOCIETY FOR COMMUNITY LIVING", "designationCode": "C", "categoryCode": "01", "address": "170-7000 MINORU BOULEVARD", "city": "RICHMOND", "province": "BC", "country": "CA", "postalCode": "V6Y3Z5", "twitter": "None", "instagram": "None", "facebook": "None", "youtube": "None", "website": "None", "summary": "None", "logo": "None", "latitude": 49.162613713471075, "longitude": -123.14016571347106}, "894150135RR0001": {"name": "RICHMOND THERAPEUTIC EQUESTRIAN SOCIETY", "designationCode": "C", "categoryCode": "56", "address": "13671 NO. 3 RD", "city": "RICHMOND", "province": "BC", "country": "CA", "postalCode": "V7A1X7", "twitter": "None", "instagram": "None", "facebook": "None", "youtube": "None", "website": "None", "summary": "None", "logo": "None", "latitude": 49.11294986870398, "longitude": -123.13683484517827}, "107895641RR0001": {"name": "RICHMOND UNITED CHURCH", "designationCode": "C", "categoryCode": "44", "address": "8711 CAMBIE RD", "city": "RICHMOND", "province": "BC", "country": "CA", "postalCode": "V6X1K2", "twitter": "None", "instagram": "None", "facebook": "None", "youtube": "None", "website": "None", "summary": "None", "logo": "None", "latitude": 49.18469147994645, "longitude": -123.12664119317328}, "107895674RR0001": {"name": "RICHMOND WOMEN'S RESOURCE CENTRE ASSOCIATION", "designationCode": "C", "categoryCode": "01", "address": "UNIT 110-7000 MINORU BLVD", "city": "RICHMOND", "province": "BC", "country": "CA", "postalCode": "V6Y3Z5", "twitter": "None", "instagram": "None", "facebook": "None", "youtube": "None", "website": "None", "summary": "None", "logo": "None", "latitude": 49.162613713471075, "longitude": -123.14016571347106}, "139407670RR0001": {"name": "RICHMOND YOUTH SERVICE AGENCY SOCIETY", "designationCode": "C", "categoryCode": "09", "address": "100-7900 ALDERBRIDGE WAY", "city": "RICHMOND", "province": "BC", "country": "CA", "postalCode": "V6X2A5", "twitter": "None", "instagram": "None", "facebook": "None", "youtube": "None", "website": "None", "summary": "None", "logo": "None", "latitude": 49.17685030685055, "longitude": -123.13904140669857}, "119119071RR0001": {"name": "RICHMOND-KINGS NURSERY SCHOOL INC.", "designationCode": "C", "categoryCode": "20", "address": "933 SUMMERSIDE AVE.", "city": "WINNIPEG", "province": "MB", "country": "CA", "postalCode": "R3T4Y1", "twitter": "None", "instagram": "None", "facebook": "None", "youtube": "None", "website": "None", "summary": "None", "logo": "None", "latitude": 49.79148677938692, "longitude": -97.15467311091211}, "108154691RR0001": {"name": "RICHMOND-MELBOURNE PASTORAL CHARGE", "designationCode": "C", "categoryCode": "44", "address": "247 RUE PRINCIPALE S", "city": "RICHMOND", "province": "QC", "country": "CA", "postalCode": "J0B2H0", "twitter": "None", "instagram": "None", "facebook": "None", "youtube": "None", "website": "None", "summary": "None", "logo": "None", "latitude": 45.655061729961254, "longitude": -72.14069508901318}, "119119253RR0001": {"name": "RICHMOUND COMMUNITY HALL CO-OPERATIVE ASSOCIATION LIMITED", "designationCode": "C", "categoryCode": "56", "address": "BOX 71", "city": "RICHMOUND", "province": "SK", "country": "CA", "postalCode": "S0N2E0", "twitter": "None", "instagram": "None", "facebook": "None", "youtube": "None", "website": "None", "summary": "None", "logo": "None", "latitude": 50.45575000000008, "longitude": -109.76119999999997}, "119119279RR0001": {"name": "RICHTER ENDOWMENT FUND", "designationCode": "B", "categoryCode": "05", "address": "275 DUNDAS STREET             11TH FLOOR", "city": "LONDON", "province": "ON", "country": "CA", "postalCode": "N6B3L1", "twitter": "None", "instagram": "None", "facebook": "None", "youtube": "None", "website": "None", "summary": "None", "logo": "None", "latitude": 42.985045049656804, "longitude": -81.24474432471588}, "119119287RR0001": {"name": "RICHVALE BIBLE CHAPEL", "designationCode": "C", "categoryCode": "39", "address": "24 OAK AVENUE", "city": "RICHMOND HILL", "province": "ON", "country": "CA", "postalCode": "L4C6R7", "twitter": "None", "instagram": "None", "facebook": "None", "youtube": "None", "website": "None", "summary": "None", "logo": "None", "latitude": 43.84953720569544, "longitude": -79.43449810534354}, "119119303RR0001": {"name": "RICHVIEW BAPTIST CHURCH", "designationCode": "C", "categoryCode": "31", "address": "1548 KIPLING AVE", "city": "ETOBICOKE", "province": "ON", "country": "CA", "postalCode": "M9R4A3", "twitter": "None", "instagram": "None", "facebook": "None", "youtube": "None", "website": "None", "summary": "None", "logo": "None", "latitude": 43.681257314732576, "longitude": -79.55276475786239}, "119119311RR0001": {"name": "RICHVIEW BAPTIST FOUNDATION", "designationCode": "C", "categoryCode": "09", "address": "1540 KIPLING AVE", "city": "ETOBICOKE", "province": "ON", "country": "CA", "postalCode": "M9R4C6", "twitter": "None", "instagram": "None", "facebook": "None", "youtube": "None", "website": "None", "summary": "None", "logo": "None", "latitude": 43.68057167026379, "longitude": -79.55244389915717}, "889173241RR0001": {"name": "RICHVIEW COMMUNITY CARE SERVICES CORPORATION", "designationCode": "C", "categoryCode": "01", "address": "1540 KIPLING AVE", "city": "ETOBICOKE", "province": "ON", "country": "CA", "postalCode": "M9R4C6", "twitter": "None", "instagram": "None", "facebook": "None", "youtube": "None", "website": "None", "summary": "None", "logo": "None", "latitude": 43.68057167026379, "longitude": -79.55244389915717}, "119119329RR0001": {"name": "RICHVIEW UNITED CHURCH", "designationCode": "C", "categoryCode": "44", "address": "149 WELLESWORTH DR", "city": "ETOBICOKE", "province": "ON", "country": "CA", "postalCode": "M9C4R8", "twitter": "None", "instagram": "None", "facebook": "None", "youtube": "None", "website": "None", "summary": "None", "logo": "None", "latitude": 43.66101604108712, "longitude": -79.58105922618167}, "119119337RR0001": {"name": "RICHWOOD UNITED CHURCH", "designationCode": "C", "categoryCode": "44", "address": "981 WEST DUMFRIES RD.         RR#2", "city": "PARIS", "province": "ON", "country": "CA", "postalCode": "N3L3E2", "twitter": "None", "instagram": "None", "facebook": "None", "youtube": "None", "website": "None", "summary": "None", "logo": "None", "latitude": 43.24112592138988, "longitude": -80.4474390012578}, "892894585RR0001": {"name": "RICK CLARK MEMORIAL SOCIETY", "designationCode": "C", "categoryCode": "21", "address": "1941 ALDER ST", "city": "CRESTON", "province": "BC", "country": "CA", "postalCode": "V0B1G5", "twitter": "None", "instagram": "None", "facebook": "None", "youtube": "None", "website": "None", "summary": "None", "logo": "None", "latitude": 49.10035749567218, "longitude": -116.50157091618097}, "107659427RR0001": {"name": "RICK HANSEN FOUNDATION", "designationCode": "A", "categoryCode": "09", "address": "300 3820 CESSNA DRIVE", "city": "RICHMOND", "province": "BC", "country": "CA", "postalCode": "V7B0A2", "twitter": "None", "instagram": "None", "facebook": "None", "youtube": "None", "website": "None", "summary": "None", "logo": "None", "latitude": 49.18660622310825, "longitude": -123.14422758738404}, "890615396RR0001": {"name": "RIDDELL FAMILY CHARITABLE FOUNDATION", "designationCode": "B", "categoryCode": "03", "address": "2800 - 421 7 AVE SW", "city": "CALGARY", "province": "AB", "country": "CA", "postalCode": "T2P4K9", "twitter": "None", "instagram": "None", "facebook": "None", "youtube": "None", "website": "None", "summary": "None", "logo": "None", "latitude": 51.04682342625144, "longitude": -114.07570373231476}}