{"891341745RR0001": {"name": "Boys & Girls Club of Charlotte County Inc.", "designationCode": "C", "categoryCode": "09", "address": "54 DISHER LANE", "city": "DUFFERIN", "province": "NB", "country": "CA", "postalCode": "E3L3H6", "twitter": "None", "instagram": "None", "facebook": "None", "youtube": "None", "website": "None", "summary": "None", "logo": "None", "latitude": 45.21226640109138, "longitude": -67.25009176983482}, "889542205RR0001": {"name": "Boys & Girls Club of Crowsnest Pass", "designationCode": "C", "categoryCode": "09", "address": "BOX 1176", "city": "COLEMAN", "province": "AB", "country": "CA", "postalCode": "T0K0M0", "twitter": "None", "instagram": "None", "facebook": "None", "youtube": "None", "website": "None", "summary": "None", "logo": "None", "latitude": 49.4888173371808, "longitude": -113.95073569884576}, "892116864RR0001": {"name": "Boys & Girls Club of Thompson, Inc.", "designationCode": "C", "categoryCode": "09", "address": "PO BOX 484 STN MAIN", "city": "THOMPSON", "province": "MB", "country": "CA", "postalCode": "R8N1N2", "twitter": "None", "instagram": "None", "facebook": "None", "youtube": "None", "website": "None", "summary": "None", "logo": "None", "latitude": 55.74417900000006, "longitude": -97.85067199999993}, "118808799RR0001": {"name": "Boys & Girls Clubs Big Brothers Big Sisters of Edmonton & Area Society", "designationCode": "C", "categoryCode": "09", "address": "9425-109A AVE", "city": "EDMONTON", "province": "AB", "country": "CA", "postalCode": "T5H1G1", "twitter": "None", "instagram": "None", "facebook": "None", "youtube": "None", "website": "None", "summary": "None", "logo": "None", "latitude": 53.557427641670145, "longitude": -113.48471827378967}, "877870188RR0001": {"name": "Boys and Girls Club of Cochrane and Area", "designationCode": "C", "categoryCode": "53", "address": "P.O. BOX 1554                 111 5TH AVENUE WEST", "city": "COCHRANE", "province": "AB", "country": "CA", "postalCode": "T4C1B5", "twitter": "None", "instagram": "None", "facebook": "None", "youtube": "None", "website": "None", "summary": "None", "logo": "None", "latitude": 51.189131065208706, "longitude": -114.47524663396584}, "892586660RR0001": {"name": "Boys and Girls Club of Edson & District", "designationCode": "C", "categoryCode": "09", "address": "5414 -6TH AVENUE              P.O. BOX 6032", "city": "EDSON", "province": "AB", "country": "CA", "postalCode": "T7E1T6", "twitter": "None", "instagram": "None", "facebook": "None", "youtube": "None", "website": "None", "summary": "None", "logo": "None", "latitude": 53.58117148773674, "longitude": -116.45071232904371}, "119066462RR0001": {"name": "Boys and Girls Club of Olds and Area", "designationCode": "C", "categoryCode": "01", "address": "PO BOX 4186", "city": "OLDS", "province": "AB", "country": "CA", "postalCode": "T4H1P8", "twitter": "None", "instagram": "None", "facebook": "None", "youtube": "None", "website": "None", "summary": "None", "logo": "None", "latitude": 51.791613000000055, "longitude": -114.11061199999993}, "826143273RR0001": {"name": "Boys and Girls Club of Whitecourt and District", "designationCode": "C", "categoryCode": "09", "address": "76 SUNSET BLVD                BOX 2053", "city": "WHITECOURT", "province": "AB", "country": "CA", "postalCode": "T7S1P7", "twitter": "None", "instagram": "None", "facebook": "None", "youtube": "None", "website": "None", "summary": "None", "logo": "None", "latitude": 54.12694478798526, "longitude": -115.66714769741513}, "897237616RR0001": {"name": "Boys and Girls Club of Yukon", "designationCode": "C", "categoryCode": "09", "address": "306A ALEXANDER ST", "city": "WHITEHORSE", "province": "YT", "country": "CA", "postalCode": "Y1A2L6", "twitter": "None", "instagram": "None", "facebook": "None", "youtube": "None", "website": "None", "summary": "None", "logo": "None", "latitude": 60.72312833799762, "longitude": -135.05744993627874}, "130361710RR0001": {"name": "Boys and Girls Clubs of Canada/Les repaires jeunesse du Canada", "designationCode": "C", "categoryCode": "09", "address": "2005 SHEPPARD AVE EAST        SUITE 400", "city": "TORONTO", "province": "ON", "country": "CA", "postalCode": "M2J5B4", "twitter": "None", "instagram": "None", "facebook": "None", "youtube": "None", "website": "None", "summary": "None", "logo": "None", "latitude": 43.77436849624909, "longitude": -79.33790961564398}, "819599713RR0001": {"name": "Boys and Girls Clubs of South Coast BC", "designationCode": "C", "categoryCode": "09", "address": "2875 ST. GEORGE STREET", "city": "VANCOUVER", "province": "BC", "country": "CA", "postalCode": "V5T3R8", "twitter": "None", "instagram": "None", "facebook": "None", "youtube": "None", "website": "None", "summary": "None", "logo": "None", "latitude": 49.25889000000001, "longitude": -123.09308257167133}, "890245459RR0001": {"name": "Boys and Girls Clubs Foundation of South Coast BC", "designationCode": "A", "categoryCode": "03", "address": "2875 ST. GEORGE STREET", "city": "VANCOUVER", "province": "BC", "country": "CA", "postalCode": "V5T3R8", "twitter": "None", "instagram": "None", "facebook": "None", "youtube": "None", "website": "None", "summary": "None", "logo": "None", "latitude": 49.25889000000001, "longitude": -123.09308257167133}, "849570437RR0001": {"name": "Boys' and Girls' Club of Summerside Foundation Inc.", "designationCode": "A", "categoryCode": "03", "address": "364 NOTRE DAME STREET", "city": "SUMMERSIDE", "province": "PE", "country": "CA", "postalCode": "C1N1S7", "twitter": "None", "instagram": "None", "facebook": "None", "youtube": "None", "website": "None", "summary": "None", "logo": "None", "latitude": 46.396279729384325, "longitude": -63.79394848917996}, "843580465RR0001": {"name": "BoysToMen Canada Inc.", "designationCode": "C", "categoryCode": "29", "address": "3505 RUE BROADWAY", "city": "LACHINE", "province": "QC", "country": "CA", "postalCode": "H8T1T1", "twitter": "None", "instagram": "None", "facebook": "None", "youtube": "None", "website": "None", "summary": "None", "logo": "None", "latitude": 45.43716451399405, "longitude": -73.69596180238331}, "837390947RR0001": {"name": "Bracelet of Hope", "designationCode": "C", "categoryCode": "11", "address": "21 YARMOUTH ST", "city": "GUELPH", "province": "ON", "country": "CA", "postalCode": "N1H4G2", "twitter": "None", "instagram": "None", "facebook": "None", "youtube": "None", "website": "None", "summary": "None", "logo": "None", "latitude": 43.54630757369147, "longitude": -80.25236648179371}, "812300986RR0001": {"name": "Bradford Islamic Community Centre", "designationCode": "C", "categoryCode": "60", "address": "PO BOX 1342 STN MAIN", "city": "BRADFORD", "province": "ON", "country": "CA", "postalCode": "L3Z2B7", "twitter": "None", "instagram": "None", "facebook": "None", "youtube": "None", "website": "None", "summary": "None", "logo": "None", "latitude": 44.11482000000005, "longitude": -79.56249199999993}, "124654922RR0001": {"name": "Bradford Progress Child Care Centre Inc.", "designationCode": "C", "categoryCode": "01", "address": "118 BARRIE ST                 PO BX 644", "city": "BRADFORD", "province": "ON", "country": "CA", "postalCode": "L3Z2B4", "twitter": "None", "instagram": "None", "facebook": "None", "youtube": "None", "website": "None", "summary": "None", "logo": "None", "latitude": 44.11740537508185, "longitude": -79.56563333833383}, "852025980RR0001": {"name": "Bradford West Gwillimbury and District Community Foundation", "designationCode": "A", "categoryCode": "03", "address": "21 HOLLAND ST. WEST           P.O. BOX 190", "city": "BRADFORD", "province": "ON", "country": "CA", "postalCode": "L3Z2A8", "twitter": "None", "instagram": "None", "facebook": "None", "youtube": "None", "website": "None", "summary": "None", "logo": "None", "latitude": 44.114161157943194, "longitude": -79.56546820650348}, "815375563RR0001": {"name": "Braefoot Community Building Foundation", "designationCode": "A", "categoryCode": "56", "address": "1359 MCKENZIE AVE", "city": "VICTORIA", "province": "BC", "country": "CA", "postalCode": "V8P2M1", "twitter": "None", "instagram": "None", "facebook": "None", "youtube": "None", "website": "None", "summary": "None", "logo": "None", "latitude": 48.4720485340712, "longitude": -123.34807971261974}, "118816255RR0001": {"name": "Braeside Presbyterian Church", "designationCode": "C", "categoryCode": "37", "address": "6 BERNARD DR", "city": "ST ALBERT", "province": "AB", "country": "CA", "postalCode": "T8N0B4", "twitter": "None", "instagram": "None", "facebook": "None", "youtube": "None", "website": "None", "summary": "None", "logo": "None", "latitude": 53.63546285899369, "longitude": -113.61376953147918}, "830313284RR0001": {"name": "Bragg Creek Performing Arts Society", "designationCode": "C", "categoryCode": "22", "address": "PO BOX 1046", "city": "BRAGG CREEK", "province": "AB", "country": "CA", "postalCode": "T0L0K0", "twitter": "None", "instagram": "None", "facebook": "None", "youtube": "None", "website": "None", "summary": "None", "logo": "None", "latitude": 50.951040000000035, "longitude": -114.56075999999996}, "803789064RR0001": {"name": "Brahmananda Saraswati Foundation of Canada", "designationCode": "C", "categoryCode": "21", "address": "207 HIGHLAND AVENUE", "city": "FORT ERIE", "province": "ON", "country": "CA", "postalCode": "L2A2X8", "twitter": "None", "instagram": "None", "facebook": "None", "youtube": "None", "website": "None", "summary": "None", "logo": "None", "latitude": 42.93408152842075, "longitude": -78.91973244601536}, "863147021RR0001": {"name": "Braille Atout", "designationCode": "C", "categoryCode": "21", "address": "838 RUE SAINT-CHARLES         BUREAU 100", "city": "SHERBROOKE", "province": "QC", "country": "CA", "postalCode": "J1H4Z2", "twitter": "None", "instagram": "None", "facebook": "None", "youtube": "None", "website": "None", "summary": "None", "logo": "None", "latitude": 45.39333157868313, "longitude": -71.88772545669117}, "889010799RR0001": {"name": "Braille Literacy Canada / Litt\u00e9ratie braille Canada", "designationCode": "C", "categoryCode": "01", "address": "1929 BAYVIEW AVENUE", "city": "TORONTO", "province": "ON", "country": "CA", "postalCode": "M4G3E8", "twitter": "None", "instagram": "None", "facebook": "None", "youtube": "None", "website": "None", "summary": "None", "logo": "None", "latitude": 43.71726697391652, "longitude": -79.37817360248759}, "891703860RR0001": {"name": "Braille Tone Music Society of Canada", "designationCode": "C", "categoryCode": "22", "address": "P.O. BOX 107                  15207 STONY PLAIN ROAD", "city": "EDMONTON", "province": "AB", "country": "CA", "postalCode": "T5P3Y4", "twitter": "None", "instagram": "None", "facebook": "None", "youtube": "None", "website": "None", "summary": "None", "logo": "None", "latitude": 53.541254495672185, "longitude": -113.58393202553522}, "131043747RR0001": {"name": "Brain Injury Association of Durham Region", "designationCode": "C", "categoryCode": "11", "address": "850 KING ST WEST UNIT 24", "city": "OSHAWA", "province": "ON", "country": "CA", "postalCode": "L1J8N5", "twitter": "None", "instagram": "None", "facebook": "None", "youtube": "None", "website": "None", "summary": "None", "logo": "None", "latitude": 43.89067417020556, "longitude": -78.89447954374151}, "851864181RR0001": {"name": "Brain Injury Association of Thunder Bay and Area", "designationCode": "C", "categoryCode": "11", "address": "217 1100 MEMORIAL AVE", "city": "THUNDER BAY", "province": "ON", "country": "CA", "postalCode": "P7B4A3", "twitter": "None", "instagram": "None", "facebook": "None", "youtube": "None", "website": "None", "summary": "None", "logo": "None", "latitude": 48.40423121426511, "longitude": -89.24559377676118}, "891485369RR0002": {"name": "Brain Injury Association of York Region Inc.", "designationCode": "C", "categoryCode": "11", "address": "11181 YONGE ST 3RD FLOOR", "city": "RICHMOND HILL", "province": "ON", "country": "CA", "postalCode": "L4S1L2", "twitter": "None", "instagram": "None", "facebook": "None", "youtube": "None", "website": "None", "summary": "None", "logo": "None", "latitude": 43.90013167721735, "longitude": -79.44391532566819}, "841811342RR0001": {"name": "Brain Injury Services of Hamilton Foundation Inc.", "designationCode": "A", "categoryCode": "03", "address": "225 KING WILLIAM STREET       SUITE 508", "city": "HAMILTON", "province": "ON", "country": "CA", "postalCode": "L8R1B1", "twitter": "None", "instagram": "None", "facebook": "None", "youtube": "None", "website": "None", "summary": "None", "logo": "None", "latitude": 43.25533113962134, "longitude": -79.86085359310985}, "803594985RR0001": {"name": "Brain Matters Brain Cancer Charity", "designationCode": "C", "categoryCode": "11", "address": "1120 FINCH AVENUE WEST        SUITE 503", "city": "TORONTO", "province": "ON", "country": "CA", "postalCode": "M3J3H7", "twitter": "None", "instagram": "None", "facebook": "None", "youtube": "None", "website": "None", "summary": "None", "logo": "None", "latitude": 43.76703416515657, "longitude": -79.47522690397595}, "119288918RR0906": {"name": "Bramalea Spanish Congregation of Jehovah's Witnesses, Brampton, Ontario", "designationCode": "C", "categoryCode": "61", "address": "10800 TORBRAM ROAD", "city": "BRAMPTON", "province": "ON", "country": "CA", "postalCode": "L6R0A6", "twitter": "None", "instagram": "None", "facebook": "None", "youtube": "None", "website": "None", "summary": "None", "logo": "None", "latitude": 43.76711344823707, "longitude": -79.75130722675858}, "851201335RR0001": {"name": "Brampton and Regional Islamic Centre (BARIC)", "designationCode": "C", "categoryCode": "60", "address": "3-4525 EBENEZER RD", "city": "BRAMPTON", "province": "ON", "country": "CA", "postalCode": "L6P2K8", "twitter": "None", "instagram": "None", "facebook": "None", "youtube": "None", "website": "None", "summary": "None", "logo": "None", "latitude": 43.77304571100515, "longitude": -79.66218125950812}, "872326863RR0001": {"name": "Brampton Bramalea Christian Fellowship Properties, Inc.", "designationCode": "C", "categoryCode": "47", "address": "11613 BRAMALEA RD", "city": "BRAMPTON", "province": "ON", "country": "CA", "postalCode": "L6R0C2", "twitter": "None", "instagram": "None", "facebook": "None", "youtube": "None", "website": "None", "summary": "None", "logo": "None", "latitude": 43.768907315886416, "longitude": -79.77735514871061}, "800930653RR0001": {"name": "Brampton English Services Team (B.E.S.T.)", "designationCode": "C", "categoryCode": "20", "address": "244 - 2130 NORTH PARK DR", "city": "BRAMPTON", "province": "ON", "country": "CA", "postalCode": "L6S0C9", "twitter": "None", "instagram": "None", "facebook": "None", "youtube": "None", "website": "None", "summary": "None", "logo": "None", "latitude": 43.749449538700794, "longitude": -79.72640644242902}, "106805955RR0001": {"name": "Brampton Meals-on-Wheels", "designationCode": "C", "categoryCode": "09", "address": "525 MAIN ST NORTH", "city": "BRAMPTON", "province": "ON", "country": "CA", "postalCode": "L6X1M9", "twitter": "None", "instagram": "None", "facebook": "None", "youtube": "None", "website": "None", "summary": "None", "logo": "None", "latitude": 43.700924774551126, "longitude": -79.78035972185597}, "802279216RR0001": {"name": "Brampton Spanish Church of the Nazarene", "designationCode": "C", "categoryCode": "39", "address": "68 RUTHERFORD ROAD NORTH", "city": "BRAMPTON", "province": "ON", "country": "CA", "postalCode": "L6V2J1", "twitter": "None", "instagram": "None", "facebook": "None", "youtube": "None", "website": "None", "summary": "None", "logo": "None", "latitude": 43.70412028838929, "longitude": -79.74700647028118}, "717156699RR0001": {"name": "Brampton Triveni Community Centre", "designationCode": "C", "categoryCode": "48", "address": "24 ADRIAN CRESCENT", "city": "BRAMPTON", "province": "ON", "country": "CA", "postalCode": "L6X5M6", "twitter": "None", "instagram": "None", "facebook": "None", "youtube": "None", "website": "None", "summary": "None", "logo": "None", "latitude": 43.66919675629524, "longitude": -79.79160950610013}, "815812284RR0001": {"name": "Branch Out Neurological Foundation", "designationCode": "A", "categoryCode": "13", "address": "400 - 119 14 ST NW", "city": "CALGARY", "province": "AB", "country": "CA", "postalCode": "T2N1Z6", "twitter": "None", "instagram": "None", "facebook": "None", "youtube": "None", "website": "None", "summary": "None", "logo": "None", "latitude": 51.0531831618097, "longitude": -114.09474672136291}, "846661239RR0001": {"name": "Branches of the Word Evangelization Ministries Inc.", "designationCode": "C", "categoryCode": "49", "address": "36 RODMAN STREET", "city": "ST. CATHARINES", "province": "ON", "country": "CA", "postalCode": "L2R5E1", "twitter": "None", "instagram": "None", "facebook": "None", "youtube": "None", "website": "None", "summary": "None", "logo": "None", "latitude": 43.17156086955393, "longitude": -79.24525441185313}, "805882966RR0001": {"name": "Branches Ministry", "designationCode": "C", "categoryCode": "22", "address": "904 - 3636 BATHURST ST", "city": "NORTH YORK", "province": "ON", "country": "CA", "postalCode": "M6A2Y5", "twitter": "None", "instagram": "None", "facebook": "None", "youtube": "None", "website": "None", "summary": "None", "logo": "None", "latitude": 43.73254326449885, "longitude": -79.43289658661764}, "808890446RR0001": {"name": "Brandan's Eye Research Foundation", "designationCode": "C", "categoryCode": "21", "address": "87 PLANCHET ROAD", "city": "CONCORD", "province": "ON", "country": "CA", "postalCode": "L4K2C6", "twitter": "None", "instagram": "None", "facebook": "None", "youtube": "None", "website": "None", "summary": "None", "logo": "None", "latitude": 43.82201303831717, "longitude": -79.49992022834606}, "106806573RR0001": {"name": "Brandon and Area Youth for Christ Inc.", "designationCode": "C", "categoryCode": "49", "address": "4-1228 ROSSER AVE", "city": "BRANDON", "province": "MB", "country": "CA", "postalCode": "R7A0L9", "twitter": "None", "instagram": "None", "facebook": "None", "youtube": "None", "website": "None", "summary": "None", "logo": "None", "latitude": 49.84843448845882, "longitude": -99.95495047446477}, "808419535RR0001": {"name": "Brandon Community Builders Inc.", "designationCode": "C", "categoryCode": "09", "address": "BOX 39 SITE 200 RR #2", "city": "BRANDON", "province": "MB", "country": "CA", "postalCode": "R7A5Y2", "twitter": "None", "instagram": "None", "facebook": "None", "youtube": "None", "website": "None", "summary": "None", "logo": "None", "latitude": 49.84965600000005, "longitude": -99.96197299999993}, "889463642RR0001": {"name": "Brandon Community Orchestra, Inc.", "designationCode": "C", "categoryCode": "22", "address": "28 WESTWOOD BAY", "city": "BRANDON", "province": "MB", "country": "CA", "postalCode": "R7B2V8", "twitter": "None", "instagram": "None", "facebook": "None", "youtube": "None", "website": "None", "summary": "None", "logo": "None", "latitude": 49.8496635148594, "longitude": -99.98304347155059}, "118816651RR0001": {"name": "Brandon Ecumenical Seniors' Housing Inc.", "designationCode": "C", "categoryCode": "09", "address": "333-15TH STREET", "city": "BRANDON", "province": "MB", "country": "CA", "postalCode": "R7A6P4", "twitter": "None", "instagram": "None", "facebook": "None", "youtube": "None", "website": "None", "summary": "None", "logo": "None", "latitude": 49.8446465029142, "longitude": -99.95820940435132}, "842709735RR0001": {"name": "Brandon Flock Foundation", "designationCode": "B", "categoryCode": "21", "address": "2929 17 ST SW", "city": "CALGARY", "province": "AB", "country": "CA", "postalCode": "T2T4N6", "twitter": "None", "instagram": "None", "facebook": "None", "youtube": "None", "website": "None", "summary": "None", "logo": "None", "latitude": 51.0283018332363, "longitude": -114.10207302177295}, "801861899RR0001": {"name": "Brandon General Museum and Archives Inc.", "designationCode": "C", "categoryCode": "50", "address": "#101, 19 - 9TH STREET", "city": "BRANDON", "province": "MB", "country": "CA", "postalCode": "R7A4A3", "twitter": "None", "instagram": "None", "facebook": "None", "youtube": "None", "website": "None", "summary": "None", "logo": "None", "latitude": 49.84536705452661, "longitude": -99.95009435975268}, "815291240RR0001": {"name": "Brandon Healing Rooms Inc.", "designationCode": "C", "categoryCode": "39", "address": "95 COBALT CRES", "city": "BRANDON", "province": "MB", "country": "CA", "postalCode": "R7A7W5", "twitter": "None", "instagram": "None", "facebook": "None", "youtube": "None", "website": "None", "summary": "None", "logo": "None", "latitude": 55.747458819044816, "longitude": -97.85460104767894}, "810254615RR0001": {"name": "Brandon Islamic Centre Inc.", "designationCode": "C", "categoryCode": "60", "address": "834-10TH STREET", "city": "BRANDON", "province": "MB", "country": "CA", "postalCode": "R7A4H1", "twitter": "None", "instagram": "None", "facebook": "None", "youtube": "None", "website": "None", "summary": "None", "logo": "None", "latitude": 49.83638400000001, "longitude": -99.95148357011345}, "836790832RR0001": {"name": "Brandon Korean Church Inc.", "designationCode": "C", "categoryCode": "39", "address": "1620 BRAECREST DRIVE", "city": "BRANDON", "province": "MB", "country": "CA", "postalCode": "R7C0B3", "twitter": "None", "instagram": "None", "facebook": "None", "youtube": "None", "website": "None", "summary": "None", "logo": "None", "latitude": 49.871728483409825, "longitude": -99.96014160935425}, "757968722RR0001": {"name": "Brandon Park Community Centre Inc.", "designationCode": "C", "categoryCode": "56", "address": "6 - 602 10TH ST", "city": "BRANDON", "province": "MB", "country": "CA", "postalCode": "R7A4G5", "twitter": "None", "instagram": "None", "facebook": "None", "youtube": "None", "website": "None", "summary": "None", "logo": "None", "latitude": 49.839804, "longitude": -99.95145299999999}, "106806789RR0001": {"name": "Brandon University", "designationCode": "C", "categoryCode": "20", "address": "270-18TH STREET", "city": "BRANDON", "province": "MB", "country": "CA", "postalCode": "R7A6A9", "twitter": "None", "instagram": "None", "facebook": "None", "youtube": "None", "website": "None", "summary": "None", "logo": "None", "latitude": 49.84554187852857, "longitude": -99.96208077972862}, "853865988RR0001": {"name": "Brandon's Food for Thought Breakfast and Snack Program for Kids", "designationCode": "C", "categoryCode": "09", "address": "1031 6TH STREET", "city": "BRANDON", "province": "MB", "country": "CA", "postalCode": "R7A4K5", "twitter": "None", "instagram": "None", "facebook": "None", "youtube": "None", "website": "None", "summary": "None", "logo": "None", "latitude": 49.83437738128563, "longitude": -99.94589672015765}, "830389631RR0001": {"name": "Brands for Canada", "designationCode": "A", "categoryCode": "03", "address": "29 CONNELL COURT              UNIT 3", "city": "TORONTO", "province": "ON", "country": "CA", "postalCode": "M8Z5T7", "twitter": "None", "instagram": "None", "facebook": "None", "youtube": "None", "website": "None", "summary": "None", "logo": "None", "latitude": 43.61380595141107, "longitude": -79.51912665113386}, "135401180RR0001": {"name": "Brands for Canada Ontario", "designationCode": "C", "categoryCode": "09", "address": "29 CONNELL CRT                UNIT 3", "city": "TORONTO", "province": "ON", "country": "CA", "postalCode": "M8Z5T7", "twitter": "None", "instagram": "None", "facebook": "None", "youtube": "None", "website": "None", "summary": "None", "logo": "None", "latitude": 43.61380595141107, "longitude": -79.51912665113386}, "119288918RR1099": {"name": "Brant Congregation of Jehovah's Witnesses, Burlington, Ontario", "designationCode": "C", "categoryCode": "61", "address": "ATTN:PRESIDING OVERSEER OR    SECRETARY, 4025 MAINWAY DRIVE", "city": "BURLINGTON", "province": "ON", "country": "CA", "postalCode": "L7M2L7", "twitter": "None", "instagram": "None", "facebook": "None", "youtube": "None", "website": "None", "summary": "None", "logo": "None", "latitude": 43.3746304765709, "longitude": -79.79346716755114}, "836213108RR0001": {"name": "Brant County (Ontario) Christadelphian Ecclesia", "designationCode": "C", "categoryCode": "39", "address": "185 KING GEORGE RD.           PO BOX 24040 KING GEORGE", "city": "BRANTFORD", "province": "ON", "country": "CA", "postalCode": "N3R7R9", "twitter": "None", "instagram": "None", "facebook": "None", "youtube": "None", "website": "None", "summary": "None", "logo": "None", "latitude": 43.1730996197416, "longitude": -80.27787712874304}, "862257623RR0001": {"name": "Brant County Singers", "designationCode": "C", "categoryCode": "22", "address": "49 MORTON AVE", "city": "BRANTFORD", "province": "ON", "country": "CA", "postalCode": "N3R2N6", "twitter": "None", "instagram": "None", "facebook": "None", "youtube": "None", "website": "None", "summary": "None", "logo": "None", "latitude": 43.16312441078527, "longitude": -80.25790955868783}, "884487026RR0001": {"name": "Brant Family and Children's Services Foundation", "designationCode": "A", "categoryCode": "01", "address": "P O BOX 774                   70 CHATHAM STREET", "city": "BRANTFORD", "province": "ON", "country": "CA", "postalCode": "N3T5R7", "twitter": "None", "instagram": "None", "facebook": "None", "youtube": "None", "website": "None", "summary": "None", "logo": "None", "latitude": 43.14319050043268, "longitude": -80.26262514363205}, "119242360RR0001": {"name": "Brant Skills Centre", "designationCode": "C", "categoryCode": "09", "address": "1-225 FAIRVIEW DR", "city": "BRANTFORD", "province": "ON", "country": "CA", "postalCode": "N3R7E3", "twitter": "None", "instagram": "None", "facebook": "None", "youtube": "None", "website": "None", "summary": "None", "logo": "None", "latitude": 43.17025237722863, "longitude": -80.26186349584506}, "830317327RR0001": {"name": "Brant Taletellers Incorporated", "designationCode": "C", "categoryCode": "22", "address": "PO BOX 25042", "city": "BRANTFORD", "province": "ON", "country": "CA", "postalCode": "N3T6K5", "twitter": "None", "instagram": "None", "facebook": "None", "youtube": "None", "website": "None", "summary": "None", "logo": "None", "latitude": 43.14136200000006, "longitude": -80.26173349999993}, "815538269RR0001": {"name": "Brant-Argyle Cemetery Board Inc.", "designationCode": "C", "categoryCode": "59", "address": "PO BOX 204", "city": "ARGYLE", "province": "MB", "country": "CA", "postalCode": "R0C0B0", "twitter": "None", "instagram": "None", "facebook": "None", "youtube": "None", "website": "None", "summary": "None", "logo": "None", "latitude": 50.20882202440996, "longitude": -97.66000346025281}, "804302016RR0001": {"name": "Brantford Arts Block", "designationCode": "C", "categoryCode": "22", "address": "3 - 164 CHATHAM ST", "city": "BRANTFORD", "province": "ON", "country": "CA", "postalCode": "N3S4G4", "twitter": "None", "instagram": "None", "facebook": "None", "youtube": "None", "website": "None", "summary": "None", "logo": "None", "latitude": 43.14358349321933, "longitude": -80.25645492062438}, "840539100RR0001": {"name": "Brantford Welcome in Resource Centre", "designationCode": "C", "categoryCode": "01", "address": "305 WEST ST", "city": "BRANTFORD", "province": "ON", "country": "CA", "postalCode": "N3S3V6", "twitter": "None", "instagram": "None", "facebook": "None", "youtube": "None", "website": "None", "summary": "None", "logo": "None", "latitude": 43.115421349610926, "longitude": -80.12132546003895}, "815821418RR0001": {"name": "Brantwood Charitable Trust", "designationCode": "B", "categoryCode": "45", "address": "780 SASKATCHEWAN AVE W", "city": "PORTAGE LA PRAIRIE", "province": "MB", "country": "CA", "postalCode": "R1N0M7", "twitter": "None", "instagram": "None", "facebook": "None", "youtube": "None", "website": "None", "summary": "None", "logo": "None", "latitude": 49.97373494820344, "longitude": -98.30132080652011}, "859019366RR0001": {"name": "Bras D'Or Lake Biosphere Reserve Association", "designationCode": "C", "categoryCode": "52", "address": "532 CHEBUCTO STREET", "city": "BADDECK", "province": "NS", "country": "CA", "postalCode": "B0E1B0", "twitter": "None", "instagram": "None", "facebook": "None", "youtube": "None", "website": "None", "summary": "None", "logo": "None", "latitude": 46.10097473659769, "longitude": -60.74817678781236}, "851364109RR0001": {"name": "Bratstva Studios Inc.", "designationCode": "C", "categoryCode": "22", "address": "251 DAVIDSON AVENUE EAST", "city": "DAUPHIN", "province": "MB", "country": "CA", "postalCode": "R7N2Z4", "twitter": "None", "instagram": "None", "facebook": "None", "youtube": "None", "website": "None", "summary": "None", "logo": "None", "latitude": 51.15789552452561, "longitude": -100.0298642216227}, "119301745RR0001": {"name": "Bravestone Centre Inc.", "designationCode": "C", "categoryCode": "09", "address": "PO BOX 202                    ST NORBERT PO STN", "city": "WINNIPEG", "province": "MB", "country": "CA", "postalCode": "R3V1L6", "twitter": "None", "instagram": "None", "facebook": "None", "youtube": "None", "website": "None", "summary": "None", "logo": "None", "latitude": 49.76581500000002, "longitude": -97.15498424999998}, "832874630RR0001": {"name": "Bread of Peace", "designationCode": "C", "categoryCode": "09", "address": "3-1565 HERON RD", "city": "OTTAWA", "province": "ON", "country": "CA", "postalCode": "K1V9V1", "twitter": "None", "instagram": "None", "facebook": "None", "youtube": "None", "website": "None", "summary": "None", "logo": "None", "latitude": 45.37988547157924, "longitude": -75.6500946648681}, "805303088RR0001": {"name": "Breakaway Relief Foundation", "designationCode": "C", "categoryCode": "09", "address": "11 - 4020 DUNDAS ST W", "city": "TORONTO", "province": "ON", "country": "CA", "postalCode": "M6S4W6", "twitter": "None", "instagram": "None", "facebook": "None", "youtube": "None", "website": "None", "summary": "None", "logo": "None", "latitude": 43.66571474249234, "longitude": -79.49454468692562}, "815329990RR0001": {"name": "Breakfast Club of BC Foundation", "designationCode": "A", "categoryCode": "03", "address": "1700-666 BURRARD ST", "city": "VANCOUVER", "province": "BC", "country": "CA", "postalCode": "V6C2X8", "twitter": "None", "instagram": "None", "facebook": "None", "youtube": "None", "website": "None", "summary": "None", "logo": "None", "latitude": 49.28527682817835, "longitude": -123.11971421339973}, "831140868RR0001": {"name": "Breakfast Program Association of Fairview", "designationCode": "C", "categoryCode": "09", "address": "92 MEISNERS POINT RD", "city": "INGRAMPORT", "province": "NS", "country": "CA", "postalCode": "B3Z3Z3", "twitter": "None", "instagram": "None", "facebook": "None", "youtube": "None", "website": "None", "summary": "None", "logo": "None", "latitude": 44.65388208658901, "longitude": -63.970067599486505}, "802001594RR0001": {"name": "Breakthrough Ministries International", "designationCode": "C", "categoryCode": "39", "address": "303 - 345 MILLS RD", "city": "KELOWNA", "province": "BC", "country": "CA", "postalCode": "V1X4G9", "twitter": "None", "instagram": "None", "facebook": "None", "youtube": "None", "website": "None", "summary": "None", "logo": "None", "latitude": 49.8923422567581, "longitude": -119.41552822985103}, "801645706RR0001": {"name": "Breakthrough Missions Canada", "designationCode": "C", "categoryCode": "57", "address": "9040 RAILWAY AVENUE", "city": "RICHMOND", "province": "BC", "country": "CA", "postalCode": "V7E2B5", "twitter": "None", "instagram": "None", "facebook": "None", "youtube": "None", "website": "None", "summary": "None", "logo": "None", "latitude": 49.14794686372554, "longitude": -123.16979801993799}, "107396905RR0090": {"name": "Breakthrough Walls Foursquare Church", "designationCode": "C", "categoryCode": "39", "address": "2180 HOWARD AVENUE", "city": "WINDSOR", "province": "ON", "country": "CA", "postalCode": "N8X3V2", "twitter": "None", "instagram": "None", "facebook": "None", "youtube": "None", "website": "None", "summary": "None", "logo": "None", "latitude": 42.297007336949555, "longitude": -83.01660026807686}, "847487501RR0001": {"name": "Brenda & Dave Walden Family Foundation", "designationCode": "B", "categoryCode": "03", "address": "135 THOMPSON DRIVE", "city": "CAMBRIDGE", "province": "ON", "country": "CA", "postalCode": "N1T2E4", "twitter": "None", "instagram": "None", "facebook": "None", "youtube": "None", "website": "None", "summary": "None", "logo": "None", "latitude": 43.40667616928285, "longitude": -80.29537884932748}, "701544496RR0001": {"name": "Brendon Gorrill Memorial Scholarship", "designationCode": "C", "categoryCode": "09", "address": "26 MACEWAN PARK VIEW NW", "city": "CALGARY", "province": "AB", "country": "CA", "postalCode": "T3K4E4", "twitter": "None", "instagram": "None", "facebook": "None", "youtube": "None", "website": "None", "summary": "None", "logo": "None", "latitude": 51.13112447100234, "longitude": -114.11580606272722}, "861411106RR0001": {"name": "Brendon Oreto Foundation Inc.", "designationCode": "C", "categoryCode": "09", "address": "778 MCLEAOD AVENUE            SUITE 301", "city": "FREDERICTON", "province": "NB", "country": "CA", "postalCode": "E3B0V7", "twitter": "None", "instagram": "None", "facebook": "None", "youtube": "None", "website": "None", "summary": "None", "logo": "None", "latitude": 45.952563709677484, "longitude": -66.64121168027576}, "119036135RR0001": {"name": "Brentwood Family Housing Society", "designationCode": "C", "categoryCode": "09", "address": "14608 115 AVE NW", "city": "EDMONTON", "province": "AB", "country": "CA", "postalCode": "T5M3B9", "twitter": "None", "instagram": "None", "facebook": "None", "youtube": "None", "website": "None", "summary": "None", "logo": "None", "latitude": 53.56529148990112, "longitude": -113.574024}, "864406525RR0001": {"name": "Breton Ability Centre Charitable Foundation", "designationCode": "C", "categoryCode": "19", "address": "PO BOX 515                    STATION A", "city": "SYDNEY", "province": "NS", "country": "CA", "postalCode": "B1M1B5", "twitter": "None", "instagram": "None", "facebook": "None", "youtube": "None", "website": "None", "summary": "None", "logo": "None", "latitude": 46.05414900000005, "longitude": -60.19631899999993}, "841984057RR0001": {"name": "Brewer Foundation", "designationCode": "B", "categoryCode": "21", "address": "PO BOX 326, STN A", "city": "FREDERICTON", "province": "NB", "country": "CA", "postalCode": "E3B4Y9", "twitter": "None", "instagram": "None", "facebook": "None", "youtube": "None", "website": "None", "summary": "None", "logo": "None", "latitude": 45.96062100000006, "longitude": -66.63911299999994}, "806179537RR0001": {"name": "Brian and Beverley de La Mothe Family Foundation", "designationCode": "B", "categoryCode": "03", "address": "601, 205 NEWPORT DRIVE", "city": "PORT MOODY", "province": "BC", "country": "CA", "postalCode": "V3H5C9", "twitter": "None", "instagram": "None", "facebook": "None", "youtube": "None", "website": "None", "summary": "None", "logo": "None", "latitude": 49.282481593055394, "longitude": -122.82769230113935}, "851947333RR0001": {"name": "Brian Todd Memorial Community Fund", "designationCode": "C", "categoryCode": "11", "address": "BOX 3106", "city": "BRIGHTON", "province": "ON", "country": "CA", "postalCode": "K0K1H0", "twitter": "None", "instagram": "None", "facebook": "None", "youtube": "None", "website": "None", "summary": "None", "logo": "None", "latitude": 44.04197993003085, "longitude": -77.73788995224774}, "886963743RR0001": {"name": "Briarpatch Family Life Education Centre", "designationCode": "C", "categoryCode": "29", "address": "100 A 50 BRENTWOOD BLVD", "city": "SHERWOOD PARK", "province": "AB", "country": "CA", "postalCode": "T8A2H5", "twitter": "None", "instagram": "None", "facebook": "None", "youtube": "None", "website": "None", "summary": "None", "logo": "None", "latitude": 53.514377999999994, "longitude": -113.29544681730098}, "845792704RR0001": {"name": "Brice Tiamuh Memorial Charity Foundation", "designationCode": "C", "categoryCode": "22", "address": "1014 REDTAIL PRIVATE", "city": "OTTAWA", "province": "ON", "country": "CA", "postalCode": "K1J0A9", "twitter": "None", "instagram": "None", "facebook": "None", "youtube": "None", "website": "None", "summary": "None", "logo": "None", "latitude": 45.43250732139768, "longitude": -75.63418303664373}, "841953904RR0001": {"name": "Bride of Yeshua Ministry Inc.", "designationCode": "C", "categoryCode": "39", "address": "303 - 235 BROOKBANKS DR", "city": "NORTH YORK", "province": "ON", "country": "CA", "postalCode": "M3A2T7", "twitter": "None", "instagram": "None", "facebook": "None", "youtube": "None", "website": "None", "summary": "None", "logo": "None", "latitude": 43.76052112210755, "longitude": -79.32394419842475}, "839003175RR0001": {"name": "Bridge to Health Medical and Dental", "designationCode": "C", "categoryCode": "11", "address": "301-491 LAWRENCE AVE W", "city": "NORTH YORK", "province": "ON", "country": "CA", "postalCode": "M5M1C7", "twitter": "None", "instagram": "None", "facebook": "None", "youtube": "None", "website": "None", "summary": "None", "logo": "None", "latitude": 43.72086986781172, "longitude": -79.42216986106405}, "814710091RR0001": {"name": "Bridge to Life Outreach Ministries", "designationCode": "C", "categoryCode": "39", "address": "38 CHALKFARM CRESCENT", "city": "BRAMPTON", "province": "ON", "country": "CA", "postalCode": "L7A3W1", "twitter": "None", "instagram": "None", "facebook": "None", "youtube": "None", "website": "None", "summary": "None", "logo": "None", "latitude": 43.718200785446435, "longitude": -79.82511351483075}, "852586551RR0001": {"name": "Bridge Adult Services Society", "designationCode": "C", "categoryCode": "59", "address": "16 STATION STREET", "city": "AMHERST", "province": "NS", "country": "CA", "postalCode": "B4H0C2", "twitter": "None", "instagram": "None", "facebook": "None", "youtube": "None", "website": "None", "summary": "None", "logo": "None", "latitude": 45.83127459507176, "longitude": -64.21322896653025}, "802397893RR0001": {"name": "Bridgehouse Ministries International Inc.", "designationCode": "C", "categoryCode": "47", "address": "49 MACLEOD ROAD", "city": "LAKEVILLE", "province": "NB", "country": "CA", "postalCode": "E1H1L4", "twitter": "None", "instagram": "None", "facebook": "None", "youtube": "None", "website": "None", "summary": "None", "logo": "None", "latitude": 46.17215211073924, "longitude": -64.67686407712527}, "889234399RR0001": {"name": "Bridgepoint Foundation", "designationCode": "A", "categoryCode": "13", "address": "14 SAINT MATTHEWS RD", "city": "TORONTO", "province": "ON", "country": "CA", "postalCode": "M4M2B5", "twitter": "None", "instagram": "None", "facebook": "None", "youtube": "None", "website": "None", "summary": "None", "logo": "None", "latitude": 43.66572837304503, "longitude": -79.35547655661037}, "889102091RR0001": {"name": "Bridges Family Memorial Foundation", "designationCode": "B", "categoryCode": "03", "address": "PO BOX 10133, PACIFIC CENTRE", "city": "VANCOUVER", "province": "BC", "country": "CA", "postalCode": "V7Y1C6", "twitter": "None", "instagram": "None", "facebook": "None", "youtube": "None", "website": "None", "summary": "None", "logo": "None"}, "771908290RR0001": {"name": "Bridges To Belonging", "designationCode": "C", "categoryCode": "59", "address": "65 HANSON AVE", "city": "KITCHENER", "province": "ON", "country": "CA", "postalCode": "N2C2H6", "twitter": "None", "instagram": "None", "facebook": "None", "youtube": "None", "website": "None", "summary": "None", "logo": "None", "latitude": 43.42534500885816, "longitude": -80.4717904158056}, "738124890RR0001": {"name": "BridgeNorth Women's Mentorship & Advocacy Services", "designationCode": "C", "categoryCode": "09", "address": "23 - 1111 DAVIS DR", "city": "NEWMARKET", "province": "ON", "country": "CA", "postalCode": "L3Y9E5", "twitter": "None", "instagram": "None", "facebook": "None", "youtube": "None", "website": "None", "summary": "None", "logo": "None", "latitude": 44.06604516573349, "longitude": -79.43088971097555}, "132329228RR0001": {"name": "BridgeWay Family Centre", "designationCode": "C", "categoryCode": "50", "address": "101-1801 LAKESHORE RD. WEST", "city": "MISSISSAUGA", "province": "ON", "country": "CA", "postalCode": "L5J1N6", "twitter": "None", "instagram": "None", "facebook": "None", "youtube": "None", "website": "None", "summary": "None", "logo": "None", "latitude": 43.49048087359273, "longitude": -79.62005925263645}, "802217364RR0001": {"name": "Bridging Villages Inc.", "designationCode": "C", "categoryCode": "20", "address": "PO BOX 69054 RPO TUXEDO PARK", "city": "WINNIPEG", "province": "MB", "country": "CA", "postalCode": "R3P2G9", "twitter": "None", "instagram": "None", "facebook": "None", "youtube": "None", "website": "None", "summary": "None", "logo": "None", "latitude": 49.865680000000054, "longitude": -97.21442999999994}, "133711705RR0001": {"name": "Bridle Trail Baptist Church Inc.", "designationCode": "C", "categoryCode": "31", "address": "10 WATERBRIDGE LANE", "city": "UNIONVILLE", "province": "ON", "country": "CA", "postalCode": "L3R8W9", "twitter": "None", "instagram": "None", "facebook": "None", "youtube": "None", "website": "None", "summary": "None", "logo": "None", "latitude": 43.87151971631394, "longitude": -79.30441440386038}, "805132685RR0001": {"name": "Bridlewood School Fundraising Society", "designationCode": "C", "categoryCode": "20", "address": "207 BRIDLERIDGE WAY SOUTHWEST", "city": "CALGARY", "province": "AB", "country": "CA", "postalCode": "T2Y0L4", "twitter": "None", "instagram": "None", "facebook": "None", "youtube": "None", "website": "None", "summary": "None", "logo": "None", "latitude": 50.90151616763808, "longitude": -114.10924557536492}, "895068872RR0001": {"name": "Briercrest and District Museum Corp.", "designationCode": "C", "categoryCode": "50", "address": "BOX 216", "city": "BRIERCREST", "province": "SK", "country": "CA", "postalCode": "S0H0K0", "twitter": "None", "instagram": "None", "facebook": "None", "youtube": "None", "website": "None", "summary": "None", "logo": "None", "latitude": 50.41317000000004, "longitude": -107.03868999999997}, "118817998RR0001": {"name": "Briercrest College and Seminary", "designationCode": "C", "categoryCode": "47", "address": "510 COLLEGE DR", "city": "CARONPORT", "province": "SK", "country": "CA", "postalCode": "S0H0S0", "twitter": "None", "instagram": "None", "facebook": "None", "youtube": "None", "website": "None", "summary": "None", "logo": "None", "latitude": 50.45393207154462, "longitude": -105.81521916502695}}