{"106865215RR0001": {"name": "CANADIAN PARENTS FOR FRENCH P.E.I. LTD.", "designationCode": "C", "categoryCode": "21", "address": "PO BOX 2785  STN CENTRAL", "city": "CHARLOTTETOWN", "province": "PE", "country": "CA", "postalCode": "C1A8C4", "twitter": "None", "instagram": "None", "facebook": "None", "youtube": "None", "website": "None", "summary": "None", "logo": "None", "latitude": 46.23659700000006, "longitude": -63.12815449999994}, "106865165RR0001": {"name": "CANADIAN PARENTS FOR FRENCH-BRITISH COLUMBIA CHAPTER", "designationCode": "C", "categoryCode": "20", "address": "227-1555 7TH AVE W", "city": "VANCOUVER", "province": "BC", "country": "CA", "postalCode": "V6J1S1", "twitter": "None", "instagram": "None", "facebook": "None", "youtube": "None", "website": "None", "summary": "None", "logo": "None", "latitude": 49.26541244214887, "longitude": -123.14009174562872}, "118835123RR0001": {"name": "CANADIAN PARENTS FOR FRENCH, ALBERTA BRANCH", "designationCode": "C", "categoryCode": "21", "address": "211-15120 104 AVE", "city": "EDMONTON", "province": "AB", "country": "CA", "postalCode": "T5P0R5", "twitter": "None", "instagram": "None", "facebook": "None", "youtube": "None", "website": "None", "summary": "None", "logo": "None", "latitude": 53.546417493796255, "longitude": -113.58243072300768}, "106865199RR0001": {"name": "CANADIAN PARENTS FOR FRENCH, NOVA SCOTIA BRANCH", "designationCode": "C", "categoryCode": "21", "address": "8 FLAMINGO DRIVE", "city": "HALIFAX", "province": "NS", "country": "CA", "postalCode": "B3M4N8", "twitter": "None", "instagram": "None", "facebook": "None", "youtube": "None", "website": "None", "summary": "None", "logo": "None", "latitude": 44.67500207129688, "longitude": -63.648772864677824}, "889125647RR0001": {"name": "CANADIAN PARKS AND RECREATION ASSOCIATION / ASSOCIATION CANADIENNE DES PARCS ET LOISIRS", "designationCode": "C", "categoryCode": "56", "address": "1180 WALKLEY RD.              P.O.BOX 83069", "city": "OTTAWA", "province": "ON", "country": "CA", "postalCode": "K1V2M5", "twitter": "None", "instagram": "None", "facebook": "None", "youtube": "None", "website": "None", "summary": "None", "logo": "None", "latitude": 45.369950450430096, "longitude": -75.66412099942308}, "106865272RR0001": {"name": "CANADIAN PARKS AND WILDERNESS SOCIETY La Soci\u00e9t\u00e9 pour la nature et les parcs du Canada", "designationCode": "C", "categoryCode": "52", "address": "506-250 CITY CENTRE AVE", "city": "OTTAWA", "province": "ON", "country": "CA", "postalCode": "K1R6K7", "twitter": "None", "instagram": "None", "facebook": "None", "youtube": "None", "website": "None", "summary": "None", "logo": "None", "latitude": 45.408701589214715, "longitude": -75.71772291222757}, "881623904RR0001": {"name": "CANADIAN PBC SOCIETY", "designationCode": "C", "categoryCode": "11", "address": "221-4936 YONGE ST", "city": "TORONTO", "province": "ON", "country": "CA", "postalCode": "M2N6S3", "twitter": "None", "instagram": "None", "facebook": "None", "youtube": "None", "website": "None", "summary": "None", "logo": "None", "latitude": 43.764610264498835, "longitude": -79.41174710493951}, "889910337RR0001": {"name": "CANADIAN PEACE OFFICERS' MEMORIAL ASSOCIATION / ASSOCIATION CANADIENNE COMM\u00c9MORATIVE DES AGENTS DE LA PAIX", "designationCode": "C", "categoryCode": "52", "address": "1741 WOODWARD DR", "city": "OTTAWA", "province": "ON", "country": "CA", "postalCode": "K2C0P9", "twitter": "None", "instagram": "None", "facebook": "None", "youtube": "None", "website": "None", "summary": "None", "logo": "None", "latitude": 45.371775915661374, "longitude": -75.75131603306569}, "863298618RR0001": {"name": "CANADIAN PENTECOSTAL SEMINARY", "designationCode": "C", "categoryCode": "20", "address": "20411 DOUGLAS CRES", "city": "LANGLEY", "province": "BC", "country": "CA", "postalCode": "V3A4B6", "twitter": "None", "instagram": "None", "facebook": "None", "youtube": "None", "website": "None", "summary": "None", "logo": "None", "latitude": 49.10360045726032, "longitude": -122.65630487164188}, "864809173RR0001": {"name": "CANADIAN PETROLEUM HALL OF FAME SOCIETY", "designationCode": "C", "categoryCode": "50", "address": "NICKLE'S ENERGY GROUP         816-55 AVENUE NE, 2ND FLOOR", "city": "CALGARY", "province": "AB", "country": "CA", "postalCode": "T2E6Y4", "twitter": "None", "instagram": "None", "facebook": "None", "youtube": "None", "website": "None", "summary": "None", "logo": "None", "latitude": 51.10223604710283, "longitude": -114.04393322175198}, "890669195RR0001": {"name": "CANADIAN PHYSIATRISTS RESEARCH AND DEVELOPMENT FOUNDATION", "designationCode": "C", "categoryCode": "11", "address": "310 - 4 CATARAQUI ST", "city": "KINGSTON", "province": "ON", "country": "CA", "postalCode": "K7K1Z7", "twitter": "None", "instagram": "None", "facebook": "None", "youtube": "None", "website": "None", "summary": "None", "logo": "None", "latitude": 44.24212966720539, "longitude": -76.48075587884475}, "118835248RR0001": {"name": "CANADIAN PHYSICIANS FOR LIFE-MEDECINS DU CANADA POUR LE RESPECT DE LA VIE", "designationCode": "C", "categoryCode": "11", "address": "PO BOX 65136 RPO MERIVALE", "city": "NEPEAN", "province": "ON", "country": "CA", "postalCode": "K2G5Y3", "twitter": "None", "instagram": "None", "facebook": "None", "youtube": "None", "website": "None", "summary": "None", "logo": "None", "latitude": 45.29701695693335, "longitude": -75.70271334015752}, "891614042RR0001": {"name": "CANADIAN PICTURE PIONEERS TRUST FUND,", "designationCode": "C", "categoryCode": "09", "address": "225 THE EAST MALL, SUITE 1762", "city": "TORONTO", "province": "ON", "country": "CA", "postalCode": "M9B0A9", "twitter": "None", "instagram": "None", "facebook": "None", "youtube": "None", "website": "None", "summary": "None", "logo": "None", "latitude": 43.631822636735826, "longitude": -79.55273655961147}, "890830649RR0001": {"name": "CANADIAN PLAINS DISTRICT OF THE UNITED PENTECOSAL CHURCH ASSOCIATION", "designationCode": "C", "categoryCode": "36", "address": "PO BOX 385                    STATION MAIN", "city": "EDMONTON", "province": "AB", "country": "CA", "postalCode": "T5J3K9", "twitter": "None", "instagram": "None", "facebook": "None", "youtube": "None", "website": "None", "summary": "None", "logo": "None", "latitude": 53.54623500000005, "longitude": -113.49037249999994}, "873042014RR0001": {"name": "CANADIAN POETRY AND LITERACY PROJECT", "designationCode": "B", "categoryCode": "59", "address": "3718 ONTARIO STREET", "city": "VANCOUVER", "province": "BC", "country": "CA", "postalCode": "V5V3G2", "twitter": "None", "instagram": "None", "facebook": "None", "youtube": "None", "website": "None", "summary": "None", "logo": "None", "latitude": 49.25161582070518, "longitude": -123.10480800219305}, "118835263RR0001": {"name": "CANADIAN POLISH MILLENNIUM FUND", "designationCode": "C", "categoryCode": "59", "address": "3055 LAKE SHORE BLVD W", "city": "ETOBICOKE", "province": "ON", "country": "CA", "postalCode": "M8V1K6", "twitter": "None", "instagram": "None", "facebook": "None", "youtube": "None", "website": "None", "summary": "None", "logo": "None", "latitude": 43.59972986759202, "longitude": -79.50988551220502}, "118835271RR0001": {"name": "CANADIAN POLISH WELFARE FEDERATION INC. F\u00c9D\u00c9RATION CANADIENNE POLONAISE DU BIEN-\u00caTRE INC.", "designationCode": "A", "categoryCode": "09", "address": "1956 RUE FRONTENAC", "city": "MONTREAL", "province": "QC", "country": "CA", "postalCode": "H2K2Z1", "twitter": "None", "instagram": "None", "facebook": "None", "youtube": "None", "website": "None", "summary": "None", "logo": "None", "latitude": 45.53272864028518, "longitude": -73.55208219568345}, "118835289RR0001": {"name": "CANADIAN POLITICAL SCIENCE ASSOCIATION ASSOCIATION CANADIENNE SCIENCE POLITIQUE", "designationCode": "C", "categoryCode": "21", "address": "204-260 DALHOUSIE ST", "city": "OTTAWA", "province": "ON", "country": "CA", "postalCode": "K1N7E4", "twitter": "None", "instagram": "None", "facebook": "None", "youtube": "None", "website": "None", "summary": "None", "logo": "None", "latitude": 45.430645002769964, "longitude": -75.69270559368677}, "890781040RR0001": {"name": "CANADIAN POWER SQUADRONS FOUNDATION", "designationCode": "A", "categoryCode": "53", "address": "2 CHARLES COURT", "city": "BARRIE", "province": "ON", "country": "CA", "postalCode": "L4N6S8", "twitter": "None", "instagram": "None", "facebook": "None", "youtube": "None", "website": "None", "summary": "None", "logo": "None", "latitude": 44.36371610297761, "longitude": -79.6841791655606}, "118832955RR0001": {"name": "CANADIAN PRINTING INDUSTRIES SCHOLARSHIP TRUST FUND", "designationCode": "C", "categoryCode": "21", "address": "11 ALDERBROOK PLACE", "city": "BOLTON", "province": "ON", "country": "CA", "postalCode": "L7E1V3", "twitter": "None", "instagram": "None", "facebook": "None", "youtube": "None", "website": "None", "summary": "None", "logo": "None", "latitude": 43.89211692226915, "longitude": -79.75268984996265}, "891092744RR0002": {"name": "CANADIAN PROFESSIONAL GOLFERS' ASSOCIATION SCHOLARSHIP FOUNDATION", "designationCode": "C", "categoryCode": "21", "address": "13450 DUBLIN LINE RR 1", "city": "ACTON", "province": "ON", "country": "CA", "postalCode": "L7J2L7", "twitter": "None", "instagram": "None", "facebook": "None", "youtube": "None", "website": "None", "summary": "None", "logo": "None", "latitude": 43.61935155328376, "longitude": -80.05073987335477}, "118835354RR0001": {"name": "CANADIAN PROGRESS CHARITABLE FOUNDATION", "designationCode": "C", "categoryCode": "01", "address": "10 - 8550 TORBRAM RD", "city": "BRAMPTON", "province": "ON", "country": "CA", "postalCode": "L6T0H7", "twitter": "None", "instagram": "None", "facebook": "None", "youtube": "None", "website": "None", "summary": "None", "logo": "None", "latitude": 43.72531484396137, "longitude": -79.69486122595052}, "890455017RR0001": {"name": "CANADIAN PROGRESS CLUB CHILDRENS CHARITABLE SOCIETY (NORTHERN ALBERTA)", "designationCode": "A", "categoryCode": "63", "address": "900 BIRCH AVENUE", "city": "SHERWOOD PARK", "province": "AB", "country": "CA", "postalCode": "T8A1X5", "twitter": "None", "instagram": "None", "facebook": "None", "youtube": "None", "website": "None", "summary": "None", "logo": "None", "latitude": 53.51355448514059, "longitude": -113.30868149999999}, "853579746RR0001": {"name": "CANADIAN PROGRESS CLUBS OF CALGARY FOUNDATION", "designationCode": "A", "categoryCode": "03", "address": "12340 LAKE MORAINE RISE SE", "city": "CALGARY", "province": "AB", "country": "CA", "postalCode": "T2J2Z2", "twitter": "None", "instagram": "None", "facebook": "None", "youtube": "None", "website": "None", "summary": "None", "logo": "None", "latitude": 50.94149864141036, "longitude": -114.05850730668249}, "106861677RR0001": {"name": "CANADIAN PSYCHOANALYTIC SOCIETY (1967) INC. TRUST/LA FONDATION DE LA SOCIETE CANADIENNE DE PSYCHANALYSE (1967) INC.", "designationCode": "C", "categoryCode": "11", "address": "7000 COTE DES NEIGES", "city": "MONTREAL", "province": "QC", "country": "CA", "postalCode": "H3S2C1", "twitter": "None", "instagram": "None", "facebook": "None", "youtube": "None", "website": "None", "summary": "None", "logo": "None", "latitude": 45.504021815136596, "longitude": -73.63975238455755}, "106865744RR0001": {"name": "CANADIAN PUBLIC HEALTH ASSOCIATION", "designationCode": "C", "categoryCode": "19", "address": "404-1525 CARLING AVE", "city": "OTTAWA", "province": "ON", "country": "CA", "postalCode": "K1Z8R9", "twitter": "None", "instagram": "None", "facebook": "None", "youtube": "None", "website": "None", "summary": "None", "logo": "None", "latitude": 45.38198222929743, "longitude": -75.7437751592126}, "118835446RR0001": {"name": "CANADIAN PUBLIC POLICY-ANALYSE DE POLITIQUES", "designationCode": "C", "categoryCode": "21", "address": "1812 SIR ISAAC BROCK WAY", "city": "ST CATHARINES", "province": "ON", "country": "CA", "postalCode": "L2S3A1", "twitter": "None", "instagram": "None", "facebook": "None", "youtube": "None", "website": "None", "summary": "None", "logo": "None", "latitude": 43.11743516514094, "longitude": -79.24258261006602}, "128764008RR0001": {"name": "CANADIAN PUGWASH GROUP", "designationCode": "C", "categoryCode": "21", "address": "56 DOUGLAS DR", "city": "TORONTO", "province": "ON", "country": "CA", "postalCode": "M4W2B3", "twitter": "None", "instagram": "None", "facebook": "None", "youtube": "None", "website": "None", "summary": "None", "logo": "None", "latitude": 43.68376015072985, "longitude": -79.37995881294354}, "891276081RR0001": {"name": "CANADIAN RACE RELATIONS FOUNDATION - FONDATION CANADIENNE DES RELATIONS RACIALES", "designationCode": "C", "categoryCode": "21", "address": "6 GARAMOND COURT, SUITE 225", "city": "TORONTO", "province": "ON", "country": "CA", "postalCode": "M3C1Z5", "twitter": "None", "instagram": "None", "facebook": "None", "youtube": "None", "website": "None", "summary": "None", "logo": "None", "latitude": 43.725981709129236, "longitude": -79.33380878700429}, "871123337RR0002": {"name": "CANADIAN RADIOLOGICAL FOUNDATION/FONDATION RADIOLOGIQUE CAN ADIENNE", "designationCode": "C", "categoryCode": "21", "address": "294 ALBERT ST.                SUITE 600", "city": "OTTAWA", "province": "ON", "country": "CA", "postalCode": "K1P6E6", "twitter": "None", "instagram": "None", "facebook": "None", "youtube": "None", "website": "None", "summary": "None", "logo": "None", "latitude": 45.41918279681473, "longitude": -75.70200919594325}, "107846552RR0001": {"name": "CANADIAN RAILROAD HISTORICAL ASSOCIATION / L'ASSOCIATION CANADIENNE D'HISTOIRE FERROVIAIRE", "designationCode": "C", "categoryCode": "52", "address": "110 RUE ST PIERRE", "city": "SAINT-CONSTANT", "province": "QC", "country": "CA", "postalCode": "J5A1G7", "twitter": "None", "instagram": "None", "facebook": "None", "youtube": "None", "website": "None", "summary": "None", "logo": "None", "latitude": 45.37573841460619, "longitude": -73.56673824029437}, "106865835RR0001": {"name": "CANADIAN RAMGARHIA SOCIETY", "designationCode": "C", "categoryCode": "09", "address": "8365 140TH ST", "city": "SURREY", "province": "BC", "country": "CA", "postalCode": "V3W5K9", "twitter": "None", "instagram": "None", "facebook": "None", "youtube": "None", "website": "None", "summary": "None", "logo": "None", "latitude": 49.154724000000016, "longitude": -122.83459197616688}, "862956901RR0001": {"name": "CANADIAN RECONSTRUCTIVE SURGERY FOUNDATION", "designationCode": "C", "categoryCode": "11", "address": "605 MCCOWAN RD", "city": "SCARBOROUGH", "province": "ON", "country": "CA", "postalCode": "M1J1J9", "twitter": "None", "instagram": "None", "facebook": "None", "youtube": "None", "website": "None", "summary": "None", "logo": "None", "latitude": 43.752441759939856, "longitude": -79.24418782344648}, "106866080RR0001": {"name": "CANADIAN REFORMED CHURCH", "designationCode": "C", "categoryCode": "39", "address": "4705 50 AVE                   RR 1", "city": "NEERLANDIA", "province": "AB", "country": "CA", "postalCode": "T0G1R0", "twitter": "None", "instagram": "None", "facebook": "None", "youtube": "None", "website": "None", "summary": "None", "logo": "None", "latitude": 54.146895342783615, "longitude": -113.63038710259127}, "118835552RR0001": {"name": "CANADIAN REFORMED CHURCH", "designationCode": "C", "categoryCode": "39", "address": "916 SCOTLAND ST               RR 4", "city": "FERGUS", "province": "ON", "country": "CA", "postalCode": "N1M2W5", "twitter": "None", "instagram": "None", "facebook": "None", "youtube": "None", "website": "None", "summary": "None", "logo": "None", "latitude": 43.69925138657584, "longitude": -80.35245303260248}, "118835586RR0001": {"name": "CANADIAN REFORMED CHURCH", "designationCode": "C", "categoryCode": "39", "address": "PO BOX 238 STN MAIN", "city": "CHILLIWACK", "province": "BC", "country": "CA", "postalCode": "V2P6J1", "twitter": "None", "instagram": "None", "facebook": "None", "youtube": "None", "website": "None", "summary": "None", "logo": "None", "latitude": 49.169860930294725, "longitude": -121.95627179555584}, "131893992RR0001": {"name": "CANADIAN REFORMED CHURCH", "designationCode": "C", "categoryCode": "39", "address": "PO BOX 1254  STN MAIN", "city": "COALDALE", "province": "AB", "country": "CA", "postalCode": "T1M1N1", "twitter": "None", "instagram": "None", "facebook": "None", "youtube": "None", "website": "None", "summary": "None", "logo": "None", "latitude": 49.73343297911317, "longitude": -112.6192005}, "108075649RR0001": {"name": "CANADIAN REFORMED CHURCH AT BURLINGTON-SOUTH", "designationCode": "C", "categoryCode": "39", "address": "377 ORIOLE COURT", "city": "BURLINGTON", "province": "ON", "country": "CA", "postalCode": "L7T2P8", "twitter": "None", "instagram": "None", "facebook": "None", "youtube": "None", "website": "None", "summary": "None", "logo": "None", "latitude": 43.31147387125602, "longitude": -79.83398173939631}, "892669581RR0001": {"name": "CANADIAN REFORMED CHURCH AT GUELPH", "designationCode": "C", "categoryCode": "39", "address": "7525 WELLINGTON RD 36", "city": "MORRISTON", "province": "ON", "country": "CA", "postalCode": "N0B2C0", "twitter": "None", "instagram": "None", "facebook": "None", "youtube": "None", "website": "None", "summary": "None", "logo": "None", "latitude": 43.453202748456945, "longitude": -80.11042612822438}, "140746090RR0001": {"name": "CANADIAN REFORMED CHURCH AT YARROW", "designationCode": "C", "categoryCode": "39", "address": "42285 YARROW CENTRAL RD", "city": "CHILLIWACK", "province": "BC", "country": "CA", "postalCode": "V2R5E3", "twitter": "None", "instagram": "None", "facebook": "None", "youtube": "None", "website": "None", "summary": "None", "logo": "None", "latitude": 49.082106518754564, "longitude": -122.05404302611214}, "889852927RR0001": {"name": "CANADIAN REFORMED CHURCH CARMAN WEST", "designationCode": "C", "categoryCode": "39", "address": "BOX 2009", "city": "CARMAN", "province": "MB", "country": "CA", "postalCode": "R0G0J0", "twitter": "None", "instagram": "None", "facebook": "None", "youtube": "None", "website": "None", "summary": "None", "logo": "None", "latitude": 49.50860000000006, "longitude": -98.00231999999994}, "127701209RR0001": {"name": "CANADIAN REFORMED CHURCH OF ABBOTSFORD, B C", "designationCode": "C", "categoryCode": "39", "address": "PO BOX 66 STN A", "city": "ABBOTSFORD", "province": "BC", "country": "CA", "postalCode": "V2T6Z4", "twitter": "None", "instagram": "None", "facebook": "None", "youtube": "None", "website": "None", "summary": "None", "logo": "None", "latitude": 49.05161700000005, "longitude": -122.32930399999994}, "138153473RR0001": {"name": "CANADIAN REFORMED CHURCH OF ALDERGROVE", "designationCode": "C", "categoryCode": "39", "address": "PO BOX 809", "city": "ALDERGROVE", "province": "BC", "country": "CA", "postalCode": "V4W2V1", "twitter": "None", "instagram": "None", "facebook": "None", "youtube": "None", "website": "None", "summary": "None", "logo": "None", "latitude": 49.05687300000005, "longitude": -122.47227349999994}, "118835602RR0001": {"name": "CANADIAN REFORMED CHURCH OF ANCASTER", "designationCode": "C", "categoryCode": "39", "address": "575 SHAVERS RD. BOX 2 COMP 9", "city": "ANCASTER", "province": "ON", "country": "CA", "postalCode": "L9G3K9", "twitter": "None", "instagram": "None", "facebook": "None", "youtube": "None", "website": "None", "summary": "None", "logo": "None", "latitude": 43.195855056321925, "longitude": -80.01170599757675}, "133867143RR0001": {"name": "CANADIAN REFORMED CHURCH OF ATTERCLIFFE", "designationCode": "C", "categoryCode": "39", "address": "6765 ELCHO RD                 RR 3", "city": "WELLANDPORT", "province": "ON", "country": "CA", "postalCode": "L0R2J0", "twitter": "None", "instagram": "None", "facebook": "None", "youtube": "None", "website": "None", "summary": "None", "logo": "None", "latitude": 43.0144667865138, "longitude": -79.56722628882197}, "118835628RR0001": {"name": "CANADIAN REFORMED CHURCH OF BARRHEAD", "designationCode": "C", "categoryCode": "39", "address": "4622-52ND AVENUE", "city": "BARRHEAD", "province": "AB", "country": "CA", "postalCode": "T7N1H3", "twitter": "None", "instagram": "None", "facebook": "None", "youtube": "None", "website": "None", "summary": "None", "logo": "None", "latitude": 54.12142552596792, "longitude": -114.39621}, "118835644RR0001": {"name": "CANADIAN REFORMED CHURCH OF BURLINGTON WEST", "designationCode": "C", "categoryCode": "39", "address": "2162 WINCHESTER CRT", "city": "BURLINGTON", "province": "ON", "country": "CA", "postalCode": "L7P3K7", "twitter": "None", "instagram": "None", "facebook": "None", "youtube": "None", "website": "None", "summary": "None", "logo": "None", "latitude": 43.353176428790015, "longitude": -79.84534329629514}, "118835651RR0001": {"name": "CANADIAN REFORMED CHURCH OF CALGARY", "designationCode": "C", "categoryCode": "39", "address": "18 HART ESTATES BLVD. N.E.", "city": "CALGARY", "province": "AB", "country": "CA", "postalCode": "T1X0L3", "twitter": "None", "instagram": "None", "facebook": "None", "youtube": "None", "website": "None", "summary": "None", "logo": "None", "latitude": 51.05808953318128, "longitude": -113.86566397893684}, "106865959RR0001": {"name": "CANADIAN REFORMED CHURCH OF CARMAN, MAN.", "designationCode": "C", "categoryCode": "39", "address": "BOX 164", "city": "CARMAN", "province": "MB", "country": "CA", "postalCode": "R0G0J0", "twitter": "None", "instagram": "None", "facebook": "None", "youtube": "None", "website": "None", "summary": "None", "logo": "None", "latitude": 49.50860000000006, "longitude": -98.00231999999994}, "118835677RR0001": {"name": "CANADIAN REFORMED CHURCH OF CHATHAM, ONTARIO", "designationCode": "C", "categoryCode": "39", "address": "10750 LONGWOODS ROAD", "city": "CHATHAM", "province": "ON", "country": "CA", "postalCode": "N7M5J7", "twitter": "None", "instagram": "None", "facebook": "None", "youtube": "None", "website": "None", "summary": "None", "logo": "None", "latitude": 42.48533187786379, "longitude": -82.11006251107985}, "118835685RR0001": {"name": "CANADIAN REFORMED CHURCH OF CLOVERDALE B.C.", "designationCode": "C", "categoryCode": "39", "address": "20 5850 177B ST", "city": "SURREY", "province": "BC", "country": "CA", "postalCode": "V3S4J6", "twitter": "None", "instagram": "None", "facebook": "None", "youtube": "None", "website": "None", "summary": "None", "logo": "None", "latitude": 49.10885161809682, "longitude": -122.73029813708251}, "118835693RR0001": {"name": "CANADIAN REFORMED CHURCH OF ELORA", "designationCode": "C", "categoryCode": "39", "address": "50 ARTHUR ST S", "city": "ELMIRA", "province": "ON", "country": "CA", "postalCode": "N3B2M7", "twitter": "None", "instagram": "None", "facebook": "None", "youtube": "None", "website": "None", "summary": "None", "logo": "None", "latitude": 43.59852248265908, "longitude": -80.5588672460614}, "854526548RR0001": {"name": "CANADIAN REFORMED CHURCH OF FERGUS NORTH", "designationCode": "C", "categoryCode": "39", "address": "P.O. BOX 277", "city": "FERGUS", "province": "ON", "country": "CA", "postalCode": "N1M3E2", "twitter": "None", "instagram": "None", "facebook": "None", "youtube": "None", "website": "None", "summary": "None", "logo": "None", "latitude": 43.705428000000055, "longitude": -80.37816199999993}, "873318844RR0001": {"name": "CANADIAN REFORMED CHURCH OF FLAMBOROUGH", "designationCode": "C", "categoryCode": "39", "address": "P.O. BOX 952", "city": "WATERDOWN", "province": "ON", "country": "CA", "postalCode": "L0R2H0", "twitter": "None", "instagram": "None", "facebook": "None", "youtube": "None", "website": "None", "summary": "None", "logo": "None", "latitude": 43.329109500000015, "longitude": -79.8842655}, "118835701RR0001": {"name": "CANADIAN REFORMED CHURCH OF GRAND VALLEY ONTARIO", "designationCode": "C", "categoryCode": "39", "address": "354 SMITH ST                  PO BOX 293", "city": "ARTHUR", "province": "ON", "country": "CA", "postalCode": "N0G1A0", "twitter": "None", "instagram": "None", "facebook": "None", "youtube": "None", "website": "None", "summary": "None", "logo": "None", "latitude": 43.8341842018003, "longitude": -80.5465980478678}, "118835719RR0001": {"name": "CANADIAN REFORMED CHURCH OF HOUSTON", "designationCode": "C", "categoryCode": "39", "address": "BOX 36", "city": "HOUSTON", "province": "BC", "country": "CA", "postalCode": "V0J1Z0", "twitter": "None", "instagram": "None", "facebook": "None", "youtube": "None", "website": "None", "summary": "None", "logo": "None", "latitude": 55.240365186846496, "longitude": -127.654727473102}, "106865983RR0001": {"name": "CANADIAN REFORMED CHURCH OF LANGLEY", "designationCode": "C", "categoryCode": "39", "address": "21804 52 AVENUE", "city": "LANGLEY", "province": "BC", "country": "CA", "postalCode": "V2Y1L3", "twitter": "None", "instagram": "None", "facebook": "None", "youtube": "None", "website": "None", "summary": "None", "logo": "None", "latitude": 49.09673852394869, "longitude": -122.61878091618097}, "118835735RR0001": {"name": "CANADIAN REFORMED CHURCH OF LONDON", "designationCode": "C", "categoryCode": "39", "address": "3385 SETTLEMENT TRAIL", "city": "LONDON", "province": "ON", "country": "CA", "postalCode": "N6P1W3", "twitter": "None", "instagram": "None", "facebook": "None", "youtube": "None", "website": "None", "summary": "None", "logo": "None", "latitude": 42.93232170690752, "longitude": -81.3098963613596}, "106865884RR0001": {"name": "CANADIAN REFORMED CHURCH OF ORANGEVILLE ONT.", "designationCode": "C", "categoryCode": "39", "address": "344441 -15 SIDE ROAD", "city": "AMARANTH", "province": "ON", "country": "CA", "postalCode": "L9W2A9", "twitter": "None", "instagram": "None", "facebook": "None", "youtube": "None", "website": "None", "summary": "None", "logo": "None", "latitude": 43.97600400000006, "longitude": -80.22781699999993}, "118835750RR0001": {"name": "CANADIAN REFORMED CHURCH OF SMITHERS", "designationCode": "C", "categoryCode": "39", "address": "PO BOX 2229", "city": "SMITHERS", "province": "BC", "country": "CA", "postalCode": "V0J2N0", "twitter": "None", "instagram": "None", "facebook": "None", "youtube": "None", "website": "None", "summary": "None", "logo": "None", "latitude": 54.78312000000005, "longitude": -127.16847999999999}, "106866106RR0001": {"name": "CANADIAN REFORMED CHURCH OF SMITHVILLE, ONTARIO", "designationCode": "C", "categoryCode": "39", "address": "33 BAYVIEW DR", "city": "GRIMSBY", "province": "ON", "country": "CA", "postalCode": "L3M4Z5", "twitter": "None", "instagram": "None", "facebook": "None", "youtube": "None", "website": "None", "summary": "None", "logo": "None", "latitude": 43.19426784901036, "longitude": -79.53281118523877}, "106865934RR0001": {"name": "CANADIAN REFORMED CHURCH OF VERNON, B.C.", "designationCode": "C", "categoryCode": "39", "address": "5600 MACDONALD RD", "city": "VERNON", "province": "BC", "country": "CA", "postalCode": "V1B3L2", "twitter": "None", "instagram": "None", "facebook": "None", "youtube": "None", "website": "None", "summary": "None", "logo": "None", "latitude": 50.28690691085648, "longitude": -119.24592023347694}, "889373593RR0001": {"name": "CANADIAN REFORMED KINDERGARTEN SOCIETY OF ATTERCLIFFE", "designationCode": "C", "categoryCode": "20", "address": "85785 CANBOROUGH RD           RR 1", "city": "DUNNVILLE", "province": "ON", "country": "CA", "postalCode": "N1A2W1", "twitter": "None", "instagram": "None", "facebook": "None", "youtube": "None", "website": "None", "summary": "None", "logo": "None", "latitude": 42.99242753505719, "longitude": -79.570433085204}, "106866163RR0001": {"name": "CANADIAN REFORMED SCHOOL ASSOCIATION OF LANGLEY, B.C.", "designationCode": "C", "categoryCode": "20", "address": "21919 - 52ND AVENUE", "city": "LANGLEY", "province": "BC", "country": "CA", "postalCode": "V2Y2M7", "twitter": "None", "instagram": "None", "facebook": "None", "youtube": "None", "website": "None", "summary": "None", "logo": "None", "latitude": 49.09680145888329, "longitude": -122.61655260935426}, "106866155RR0001": {"name": "CANADIAN REFORMED SCHOOL ASSOCIATION OF SMITHERS", "designationCode": "C", "categoryCode": "20", "address": "BOX 3700", "city": "SMITHERS", "province": "BC", "country": "CA", "postalCode": "V0J2N0", "twitter": "None", "instagram": "None", "facebook": "None", "youtube": "None", "website": "None", "summary": "None", "logo": "None", "latitude": 54.78190002943043, "longitude": -127.16272999999995}, "888750049RR0001": {"name": "CANADIAN REFORMED SCHOOL ASSOCIATION,", "designationCode": "C", "categoryCode": "20", "address": "BOX 34090                     17790 #10 HWY", "city": "SURREY", "province": "BC", "country": "CA", "postalCode": "V3S8C4", "twitter": "None", "instagram": "None", "facebook": "None", "youtube": "None", "website": "None", "summary": "None", "logo": "None", "latitude": 49.10405674887256, "longitude": -122.72953324887257}, "106866338RR0001": {"name": "CANADIAN REFORMED SCHOOL SOCIETY OF ABBOTSFORD", "designationCode": "C", "categoryCode": "20", "address": "4268 STEWART RD", "city": "CHILLIWACK", "province": "BC", "country": "CA", "postalCode": "V2R3S6", "twitter": "None", "instagram": "None", "facebook": "None", "youtube": "None", "website": "None", "summary": "None", "logo": "None", "latitude": 49.07945156238369, "longitude": -122.06760671002692}, "898650247RR0001": {"name": "CANADIAN REFORMED SCHOOL SOCIETY OF ATTERCLIFFE AND SURROUNDING DISTRICT INCORPORATED", "designationCode": "C", "categoryCode": "20", "address": "85785 CANBOROUGH RD", "city": "DUNNVILLE", "province": "ON", "country": "CA", "postalCode": "N1A2W1", "twitter": "None", "instagram": "None", "facebook": "None", "youtube": "None", "website": "None", "summary": "None", "logo": "None", "latitude": 42.99242753505719, "longitude": -79.570433085204}, "118835818RR0001": {"name": "CANADIAN REFORMED SCHOOL SOCIETY OF BRAMPTON AND TORONTO", "designationCode": "C", "categoryCode": "20", "address": "31 RIVERS EDGE DRIVE", "city": "NORTH YORK", "province": "ON", "country": "CA", "postalCode": "M6M5L4", "twitter": "None", "instagram": "None", "facebook": "None", "youtube": "None", "website": "None", "summary": "None", "logo": "None", "latitude": 43.69130751679265, "longitude": -79.50667848040872}, "129951653RR0001": {"name": "CANADIAN REFORMED SCHOOL SOCIETY OF CARMAN, INC.", "designationCode": "C", "categoryCode": "20", "address": "BOX 1450", "city": "CARMAN", "province": "MB", "country": "CA", "postalCode": "R0G0J0", "twitter": "None", "instagram": "None", "facebook": "None", "youtube": "None", "website": "None", "summary": "None", "logo": "None", "latitude": 49.50860000000006, "longitude": -98.00231999999994}, "130026131RR0001": {"name": "CANADIAN REFORMED SCHOOL SOCIETY OF CHATHAM & DISTRICT", "designationCode": "C", "categoryCode": "20", "address": "485 MCNAUGHTON AVE EAST", "city": "CHATHAM", "province": "ON", "country": "CA", "postalCode": "N7L2H2", "twitter": "None", "instagram": "None", "facebook": "None", "youtube": "None", "website": "None", "summary": "None", "logo": "None", "latitude": 42.42675660398723, "longitude": -82.18284972168001}, "118835834RR0001": {"name": "CANADIAN REFORMED SCHOOL SOCIETY OF DUFFERIN", "designationCode": "C", "categoryCode": "09", "address": "PO BOX 175  STN A", "city": "ORANGEVILLE", "province": "ON", "country": "CA", "postalCode": "L9W2Z6", "twitter": "None", "instagram": "None", "facebook": "None", "youtube": "None", "website": "None", "summary": "None", "logo": "None", "latitude": 43.892658732251896, "longitude": -80.27525271500956}, "118835883RR0001": {"name": "CANADIAN REFORMED SCHOOL SOCIETY OF EDMONTON", "designationCode": "C", "categoryCode": "20", "address": "13520 134TH STREET", "city": "EDMONTON", "province": "AB", "country": "CA", "postalCode": "T5L1W5", "twitter": "None", "instagram": "None", "facebook": "None", "youtube": "None", "website": "None", "summary": "None", "logo": "None", "latitude": 53.59698958673323, "longitude": -113.55200031643467}, "118835842RR0001": {"name": "CANADIAN REFORMED SCHOOL SOCIETY OF FERGUS, GUELPH", "designationCode": "C", "categoryCode": "20", "address": "147 FIRST LINE RR#2", "city": "ELORA", "province": "ON", "country": "CA", "postalCode": "N0B1S0", "twitter": "None", "instagram": "None", "facebook": "None", "youtube": "None", "website": "None", "summary": "None", "logo": "None", "latitude": 43.67858860087149, "longitude": -80.40880387910455}, "899351068RR0001": {"name": "CANADIAN REFORMED SCHOOL SOCIETY OF FLAMBOROUGH INCORPORATED", "designationCode": "C", "categoryCode": "20", "address": "PO BOX 2", "city": "MILLGROVE", "province": "ON", "country": "CA", "postalCode": "L0R1V0", "twitter": "None", "instagram": "None", "facebook": "None", "youtube": "None", "website": "None", "summary": "None", "logo": "None", "latitude": 43.340847391152266, "longitude": -79.95963354867318}, "106866312RR0001": {"name": "CANADIAN REFORMED SCHOOL SOCIETY OF NEERLANDIA", "designationCode": "C", "categoryCode": "20", "address": "3030 TWP RD 615A              SS 2", "city": "COUNTY OF BARRHEAD", "province": "AB", "country": "CA", "postalCode": "T0G1R2", "twitter": "None", "instagram": "None", "facebook": "None", "youtube": "None", "website": "None", "summary": "None", "logo": "None", "latitude": 54.31948921178211, "longitude": -114.30953744982708}, "886593995RR0001": {"name": "CANADIAN REFORMED SCHOOL SOCIETY OF OTTAWA", "designationCode": "C", "categoryCode": "20", "address": "PO BOX 89081                  RPO BARRHAVEN MALL", "city": "NEPEAN", "province": "ON", "country": "CA", "postalCode": "K2J0R2", "twitter": "None", "instagram": "None", "facebook": "None", "youtube": "None", "website": "None", "summary": "None", "logo": "None", "latitude": 45.28447825039913, "longitude": -75.7638553644328}, "106866254RR0001": {"name": "CANADIAN REFORMED SCHOOL SOCIETY OF SMITHVILLE AND SURROUNDING DISTRICT INCORPORATED", "designationCode": "C", "categoryCode": "20", "address": "3765 FROST RD", "city": "BEAMSVILLE", "province": "ON", "country": "CA", "postalCode": "L0R1B2", "twitter": "None", "instagram": "None", "facebook": "None", "youtube": "None", "website": "None", "summary": "None", "logo": "None", "latitude": 43.139361328724796, "longitude": -79.47424175786473}, "897467353RR0001": {"name": "CANADIAN REFORMED SCHOOL SOCIETY OF VERNON AND DISTRICT", "designationCode": "C", "categoryCode": "20", "address": "3109 32ND AVE", "city": "VERNON", "province": "BC", "country": "CA", "postalCode": "V1T2M2", "twitter": "None", "instagram": "None", "facebook": "None", "youtube": "None", "website": "None", "summary": "None", "logo": "None", "latitude": 50.26540521860945, "longitude": -119.27240724783799}, "134517135RR0001": {"name": "CANADIAN REFORMED SCHOOL SOCIETY OF WINNIPEG INC", "designationCode": "C", "categoryCode": "20", "address": "215 ROUGEAU AVENUE", "city": "WINNIPEG", "province": "MB", "country": "CA", "postalCode": "R2C3Z9", "twitter": "None", "instagram": "None", "facebook": "None", "youtube": "None", "website": "None", "summary": "None", "logo": "None", "latitude": 49.8922490191622, "longitude": -97.04817441589593}, "118835891RR0001": {"name": "CANADIAN REFORMED SENIOR CITIZEN HOME SOCIETY", "designationCode": "C", "categoryCode": "09", "address": "100-20265 54A AVE", "city": "LANGLEY", "province": "BC", "country": "CA", "postalCode": "V3A3W6", "twitter": "None", "instagram": "None", "facebook": "None", "youtube": "None", "website": "None", "summary": "None", "logo": "None", "latitude": 49.101598275323745, "longitude": -122.66062610379316}, "130592082RR0001": {"name": "CANADIAN REFORMED SOCIETY FOR A HOME FOR THE AGED INC", "designationCode": "C", "categoryCode": "01", "address": "PO BOX 644", "city": "WATERDOWN", "province": "ON", "country": "CA", "postalCode": "L0R2H0", "twitter": "None", "instagram": "None", "facebook": "None", "youtube": "None", "website": "None", "summary": "None", "logo": "None", "latitude": 43.329109500000015, "longitude": -79.8842655}, "886437599RR0001": {"name": "CANADIAN REFORMED WORLD RELIEF FUND", "designationCode": "C", "categoryCode": "47", "address": "PO BOX 85225", "city": "BURLINGTON", "province": "ON", "country": "CA", "postalCode": "L7R4K4", "twitter": "None", "instagram": "None", "facebook": "None", "youtube": "None", "website": "None", "summary": "None", "logo": "None", "latitude": 43.326195000000055, "longitude": -79.79863399999994}, "106866411RR0001": {"name": "CANADIAN REHABILITATION COUNCIL FOR THE DISABLED, NEW BRUNSWICK BRANCH INCORPORATED", "designationCode": "C", "categoryCode": "11", "address": "65 BRUNSWICK ST", "city": "FREDRICTON", "province": "NB", "country": "CA", "postalCode": "E3B1G5", "twitter": "None", "instagram": "None", "facebook": "None", "youtube": "None", "website": "None", "summary": "None", "logo": "None", "latitude": 45.96439337333348, "longitude": -66.6524763918865}, "866696123RR0001": {"name": "CANADIAN RELIGIOUS ADMINISTRATIVE SERVICES INC./SERVICES ADMINISTRATIFS RELIGIEUX CANADIENS INC.", "designationCode": "C", "categoryCode": "49", "address": "6299 AIRPORT ROAD             SUITE 100", "city": "MISSISSAUGA", "province": "ON", "country": "CA", "postalCode": "L4V1N3", "twitter": "None", "instagram": "None", "facebook": "None", "youtube": "None", "website": "None", "summary": "None", "logo": "None", "latitude": 43.690123284263, "longitude": -79.62375186534166}, "118835941RR0001": {"name": "CANADIAN REP THEATRE", "designationCode": "C", "categoryCode": "22", "address": "388 QUEBEC AVENUE", "city": "TORONTO", "province": "ON", "country": "CA", "postalCode": "M6P2V4", "twitter": "None", "instagram": "None", "facebook": "None", "youtube": "None", "website": "None", "summary": "None", "logo": "None", "latitude": 43.66312128781235, "longitude": -79.4711245849442}, "123695215RR0001": {"name": "CANADIAN RESEARCH INSTITUTE FOR LAW AND THE FAMILY", "designationCode": "C", "categoryCode": "21", "address": "HILLHURST BUILDING SUITE 308  301-14TH STREET N.W.", "city": "CALGARY", "province": "AB", "country": "CA", "postalCode": "T2N2A1", "twitter": "None", "instagram": "None", "facebook": "None", "youtube": "None", "website": "None", "summary": "None", "logo": "None", "latitude": 51.05682600000006, "longitude": -114.09477199999994}, "123269680RR0001": {"name": "CANADIAN RESEARCH INSTITUTE FOR THE ADVANCEMENT OF WOMEN/INSTITUT CANADIEN DE RECHERCHES S", "designationCode": "C", "categoryCode": "59", "address": "507 BANK ST", "city": "OTTAWA", "province": "ON", "country": "CA", "postalCode": "K2P1Z5", "twitter": "None", "instagram": "None", "facebook": "None", "youtube": "None", "website": "None", "summary": "None", "logo": "None", "latitude": 45.41022871663104, "longitude": -75.6924693914538}, "842059727RR0001": {"name": "CANADIAN RESEARCH INSTITUTE OF SPIRITUALITY AND HEALING", "designationCode": "C", "categoryCode": "11", "address": "404-2628 ASH ST.", "city": "VANCOUVER", "province": "BC", "country": "CA", "postalCode": "V5Z4L2", "twitter": "None", "instagram": "None", "facebook": "None", "youtube": "None", "website": "None", "summary": "None", "logo": "None", "latitude": 49.261750795169945, "longitude": -123.1175014871894}, "854136884RR0001": {"name": "CANADIAN RETINOBLASTOMA SOCIETY / LA SOCIETE CANADIENNE DU RETINOBLASTOME", "designationCode": "C", "categoryCode": "11", "address": "445 SUMMERPARK CRES", "city": "PICKERING", "province": "ON", "country": "CA", "postalCode": "L1V7A9", "twitter": "None", "instagram": "None", "facebook": "None", "youtube": "None", "website": "None", "summary": "None", "logo": "None", "latitude": 43.82949826223359, "longitude": -79.13505551872731}, "813836673RR0001": {"name": "CANADIAN REVIVAL CENTRE CORPORATION", "designationCode": "C", "categoryCode": "39", "address": "329 38TH ST E", "city": "PRINCE ALBERT", "province": "SK", "country": "CA", "postalCode": "S6W1A5", "twitter": "None", "instagram": "None", "facebook": "None", "youtube": "None", "website": "None", "summary": "None", "logo": "None", "latitude": 53.17852871107476, "longitude": -105.74564249974586}, "106866478RR0001": {"name": "CANADIAN REVIVAL FELLOWSHIP INC.", "designationCode": "C", "categoryCode": "47", "address": "70 FROOM CRES", "city": "REGINA", "province": "SK", "country": "CA", "postalCode": "S4N1S7", "twitter": "None", "instagram": "None", "facebook": "None", "youtube": "None", "website": "None", "summary": "None", "logo": "None", "latitude": 50.445514402186944, "longitude": -104.5661165523112}, "886245794RR0001": {"name": "CANADIAN RHODES SCHOLARS ENDOWMENT TRUST", "designationCode": "B", "categoryCode": "25", "address": "1913 HIGHRIDGE AVE", "city": "OTTAWA", "province": "ON", "country": "CA", "postalCode": "K1H5H1", "twitter": "None", "instagram": "None", "facebook": "None", "youtube": "None", "website": "None", "summary": "None", "logo": "None", "latitude": 45.39724435720466, "longitude": -75.65132515358671}, "118835982RR0001": {"name": "CANADIAN RHODES SCHOLARS FOUNDATION", "designationCode": "C", "categoryCode": "21", "address": "1913 HIGHRIDGE AVE", "city": "OTTAWA", "province": "ON", "country": "CA", "postalCode": "K1H5H1", "twitter": "None", "instagram": "None", "facebook": "None", "youtube": "None", "website": "None", "summary": "None", "logo": "None", "latitude": 45.39724435720466, "longitude": -75.65132515358671}, "870080744RR0001": {"name": "CANADIAN RIGHTS ACTION FOUNDATION", "designationCode": "C", "categoryCode": "09", "address": "979 DUPONT ST", "city": "TORONTO", "province": "ON", "country": "CA", "postalCode": "M6H1Z5", "twitter": "None", "instagram": "None", "facebook": "None", "youtube": "None", "website": "None", "summary": "None", "logo": "None", "latitude": 43.6697877948815, "longitude": -79.43207431473256}, "880839006RR0001": {"name": "CANADIAN ROCKIES BAPTIST CHURCH", "designationCode": "C", "categoryCode": "31", "address": "101-2239 152 STREET", "city": "SURREY", "province": "BC", "country": "CA", "postalCode": "V4A4P1", "twitter": "None", "instagram": "None", "facebook": "None", "youtube": "None", "website": "None", "summary": "None", "logo": "None", "latitude": 49.042845, "longitude": -122.80129494284137}, "107727570RR0001": {"name": "CANADIAN ROCKIES REGIONAL DIVISION NO. 12", "designationCode": "C", "categoryCode": "20", "address": "618 7 AVE", "city": "CANMORE", "province": "AB", "country": "CA", "postalCode": "T1W2H5", "twitter": "None", "instagram": "None", "facebook": "None", "youtube": "None", "website": "None", "summary": "None", "logo": "None", "latitude": 51.08743153267781, "longitude": -115.36079305314043}, "894394386RR0001": {"name": "CANADIAN RODEO HISTORICAL ASSOCIATION", "designationCode": "C", "categoryCode": "50", "address": "PO BOX 53231                  CRO MARLBOROUGH", "city": "CALGARY", "province": "AB", "country": "CA", "postalCode": "T2A7L9", "twitter": "None", "instagram": "None", "facebook": "None", "youtube": "None", "website": "None", "summary": "None", "logo": "None", "latitude": 51.059556000000015, "longitude": -113.96975741544264}, "891563173RR0001": {"name": "CANADIAN ROSE SOCIETY", "designationCode": "C", "categoryCode": "50", "address": "315 - 100 UNITY RD", "city": "TORONTO", "province": "ON", "country": "CA", "postalCode": "M4J5B2", "twitter": "None", "instagram": "None", "facebook": "None", "youtube": "None", "website": "None", "summary": "None", "logo": "None", "latitude": 43.677341273702766, "longitude": -79.33012477924268}, "811462894RR0001": {"name": "CANADIAN ROTARIAN WATER FOUNDATION", "designationCode": "C", "categoryCode": "09", "address": "1910-121 KING STREET WEST     POST OFFICE BOX 114", "city": "TORONTO", "province": "ON", "country": "CA", "postalCode": "M5H3T9", "twitter": "None", "instagram": "None", "facebook": "None", "youtube": "None", "website": "None", "summary": "None", "logo": "None", "latitude": 43.647990812626446, "longitude": -79.38305732915929}}