{"724268727RR0001": {"name": "GATEWAY CHURCH OF THE LIVING GOD CANADA INC.", "designationCode": "C", "categoryCode": "39", "address": "404 - 2431 FINCH AVE W", "city": "NORTH YORK", "province": "ON", "country": "CA", "postalCode": "M9M2E4", "twitter": "None", "instagram": "None", "facebook": "None", "youtube": "None", "website": "None", "summary": "None", "logo": "None", "latitude": 43.751034965354734, "longitude": -79.5473056559037}, "847845393RR0001": {"name": "GATEWAY CITY CHURCH", "designationCode": "C", "categoryCode": "36", "address": "163 ORIOLE RD", "city": "KAMLOOPS", "province": "BC", "country": "CA", "postalCode": "V2C4N8", "twitter": "None", "instagram": "None", "facebook": "None", "youtube": "None", "website": "None", "summary": "None", "logo": "None", "latitude": 50.67804465889549, "longitude": -120.27227019383712}, "882741317RR0001": {"name": "GATEWAY CITY CHURCH", "designationCode": "C", "categoryCode": "39", "address": "PO BOX 3758", "city": "SPRUCE GROVE", "province": "AB", "country": "CA", "postalCode": "T7X3A9", "twitter": "None", "instagram": "None", "facebook": "None", "youtube": "None", "website": "None", "summary": "None", "logo": "None", "latitude": 53.544624000000056, "longitude": -113.90185249999993}, "141048280RR0001": {"name": "GATEWAY COMMUNITY CHILDCARE CENTRE SOCIETY", "designationCode": "C", "categoryCode": "01", "address": "10840 133A STREET", "city": "SURREY", "province": "BC", "country": "CA", "postalCode": "V3T4A6", "twitter": "None", "instagram": "None", "facebook": "None", "youtube": "None", "website": "None", "summary": "None", "logo": "None", "latitude": 49.199697000000015, "longitude": -122.85279792226915}, "118917632RR0001": {"name": "GATEWAY COMMUNITY CHRISTIAN REFORMED CHURCH", "designationCode": "C", "categoryCode": "39", "address": "2884 GLADYS AVE", "city": "ABBOTSFORD", "province": "BC", "country": "CA", "postalCode": "V2S3Y2", "twitter": "None", "instagram": "None", "facebook": "None", "youtube": "None", "website": "None", "summary": "None", "logo": "None", "latitude": 49.054982465167896, "longitude": -122.28659886155627}, "107421018RR0001": {"name": "GATEWAY COMMUNITY CHURCH", "designationCode": "C", "categoryCode": "34", "address": "PO BOX 1240", "city": "CANORA", "province": "SK", "country": "CA", "postalCode": "S0A0L0", "twitter": "None", "instagram": "None", "facebook": "None", "youtube": "None", "website": "None", "summary": "None", "logo": "None", "latitude": 51.62535661313478, "longitude": -102.4443087080291}, "844171363RR0001": {"name": "GATEWAY COMMUNITY CHURCH", "designationCode": "C", "categoryCode": "34", "address": "4295 8TH AVENUE", "city": "PORT ALBERNI", "province": "BC", "country": "CA", "postalCode": "V9Y4S5", "twitter": "None", "instagram": "None", "facebook": "None", "youtube": "None", "website": "None", "summary": "None", "logo": "None", "latitude": 49.254047054500596, "longitude": -124.80065671438308}, "867234668RR0001": {"name": "GATEWAY COMMUNITY CHURCH", "designationCode": "C", "categoryCode": "34", "address": "10 BEAVERBANK ROAD", "city": "LOWER SACKVILLE", "province": "NS", "country": "CA", "postalCode": "B4E1G3", "twitter": "None", "instagram": "None", "facebook": "None", "youtube": "None", "website": "None", "summary": "None", "logo": "None", "latitude": 44.77770499668179, "longitude": -63.695080144497425}, "108102013RR0001": {"name": "GATEWAY COMMUNITY HEALTH CENTRE", "designationCode": "C", "categoryCode": "09", "address": "POSTAL BAG SERVICE 99", "city": "TWEED", "province": "ON", "country": "CA", "postalCode": "K0K3J0", "twitter": "None", "instagram": "None", "facebook": "None", "youtube": "None", "website": "None", "summary": "None", "logo": "None", "latitude": 44.443248000000054, "longitude": -77.37918199999993}, "118936434RR0001": {"name": "GATEWAY COVENANT CHURCH", "designationCode": "C", "categoryCode": "39", "address": "BOX 2318", "city": "PRINCE ALBERT", "province": "SK", "country": "CA", "postalCode": "S6V6Z1", "twitter": "None", "instagram": "None", "facebook": "None", "youtube": "None", "website": "None", "summary": "None", "logo": "None", "latitude": 53.199456000000055, "longitude": -105.74863099999993}, "867632259RR0001": {"name": "GATEWAY FOUNDATION", "designationCode": "B", "categoryCode": "43", "address": "1126 CHILCOTIN COURT", "city": "KELOWNA", "province": "BC", "country": "CA", "postalCode": "V1V2M7", "twitter": "None", "instagram": "None", "facebook": "None", "youtube": "None", "website": "None", "summary": "None", "logo": "None", "latitude": 49.892867561457805, "longitude": -119.43453669054756}, "885369801RR0001": {"name": "GATEWAY FOUNDATION INC.", "designationCode": "C", "categoryCode": "01", "address": "757 HENDERSON HWY", "city": "WINNIPEG", "province": "MB", "country": "CA", "postalCode": "R2K2K7", "twitter": "None", "instagram": "None", "facebook": "None", "youtube": "None", "website": "None", "summary": "None", "logo": "None", "latitude": 49.928452397714885, "longitude": -97.10303615526016}, "886362763RR0002": {"name": "GATEWAY HARVEST FELLOWSHIP, INC.", "designationCode": "C", "categoryCode": "39", "address": "P.O. BOX 711", "city": "BARRIE", "province": "ON", "country": "CA", "postalCode": "L4M4Y5", "twitter": "None", "instagram": "None", "facebook": "None", "youtube": "None", "website": "None", "summary": "None", "logo": "None", "latitude": 44.38929300000005, "longitude": -79.68626449999994}, "121122451RR0001": {"name": "GATEWAY HOMES INCORPORATED", "designationCode": "C", "categoryCode": "01", "address": "1000 WINDMILL ROAD            SUITE 11", "city": "DARTMOUTH", "province": "NS", "country": "CA", "postalCode": "B3B1L7", "twitter": "None", "instagram": "None", "facebook": "None", "youtube": "None", "website": "None", "summary": "None", "logo": "None", "latitude": 44.70439446243266, "longitude": -63.61435996707852}, "867022022RR0001": {"name": "GATEWAY INTERNATIONAL FELLOWSHIP OF TORONTO", "designationCode": "C", "categoryCode": "39", "address": "27 COLTMAN CRES.", "city": "SCARBOROUGH", "province": "ON", "country": "CA", "postalCode": "M1B2A3", "twitter": "None", "instagram": "None", "facebook": "None", "youtube": "None", "website": "None", "summary": "None", "logo": "None", "latitude": 43.798252590599695, "longitude": -79.2140187156501}, "892411448RR0001": {"name": "GATEWAY INTERNATIONAL MINISTRIES", "designationCode": "C", "categoryCode": "47", "address": "AUDREY CAROLINE ELISABETH DOL 12146-234TH STREET", "city": "MAPLE RIDGE", "province": "BC", "country": "CA", "postalCode": "V2X9K8", "twitter": "None", "instagram": "None", "facebook": "None", "youtube": "None", "website": "None", "summary": "None", "logo": "None", "latitude": 49.22281227921402, "longitude": -122.57409198969955}, "101960235RR0001": {"name": "GATEWAY MANOR INC.", "designationCode": "C", "categoryCode": "09", "address": "PO BOX 144", "city": "TEULON", "province": "MB", "country": "CA", "postalCode": "R0C3B0", "twitter": "None", "instagram": "None", "facebook": "None", "youtube": "None", "website": "None", "summary": "None", "logo": "None", "latitude": 50.38882296172802, "longitude": -97.07887338068231}, "130125677RR0001": {"name": "GATEWAY OF HOPE ASSEMBLY, INC.", "designationCode": "C", "categoryCode": "36", "address": "35 COMPANY RD", "city": "BOIESTOWN", "province": "NB", "country": "CA", "postalCode": "E6A1K6", "twitter": "None", "instagram": "None", "facebook": "None", "youtube": "None", "website": "None", "summary": "None", "logo": "None", "latitude": 46.45827706562155, "longitude": -66.41610011448974}, "897429882RR0001": {"name": "GATEWAY PENTECOSTAL CHURCH", "designationCode": "C", "categoryCode": "36", "address": "147 MARSHALL AVE EAST         FERRIS P.O. BOX 23010", "city": "NORTH BAY", "province": "ON", "country": "CA", "postalCode": "P1A4K6", "twitter": "None", "instagram": "None", "facebook": "None", "youtube": "None", "website": "None", "summary": "None", "logo": "None", "latitude": 46.281741239920585, "longitude": -79.43801782002274}, "107831943RR0001": {"name": "GATEWAY RESEARCH ORGANIZATION", "designationCode": "C", "categoryCode": "56", "address": "BOX 5865", "city": "WESTLOCK", "province": "AB", "country": "CA", "postalCode": "T7P2P6", "twitter": "None", "instagram": "None", "facebook": "None", "youtube": "None", "website": "None", "summary": "None", "logo": "None", "latitude": 54.15543600000005, "longitude": -113.86003399999993}, "107421117RR0001": {"name": "GATEWAY RESIDENTIAL AND COMMUNITY SUPPORT SERVICES OF NIAGARA INC.", "designationCode": "C", "categoryCode": "01", "address": "178 KING STREET", "city": "WELLAND", "province": "ON", "country": "CA", "postalCode": "L3B3J5", "twitter": "None", "instagram": "None", "facebook": "None", "youtube": "None", "website": "None", "summary": "None", "logo": "None", "latitude": 42.98803671184169, "longitude": -79.25103762221289}, "108165655RR0001": {"name": "GATEWAY RESOURCES INC.", "designationCode": "C", "categoryCode": "01", "address": "PO BOX 1448                   STN MAIN", "city": "WINKLER", "province": "MB", "country": "CA", "postalCode": "R6W4B4", "twitter": "None", "instagram": "None", "facebook": "None", "youtube": "None", "website": "None", "summary": "None", "logo": "None", "latitude": 49.18426565617661, "longitude": -97.93929615472052}, "118936517RR0001": {"name": "GATEWAY THEATRE GUILD", "designationCode": "C", "categoryCode": "22", "address": "BOX 691", "city": "NORTH BAY", "province": "ON", "country": "CA", "postalCode": "P1B8J8", "twitter": "None", "instagram": "None", "facebook": "None", "youtube": "None", "website": "None", "summary": "None", "logo": "None", "latitude": 46.30661700000006, "longitude": -79.45993249999994}, "870039401RR0001": {"name": "GATEWAY TO LIFE CHURCH", "designationCode": "C", "categoryCode": "39", "address": "P.O. BOX 681", "city": "LITTLE CURRENT", "province": "ON", "country": "CA", "postalCode": "P0P1K0", "twitter": "None", "instagram": "None", "facebook": "None", "youtube": "None", "website": "None", "summary": "None", "logo": "None", "latitude": 45.82642761199063, "longitude": -82.15772370619678}, "119138824RR0001": {"name": "GATEWAY UNITED PENTECOSTAL CHURCH", "designationCode": "C", "categoryCode": "36", "address": "600 MCDONALD DR", "city": "GANANOQUE", "province": "ON", "country": "CA", "postalCode": "K7G1E5", "twitter": "None", "instagram": "None", "facebook": "None", "youtube": "None", "website": "None", "summary": "None", "logo": "None", "latitude": 44.33356634035929, "longitude": -76.15015472932217}, "856200167RR0001": {"name": "GATEWAY VICTORY CHURCH", "designationCode": "C", "categoryCode": "39", "address": "885 19TH STREET WEST", "city": "OWEN SOUND", "province": "ON", "country": "CA", "postalCode": "N4K6V5", "twitter": "None", "instagram": "None", "facebook": "None", "youtube": "None", "website": "None", "summary": "None", "logo": "None", "latitude": 44.58262530062295, "longitude": -80.96452809365812}, "865513279RR0001": {"name": "GAURA HARI KARMA-FREE MEALS SOCIETY", "designationCode": "C", "categoryCode": "09", "address": "3363 ANZIO DR", "city": "VANCOUVER", "province": "BC", "country": "CA", "postalCode": "V5M4C9", "twitter": "None", "instagram": "None", "facebook": "None", "youtube": "None", "website": "None", "summary": "None", "logo": "None", "latitude": 49.252382474897466, "longitude": -123.03205985789717}, "118936533RR0001": {"name": "GAY-AMI", "designationCode": "C", "categoryCode": "11", "address": "3300 BOUL. THIBEAU", "city": "TROIS-RIVI\u00c8RES", "province": "QC", "country": "CA", "postalCode": "G8T1G5", "twitter": "None", "instagram": "None", "facebook": "None", "youtube": "None", "website": "None", "summary": "None", "logo": "None", "latitude": 46.4276792000982, "longitude": -72.60072979283267}, "118936541RR0001": {"name": "GAY'S RIVER UNITED CHURCH", "designationCode": "C", "categoryCode": "44", "address": "421 HIGHWAY 224", "city": "GAY'S RIVER", "province": "NS", "country": "CA", "postalCode": "B0N2H0", "twitter": "None", "instagram": "None", "facebook": "None", "youtube": "None", "website": "None", "summary": "None", "logo": "None", "latitude": 45.06203303327141, "longitude": -63.42487963037858}, "140681289RR0001": {"name": "GAYATRI PARIWAR-YUGNIRMAN CANADA", "designationCode": "C", "categoryCode": "39", "address": "175 ADVANCE BLVD              UNIT 1 & 2", "city": "BRAMPTON", "province": "ON", "country": "CA", "postalCode": "L6T4J1", "twitter": "None", "instagram": "None", "facebook": "None", "youtube": "None", "website": "None", "summary": "None", "logo": "None", "latitude": 43.69288723339502, "longitude": -79.69344062499306}, "119144608RR0001": {"name": "GAYNOR FAMILY REGIONAL LIBRARY", "designationCode": "C", "categoryCode": "50", "address": "806 MANITOBA AVENUE", "city": "SELKIRK", "province": "MB", "country": "CA", "postalCode": "R1A2H4", "twitter": "None", "instagram": "None", "facebook": "None", "youtube": "None", "website": "None", "summary": "None", "logo": "None", "latitude": 50.1515124545199, "longitude": -96.88772275172872}, "118936566RR0001": {"name": "GAZETTE CHRISTMAS HAMPER SOCIETY", "designationCode": "C", "categoryCode": "09", "address": "BOX 698", "city": "PORT HARDY", "province": "BC", "country": "CA", "postalCode": "V0N2P0", "twitter": "None", "instagram": "None", "facebook": "None", "youtube": "None", "website": "None", "summary": "None", "logo": "None", "latitude": 50.72153001889881, "longitude": -127.5011199316182}, "118936574RR0001": {"name": "GAZIFERE INC. EMPLOYEES' CHARITABLE TRUST", "designationCode": "B", "categoryCode": "75", "address": "P O BOX 650", "city": "SCARBOROUGH", "province": "ON", "country": "CA", "postalCode": "M1K5E3", "twitter": "None", "instagram": "None", "facebook": "None", "youtube": "None", "website": "None", "summary": "None", "logo": "None", "latitude": 43.72579500000006, "longitude": -79.26285049999993}, "843092297RR0001": {"name": "GB Canada Inc.", "designationCode": "C", "categoryCode": "09", "address": "5343 DRISCOLL DR", "city": "MANOTICK", "province": "ON", "country": "CA", "postalCode": "K4M1E3", "twitter": "None", "instagram": "None", "facebook": "None", "youtube": "None", "website": "None", "summary": "None", "logo": "None", "latitude": 45.23630887067912, "longitude": -75.69426410058303}, "887327906RR0001": {"name": "GBS/CIDP Foundation of Canada", "designationCode": "C", "categoryCode": "11", "address": "PO BOX 80600, 3100 GARDEN ST  RPO ROSSLAND GARDEN", "city": "WHITBY", "province": "ON", "country": "CA", "postalCode": "L1R0H1", "twitter": "None", "instagram": "None", "facebook": "None", "youtube": "None", "website": "None", "summary": "None", "logo": "None", "latitude": 43.90213955130628, "longitude": -78.94125158151552}, "867782609RR0001": {"name": "GBSP CENTRE CORP.", "designationCode": "C", "categoryCode": "22", "address": "50 TANK HOUSE LANE            YOUNT CENTRE FOR THE PERFORMIN", "city": "TORONTO", "province": "ON", "country": "CA", "postalCode": "M5A3C4", "twitter": "None", "instagram": "None", "facebook": "None", "youtube": "None", "website": "None", "summary": "None", "logo": "None", "latitude": 43.650803084655756, "longitude": -79.35744044685208}, "107436636RR0001": {"name": "GCA EDUCATIONAL SOCIETY", "designationCode": "C", "categoryCode": "20", "address": "16520-24TH STREET SW", "city": "CALGARY", "province": "AB", "country": "CA", "postalCode": "T2Y4W2", "twitter": "None", "instagram": "None", "facebook": "None", "youtube": "None", "website": "None", "summary": "None", "logo": "None", "latitude": 50.904108335276135, "longitude": -114.11706897181038}, "845648203RR0001": {"name": "GCC Foundation", "designationCode": "C", "categoryCode": "47", "address": "9770 KING GEORGE BLVD.", "city": "SURREY", "province": "BC", "country": "CA", "postalCode": "V3T2V6", "twitter": "None", "instagram": "None", "facebook": "None", "youtube": "None", "website": "None", "summary": "None", "logo": "None", "latitude": 49.17992156924808, "longitude": -122.84541862986916}, "895518793RR0001": {"name": "GCC LA VIOLENCE", "designationCode": "C", "categoryCode": "09", "address": "545 RUE JOLIETTE              SUITE 3", "city": "MONTREAL", "province": "QC", "country": "CA", "postalCode": "H1W3E3", "twitter": "None", "instagram": "None", "facebook": "None", "youtube": "None", "website": "None", "summary": "None", "logo": "None", "latitude": 45.54283390706304, "longitude": -73.53797510211223}, "830618682RR0001": {"name": "GDB International", "designationCode": "C", "categoryCode": "01", "address": "SUITE 1800-510 WEST GEORGIA ST", "city": "VANCOUVER", "province": "BC", "country": "CA", "postalCode": "V6B0M3", "twitter": "None", "instagram": "None", "facebook": "None", "youtube": "None", "website": "None", "summary": "None", "logo": "None", "latitude": 49.281267759207665, "longitude": -123.11633309804196}, "118936608RR0001": {"name": "GEARY BAPTIST CHURCH", "designationCode": "C", "categoryCode": "31", "address": "668 BROAD RD", "city": "GEARY", "province": "NB", "country": "CA", "postalCode": "E2V3W6", "twitter": "None", "instagram": "None", "facebook": "None", "youtube": "None", "website": "None", "summary": "None", "logo": "None", "latitude": 45.76780744108888, "longitude": -66.47704457553016}, "879518926RR0001": {"name": "GEARY HEADSTART PROGRAM INC.", "designationCode": "C", "categoryCode": "01", "address": "P.O. BOX 20102                OROMOCTO MALL RPO", "city": "OROMOCTO", "province": "NB", "country": "CA", "postalCode": "E2V3V2", "twitter": "None", "instagram": "None", "facebook": "None", "youtube": "None", "website": "None", "summary": "None", "logo": "None", "latitude": 45.86650800000005, "longitude": -66.36028849999994}, "107421968RR0001": {"name": "GEARY, FRENCH-LAKE, WATERVILLE CEMETERY COMMITTEE INC.", "designationCode": "C", "categoryCode": "52", "address": "135 SMITH RD", "city": "WATERVILLE-SUNBURY", "province": "NB", "country": "CA", "postalCode": "E2V3V3", "twitter": "None", "instagram": "None", "facebook": "None", "youtube": "None", "website": "None", "summary": "None", "logo": "None", "latitude": 45.78928487422848, "longitude": -66.49588937082332}, "859331712RR0001": {"name": "GEDDIE MEMORIAL CEMETERY", "designationCode": "C", "categoryCode": "59", "address": "RURAL ROUTE 2                 ROUTE 20", "city": "KENSINGTON", "province": "PE", "country": "CA", "postalCode": "C0B1M0", "twitter": "None", "instagram": "None", "facebook": "None", "youtube": "None", "website": "None", "summary": "None", "logo": "None", "latitude": 46.509691029763346, "longitude": -63.67889577042123}, "138620117RR0001": {"name": "GEDDIE MEMORIAL PRESBYTERIAN CHURCH,", "designationCode": "C", "categoryCode": "37", "address": "119 PAYNTER ROAD RR 2", "city": "SPRINGBROOK", "province": "PE", "country": "CA", "postalCode": "C0B1M0", "twitter": "None", "instagram": "None", "facebook": "None", "youtube": "None", "website": "None", "summary": "None", "logo": "None", "latitude": 46.53816900000005, "longitude": -63.71270899999993}, "118936616RR0001": {"name": "GEE FLAT CEMETERY INC.", "designationCode": "C", "categoryCode": "53", "address": "155 CURTIS ROAD", "city": "FLORENCEVILLE-BRISTOL", "province": "NB", "country": "CA", "postalCode": "E7L7H4", "twitter": "None", "instagram": "None", "facebook": "None", "youtube": "None", "website": "None", "summary": "None", "logo": "None", "latitude": 46.46099815237462, "longitude": -67.56824898138969}, "834462913RR0001": {"name": "GEERG", "designationCode": "C", "categoryCode": "21", "address": "1990 RUE ST-JACQUES", "city": "DRUMMONDVILLE", "province": "QC", "country": "CA", "postalCode": "J2B7V5", "twitter": "None", "instagram": "None", "facebook": "None", "youtube": "None", "website": "None", "summary": "None", "logo": "None", "latitude": 45.85832264611356, "longitude": -72.4572158139245}, "891110140RR0001": {"name": "GEETA GYAN SOCIETY OF BRITISH COLUMBIA", "designationCode": "C", "categoryCode": "48", "address": "11387 128TH STREET", "city": "SURREY", "province": "BC", "country": "CA", "postalCode": "V3R2W8", "twitter": "None", "instagram": "None", "facebook": "None", "youtube": "None", "website": "None", "summary": "None", "logo": "None", "latitude": 49.209545797391655, "longitude": -122.86742414031383}, "807515143RR0001": {"name": "GEEZRITE CATHOLIC ORGANIZATION IN MANITOBA (G.R.C.O.M.) INC", "designationCode": "C", "categoryCode": "39", "address": "PO BOX 1759 STATION MAIN", "city": "WINNIPEG", "province": "MB", "country": "CA", "postalCode": "R3C2Z9", "twitter": "None", "instagram": "None", "facebook": "None", "youtube": "None", "website": "None", "summary": "None", "logo": "None", "latitude": 49.899525000000054, "longitude": -97.14112999999993}, "119234656RR0001": {"name": "GELLATLY BAY TRAILS AND PARKS SOCIETY", "designationCode": "C", "categoryCode": "56", "address": "SUITE 519 22-2475 DOBBIN ROAD", "city": "WEST KELOWNA", "province": "BC", "country": "CA", "postalCode": "V4T2E9", "twitter": "None", "instagram": "None", "facebook": "None", "youtube": "None", "website": "None", "summary": "None", "logo": "None", "latitude": 49.82848852337179, "longitude": -119.6294808682845}, "876691726RR0001": {"name": "GELLATLY NUT FARM SOCIETY", "designationCode": "A", "categoryCode": "52", "address": "2375 WHITWORTH RD", "city": "WEST KELOWNA", "province": "BC", "country": "CA", "postalCode": "V4T2K3", "twitter": "None", "instagram": "None", "facebook": "None", "youtube": "None", "website": "None", "summary": "None", "logo": "None", "latitude": 49.81119821951657, "longitude": -119.62805566645557}, "118936640RR0001": {"name": "GEM COMMUNITY ASSOCIATION", "designationCode": "C", "categoryCode": "56", "address": "BOX 64", "city": "GEM", "province": "AB", "country": "CA", "postalCode": "T0J1M0", "twitter": "None", "instagram": "None", "facebook": "None", "youtube": "None", "website": "None", "summary": "None", "logo": "None", "latitude": 50.95058000000006, "longitude": -112.17674999999997}, "899454276RR0001": {"name": "GEM OF THE WEST MUSEUM SOCIETY", "designationCode": "C", "categoryCode": "50", "address": "27 1712 23 ST", "city": "COALDALE", "province": "AB", "country": "CA", "postalCode": "T1M1K5", "twitter": "None", "instagram": "None", "facebook": "None", "youtube": "None", "website": "None", "summary": "None", "logo": "None", "latitude": 49.7284162086344, "longitude": -112.63085826850957}, "118936699RR0001": {"name": "GEM PRESBYTERIAN CHURCH", "designationCode": "C", "categoryCode": "37", "address": "P.O. BOX 45", "city": "GEM", "province": "AB", "country": "CA", "postalCode": "T0J1M0", "twitter": "None", "instagram": "None", "facebook": "None", "youtube": "None", "website": "None", "summary": "None", "logo": "None", "latitude": 50.95058000000006, "longitude": -112.17674999999997}, "887389237RR0001": {"name": "GEMACH ZICHRON BURECH ZVI", "designationCode": "C", "categoryCode": "09", "address": "2550 BATES RD                 UNIT 403", "city": "MONTREAL", "province": "QC", "country": "CA", "postalCode": "H3S1A7", "twitter": "None", "instagram": "None", "facebook": "None", "youtube": "None", "website": "None", "summary": "None", "logo": "None", "latitude": 45.51378240354327, "longitude": -73.63086673186582}, "118936665RR0001": {"name": "GEMILAS CHASODIM OF AGUDATH ISRAEL CONGREGATION", "designationCode": "C", "categoryCode": "09", "address": "110 EGLINTON AVE WEST         SUITE 401", "city": "TORONTO", "province": "ON", "country": "CA", "postalCode": "M4R1A3", "twitter": "None", "instagram": "None", "facebook": "None", "youtube": "None", "website": "None", "summary": "None", "logo": "None", "latitude": 43.706071150729855, "longitude": -79.40168884139297}, "118936673RR0001": {"name": "GEMILAS CHESED OF CLANTON PARK", "designationCode": "C", "categoryCode": "09", "address": "11 LOWESMOOR AVE.", "city": "TORONTO", "province": "ON", "country": "CA", "postalCode": "M3H3H6", "twitter": "None", "instagram": "None", "facebook": "None", "youtube": "None", "website": "None", "summary": "None", "logo": "None", "latitude": 43.74557555704306, "longitude": -79.44474943418571}, "118936681RR0001": {"name": "GEMILUTH CHASODIM FOR ISRAEL GOOD DEEDS FOR ISRAEL", "designationCode": "C", "categoryCode": "21", "address": "4867 AV CARLTON", "city": "MONTREAL", "province": "QC", "country": "CA", "postalCode": "H3W1G7", "twitter": "None", "instagram": "None", "facebook": "None", "youtube": "None", "website": "None", "summary": "None", "logo": "None", "latitude": 45.49411842881867, "longitude": -73.64063810341031}, "871928875RR0001": {"name": "GEMO (GROUPE D'ENTRAIDE DE MERCIER OUEST)", "designationCode": "C", "categoryCode": "09", "address": "6765 RUE DE MARSEILLE", "city": "MONTREAL", "province": "QC", "country": "CA", "postalCode": "H1N1M4", "twitter": "None", "instagram": "None", "facebook": "None", "youtube": "None", "website": "None", "summary": "None", "logo": "None", "latitude": 45.58288543963873, "longitude": -73.53842200210613}, "891999039RR0001": {"name": "GENDER ISSUES EDUCATION FOUNDATION", "designationCode": "B", "categoryCode": "21", "address": "501 10011 116TH ST", "city": "EDMONTON", "province": "AB", "country": "CA", "postalCode": "T5K1V4", "twitter": "None", "instagram": "None", "facebook": "None", "youtube": "None", "website": "None", "summary": "None", "logo": "None", "latitude": 53.53915332361936, "longitude": -113.52129636173498}, "891190068RR0001": {"name": "GENEALOGICAL ASSOCIATION OF NOVA SCOTIA", "designationCode": "C", "categoryCode": "21", "address": "100 - 33 OCHTERLONEY ST", "city": "DARTMOUTH", "province": "NS", "country": "CA", "postalCode": "B2Y4P5", "twitter": "None", "instagram": "None", "facebook": "None", "youtube": "None", "website": "None", "summary": "None", "logo": "None", "latitude": 44.66619358257828, "longitude": -63.56900245671983}, "899252415RR0001": {"name": "GENEALOGIE NEPISIGUIT GENEALOGY", "designationCode": "C", "categoryCode": "55", "address": "360 DOUGLAS AVENUE", "city": "BATHURST", "province": "NB", "country": "CA", "postalCode": "E2A4S6", "twitter": "None", "instagram": "None", "facebook": "None", "youtube": "None", "website": "None", "summary": "None", "logo": "None", "latitude": 47.61808917645437, "longitude": -65.65593676458725}, "892145772RR0001": {"name": "GENERAL ASSEMBLY OF THE TRUE JESUS CHURCH IN CANADA", "designationCode": "C", "categoryCode": "39", "address": "68 - 201 ALEXMUIR BLVD", "city": "SCARBOROUGH", "province": "ON", "country": "CA", "postalCode": "M1V1S5", "twitter": "None", "instagram": "None", "facebook": "None", "youtube": "None", "website": "None", "summary": "None", "logo": "None", "latitude": 43.81082688842404, "longitude": -79.28404330405675}, "892782574RR0001": {"name": "GENERAL CHURCH OF THE NEW JERUSALEM IN CANADA", "designationCode": "C", "categoryCode": "39", "address": "279 BURNHAMTHORPE RD.", "city": "ETOBICOKE", "province": "ON", "country": "CA", "postalCode": "M9B1Z6", "twitter": "None", "instagram": "None", "facebook": "None", "youtube": "None", "website": "None", "summary": "None", "logo": "None", "latitude": 43.6498320996594, "longitude": -79.54472715113387}, "118936715RR0001": {"name": "GENERAL CHURCH OF THE NEW JERUSALEM IN DAWSON CREEK BRITISH COLUMBIA", "designationCode": "C", "categoryCode": "39", "address": "9013 8 ST", "city": "DAWSON CREEK", "province": "BC", "country": "CA", "postalCode": "V1G3N3", "twitter": "None", "instagram": "None", "facebook": "None", "youtube": "None", "website": "None", "summary": "None", "logo": "None", "latitude": 55.77314441909516, "longitude": -120.22465287096755}, "814475943RR0001": {"name": "GENERAL CONFERENCE OF THE CANADIAN ASSEMBLIES OF GOD / CONF\u00c9RENCE G\u00c9N\u00c9RALE DES ASSEMBL\u00c9ES DE DIEU CANADIENNES", "designationCode": "C", "categoryCode": "36", "address": "5845 BOUL COUTURE", "city": "SAINT-L\u00c9ONARD", "province": "QC", "country": "CA", "postalCode": "H1P1A8", "twitter": "None", "instagram": "None", "facebook": "None", "youtube": "None", "website": "None", "summary": "None", "logo": "None", "latitude": 45.597721754399956, "longitude": -73.60804173780883}, "118871649RR0001": {"name": "GENERAL DYNAMICS CANADA, EMPLOYEES' CHARITABLE FUND", "designationCode": "B", "categoryCode": "75", "address": "1941 ROBERTSON ROAD", "city": "OTTAWA", "province": "ON", "country": "CA", "postalCode": "K2H5B7", "twitter": "None", "instagram": "None", "facebook": "None", "youtube": "None", "website": "None", "summary": "None", "logo": "None", "latitude": 45.32598920074092, "longitude": -75.8238801078871}, "888216843RR0001": {"name": "GENERAL HOSPITAL HOSTEL ASSOCIATION", "designationCode": "C", "categoryCode": "11", "address": "EASTER HEALTH BUSUINESS OFFICE760 TOPSAIL RD", "city": "MOUNT PEARL", "province": "NL", "country": "CA", "postalCode": "A1N3J5", "twitter": "None", "instagram": "None", "facebook": "None", "youtube": "None", "website": "None", "summary": "None", "logo": "None", "latitude": 47.52316500000006, "longitude": -52.77835699999993}, "886051796RR0001": {"name": "GENERAL HOSPITAL SCHOOL OF NURSING ALUMNI ORGANIZATION", "designationCode": "C", "categoryCode": "21", "address": "P.B.28196 48 KENMOUNT ROAD", "city": "ST. JOHN'S", "province": "NL", "country": "CA", "postalCode": "A1B1W3", "twitter": "None", "instagram": "None", "facebook": "None", "youtube": "None", "website": "None", "summary": "None", "logo": "None", "latitude": 47.55923313642354, "longitude": -52.75201821935239}, "890005861RR0001": {"name": "GENERAL MOTORS OF CANADA LIMITED EMPLOYEES CHARITY TRUST", "designationCode": "B", "categoryCode": "75", "address": "1908 COLONEL SAM DR.", "city": "OSHAWA", "province": "ON", "country": "CA", "postalCode": "L1H8P7", "twitter": "None", "instagram": "None", "facebook": "None", "youtube": "None", "website": "None", "summary": "None", "logo": "None", "latitude": 43.87645065064149, "longitude": -78.80444106127416}, "108082835RR0001": {"name": "GENERAL SYNOD OF THE ANGLICAN CHURCH OF CANADA,", "designationCode": "C", "categoryCode": "30", "address": "80 HAYDEN STREET", "city": "TORONTO", "province": "ON", "country": "CA", "postalCode": "M4Y3G2", "twitter": "None", "instagram": "None", "facebook": "None", "youtube": "None", "website": "None", "summary": "None", "logo": "None", "latitude": 43.67041924897559, "longitude": -79.38167951041602}, "888034956RR0001": {"name": "GENERAL VANIER CHILDREN'S CENTRE INC", "designationCode": "C", "categoryCode": "01", "address": "ROOM 1-18 LOMOND BLVD", "city": "WINNIPEG", "province": "MB", "country": "CA", "postalCode": "R2J1Y2", "twitter": "None", "instagram": "None", "facebook": "None", "youtube": "None", "website": "None", "summary": "None", "logo": "None", "latitude": 49.85991041909517, "longitude": -97.06282888487561}, "107423097RR0001": {"name": "GENERAL VANIER NURSERY SCHOOL INC.", "designationCode": "C", "categoryCode": "20", "address": "18 LOMOND BLVD", "city": "WINNIPEG", "province": "MB", "country": "CA", "postalCode": "R2J1Y2", "twitter": "None", "instagram": "None", "facebook": "None", "youtube": "None", "website": "None", "summary": "None", "logo": "None", "latitude": 49.85991041909517, "longitude": -97.06282888487561}, "876622226RR0001": {"name": "GENERATION CHURCH", "designationCode": "C", "categoryCode": "36", "address": "101-220 DUNCAN MILLS RD", "city": "NORTH YORK", "province": "ON", "country": "CA", "postalCode": "M3B3J5", "twitter": "None", "instagram": "None", "facebook": "None", "youtube": "None", "website": "None", "summary": "None", "logo": "None", "latitude": 43.76198319862531, "longitude": -79.35361230904856}, "868782764RR0001": {"name": "GENERATION HOPE YOUTH INC", "designationCode": "C", "categoryCode": "09", "address": "402 MAIN ST NORTH", "city": "MOOSE JAW", "province": "SK", "country": "CA", "postalCode": "S6H3K2", "twitter": "None", "instagram": "None", "facebook": "None", "youtube": "None", "website": "None", "summary": "None", "logo": "None", "latitude": 50.393565392536296, "longitude": -105.53483884466883}, "898216429RR0001": {"name": "GENERATION TO GENERATION SOCIETY", "designationCode": "C", "categoryCode": "09", "address": "1705 BAY AVENUE", "city": "TRAIL", "province": "BC", "country": "CA", "postalCode": "V1R4B5", "twitter": "None", "instagram": "None", "facebook": "None", "youtube": "None", "website": "None", "summary": "None", "logo": "None", "latitude": 49.09328712739614, "longitude": -117.7046919616618}, "833581960RR0001": {"name": "GENERATIONS CHURCH WEST BRANT", "designationCode": "C", "categoryCode": "36", "address": "62 BALFOUR ST", "city": "BRANTFORD", "province": "ON", "country": "CA", "postalCode": "N3T1J7", "twitter": "None", "instagram": "None", "facebook": "None", "youtube": "None", "website": "None", "summary": "None", "logo": "None", "latitude": 43.13237161198, "longitude": -80.27455666720537}, "118936863RR0001": {"name": "GENERATIONS DAY CARE INCORPORATED", "designationCode": "C", "categoryCode": "20", "address": "RR #4", "city": "PETROLIA", "province": "ON", "country": "CA", "postalCode": "N0N1R0", "twitter": "None", "instagram": "None", "facebook": "None", "youtube": "None", "website": "None", "summary": "None", "logo": "None", "latitude": 42.884940646214766, "longitude": -82.27722828332168}, "810472274RR0001": {"name": "GENERATIONS OF HOPE FERTILITY ASSISTANCE FUND SOCIETY", "designationCode": "C", "categoryCode": "09", "address": "400, 2000 VETERANS PLACE NW", "city": "CALGARY", "province": "AB", "country": "CA", "postalCode": "T3B4N2", "twitter": "None", "instagram": "None", "facebook": "None", "youtube": "None", "website": "None", "summary": "None", "logo": "None", "latitude": 51.064447500000014, "longitude": -114.14653200000001}, "873010623RR0001": {"name": "GENEROUS HEARTS", "designationCode": "C", "categoryCode": "09", "address": "PO BOX 695                    31 ADELAIDE STREET EAST", "city": "TORONTO", "province": "ON", "country": "CA", "postalCode": "M5C2J8", "twitter": "None", "instagram": "None", "facebook": "None", "youtube": "None", "website": "None", "summary": "None", "logo": "None", "latitude": 43.650717853165304, "longitude": -79.37698425644875}, "886721992RR0001": {"name": "GENESIS CHRISTIAN MINISTRIES", "designationCode": "C", "categoryCode": "47", "address": "P.O. BOX 325", "city": "MIDDLETON", "province": "NS", "country": "CA", "postalCode": "B0S1P0", "twitter": "None", "instagram": "None", "facebook": "None", "youtube": "None", "website": "None", "summary": "None", "logo": "None", "latitude": 45.01449600000005, "longitude": -65.06449099999993}, "107423204RR0001": {"name": "GENESIS EDUCATION SOCIETY", "designationCode": "C", "categoryCode": "21", "address": "113-300-8120 BEDDINGTON BLVD  N.W.", "city": "CALGARY", "province": "AB", "country": "CA", "postalCode": "T3K2A8", "twitter": "None", "instagram": "None", "facebook": "None", "youtube": "None", "website": "None", "summary": "None", "logo": "None", "latitude": 51.12513899999999, "longitude": -114.07120513489318}, "885143578RR0001": {"name": "GENESIS INSTITUTE OF THEOLOGY, EVANGELISM & LEADERSHIP", "designationCode": "C", "categoryCode": "20", "address": "BOX 5634", "city": "FT MCMURRAY", "province": "AB", "country": "CA", "postalCode": "T9H3G6", "twitter": "None", "instagram": "None", "facebook": "None", "youtube": "None", "website": "None", "summary": "None", "logo": "None", "latitude": 56.72059001832189, "longitude": -111.35877005886067}, "118833870RR0001": {"name": "GENETIC AORTIC DISORDERS ASSOCIATION CANADA/L'ASSOCIATION CANADIENNE DES MALADIES GENETIQUES DE L'AORTE", "designationCode": "C", "categoryCode": "11", "address": "PO BOX 42257 RPO CENTRE PLAZA 128 QUEEN ST SOUTH", "city": "MISSISSAUGA", "province": "ON", "country": "CA", "postalCode": "L5M4Z4", "twitter": "None", "instagram": "None", "facebook": "None", "youtube": "None", "website": "None", "summary": "None", "logo": "None", "latitude": 43.58333477961806, "longitude": -79.7160299705983}, "123989030RR0001": {"name": "GENEVA CENTRE FOR AUTISM", "designationCode": "C", "categoryCode": "01", "address": "112 MERTON STREET", "city": "TORONTO", "province": "ON", "country": "CA", "postalCode": "M4S2Z8", "twitter": "None", "instagram": "None", "facebook": "None", "youtube": "None", "website": "None", "summary": "None", "logo": "None", "latitude": 43.69685718347842, "longitude": -79.39267670358929}, "868664640RR0001": {"name": "GENEVA CENTRE FOR AUTISM FOUNDATION", "designationCode": "A", "categoryCode": "03", "address": "112 MERTON STREET", "city": "TORONTO", "province": "ON", "country": "CA", "postalCode": "M4S2Z8", "twitter": "None", "instagram": "None", "facebook": "None", "youtube": "None", "website": "None", "summary": "None", "logo": "None", "latitude": 43.69685718347842, "longitude": -79.39267670358929}, "118936947RR0001": {"name": "GENEVA PRESBYTERIAN CHURCH", "designationCode": "C", "categoryCode": "37", "address": "BOX 609", "city": "CHESLEY", "province": "ON", "country": "CA", "postalCode": "N0G1L0", "twitter": "None", "instagram": "None", "facebook": "None", "youtube": "None", "website": "None", "summary": "None", "logo": "None", "latitude": 44.30228000000005, "longitude": -81.09649999999993}, "866605736RR0001": {"name": "GENEVA SOCIETY FOR REFORMATIONAL WORLD VIEW STUDIES", "designationCode": "B", "categoryCode": "23", "address": "6237 184TH STREET", "city": "SURREY", "province": "BC", "country": "CA", "postalCode": "V3S8B1", "twitter": "None", "instagram": "None", "facebook": "None", "youtube": "None", "website": "None", "summary": "None", "logo": "None", "latitude": 49.11563699999999, "longitude": -122.71263196116324}, "874594609RR0001": {"name": "GENOME BRITISH COLUMBIA FOUNDATION", "designationCode": "A", "categoryCode": "23", "address": "400-575 WEST 8TH AVENUE", "city": "VANCOUVER", "province": "BC", "country": "CA", "postalCode": "V5Z0C4", "twitter": "None", "instagram": "None", "facebook": "None", "youtube": "None", "website": "None", "summary": "None", "logo": "None", "latitude": 49.26424217700973, "longitude": -123.11693869167797}, "878699305RR0001": {"name": "GENOMICS CHARITABLE INITIATIVES", "designationCode": "A", "categoryCode": "23", "address": "MARS CENTRE,WEST TOWER        661 UNIVERSITY AVE, SUITE 490", "city": "TORONTO", "province": "ON", "country": "CA", "postalCode": "M5G1M1", "twitter": "None", "instagram": "None", "facebook": "None", "youtube": "None", "website": "None", "summary": "None", "logo": "None", "latitude": 43.65935411102769, "longitude": -79.3900803710258}, "883310609RR0001": {"name": "GENS AU TRAVAIL", "designationCode": "C", "categoryCode": "59", "address": "179 BOUL. SIR WILFRID LAURIER", "city": "MCMASTERVILLE", "province": "QC", "country": "CA", "postalCode": "J3G1P9", "twitter": "None", "instagram": "None", "facebook": "None", "youtube": "None", "website": "None", "summary": "None", "logo": "None", "latitude": 45.548266467969704, "longitude": -73.22439391861626}, "899601728RR0001": {"name": "GENTILLY TRANSIT JEUNESSE", "designationCode": "C", "categoryCode": "09", "address": "1875 DES HIRONDELLES", "city": "BECANCOUR", "province": "QC", "country": "CA", "postalCode": "G9H4L8", "twitter": "None", "instagram": "None", "facebook": "None", "youtube": "None", "website": "None", "summary": "None", "logo": "None", "latitude": 46.40129965390383, "longitude": -72.27284539410819}, "134398817RR0001": {"name": "GENTLE BEN CARE SOCIETY", "designationCode": "C", "categoryCode": "09", "address": "BOX 155", "city": "SMITH", "province": "AB", "country": "CA", "postalCode": "T0G2B0", "twitter": "None", "instagram": "None", "facebook": "None", "youtube": "None", "website": "None", "summary": "None", "logo": "None", "latitude": 55.163650000000075, "longitude": -114.03854999999999}, "853777175RR0001": {"name": "GENTLE PATH COUNSELLING SERVICES, LTD", "designationCode": "C", "categoryCode": "09", "address": "330 - 28 RICHMOND ST", "city": "SAINT JOHN", "province": "NB", "country": "CA", "postalCode": "E2L3B2", "twitter": "None", "instagram": "None", "facebook": "None", "youtube": "None", "website": "None", "summary": "None", "logo": "None", "latitude": 45.27753772103, "longitude": -66.05533101278604}, "801184565RR0001": {"name": "GENTLE SHEPHERD COMMUNITY CHURCH-GREY COUNTY", "designationCode": "C", "categoryCode": "39", "address": "RR 4 BOX 21", "city": "FLESHERTON", "province": "ON", "country": "CA", "postalCode": "N0C1E0", "twitter": "None", "instagram": "None", "facebook": "None", "youtube": "None", "website": "None", "summary": "None", "logo": "None", "latitude": 44.30319000000006, "longitude": -80.51740549999994}, "140263112RR0001": {"name": "GENTLE SHEPHERD CONGREGATIONAL CHRISTIAN CHURCH", "designationCode": "C", "categoryCode": "39", "address": "3 OTTAWA AVE", "city": "ELLIOT LAKE", "province": "ON", "country": "CA", "postalCode": "P5A2P1", "twitter": "None", "instagram": "None", "facebook": "None", "youtube": "None", "website": "None", "summary": "None", "logo": "None", "latitude": 46.38257113737098, "longitude": -82.6777794657222}, "849317987RR0001": {"name": "GENTLE STEPS FAMILY SUPPORT CENTER", "designationCode": "C", "categoryCode": "56", "address": "77 - 100 LEWES BLVD", "city": "WHITEHORSE", "province": "YT", "country": "CA", "postalCode": "Y1A3W1", "twitter": "None", "instagram": "None", "facebook": "None", "youtube": "None", "website": "None", "summary": "None", "logo": "None", "latitude": 60.70355310629584, "longitude": -135.02636213292757}, "887070142RR0001": {"name": "GENUINE PROGRESS INDEX ATLANTIC SOCIETY", "designationCode": "C", "categoryCode": "21", "address": "535 INDIAN POINT ROAD", "city": "GLEN HAVEN", "province": "NS", "country": "CA", "postalCode": "B3Z2T5", "twitter": "None", "instagram": "None", "facebook": "None", "youtube": "None", "website": "None", "summary": "None", "logo": "None", "latitude": 44.63835386790914, "longitude": -63.92797698531348}, "118936962RR0001": {"name": "GEORDIE PRODUCTIONS INC.", "designationCode": "C", "categoryCode": "22", "address": "550 RUE DELINELLE", "city": "MONTREAL", "province": "QC", "country": "CA", "postalCode": "H4C3B1", "twitter": "None", "instagram": "None", "facebook": "None", "youtube": "None", "website": "None", "summary": "None", "logo": "None", "latitude": 45.47354876796128, "longitude": -73.58922420581099}, "893210179RR0001": {"name": "GEORGE A. MCNAMARA MEMORIAL FOUNDATION", "designationCode": "B", "categoryCode": "03", "address": "82 CORNER RIDGE DRIVE", "city": "AURORA", "province": "ON", "country": "CA", "postalCode": "L4G6L3", "twitter": "None", "instagram": "None", "facebook": "None", "youtube": "None", "website": "None", "summary": "None", "logo": "None", "latitude": 43.98819089644546, "longitude": -79.48636688882807}}