{"140784406RR0001": {"name": "TEEN CHALLENGE OF CENTRAL CANADA INC", "designationCode": "C", "categoryCode": "01", "address": "COMP 55 SITE 525 RR 5         STN TRANSCONA", "city": "WINNIPEG", "province": "MB", "country": "CA", "postalCode": "R2C2Z2", "twitter": "None", "instagram": "None", "facebook": "None", "youtube": "None", "website": "None", "summary": "None", "logo": "None", "latitude": 49.90015262318507, "longitude": -97.02950803629832}, "891217879RR0001": {"name": "TEEN HAVEN FOUNDATION", "designationCode": "A", "categoryCode": "05", "address": "4360 LASALLE BOULEVARD", "city": "VERDUN", "province": "QC", "country": "CA", "postalCode": "H4G2A8", "twitter": "None", "instagram": "None", "facebook": "None", "youtube": "None", "website": "None", "summary": "None", "logo": "None", "latitude": 45.46020317124476, "longitude": -73.5631053765944}, "108066671RR0001": {"name": "TEEN MISSIONS IN CANADA INC.", "designationCode": "C", "categoryCode": "47", "address": "PO BOX 415", "city": "OUTLOOK", "province": "SK", "country": "CA", "postalCode": "S0L2N0", "twitter": "None", "instagram": "None", "facebook": "None", "youtube": "None", "website": "None", "summary": "None", "logo": "None"}, "140493412RR0001": {"name": "TEEN PARENT ACCESS TO EDUCATION SOCIETY", "designationCode": "C", "categoryCode": "20", "address": "BOX 32077", "city": "WHITEHORSE", "province": "YT", "country": "CA", "postalCode": "Y1A5P9", "twitter": "None", "instagram": "None", "facebook": "None", "youtube": "None", "website": "None", "summary": "None", "logo": "None", "latitude": 60.72084600000005, "longitude": -135.05323399999992}, "865432314RR0001": {"name": "TEEN RANCH MINISTRIES", "designationCode": "A", "categoryCode": "43", "address": "PO BOX 77", "city": "CALEDON", "province": "ON", "country": "CA", "postalCode": "L7K3L3", "twitter": "None", "instagram": "None", "facebook": "None", "youtube": "None", "website": "None", "summary": "None", "logo": "None", "latitude": 43.86230700000006, "longitude": -79.99868149999993}, "130311665RR0001": {"name": "TEEN STOP JEUNESSE INC", "designationCode": "C", "categoryCode": "09", "address": "533A ST. ANNES ROAD", "city": "WINNIPEG", "province": "MB", "country": "CA", "postalCode": "R2M3E8", "twitter": "None", "instagram": "None", "facebook": "None", "youtube": "None", "website": "None", "summary": "None", "logo": "None", "latitude": 49.839399668535876, "longitude": -97.09330734880555}, "108066697RR0001": {"name": "TEEN TIME OF EDMONTON", "designationCode": "C", "categoryCode": "56", "address": "13013 156 ST", "city": "EDMONTON", "province": "AB", "country": "CA", "postalCode": "T5V0A2", "twitter": "None", "instagram": "None", "facebook": "None", "youtube": "None", "website": "None", "summary": "None", "logo": "None", "latitude": 53.58896934490331, "longitude": -113.59022525693219}, "129558011RR0001": {"name": "TEEN-AID (SOUTHWEST) INC", "designationCode": "C", "categoryCode": "09", "address": "PO BOX 2008 STN MAIN", "city": "SWIFT CURRENT", "province": "SK", "country": "CA", "postalCode": "S9H4M7", "twitter": "None", "instagram": "None", "facebook": "None", "youtube": "None", "website": "None", "summary": "None", "logo": "None", "latitude": 50.292744000000056, "longitude": -107.80056349999994}, "108066630RR0001": {"name": "TEEN-AID NORTH WEST ASSOCIATION CORP.", "designationCode": "C", "categoryCode": "09", "address": "BOX 282", "city": "NORTH BATTLEFORD", "province": "SK", "country": "CA", "postalCode": "S9A2Y3", "twitter": "None", "instagram": "None", "facebook": "None", "youtube": "None", "website": "None", "summary": "None", "logo": "None", "latitude": 52.77640200000006, "longitude": -108.29903299999994}, "131433724RR0001": {"name": "TEEN-AID SASKATOON INC.", "designationCode": "C", "categoryCode": "59", "address": "PO BOX 21012", "city": "SASKATOON", "province": "SK", "country": "CA", "postalCode": "S7H5N9", "twitter": "None", "instagram": "None", "facebook": "None", "youtube": "None", "website": "None", "summary": "None", "logo": "None", "latitude": 52.13049000000005, "longitude": -106.65926449999994}, "131921280RR0001": {"name": "TEEN-ED OF RED DEER AND DISTRICT ASSOCIATION", "designationCode": "C", "categoryCode": "09", "address": "PO BOX 24012 RPO PLAZA CENTRE", "city": "RED DEER", "province": "AB", "country": "CA", "postalCode": "T4N6X6", "twitter": "None", "instagram": "None", "facebook": "None", "youtube": "None", "website": "None", "summary": "None", "logo": "None", "latitude": 52.26852300000006, "longitude": -113.80901299999994}, "866788094RR0001": {"name": "TEENAGERS AND BABIES INDEPENDANCE (T.A.B.I.)", "designationCode": "C", "categoryCode": "09", "address": "2065 NORRIS ROAD", "city": "WINNIPEG", "province": "MB", "country": "CA", "postalCode": "R2G4C1", "twitter": "None", "instagram": "None", "facebook": "None", "youtube": "None", "website": "None", "summary": "None", "logo": "None", "latitude": 49.94153912127082, "longitude": -97.03523526527825}, "891322786RR0001": {"name": "TEES COMMUNITY CEMETERY SOCIETY", "designationCode": "C", "categoryCode": "59", "address": "BOX 59", "city": "TEES", "province": "AB", "country": "CA", "postalCode": "T0C2N0", "twitter": "None", "instagram": "None", "facebook": "None", "youtube": "None", "website": "None", "summary": "None", "logo": "None", "latitude": 52.46314000000007, "longitude": -113.31718999999998}, "108066713RR0001": {"name": "TEESWATER AGRICULTURAL SOCIETY", "designationCode": "C", "categoryCode": "59", "address": "BOX 382", "city": "TEESWATER", "province": "ON", "country": "CA", "postalCode": "N0G2S0", "twitter": "None", "instagram": "None", "facebook": "None", "youtube": "None", "website": "None", "summary": "None", "logo": "None", "latitude": 43.99993000000006, "longitude": -81.28715999999997}, "119209252RR0001": {"name": "TEESWATER PASTORAL CHARGE,", "designationCode": "C", "categoryCode": "44", "address": "PO BOX 653", "city": "TEESWATER", "province": "ON", "country": "CA", "postalCode": "N0G2S0", "twitter": "None", "instagram": "None", "facebook": "None", "youtube": "None", "website": "None", "summary": "None", "logo": "None", "latitude": 43.99993000000006, "longitude": -81.28715999999997}, "119209278RR0001": {"name": "TEFILOH LEMOISHE CONGREGATION", "designationCode": "C", "categoryCode": "42", "address": "6580 WILDERTON AVE", "city": "MONTREAL", "province": "QC", "country": "CA", "postalCode": "H3S2L5", "twitter": "None", "instagram": "None", "facebook": "None", "youtube": "None", "website": "None", "summary": "None", "logo": "None", "latitude": 45.512041023861784, "longitude": -73.62658015127809}, "850558412RR0001": {"name": "TEHKUMMAH TRIANGLE SENIOR CITIZENS CLUB", "designationCode": "C", "categoryCode": "09", "address": "468 HIGHWAY 542A", "city": "TEHKUMMAH", "province": "ON", "country": "CA", "postalCode": "P0P2C0", "twitter": "None", "instagram": "None", "facebook": "None", "youtube": "None", "website": "None", "summary": "None", "logo": "None", "latitude": 45.65626006625976, "longitude": -82.01028282425294}, "854964202RR0001": {"name": "TEJA'S ANIMAL REFUGE", "designationCode": "C", "categoryCode": "54", "address": "21511 MCCORMICK", "city": "GLEN ROBERTSON", "province": "ON", "country": "CA", "postalCode": "K0B1H0", "twitter": "None", "instagram": "None", "facebook": "None", "youtube": "None", "website": "None", "summary": "None", "logo": "None", "latitude": 45.36233326911234, "longitude": -74.55248507019756}, "119209294RR0001": {"name": "TEKEYAN ARMENIAN CULTURAL ASSOCIATION OF MONTREAL", "designationCode": "C", "categoryCode": "22", "address": "200-815, COTE-VERTU", "city": "ST-LAURENT", "province": "QC", "country": "CA", "postalCode": "H4L1Y6", "twitter": "None", "instagram": "None", "facebook": "None", "youtube": "None", "website": "None", "summary": "None", "logo": "None", "latitude": 45.52007118042001, "longitude": -73.67526856844002}, "119209302RR0001": {"name": "TEKEYAN ARMENIAN CULTURAL ASSOCIATION OF TORONTO-ONT", "designationCode": "C", "categoryCode": "22", "address": "UNIT 1A-2105 MIDLAND AVE", "city": "SCARBOROUGH", "province": "ON", "country": "CA", "postalCode": "M1P3E3", "twitter": "None", "instagram": "None", "facebook": "None", "youtube": "None", "website": "None", "summary": "None", "logo": "None", "latitude": 43.77095478103168, "longitude": -79.27214626969298}, "877515981RR0001": {"name": "TEKOA MANOR CHRISTIAN HOMES INC.", "designationCode": "C", "categoryCode": "01", "address": "200 GLEN HILL DRIVE SOUTH", "city": "WHITBY", "province": "ON", "country": "CA", "postalCode": "L1N9W2", "twitter": "None", "instagram": "None", "facebook": "None", "youtube": "None", "website": "None", "summary": "None", "logo": "None", "latitude": 43.883155426020075, "longitude": -78.91416537030372}, "105164800RR0001": {"name": "TEL-AIDE", "designationCode": "C", "categoryCode": "09", "address": "CP 205 SUCCURSALE H", "city": "MONTREAL", "province": "QC", "country": "CA", "postalCode": "H3G2K7", "twitter": "None", "instagram": "None", "facebook": "None", "youtube": "None", "website": "None", "summary": "None", "logo": "None", "latitude": 45.49856100000005, "longitude": -73.57906249999994}, "108066952RR0001": {"name": "TEL-AIDE OUTAOUAIS", "designationCode": "C", "categoryCode": "09", "address": "PO BOX 7218 STN VANIER", "city": "OTTAWA", "province": "ON", "country": "CA", "postalCode": "K1L8E3", "twitter": "None", "instagram": "None", "facebook": "None", "youtube": "None", "website": "None", "summary": "None", "logo": "None", "latitude": 45.42177300000006, "longitude": -75.69115999999994}, "108066960RR0001": {"name": "TEL-AIDE QU\u00c9BEC INC.", "designationCode": "C", "categoryCode": "59", "address": "C.P. 9914                     SUCC. STE FOY", "city": "QU\u00c9BEC", "province": "QC", "country": "CA", "postalCode": "G1V4C5", "twitter": "None", "instagram": "None", "facebook": "None", "youtube": "None", "website": "None", "summary": "None", "logo": "None", "latitude": 46.78481673911341, "longitude": -71.28547031164715}, "119209336RR0001": {"name": "TEL-AIDE REGION DE VALLEYFIELD", "designationCode": "C", "categoryCode": "09", "address": "CP 81", "city": "SALABERRY-DE-VALLEYFIELD", "province": "QC", "country": "CA", "postalCode": "J6S4V5", "twitter": "None", "instagram": "None", "facebook": "None", "youtube": "None", "website": "None", "summary": "None", "logo": "None", "latitude": 45.25893600000006, "longitude": -74.10716449999994}, "133711903RR0001": {"name": "TEL-AIDE SAGUENAY-LAC SAINT-JEAN COTE NORD", "designationCode": "C", "categoryCode": "09", "address": "CP 22002", "city": "JONQUIERE", "province": "QC", "country": "CA", "postalCode": "G8A2K4", "twitter": "None", "instagram": "None", "facebook": "None", "youtube": "None", "website": "None", "summary": "None", "logo": "None", "latitude": 48.41346300000005, "longitude": -71.25355249999993}, "131543738RR0001": {"name": "TEL-ECOUTE", "designationCode": "C", "categoryCode": "09", "address": "6665 RUE DE MARSEILLE", "city": "MONTREAL", "province": "QC", "country": "CA", "postalCode": "H1N1M2", "twitter": "None", "instagram": "None", "facebook": "None", "youtube": "None", "website": "None", "summary": "None", "logo": "None", "latitude": 45.58201183181369, "longitude": -73.53890340233116}, "119209765RR0001": {"name": "TEL-HAI FUND INC.", "designationCode": "C", "categoryCode": "09", "address": "601-1 YORKDALE RD", "city": "NORTH YORK", "province": "ON", "country": "CA", "postalCode": "M6A3A1", "twitter": "None", "instagram": "None", "facebook": "None", "youtube": "None", "website": "None", "summary": "None", "logo": "None", "latitude": 43.72732424740376, "longitude": -79.44924702962736}, "130642291RR0001": {"name": "TELE-SURVEILLANCE SANTE CHAUDIERE-APPALACHES INC.", "designationCode": "C", "categoryCode": "09", "address": "253, 108E RUE", "city": "BEAUCEVILLE", "province": "QC", "country": "CA", "postalCode": "G5X2Z3", "twitter": "None", "instagram": "None", "facebook": "None", "youtube": "None", "website": "None", "summary": "None", "logo": "None", "latitude": 46.20344175337948, "longitude": -70.78809119514696}, "119209476RR0001": {"name": "TELECARE CAMBRIDGE", "designationCode": "C", "categoryCode": "09", "address": "P.O. BOX 32074", "city": "CAMBRIDGE", "province": "ON", "country": "CA", "postalCode": "N3H5C6", "twitter": "None", "instagram": "None", "facebook": "None", "youtube": "None", "website": "None", "summary": "None", "logo": "None", "latitude": 43.393209000000056, "longitude": -80.35917199999993}, "898104120RR0001": {"name": "TELECARE DISTRESS CENTRE OF PETERBOROUGH INC.", "designationCode": "C", "categoryCode": "09", "address": "PO BOX 1535 STN MAIN", "city": "PETERBOROUGH", "province": "ON", "country": "CA", "postalCode": "K9J7H7", "twitter": "None", "instagram": "None", "facebook": "None", "youtube": "None", "website": "None", "summary": "None", "logo": "None", "latitude": 44.30591700000005, "longitude": -78.31950199999993}, "108067034RR0001": {"name": "TELECARE DISTRESS CENTRES OF CANADA INC.", "designationCode": "C", "categoryCode": "09", "address": "PO BOX 1691, 150 KING STREET", "city": "PETERBOROUGH", "province": "ON", "country": "CA", "postalCode": "K9J7S4", "twitter": "None", "instagram": "None", "facebook": "None", "youtube": "None", "website": "None", "summary": "None", "logo": "None", "latitude": 44.3020455148594, "longitude": -78.32012411518264}, "119209534RR0001": {"name": "TELECARE ORILLIA", "designationCode": "C", "categoryCode": "09", "address": "170 COLBORNE ST W", "city": "ORILLIA", "province": "ON", "country": "CA", "postalCode": "L3V2Z3", "twitter": "None", "instagram": "None", "facebook": "None", "youtube": "None", "website": "None", "summary": "None", "logo": "None", "latitude": 44.60465617506292, "longitude": -79.42490074325065}, "119209674RR0001": {"name": "TELEGOSPEL INTERNATIONAL INC", "designationCode": "B", "categoryCode": "39", "address": "P.O. BOX 78", "city": "SOUTHBANK", "province": "BC", "country": "CA", "postalCode": "V0J2P0", "twitter": "None", "instagram": "None", "facebook": "None", "youtube": "None", "website": "None", "summary": "None", "logo": "None", "latitude": 54.02525000000003, "longitude": -125.77586999999994}, "891597361RR0001": {"name": "TELEPHONE AID LINE KINGSTON", "designationCode": "C", "categoryCode": "09", "address": "P.O. BOX 1325", "city": "KINGSTON", "province": "ON", "country": "CA", "postalCode": "K7L5C6", "twitter": "None", "instagram": "None", "facebook": "None", "youtube": "None", "website": "None", "summary": "None", "logo": "None", "latitude": 44.23153200000006, "longitude": -76.47933049999993}, "119209740RR0001": {"name": "TELFORDVILLE PASTORAL CHARGE,", "designationCode": "C", "categoryCode": "44", "address": "PO BOX 212", "city": "WARBURG", "province": "AB", "country": "CA", "postalCode": "T0C2T0", "twitter": "None", "instagram": "None", "facebook": "None", "youtube": "None", "website": "None", "summary": "None", "logo": "None", "latitude": 53.18105000000003, "longitude": -114.31863999999996}, "119209757RR0001": {"name": "TELFORDVILLE UNITED CHURCH,", "designationCode": "C", "categoryCode": "44", "address": "BOX 292", "city": "WARBURG", "province": "AB", "country": "CA", "postalCode": "T0C2T0", "twitter": "None", "instagram": "None", "facebook": "None", "youtube": "None", "website": "None", "summary": "None", "logo": "None", "latitude": 53.18105000000003, "longitude": -114.31863999999996}, "119209799RR0001": {"name": "TELKWA MUSEUM SOCIETY", "designationCode": "C", "categoryCode": "50", "address": "BOX 595", "city": "TELKWA", "province": "BC", "country": "CA", "postalCode": "V0J2X0", "twitter": "None", "instagram": "None", "facebook": "None", "youtube": "None", "website": "None", "summary": "None", "logo": "None", "latitude": 54.86432043492355, "longitude": -127.14498296375322}, "863076923RR0001": {"name": "TELKWA SENIORS HOUSING SOCIETY", "designationCode": "C", "categoryCode": "09", "address": "1289 COTTONWOOD STREET, BOX 46", "city": "TELKWA", "province": "BC", "country": "CA", "postalCode": "V0J2X0", "twitter": "None", "instagram": "None", "facebook": "None", "youtube": "None", "website": "None", "summary": "None", "logo": "None", "latitude": 50.98926826595372, "longitude": -118.18062165021063}, "725260897RR0001": {"name": "TELLING TALES", "designationCode": "C", "categoryCode": "21", "address": "105 MAIN STREET EAST          7TH FLOOR", "city": "HAMILTON", "province": "ON", "country": "CA", "postalCode": "L8N1G6", "twitter": "None", "instagram": "None", "facebook": "None", "youtube": "None", "website": "None", "summary": "None", "logo": "None", "latitude": 43.254462297192646, "longitude": -79.8655056154101}, "888165065RR0001": {"name": "TELUS EMPLOYEES CHARITABLE TRUST", "designationCode": "B", "categoryCode": "75", "address": "PO BOX 1552", "city": "EDMONTON", "province": "AB", "country": "CA", "postalCode": "T5J2N7", "twitter": "None", "instagram": "None", "facebook": "None", "youtube": "None", "website": "None", "summary": "None", "logo": "None", "latitude": 53.54623500000005, "longitude": -113.49037249999994}, "887483741RR0001": {"name": "TELUS FOUNDATION", "designationCode": "B", "categoryCode": "03", "address": "P.O. BOX 1552", "city": "EDMONTON", "province": "AB", "country": "CA", "postalCode": "T5J2N7", "twitter": "None", "instagram": "None", "facebook": "None", "youtube": "None", "website": "None", "summary": "None", "logo": "None", "latitude": 53.54623500000005, "longitude": -113.49037249999994}, "105169759RR0001": {"name": "TEMABEX INC.", "designationCode": "C", "categoryCode": "59", "address": "52 RUE PERREAULT O", "city": "ROUYN-NORANDA", "province": "QC", "country": "CA", "postalCode": "J9X2T4", "twitter": "None", "instagram": "None", "facebook": "None", "youtube": "None", "website": "None", "summary": "None", "logo": "None", "latitude": 48.238252500432694, "longitude": -79.0215617514571}, "890927346RR0001": {"name": "TEMAGAMI AREA FISH INVOLVEMENT PROGRAM", "designationCode": "C", "categoryCode": "59", "address": "LAKESHORE DR                  BOX 88", "city": "TEMAGAMI", "province": "ON", "country": "CA", "postalCode": "P0H2H0", "twitter": "None", "instagram": "None", "facebook": "None", "youtube": "None", "website": "None", "summary": "None", "logo": "None", "latitude": 47.063472646320555, "longitude": -79.7919370487995}, "882785546RR0001": {"name": "TEMISKAMING & DISTRICT VICTIM CRISIS ASSISTANCE AND REFERRALSERVICE", "designationCode": "C", "categoryCode": "09", "address": "300 ARMSTRONG STREET N.       P.O. BOX 1312", "city": "NEW LISKEARD", "province": "ON", "country": "CA", "postalCode": "P0J1P0", "twitter": "None", "instagram": "None", "facebook": "None", "youtube": "None", "website": "None", "summary": "None", "logo": "None", "latitude": 47.51755269979647, "longitude": -79.6745193029888}, "892779778RR0001": {"name": "TEMISKAMING ART GALLERY/GALERIE D'ART TEMISKAMING", "designationCode": "C", "categoryCode": "50", "address": "P.O. BOX 1090", "city": "HAILEYBURY", "province": "ON", "country": "CA", "postalCode": "P0J1K0", "twitter": "None", "instagram": "None", "facebook": "None", "youtube": "None", "website": "None", "summary": "None", "logo": "None", "latitude": 47.449380000000076, "longitude": -79.63766999999996}, "889625562RR0001": {"name": "TEMISKAMING COMMUNITY CHOIR", "designationCode": "C", "categoryCode": "22", "address": "P.O. BOX 1933", "city": "NEW LISKEARD", "province": "ON", "country": "CA", "postalCode": "P0J1P0", "twitter": "None", "instagram": "None", "facebook": "None", "youtube": "None", "website": "None", "summary": "None", "logo": "None", "latitude": 47.50254600000005, "longitude": -79.69562449999994}, "108067380RR0001": {"name": "TEMISKAMING HOSPITAL", "designationCode": "C", "categoryCode": "10", "address": "421 SHEPHERDSON ROAD", "city": "NEW LISKEARD", "province": "ON", "country": "CA", "postalCode": "P0J1P0", "twitter": "None", "instagram": "None", "facebook": "None", "youtube": "None", "website": "None", "summary": "None", "logo": "None", "latitude": 47.4945236024636, "longitude": -79.69560349994472}, "872700604RR0001": {"name": "TEMISKAMING HOSPITAL CAT SCAN FOUNDATION", "designationCode": "A", "categoryCode": "13", "address": "421 SHEPHERDSON ROAD", "city": "NEW LISKEARD", "province": "ON", "country": "CA", "postalCode": "P0J1P0", "twitter": "None", "instagram": "None", "facebook": "None", "youtube": "None", "website": "None", "summary": "None", "logo": "None", "latitude": 47.4945236024636, "longitude": -79.69560349994472}, "851315721RR0001": {"name": "TEMISKAMING HOSPITAL FOUNDATION", "designationCode": "A", "categoryCode": "13", "address": "421 SHEPHERDSON ROAD          P.O. BOX 4040", "city": "NEW LISKEARD", "province": "ON", "country": "CA", "postalCode": "P0J1P0", "twitter": "None", "instagram": "None", "facebook": "None", "youtube": "None", "website": "None", "summary": "None", "logo": "None", "latitude": 47.4945236024636, "longitude": -79.69560349994472}, "887185882RR0001": {"name": "TEMISKAMING LODGE AUXILIARY", "designationCode": "C", "categoryCode": "19", "address": "100 BRUCE STREET              P. O. BOX 1180", "city": "HAILEYBURY", "province": "ON", "country": "CA", "postalCode": "P0J1K0", "twitter": "None", "instagram": "None", "facebook": "None", "youtube": "None", "website": "None", "summary": "None", "logo": "None", "latitude": 47.43885566472389, "longitude": -79.63018314285266}, "119288918RR0481": {"name": "TEMISKAMING SHORES CONGREGATION OF JEHOVAH'S WITNESSES, ONTARIO", "designationCode": "C", "categoryCode": "61", "address": "RR 1, SITE 1, BOX 1, COMP 5", "city": "HAILEYBURY", "province": "ON", "country": "CA", "postalCode": "P0J1K0", "twitter": "None", "instagram": "None", "facebook": "None", "youtube": "None", "website": "None", "summary": "None", "logo": "None", "latitude": 47.4206199651218, "longitude": -79.64596424296953}, "802292144RR0001": {"name": "TEMISKAMING WEE CARE DAY CARE", "designationCode": "C", "categoryCode": "01", "address": "80 4TH STREET                 BOX 901", "city": "ENGLEHART", "province": "ON", "country": "CA", "postalCode": "P0J1H0", "twitter": "None", "instagram": "None", "facebook": "None", "youtube": "None", "website": "None", "summary": "None", "logo": "None", "latitude": 47.82387018047969, "longitude": -79.87575473649547}, "888503463RR0001": {"name": "TEMOIGNAGE-JEUNESSE NORD-OUEST INC", "designationCode": "C", "categoryCode": "47", "address": "CP 1256 SUCC BUREAU-CHEF", "city": "ROUYN-NORANDA", "province": "QC", "country": "CA", "postalCode": "J9X6E4", "twitter": "None", "instagram": "None", "facebook": "None", "youtube": "None", "website": "None", "summary": "None", "logo": "None", "latitude": 48.223561262430344, "longitude": -79.00073971551006}, "119209948RR0001": {"name": "TEMPERANCE VALE CEMETERY INC", "designationCode": "C", "categoryCode": "59", "address": "111 CROSS RD", "city": "TEMPERANCE VALE", "province": "NB", "country": "CA", "postalCode": "E6G2E2", "twitter": "None", "instagram": "None", "facebook": "None", "youtube": "None", "website": "None", "summary": "None", "logo": "None", "latitude": 46.063121586704554, "longitude": -67.24723086205209}, "119209955RR0001": {"name": "TEMPERANCE VALE COMMUNITY HALL INC", "designationCode": "C", "categoryCode": "59", "address": "182 CAMPBELL SETTLEMENT ROAD", "city": "ROSSVILLE", "province": "NB", "country": "CA", "postalCode": "E6G1Z3", "twitter": "None", "instagram": "None", "facebook": "None", "youtube": "None", "website": "None", "summary": "None", "logo": "None", "latitude": 46.01201475272652, "longitude": -67.25966631262644}, "119209963RR0001": {"name": "TEMPERANCE VALE UNITED BAPTIST CHURCH,", "designationCode": "C", "categoryCode": "31", "address": "1347 ROUTE 595", "city": "CENTRAL WATERVILLE", "province": "NB", "country": "CA", "postalCode": "E6G2K8", "twitter": "None", "instagram": "None", "facebook": "None", "youtube": "None", "website": "None", "summary": "None", "logo": "None", "latitude": 46.08290116302613, "longitude": -67.300124836755}, "892832643RR0001": {"name": "TEMPERANCEVILLE UNITED CHURCH", "designationCode": "C", "categoryCode": "44", "address": "16 RD MILLS DRIVE", "city": "HOLLAND LANDING", "province": "ON", "country": "CA", "postalCode": "L9N1B8", "twitter": "None", "instagram": "None", "facebook": "None", "youtube": "None", "website": "None", "summary": "None", "logo": "None", "latitude": 44.09470500000006, "longitude": -79.47142999999993}, "119209989RR0001": {"name": "TEMPLE ANSHE SHOLOM,", "designationCode": "C", "categoryCode": "42", "address": "215 CLINE AVE N", "city": "HAMILTON", "province": "ON", "country": "CA", "postalCode": "L8S4A1", "twitter": "None", "instagram": "None", "facebook": "None", "youtube": "None", "website": "None", "summary": "None", "logo": "None", "latitude": 43.2636491912687, "longitude": -79.90366809212891}, "119210136RR0001": {"name": "TEMPLE B'NAI TIKVAH", "designationCode": "C", "categoryCode": "42", "address": "900 - 47 AVE SW", "city": "CALGARY", "province": "AB", "country": "CA", "postalCode": "T2S3C8", "twitter": "None", "instagram": "None", "facebook": "None", "youtube": "None", "website": "None", "summary": "None", "logo": "None", "latitude": 51.01144947879262, "longitude": -114.08353433097696}, "108067596RR0001": {"name": "TEMPLE BAPTIST CHURCH", "designationCode": "C", "categoryCode": "31", "address": "BOX 441", "city": "SWAN RIVER", "province": "MB", "country": "CA", "postalCode": "R0L1Z0", "twitter": "None", "instagram": "None", "facebook": "None", "youtube": "None", "website": "None", "summary": "None", "logo": "None", "latitude": 52.11672730414978, "longitude": -101.25989472758229}, "108067604RR0001": {"name": "TEMPLE BAPTIST CHURCH", "designationCode": "C", "categoryCode": "31", "address": "606 7TH ST S W", "city": "MEDICINE HAT", "province": "AB", "country": "CA", "postalCode": "T1A4K8", "twitter": "None", "instagram": "None", "facebook": "None", "youtube": "None", "website": "None", "summary": "None", "logo": "None", "latitude": 50.032466496537566, "longitude": -110.70049041618097}, "864648951RR0001": {"name": "TEMPLE BAPTIST CHURCH SARNIA", "designationCode": "C", "categoryCode": "31", "address": "1410 QUINN DRIVE", "city": "SARNIA", "province": "ON", "country": "CA", "postalCode": "N7S6M8", "twitter": "None", "instagram": "None", "facebook": "None", "youtube": "None", "website": "None", "summary": "None", "logo": "None", "latitude": 42.98649911530452, "longitude": -82.3518859295922}, "119210003RR0001": {"name": "TEMPLE BAPTIST CHURCH,", "designationCode": "C", "categoryCode": "31", "address": "5815 DUROCHER AVE.", "city": "OUTREMONT", "province": "QC", "country": "CA", "postalCode": "H2V3Y5", "twitter": "None", "instagram": "None", "facebook": "None", "youtube": "None", "website": "None", "summary": "None", "logo": "None", "latitude": 45.522465348606325, "longitude": -73.60692168053556}, "119210029RR0001": {"name": "TEMPLE BAPTIST CHURCH,", "designationCode": "C", "categoryCode": "31", "address": "400 HOLIDAY INN DR", "city": "CAMBRIDGE", "province": "ON", "country": "CA", "postalCode": "N3C3T1", "twitter": "None", "instagram": "None", "facebook": "None", "youtube": "None", "website": "None", "summary": "None", "logo": "None", "latitude": 43.41788474323414, "longitude": -80.31184580945244}, "108067646RR0001": {"name": "TEMPLE BETH ORA CONGREGATION OF EDMONTON", "designationCode": "C", "categoryCode": "42", "address": "12313 105 AVE", "city": "EDMONTON", "province": "AB", "country": "CA", "postalCode": "T5N0Y5", "twitter": "None", "instagram": "None", "facebook": "None", "youtube": "None", "website": "None", "summary": "None", "logo": "None", "latitude": 53.54775952510253, "longitude": -113.53459041618096}, "119210144RR0001": {"name": "TEMPLE BOUDDHISTE TIBETAIN", "designationCode": "C", "categoryCode": "35", "address": "1551 COTE SAINT-ANDRE", "city": "SAINTE-SOPHIE", "province": "QC", "country": "CA", "postalCode": "J5J2S8", "twitter": "None", "instagram": "None", "facebook": "None", "youtube": "None", "website": "None", "summary": "None", "logo": "None", "latitude": 45.837706640896116, "longitude": -74.01383921212346}, "119210151RR0001": {"name": "TEMPLE CAODAIQUE DE MONTREAL", "designationCode": "C", "categoryCode": "39", "address": "7161 ST URBAIN", "city": "MONTREAL", "province": "QC", "country": "CA", "postalCode": "H2S3H4", "twitter": "None", "instagram": "None", "facebook": "None", "youtube": "None", "website": "None", "summary": "None", "logo": "None", "latitude": 45.53330619929014, "longitude": -73.61879174311855}, "119210193RR0001": {"name": "TEMPLE DU REVEIL MIRACULEUX DU ST-ESPRIT INC - HOLY GHOST MIRACLE REVIVAL TEMPLE INC", "designationCode": "C", "categoryCode": "39", "address": "206 RUE PIERRE-HEROUX", "city": "LAVAL", "province": "QC", "country": "CA", "postalCode": "H7L3Z3", "twitter": "None", "instagram": "None", "facebook": "None", "youtube": "None", "website": "None", "summary": "None", "logo": "None", "latitude": 45.600838659992014, "longitude": -73.78546618428649}, "108067752RR0001": {"name": "TEMPLE EMANU-EL", "designationCode": "C", "categoryCode": "42", "address": "120 OLD COLONY RD", "city": "WILLOWDALE", "province": "ON", "country": "CA", "postalCode": "M2L2K2", "twitter": "None", "instagram": "None", "facebook": "None", "youtube": "None", "website": "None", "summary": "None", "logo": "None", "latitude": 43.75921345441123, "longitude": -79.37476247080077}, "119210201RR0001": {"name": "TEMPLE EMANU-EL-BETH SHOLOM, MONTREAL", "designationCode": "C", "categoryCode": "42", "address": "4100, RUE SHERBROOKE O", "city": "WESTMOUNT", "province": "QC", "country": "CA", "postalCode": "H3Z1A5", "twitter": "None", "instagram": "None", "facebook": "None", "youtube": "None", "website": "None", "summary": "None", "logo": "None", "latitude": 45.48875980515327, "longitude": -73.59073224228183}, "119210235RR0001": {"name": "TEMPLE HAR ZION", "designationCode": "C", "categoryCode": "42", "address": "7360 BAYVIEW AVE", "city": "THORNHILL", "province": "ON", "country": "CA", "postalCode": "L3T2R7", "twitter": "None", "instagram": "None", "facebook": "None", "youtube": "None", "website": "None", "summary": "None", "logo": "None", "latitude": 43.81180667387048, "longitude": -79.39955580803787}, "130527344RR0001": {"name": "TEMPLE ISRAEL (OF LONDON)", "designationCode": "C", "categoryCode": "49", "address": "605 WINDERMERE ROAD", "city": "LONDON", "province": "ON", "country": "CA", "postalCode": "N5X2P1", "twitter": "None", "instagram": "None", "facebook": "None", "youtube": "None", "website": "None", "summary": "None", "logo": "None", "latitude": 43.0201371512208, "longitude": -81.25925404382842}, "879229714RR0001": {"name": "TEMPLE ISRAEL (OTTAWA) FOUNDATION", "designationCode": "A", "categoryCode": "43", "address": "1301 PRINCE OF WALES DRIVE", "city": "OTTAWA", "province": "ON", "country": "CA", "postalCode": "K2C1N2", "twitter": "None", "instagram": "None", "facebook": "None", "youtube": "None", "website": "None", "summary": "None", "logo": "None", "latitude": 45.37125659732212, "longitude": -75.70647238617369}, "135411395RR0001": {"name": "TEMPLE KOL AMI", "designationCode": "C", "categoryCode": "42", "address": "36 ATKINSON AVENUE", "city": "THORNHILL", "province": "ON", "country": "CA", "postalCode": "L4J8C9", "twitter": "None", "instagram": "None", "facebook": "None", "youtube": "None", "website": "None", "summary": "None", "logo": "None", "latitude": 43.81007098361139, "longitude": -79.44289897957107}, "893529461RR0001": {"name": "TEMPLE NUEVA VIDA", "designationCode": "C", "categoryCode": "36", "address": "279 GROSVENOR AVE N", "city": "HAMILTON", "province": "ON", "country": "CA", "postalCode": "L8L7T2", "twitter": "None", "instagram": "None", "facebook": "None", "youtube": "None", "website": "None", "summary": "None", "logo": "None", "latitude": 43.25020009270584, "longitude": -79.81785589136689}, "132463779RR0001": {"name": "TEMPLE SHALOM", "designationCode": "C", "categoryCode": "42", "address": "543 BEECHWOOD DRIVE", "city": "WATERLOO", "province": "ON", "country": "CA", "postalCode": "N2T2S8", "twitter": "None", "instagram": "None", "facebook": "None", "youtube": "None", "website": "None", "summary": "None", "logo": "None", "latitude": 43.4501584393216, "longitude": -80.56286034191257}, "119210284RR0001": {"name": "TEMPLE SHALOM MANITOBA INC", "designationCode": "C", "categoryCode": "42", "address": "1077 GRANT AVENUE", "city": "WINNIPEG", "province": "MB", "country": "CA", "postalCode": "R3M1Y6", "twitter": "None", "instagram": "None", "facebook": "None", "youtube": "None", "website": "None", "summary": "None", "logo": "None", "latitude": 49.85997464392051, "longitude": -97.1638107736741}, "108067844RR0001": {"name": "TEMPLE SHOLOM", "designationCode": "C", "categoryCode": "42", "address": "7190 OAK STREET", "city": "VANCOUVER", "province": "BC", "country": "CA", "postalCode": "V6P3Z9", "twitter": "None", "instagram": "None", "facebook": "None", "youtube": "None", "website": "None", "summary": "None", "logo": "None", "latitude": 49.220433356367955, "longitude": -123.12851101936107}, "890680598RR0001": {"name": "TEMPLE SHREE RAMJI MANDHATA", "designationCode": "C", "categoryCode": "39", "address": "8155 DUROCHER STREET", "city": "MONTREAL", "province": "QC", "country": "CA", "postalCode": "H3N2A8", "twitter": "None", "instagram": "None", "facebook": "None", "youtube": "None", "website": "None", "summary": "None", "logo": "None", "latitude": 45.53294087705576, "longitude": -73.63610435844542}, "108067851RR0001": {"name": "TEMPLE SINAI CONGREGATION OF TORONTO", "designationCode": "C", "categoryCode": "42", "address": "210 WILSON AVENUE", "city": "TORONTO", "province": "ON", "country": "CA", "postalCode": "M5M3B1", "twitter": "None", "instagram": "None", "facebook": "None", "youtube": "None", "website": "None", "summary": "None", "logo": "None", "latitude": 43.73908113688005, "longitude": -79.4253180682958}, "880625223RR0001": {"name": "TEMPLE SINAI FOUNDATION", "designationCode": "A", "categoryCode": "43", "address": "210 WILSON AVENUE", "city": "TORONTO", "province": "ON", "country": "CA", "postalCode": "M5M3B1", "twitter": "None", "instagram": "None", "facebook": "None", "youtube": "None", "website": "None", "summary": "None", "logo": "None", "latitude": 43.73908113688005, "longitude": -79.4253180682958}, "890291172RR0001": {"name": "TEMPLE SOLOMON INC CONGREGATION", "designationCode": "C", "categoryCode": "42", "address": "3919 CLARK ST", "city": "MONTREAL", "province": "QC", "country": "CA", "postalCode": "H2W1W5", "twitter": "None", "instagram": "None", "facebook": "None", "youtube": "None", "website": "None", "summary": "None", "logo": "None", "latitude": 45.51595542521201, "longitude": -73.57869113237932}, "108067869RR0001": {"name": "TEMPLE SONS OF ISRAEL", "designationCode": "C", "categoryCode": "42", "address": "P O BOX 311", "city": "SYDNEY", "province": "NS", "country": "CA", "postalCode": "B1P6H2", "twitter": "None", "instagram": "None", "facebook": "None", "youtube": "None", "website": "None", "summary": "None", "logo": "None", "latitude": 46.137372000000056, "longitude": -60.19552249999994}, "893409169RR0001": {"name": "TEMPLETON SECONDARY SCHOOL EDUCATIONAL FOUNDATION", "designationCode": "C", "categoryCode": "21", "address": "601-325 HOWE ST", "city": "VANCOUVER", "province": "BC", "country": "CA", "postalCode": "V6C1Z7", "twitter": "None", "instagram": "None", "facebook": "None", "youtube": "None", "website": "None", "summary": "None", "logo": "None", "latitude": 49.28641531002936, "longitude": -123.11419699460431}, "884498908RR0001": {"name": "TEMPLO DE ALABANZA Y ADORACION INC.", "designationCode": "C", "categoryCode": "36", "address": "651 SPRUCE ST", "city": "WINNIPEG", "province": "MB", "country": "CA", "postalCode": "R3G2Z3", "twitter": "None", "instagram": "None", "facebook": "None", "youtube": "None", "website": "None", "summary": "None", "logo": "None", "latitude": 49.88520754371285, "longitude": -97.18783751370557}, "108067968RR0001": {"name": "TEMPO SCHOOL", "designationCode": "C", "categoryCode": "20", "address": "5603 - 148 STREET", "city": "EDMONTON", "province": "AB", "country": "CA", "postalCode": "T6H4T7", "twitter": "None", "instagram": "None", "facebook": "None", "youtube": "None", "website": "None", "summary": "None", "logo": "None", "latitude": 53.49432650291419, "longitude": -113.57502483115077}, "868865106RR0001": {"name": "TEMPUS CHORAL SOCIETY", "designationCode": "C", "categoryCode": "22", "address": "300 NORTH SERVICE RD. WEST    P.O. BOX 60021-GLEN ABBEY PO", "city": "OAKVILLE", "province": "ON", "country": "CA", "postalCode": "L6M3H2", "twitter": "None", "instagram": "None", "facebook": "None", "youtube": "None", "website": "None", "summary": "None", "logo": "None", "latitude": 43.4287818207343, "longitude": -79.72054200421685}, "855215471RR0001": {"name": "TEN OAKS PROJECT", "designationCode": "C", "categoryCode": "29", "address": "251 BANK STREET, FLOOR 2", "city": "OTTAWA", "province": "ON", "country": "CA", "postalCode": "K2P1X3", "twitter": "None", "instagram": "None", "facebook": "None", "youtube": "None", "website": "None", "summary": "None", "logo": "None", "latitude": 45.41620551263771, "longitude": -75.69703608976297}, "892089848RR0001": {"name": "TEN RAINBOWS CHILDREN'S FOUNDATION", "designationCode": "C", "categoryCode": "09", "address": "PO BOX 2011 STATION A", "city": "SUDBURY", "province": "ON", "country": "CA", "postalCode": "P3A4R8", "twitter": "None", "instagram": "None", "facebook": "None", "youtube": "None", "website": "None", "summary": "None", "logo": "None", "latitude": 46.48958700000006, "longitude": -80.99011249999994}, "119210383RR0001": {"name": "TEN TEN SINCLAIR HOUSING INC", "designationCode": "C", "categoryCode": "59", "address": "1010 SINCLAIR ST", "city": "WINNIPEG", "province": "MB", "country": "CA", "postalCode": "R2V3H7", "twitter": "None", "instagram": "None", "facebook": "None", "youtube": "None", "website": "None", "summary": "None", "logo": "None", "latitude": 49.94737388565408, "longitude": -97.13710573250006}, "889455994RR0001": {"name": "TENDER LOVING CARE CHILDREN MINISTRIES", "designationCode": "C", "categoryCode": "47", "address": "515 ST-LAURENT BLVD.          SUITE 2507", "city": "OTTAWA", "province": "ON", "country": "CA", "postalCode": "K1K3X5", "twitter": "None", "instagram": "None", "facebook": "None", "youtube": "None", "website": "None", "summary": "None", "logo": "None", "latitude": 45.44401138386509, "longitude": -75.6484436629931}, "119210367RR0001": {"name": "TENDER WISHES FOUNDATION", "designationCode": "C", "categoryCode": "09", "address": "PO BOX 824", "city": "NIAGARA FALLS", "province": "ON", "country": "CA", "postalCode": "L2E6V6", "twitter": "None", "instagram": "None", "facebook": "None", "youtube": "None", "website": "None", "summary": "None", "logo": "None", "latitude": 43.10663100000005, "longitude": -79.06433299999993}, "108068040RR0001": {"name": "TENDER YEARS CO-OPERATIVE SCHOOL INC.", "designationCode": "C", "categoryCode": "20", "address": "1444 DUNDAS CRESCENT", "city": "MISSISSAUGA", "province": "ON", "country": "CA", "postalCode": "L5C1E9", "twitter": "None", "instagram": "None", "facebook": "None", "youtube": "None", "website": "None", "summary": "None", "logo": "None", "latitude": 43.54882923343262, "longitude": -79.65011055618879}, "897210894RR0001": {"name": "TENGYE LING TIBETAN BUDDHIST CENTRE", "designationCode": "C", "categoryCode": "49", "address": "910 JOHNATHAN DR", "city": "MISSISSAUGA", "province": "ON", "country": "CA", "postalCode": "L4Y1J8", "twitter": "None", "instagram": "None", "facebook": "None", "youtube": "None", "website": "None", "summary": "None", "logo": "None", "latitude": 43.59143887647883, "longitude": -79.58456294543844}, "119210375RR0001": {"name": "TENRI-KYO GRANVILLE CHURCH", "designationCode": "C", "categoryCode": "39", "address": "2769 CAMBRIDGE STREET", "city": "VANCOUVER", "province": "BC", "country": "CA", "postalCode": "V5K1L8", "twitter": "None", "instagram": "None", "facebook": "None", "youtube": "None", "website": "None", "summary": "None", "logo": "None", "latitude": 49.2867524787926, "longitude": -123.04762102553522}, "121521249RR0001": {"name": "TENRIKYO VANCOUVER CHURCH", "designationCode": "C", "categoryCode": "39", "address": "3565 RUPERT STREET", "city": "VANCOUVER", "province": "BC", "country": "CA", "postalCode": "V5M3V9", "twitter": "None", "instagram": "None", "facebook": "None", "youtube": "None", "website": "None", "summary": "None", "logo": "None", "latitude": 49.25244599999999, "longitude": -123.03391611826972}, "895609519RR0001": {"name": "TENT CITY JEWISH CONGREGATION", "designationCode": "C", "categoryCode": "39", "address": "207 - 3625 DUFFERIN ST", "city": "NORTH YORK", "province": "ON", "country": "CA", "postalCode": "M3K1Z2", "twitter": "None", "instagram": "None", "facebook": "None", "youtube": "None", "website": "None", "summary": "None", "logo": "None", "latitude": 43.73098330919264, "longitude": -79.45857671963213}, "856194162RR0001": {"name": "TENT OF DAVID MINISTRIES", "designationCode": "C", "categoryCode": "39", "address": "2197 OLD HIGHWAY #17", "city": "CLARENCE-ROCKLAND", "province": "ON", "country": "CA", "postalCode": "K4K1K7", "twitter": "None", "instagram": "None", "facebook": "None", "youtube": "None", "website": "None", "summary": "None", "logo": "None", "latitude": 45.56359291840266, "longitude": -75.2480383497315}, "119210391RR0001": {"name": "TENTH AVENUE ALLIANCE CHURCH OF THE CHRISTIAN & MISSIONARY ALLIANCE", "designationCode": "C", "categoryCode": "39", "address": "11 WEST 10TH AVE", "city": "VANCOUVER", "province": "BC", "country": "CA", "postalCode": "V5Y1R5", "twitter": "None", "instagram": "None", "facebook": "None", "youtube": "None", "website": "None", "summary": "None", "logo": "None", "latitude": 49.26213449321933, "longitude": -123.10586074854291}}