{"892709338RR0001": {"name": "ART AND CULTURE COUNCIL OF AMERICA", "designationCode": "C", "categoryCode": "22", "address": "303 - 7321 VICTORIA PARK AVE", "city": "MARKHAM", "province": "ON", "country": "CA", "postalCode": "L3R2Z8", "twitter": "None", "instagram": "None", "facebook": "None", "youtube": "None", "website": "None", "summary": "None", "logo": "None", "latitude": 43.820313766056714, "longitude": -79.34397600187593}, "889001970RR0001": {"name": "ART AND PEARL VAN DER LINDEN FOUNDATION", "designationCode": "B", "categoryCode": "03", "address": "203-815 MAIN STREET", "city": "WEST VANCOUVER", "province": "BC", "country": "CA", "postalCode": "V7T2Z3", "twitter": "None", "instagram": "None", "facebook": "None", "youtube": "None", "website": "None", "summary": "None", "logo": "None", "latitude": 49.325885259626475, "longitude": -123.1408773265804}, "864289962RR0001": {"name": "ART CITY IN ST. JAMES TOWN", "designationCode": "C", "categoryCode": "56", "address": "545 SHERBOURNE STREET         UNIT 4", "city": "TORONTO", "province": "ON", "country": "CA", "postalCode": "M4X1W5", "twitter": "None", "instagram": "None", "facebook": "None", "youtube": "None", "website": "None", "summary": "None", "logo": "None", "latitude": 43.668808206042755, "longitude": -79.37537129773396}, "893753111RR0001": {"name": "ART CITY INC.", "designationCode": "C", "categoryCode": "22", "address": "616 BROADWAY AVE", "city": "WINNIPEG", "province": "MB", "country": "CA", "postalCode": "R3C0W8", "twitter": "None", "instagram": "None", "facebook": "None", "youtube": "None", "website": "None", "summary": "None", "logo": "None", "latitude": 49.88561153952926, "longitude": -97.15522414071786}, "851567727RR0001": {"name": "ART EDUCATION SUPORT", "designationCode": "B", "categoryCode": "22", "address": "603 PLEASANT RIDGE AVE", "city": "THORNHILL", "province": "ON", "country": "CA", "postalCode": "L4J0E6", "twitter": "None", "instagram": "None", "facebook": "None", "youtube": "None", "website": "None", "summary": "None", "logo": "None", "latitude": 43.84073663336028, "longitude": -79.47641343447417}, "894353390RR0001": {"name": "ART ENGINE INC. - LA SOCIETE DES CHERCHEURS D'ART", "designationCode": "C", "categoryCode": "22", "address": "2 DALY AVE", "city": "OTTAWA", "province": "ON", "country": "CA", "postalCode": "K1N6E2", "twitter": "None", "instagram": "None", "facebook": "None", "youtube": "None", "website": "None", "summary": "None", "logo": "None", "latitude": 45.42564301552326, "longitude": -75.68902925893026}, "865247597RR0001": {"name": "ART FOR AIDS INTERNATIONAL", "designationCode": "C", "categoryCode": "09", "address": "255 QUEENS AVENUE, SUITE 250", "city": "LONDON", "province": "ON", "country": "CA", "postalCode": "N6A5R8", "twitter": "None", "instagram": "None", "facebook": "None", "youtube": "None", "website": "None", "summary": "None", "logo": "None", "latitude": 42.98595510794062, "longitude": -81.24674240853491}, "108071648RR0001": {"name": "ART GALLERY OF GREATER VICTORIA", "designationCode": "C", "categoryCode": "22", "address": "1040 MOSS ST", "city": "VICTORIA", "province": "BC", "country": "CA", "postalCode": "V8V4P1", "twitter": "None", "instagram": "None", "facebook": "None", "youtube": "None", "website": "None", "summary": "None", "logo": "None", "latitude": 48.4219115409429, "longitude": -123.34727233879589}, "888940392RR0001": {"name": "ART GALLERY OF GREATER VICTORIA FOUNDATION", "designationCode": "A", "categoryCode": "23", "address": "1040 MOSS STREET", "city": "VICTORIA", "province": "BC", "country": "CA", "postalCode": "V8V4P1", "twitter": "None", "instagram": "None", "facebook": "None", "youtube": "None", "website": "None", "summary": "None", "logo": "None", "latitude": 48.4219115409429, "longitude": -123.34727233879589}, "119043586RR0001": {"name": "ART GALLERY OF MISSISSAUGA", "designationCode": "C", "categoryCode": "50", "address": "300 CITY CENTRE DRIVE", "city": "MISSISSAUGA", "province": "ON", "country": "CA", "postalCode": "L5B3C1", "twitter": "None", "instagram": "None", "facebook": "None", "youtube": "None", "website": "None", "summary": "None", "logo": "None", "latitude": 43.58835885879121, "longitude": -79.64361319799113}, "118790393RR0001": {"name": "ART GALLERY OF NORTHUMBERLAND", "designationCode": "C", "categoryCode": "50", "address": "55 KING STREET WEST", "city": "COBOURG", "province": "ON", "country": "CA", "postalCode": "K9A2M2", "twitter": "None", "instagram": "None", "facebook": "None", "youtube": "None", "website": "None", "summary": "None", "logo": "None", "latitude": 43.95954364933675, "longitude": -78.167535550425}, "118790401RR0001": {"name": "ART GALLERY OF ONTARIO", "designationCode": "C", "categoryCode": "50", "address": "317 DUNDAS ST W", "city": "TORONTO", "province": "ON", "country": "CA", "postalCode": "M5T1G4", "twitter": "None", "instagram": "None", "facebook": "None", "youtube": "None", "website": "None", "summary": "None", "logo": "None", "latitude": 43.65403286311997, "longitude": -79.39271665041272}, "107914574RR0001": {"name": "ART GALLERY OF REGINA INC.", "designationCode": "C", "categoryCode": "53", "address": "2420 ELPHINSTONE ST.          PO BOX 1790", "city": "REGINA", "province": "SK", "country": "CA", "postalCode": "S4P3C8", "twitter": "None", "instagram": "None", "facebook": "None", "youtube": "None", "website": "None", "summary": "None", "logo": "None", "latitude": 50.44035772715569, "longitude": -104.63116506026755}, "873256697RR0001": {"name": "ART GALLERY OF SUDBURY/GALERIE D'ART DE SUDBURy", "designationCode": "C", "categoryCode": "23", "address": "251 JOHN STREET", "city": "SUDBURY", "province": "ON", "country": "CA", "postalCode": "P3E1P7", "twitter": "None", "instagram": "None", "facebook": "None", "youtube": "None", "website": "None", "summary": "None", "logo": "None", "latitude": 46.48330540085602, "longitude": -80.98813666750969}, "864612510RR0001": {"name": "ART INTERNATIONAL RELIEF-ASSISTANCE FOR RESPIRATORY TREATMENT", "designationCode": "C", "categoryCode": "11", "address": "691 SEYMOUR ST", "city": "KAMLOOPS", "province": "BC", "country": "CA", "postalCode": "V2C2H1", "twitter": "None", "instagram": "None", "facebook": "None", "youtube": "None", "website": "None", "summary": "None", "logo": "None", "latitude": 50.67489847403208, "longitude": -120.32451360935426}, "802255273RR0001": {"name": "ART MATTERS SOCIETY", "designationCode": "C", "categoryCode": "22", "address": "35240 MCKEE ROAD", "city": "ABBOTSFORD", "province": "BC", "country": "CA", "postalCode": "V2S6K6", "twitter": "None", "instagram": "None", "facebook": "None", "youtube": "None", "website": "None", "summary": "None", "logo": "None", "latitude": 49.06174343935025, "longitude": -122.24868205909186}, "813848074RR0001": {"name": "ART OF JAZZ", "designationCode": "C", "categoryCode": "22", "address": "197 COUNTY COURT BLVD         SUITE #100", "city": "BRAMPTON", "province": "ON", "country": "CA", "postalCode": "L6W4P6", "twitter": "None", "instagram": "None", "facebook": "None", "youtube": "None", "website": "None", "summary": "None", "logo": "None", "latitude": 43.66156026135086, "longitude": -79.72049841980551}, "868331828RR0001": {"name": "ART SPENCER HISTORICAL SITES SOCIETY", "designationCode": "B", "categoryCode": "53", "address": "BOX 55", "city": "CONSORT", "province": "AB", "country": "CA", "postalCode": "T0C1B0", "twitter": "None", "instagram": "None", "facebook": "None", "youtube": "None", "website": "None", "summary": "None", "logo": "None", "latitude": 51.97709700000001, "longitude": -110.57295375000001}, "134257765RR0001": {"name": "ART STARTS NEIGHBOURHOOD CULTURAL CENTRE", "designationCode": "C", "categoryCode": "22", "address": "3401 DUFFERIN ST.#38 LOWER    LEVEL", "city": "TORONTO", "province": "ON", "country": "CA", "postalCode": "M6A2T9", "twitter": "None", "instagram": "None", "facebook": "None", "youtube": "None", "website": "None", "summary": "None", "logo": "None", "latitude": 43.72470571501909, "longitude": -79.4570178706577}, "857638340RR0001": {"name": "ARTBEAT STUDIO INC.", "designationCode": "C", "categoryCode": "09", "address": "62 ALBERT ST                  4TH FLOOR", "city": "WINNIPEG", "province": "MB", "country": "CA", "postalCode": "R3B1E9", "twitter": "None", "instagram": "None", "facebook": "None", "youtube": "None", "website": "None", "summary": "None", "logo": "None", "latitude": 49.89661870552254, "longitude": -97.14021233697822}, "120029517RR0001": {"name": "ARTCITE INC", "designationCode": "C", "categoryCode": "50", "address": "319 HALL AVE", "city": "WINDSOR", "province": "ON", "country": "CA", "postalCode": "N9A2L5", "twitter": "None", "instagram": "None", "facebook": "None", "youtube": "None", "website": "None", "summary": "None", "logo": "None", "latitude": 42.32285197501303, "longitude": -83.02057158384768}, "856114640RR0001": {"name": "ARTHEART COMMUNITY ART CENTRE", "designationCode": "C", "categoryCode": "22", "address": "585 DUNDAS STREET EAST        SUITE 210", "city": "TORONTO", "province": "ON", "country": "CA", "postalCode": "M5A2B7", "twitter": "None", "instagram": "None", "facebook": "None", "youtube": "None", "website": "None", "summary": "None", "logo": "None", "latitude": 43.66027180930821, "longitude": -79.36201567984308}, "119290773RR0001": {"name": "ARTHRITIS RESEARCH FOUNDATION", "designationCode": "A", "categoryCode": "11", "address": "1001 - 522 UNIVERSITY AVE", "city": "TORONTO", "province": "ON", "country": "CA", "postalCode": "M5G1W7", "twitter": "None", "instagram": "None", "facebook": "None", "youtube": "None", "website": "None", "summary": "None", "logo": "None", "latitude": 43.65597971994926, "longitude": -79.38900529894951}, "118790526RR0001": {"name": "ARTHUR & AUDREY CUTTEN FOUNDATION", "designationCode": "B", "categoryCode": "23", "address": "130 KING STREET W. 20TH FLR", "city": "TORONTO", "province": "ON", "country": "CA", "postalCode": "M5X1K1", "twitter": "None", "instagram": "None", "facebook": "None", "youtube": "None", "website": "None", "summary": "None", "logo": "None", "latitude": 43.64798216515656, "longitude": -79.38336717805407}, "877322628RR0001": {"name": "ARTHUR AND THERESA MACDONALD CHARITABLE TRUST", "designationCode": "C", "categoryCode": "09", "address": "QUEEN SQUARE PLACE, SUITE 105 119-121 QUEEN STREET", "city": "CHARLOTTETOWN", "province": "PE", "country": "CA", "postalCode": "C1A4B3", "twitter": "None", "instagram": "None", "facebook": "None", "youtube": "None", "website": "None", "summary": "None", "logo": "None", "latitude": 46.23393565090379, "longitude": -63.12756178839015}, "118790542RR0001": {"name": "ARTHUR D GANONG FOUNDATION INC.", "designationCode": "B", "categoryCode": "21", "address": "1 CHOCOLATE DRIVE", "city": "ST. STEPHEN", "province": "NB", "country": "CA", "postalCode": "E3L2X5", "twitter": "None", "instagram": "None", "facebook": "None", "youtube": "None", "website": "None", "summary": "None", "logo": "None", "latitude": 45.20322870635453, "longitude": -67.27273749052397}, "888354842RR0001": {"name": "ARTHUR ERICKSON FOUNDATION", "designationCode": "C", "categoryCode": "52", "address": "200 - 355 BURRARD ST", "city": "VANCOUVER", "province": "BC", "country": "CA", "postalCode": "V6C2G8", "twitter": "None", "instagram": "None", "facebook": "None", "youtube": "None", "website": "None", "summary": "None", "logo": "None", "latitude": 49.287312051358924, "longitude": -123.11674798600596}, "823729942RR0001": {"name": "ARTHUR FOOD BANK", "designationCode": "C", "categoryCode": "09", "address": "GENERAL DELIVERY", "city": "ARTHUR", "province": "ON", "country": "CA", "postalCode": "N0G1A0", "twitter": "None", "instagram": "None", "facebook": "None", "youtube": "None", "website": "None", "summary": "None", "logo": "None", "latitude": 43.87534800000006, "longitude": -80.51908399999994}, "118790575RR0001": {"name": "ARTHUR FORD OUTDOOR EDUCATIONAL FOUNDATION INC.", "designationCode": "C", "categoryCode": "56", "address": "114 ODESSA AVENUE", "city": "LONDON", "province": "ON", "country": "CA", "postalCode": "N6J2Z8", "twitter": "None", "instagram": "None", "facebook": "None", "youtube": "None", "website": "None", "summary": "None", "logo": "None", "latitude": 42.95464562476194, "longitude": -81.26970535371355}, "891002990RR0001": {"name": "ARTHUR FREDERICK COMMUNITY BUILDERS", "designationCode": "C", "categoryCode": "09", "address": "PO BOX 20062                  RPO BELLEVILLE EAST", "city": "BELLEVILLE", "province": "ON", "country": "CA", "postalCode": "K8N5V1", "twitter": "None", "instagram": "None", "facebook": "None", "youtube": "None", "website": "None", "summary": "None", "logo": "None", "latitude": 44.16104400000006, "longitude": -77.38183249999993}, "895391241RR0001": {"name": "ARTHUR KIDSTON MEMORIAL CAMP", "designationCode": "C", "categoryCode": "56", "address": "P.O. BOX 48011, MILL COVE PO", "city": "BEDFORD", "province": "NS", "country": "CA", "postalCode": "B4A3Z2", "twitter": "None", "instagram": "None", "facebook": "None", "youtube": "None", "website": "None", "summary": "None", "logo": "None", "latitude": 44.71544029811935, "longitude": -63.682447637483826}, "134934116RR0001": {"name": "ARTHUR PASTORAL CHARGE", "designationCode": "C", "categoryCode": "44", "address": "BOX 44", "city": "ARTHUR", "province": "ON", "country": "CA", "postalCode": "N0G1A0", "twitter": "None", "instagram": "None", "facebook": "None", "youtube": "None", "website": "None", "summary": "None", "logo": "None", "latitude": 44.05516430804911, "longitude": -80.92867545949541}, "132239575RR0001": {"name": "ARTHUR PENTECOSTAL ASSEMBLY", "designationCode": "C", "categoryCode": "36", "address": "P.O. BOX 516", "city": "ARTHUR", "province": "ON", "country": "CA", "postalCode": "N0G1A0", "twitter": "None", "instagram": "None", "facebook": "None", "youtube": "None", "website": "None", "summary": "None", "logo": "None", "latitude": 44.05516430804911, "longitude": -80.92867545949541}, "890504442RR0001": {"name": "ARTHUR SKIDMORE FOUNDATION", "designationCode": "B", "categoryCode": "43", "address": "1250-1500 W GEORGIA STREET", "city": "VANCOUVER", "province": "BC", "country": "CA", "postalCode": "V6G2Z6", "twitter": "None", "instagram": "None", "facebook": "None", "youtube": "None", "website": "None", "summary": "None", "logo": "None", "latitude": 49.29013479542975, "longitude": -123.1300069287031}, "885378760RR0001": {"name": "ARTHUR V MAURO SENIOR STUDENT AWARD", "designationCode": "B", "categoryCode": "25", "address": "447 PORTAGE AVENUE            INVESTORS GROUPS CO. LTD.", "city": "WINNIPEG", "province": "MB", "country": "CA", "postalCode": "R3C3B6", "twitter": "None", "instagram": "None", "facebook": "None", "youtube": "None", "website": "None", "summary": "None", "logo": "None", "latitude": 49.89130006996929, "longitude": -97.15018001889877}, "124589235RR0001": {"name": "ARTICULE", "designationCode": "C", "categoryCode": "22", "address": "262, FAIRMOUNT OUEST", "city": "MONTREAL", "province": "QC", "country": "CA", "postalCode": "H2V2G3", "twitter": "None", "instagram": "None", "facebook": "None", "youtube": "None", "website": "None", "summary": "None", "logo": "None", "latitude": 45.520859966126245, "longitude": -73.59726758448286}, "139743397RR0001": {"name": "ARTIFICIAL REEF SOCIETY OF BRITISH COLUMBIA", "designationCode": "C", "categoryCode": "54", "address": "1905 OGDEN AVENUE", "city": "VANCOUVER", "province": "BC", "country": "CA", "postalCode": "V6J1A3", "twitter": "None", "instagram": "None", "facebook": "None", "youtube": "None", "website": "None", "summary": "None", "logo": "None", "latitude": 49.277053318367905, "longitude": -123.14888524395526}, "118790625RR0001": {"name": "ARTILLERY OFFICERS ASSOCIATION OF MONTREAL TRUST FUND", "designationCode": "C", "categoryCode": "15", "address": "P.O. BOX 40557                2963 ST-CHARLES BOULEVARD", "city": "KIRKLAND", "province": "QC", "country": "CA", "postalCode": "H9H5G8", "twitter": "None", "instagram": "None", "facebook": "None", "youtube": "None", "website": "None", "summary": "None", "logo": "None", "latitude": 45.44844860286205, "longitude": -73.8546182024068}, "897083283RR0001": {"name": "ARTISTIC FRAUD OF NEWFOUNDLAND INC.", "designationCode": "C", "categoryCode": "22", "address": "SUITE 300                     15 INTERNATIONAL PLACE", "city": "ST. JOHN'S", "province": "NL", "country": "CA", "postalCode": "A1A0L4", "twitter": "None", "instagram": "None", "facebook": "None", "youtube": "None", "website": "None", "summary": "None", "logo": "None", "latitude": 47.60379726951917, "longitude": -52.73470018757605}, "892377540RR0001": {"name": "ARTISTS AGAINST RACISM", "designationCode": "C", "categoryCode": "99", "address": "1500 AVENUE RD., BOX 1382", "city": "TORONTO", "province": "ON", "country": "CA", "postalCode": "M5M0A1", "twitter": "None", "instagram": "None", "facebook": "None", "youtube": "None", "website": "None", "summary": "None", "logo": "None", "latitude": 43.72280114764277, "longitude": -79.41587383989241}, "852722594RR0001": {"name": "ARTISTS IN CHRISTIAN TESTIMONY CANADA INCORPORATED", "designationCode": "C", "categoryCode": "49", "address": "PO BOX 23121                  570 LONGWORTH AVENUE", "city": "BOWMANVILLE", "province": "ON", "country": "CA", "postalCode": "L1C0H5", "twitter": "None", "instagram": "None", "facebook": "None", "youtube": "None", "website": "None", "summary": "None", "logo": "None", "latitude": 43.92998102752579, "longitude": -78.68973775287074}, "118790658RR0001": {"name": "ARTISTS' CENTRE D'ARTISTES OTTAWA INC.", "designationCode": "C", "categoryCode": "22", "address": "280 CATHERINE ST", "city": "OTTAWA", "province": "ON", "country": "CA", "postalCode": "K1R5T3", "twitter": "None", "instagram": "None", "facebook": "None", "youtube": "None", "website": "None", "summary": "None", "logo": "None", "latitude": 45.40828761085482, "longitude": -75.6948909935947}, "883150534RR0001": {"name": "ARTISTS' HEALTH ALLIANCE", "designationCode": "C", "categoryCode": "13", "address": "303 - 1000 YONGE ST", "city": "TORONTO", "province": "ON", "country": "CA", "postalCode": "M4W2K2", "twitter": "None", "instagram": "None", "facebook": "None", "youtube": "None", "website": "None", "summary": "None", "logo": "None", "latitude": 43.675733776848105, "longitude": -79.38905557496089}, "888048220RR0001": {"name": "ARTIZO INSTITUTE", "designationCode": "C", "categoryCode": "49", "address": "P.O. BOX 11516                2160-650 WEST GEORGIA STREET", "city": "VANCOUVER", "province": "BC", "country": "CA", "postalCode": "V6B4N7", "twitter": "None", "instagram": "None", "facebook": "None", "youtube": "None", "website": "None", "summary": "None", "logo": "None", "latitude": 49.282095217179936, "longitude": -123.11767129779695}, "868543331RR0001": {"name": "ARTS AND HERITAGE FOUNDATION OF ST. ALBERT", "designationCode": "C", "categoryCode": "52", "address": "200-20 PERRON ST", "city": "ST ALBERT", "province": "AB", "country": "CA", "postalCode": "T8N1E4", "twitter": "None", "instagram": "None", "facebook": "None", "youtube": "None", "website": "None", "summary": "None", "logo": "None", "latitude": 53.634460191499855, "longitude": -113.6261165691325}, "118790674RR0001": {"name": "ARTS BURLINGTON", "designationCode": "C", "categoryCode": "25", "address": "1333 LAKESHORE ROAD", "city": "BURLINGTON", "province": "ON", "country": "CA", "postalCode": "L7S1A9", "twitter": "None", "instagram": "None", "facebook": "None", "youtube": "None", "website": "None", "summary": "None", "logo": "None", "latitude": 43.32050625512111, "longitude": -79.80061752778559}, "118790690RR0001": {"name": "ARTS COUNCIL OF SURREY", "designationCode": "C", "categoryCode": "23", "address": "13530-72TH AVENUE", "city": "SURREY", "province": "BC", "country": "CA", "postalCode": "V3W2P1", "twitter": "None", "instagram": "None", "facebook": "None", "youtube": "None", "website": "None", "summary": "None", "logo": "None", "latitude": 49.13352651788918, "longitude": -122.84718124034859}, "118978543RR0001": {"name": "ARTS COUNCIL OF THE CENTRAL OKANAGAN", "designationCode": "C", "categoryCode": "22", "address": "421 CAWSTON AVE", "city": "KELOWNA", "province": "BC", "country": "CA", "postalCode": "V1Y6Z1", "twitter": "None", "instagram": "None", "facebook": "None", "youtube": "None", "website": "None", "summary": "None", "logo": "None", "latitude": 49.89161930288052, "longitude": -119.4948243998956}, "123259574RR0001": {"name": "ARTS COUNCIL OF THE NORTH OKANAGAN", "designationCode": "C", "categoryCode": "22", "address": "2704A HWY 6", "city": "VERNON", "province": "BC", "country": "CA", "postalCode": "V1T5G5", "twitter": "None", "instagram": "None", "facebook": "None", "youtube": "None", "website": "None", "summary": "None", "logo": "None", "latitude": 50.26115661883554, "longitude": -119.2706848506387}, "893283366RR0001": {"name": "ARTS DENMAN", "designationCode": "C", "categoryCode": "22", "address": "PO BOX 23", "city": "DENMAN ISLAND", "province": "BC", "country": "CA", "postalCode": "V0R1T0", "twitter": "None", "instagram": "None", "facebook": "None", "youtube": "None", "website": "None", "summary": "None", "logo": "None", "latitude": 49.53449844732606, "longitude": -124.78075159664684}, "118790716RR0001": {"name": "ARTS ETOBICOKE", "designationCode": "C", "categoryCode": "22", "address": "4893A DUNDAS STREET WEST", "city": "TORONTO", "province": "ON", "country": "CA", "postalCode": "M9A1B2", "twitter": "None", "instagram": "None", "facebook": "None", "youtube": "None", "website": "None", "summary": "None", "logo": "None", "latitude": 43.649158353273975, "longitude": -79.52828852081755}, "853045961RR0001": {"name": "ARTS FOR DEVELOPMENT FOUNDATION", "designationCode": "A", "categoryCode": "23", "address": "PO BOX 40                     1869 E. SHAWNIGAN LAKE ROAD", "city": "SHAWNIGAN LAKE", "province": "BC", "country": "CA", "postalCode": "V0R2W0", "twitter": "None", "instagram": "None", "facebook": "None", "youtube": "None", "website": "None", "summary": "None", "logo": "None", "latitude": 48.61525908229962, "longitude": -123.6269149372284}, "889550000RR0001": {"name": "ARTS INNOVATION NETWORK", "designationCode": "C", "categoryCode": "22", "address": "72 HERTFORD CRESCENT", "city": "MARKHAM", "province": "ON", "country": "CA", "postalCode": "L3S3R6", "twitter": "None", "instagram": "None", "facebook": "None", "youtube": "None", "website": "None", "summary": "None", "logo": "None", "latitude": 43.835208726066114, "longitude": -79.27829620924479}, "865531727RR0001": {"name": "ARTS INTER-MEDIA CANADA/DANCE COLLECTION DANSE", "designationCode": "C", "categoryCode": "22", "address": "301-149 CHURCH STREET", "city": "TORONTO", "province": "ON", "country": "CA", "postalCode": "M5B1Y4", "twitter": "None", "instagram": "None", "facebook": "None", "youtube": "None", "website": "None", "summary": "None", "logo": "None", "latitude": 43.65390732001267, "longitude": -79.37602972326748}, "118790724RR0001": {"name": "ARTS MANITOBA PUBLICATIONS INC.", "designationCode": "C", "categoryCode": "21", "address": "500-70 ARTHUR ST", "city": "WINNIPEG", "province": "MB", "country": "CA", "postalCode": "R3B1G7", "twitter": "None", "instagram": "None", "facebook": "None", "youtube": "None", "website": "None", "summary": "None", "logo": "None", "latitude": 49.89658499999999, "longitude": -97.14142575}, "121777023RR0001": {"name": "ARTS OTTAWA EAST ARTS OTTAWA-EST", "designationCode": "C", "categoryCode": "22", "address": "245 BOUL. CENTRUM BLVD.", "city": "OTTAWA", "province": "ON", "country": "CA", "postalCode": "K1E0A1", "twitter": "None", "instagram": "None", "facebook": "None", "youtube": "None", "website": "None", "summary": "None", "logo": "None", "latitude": 45.480353560678395, "longitude": -75.51103315378826}, "886931674RR0002": {"name": "ARTS RICHMOND HILL INC", "designationCode": "C", "categoryCode": "22", "address": "10520 YONGE ST                PO BOX 139", "city": "RICHMOND HILL", "province": "ON", "country": "CA", "postalCode": "L4C3C7", "twitter": "None", "instagram": "None", "facebook": "None", "youtube": "None", "website": "None", "summary": "None", "logo": "None", "latitude": 43.884329428241756, "longitude": -79.44029823102817}, "118790765RR0001": {"name": "ARTS-SUTTON INC.", "designationCode": "C", "categoryCode": "22", "address": "7 ACADEMIE", "city": "SUTTON", "province": "QC", "country": "CA", "postalCode": "J0E2K0", "twitter": "None", "instagram": "None", "facebook": "None", "youtube": "None", "website": "None", "summary": "None", "logo": "None", "latitude": 45.10737600000006, "longitude": -72.60849799999993}, "862309549RR0001": {"name": "ARTSCANCIRCLE LINKING CREATIVE ARTISTS WITH AT RISK YOUTH", "designationCode": "C", "categoryCode": "22", "address": "585 DUNDAS STREET EAST        3RD FLOOR", "city": "TORONTO", "province": "ON", "country": "CA", "postalCode": "M5A2B7", "twitter": "None", "instagram": "None", "facebook": "None", "youtube": "None", "website": "None", "summary": "None", "logo": "None"}, "118875715RR0001": {"name": "ARTSCONNECT TRI-CITIES ARTS COUNCIL", "designationCode": "C", "categoryCode": "22", "address": "158-2601 LOUGHEED HWY         FERNWOOD LODGE", "city": "COQUITLAM", "province": "BC", "country": "CA", "postalCode": "V3C4J2", "twitter": "None", "instagram": "None", "facebook": "None", "youtube": "None", "website": "None", "summary": "None", "logo": "None", "latitude": 49.271783617253185, "longitude": -122.78610690753702}, "851058958RR0001": {"name": "ARTSJUNKTION MB. INC.", "designationCode": "C", "categoryCode": "22", "address": "312 B WILLIAM AVENUE", "city": "WINNIPEG", "province": "MB", "country": "CA", "postalCode": "R3A1P9", "twitter": "None", "instagram": "None", "facebook": "None", "youtube": "None", "website": "None", "summary": "None", "logo": "None", "latitude": 49.89977812626247, "longitude": -97.14201972496959}, "118790740RR0001": {"name": "ARTSPACE INC.", "designationCode": "C", "categoryCode": "22", "address": "425 100 ARTHUR ST", "city": "WINNIPEG", "province": "MB", "country": "CA", "postalCode": "R3B1H3", "twitter": "None", "instagram": "None", "facebook": "None", "youtube": "None", "website": "None", "summary": "None", "logo": "None", "latitude": 49.897593000000015, "longitude": -97.1406225}, "870039229RR0001": {"name": "ARUL MIGU THURKADEVI HINDU SOCIETY (BC)", "designationCode": "C", "categoryCode": "48", "address": "4802 MAIN ST", "city": "VANCOUVER", "province": "BC", "country": "CA", "postalCode": "V5V3R8", "twitter": "None", "instagram": "None", "facebook": "None", "youtube": "None", "website": "None", "summary": "None", "logo": "None", "latitude": 49.24220957332246, "longitude": -123.10138787115629}, "118790807RR0001": {"name": "ARUNACHALA ASHRAMA BHAGAVAN SRI RAMANA MAHARSHI CENTER", "designationCode": "C", "categoryCode": "39", "address": "RR#1", "city": "BRIDGETOWN", "province": "NS", "country": "CA", "postalCode": "B0S1C0", "twitter": "None", "instagram": "None", "facebook": "None", "youtube": "None", "website": "None", "summary": "None", "logo": "None", "latitude": 44.81087000000008, "longitude": -65.38092999999998}, "118790815RR0001": {"name": "ARUNDEL CITIZENS HOME INC.", "designationCode": "C", "categoryCode": "01", "address": "2 RUE DU VILLAGE", "city": "ARUNDEL", "province": "QC", "country": "CA", "postalCode": "J0T1A0", "twitter": "None", "instagram": "None", "facebook": "None", "youtube": "None", "website": "None", "summary": "None", "logo": "None", "latitude": 45.96658407493224, "longitude": -74.61643634843344}, "118790823RR0001": {"name": "ARUNDEL UNITED CHURCH", "designationCode": "C", "categoryCode": "44", "address": "17 RUE DU VILLAGE", "city": "ARUNDEL", "province": "QC", "country": "CA", "postalCode": "J0T1A0", "twitter": "None", "instagram": "None", "facebook": "None", "youtube": "None", "website": "None", "summary": "None", "logo": "None", "latitude": 45.968017347769624, "longitude": -74.61605070569543}, "132004003RR0001": {"name": "ARUSHA CENTRE SOCIETY", "designationCode": "C", "categoryCode": "20", "address": "223 12 AVE SW", "city": "CALGARY", "province": "AB", "country": "CA", "postalCode": "T2R0G9", "twitter": "None", "instagram": "None", "facebook": "None", "youtube": "None", "website": "None", "summary": "None", "logo": "None", "latitude": 51.04147448845882, "longitude": -114.0671642216227}, "891841447RR0001": {"name": "ARVA HYDE PARK PASTORAL CHARGE", "designationCode": "C", "categoryCode": "44", "address": "13484 MEDWAY RD               RR 1", "city": "ARVA", "province": "ON", "country": "CA", "postalCode": "N0M1C0", "twitter": "None", "instagram": "None", "facebook": "None", "youtube": "None", "website": "None", "summary": "None", "logo": "None", "latitude": 43.036428863205934, "longitude": -81.34346177021165}, "887332591RR0001": {"name": "ARVIAT ALLIANCE CHURCH", "designationCode": "C", "categoryCode": "39", "address": "BOX 89", "city": "ARVIAT", "province": "NU", "country": "CA", "postalCode": "X0C0E0", "twitter": "None", "instagram": "None", "facebook": "None", "youtube": "None", "website": "None", "summary": "None", "logo": "None", "latitude": 61.10970000000003, "longitude": -94.05899999999997}, "891336349RR0001": {"name": "ARYA SAMAJ EDUCATIONAL & CULTURAL SOCIETY OF BRITISH COLUMBIA", "designationCode": "C", "categoryCode": "39", "address": "2050-1055 WEST GEORGIA STREET PO BOX 11121", "city": "VANCOUVER", "province": "BC", "country": "CA", "postalCode": "V6E3P3", "twitter": "None", "instagram": "None", "facebook": "None", "youtube": "None", "website": "None", "summary": "None", "logo": "None", "latitude": 49.28667362057004, "longitude": -123.12466569892877}, "898781612RR0001": {"name": "ARYA SAMAJ-SCARBOROUGH INC.", "designationCode": "C", "categoryCode": "39", "address": "2370 MIDLAND AVENUE           UNIT B10", "city": "SCARBOROUGH", "province": "ON", "country": "CA", "postalCode": "M1S5C6", "twitter": "None", "instagram": "None", "facebook": "None", "youtube": "None", "website": "None", "summary": "None", "logo": "None", "latitude": 43.78047248955534, "longitude": -79.27611712424138}, "890734015RR0001": {"name": "ARYA VIDYA SABHA ASSOCIATION", "designationCode": "C", "categoryCode": "48", "address": "171-173 ADVANCE BLVD.         UNIT #52", "city": "BRAMPTON", "province": "ON", "country": "CA", "postalCode": "L6T4H9", "twitter": "None", "instagram": "None", "facebook": "None", "youtube": "None", "website": "None", "summary": "None", "logo": "None", "latitude": 43.693352782099545, "longitude": -79.69295737670996}, "141034959RR0001": {"name": "AS-SADIQ ISLAMIC SCHOOLS", "designationCode": "C", "categoryCode": "20", "address": "9000 BATHURST ST", "city": "THORNHILL", "province": "ON", "country": "CA", "postalCode": "L4J8A7", "twitter": "None", "instagram": "None", "facebook": "None", "youtube": "None", "website": "None", "summary": "None", "logo": "None", "latitude": 43.841808952584266, "longitude": -79.45741310643889}, "131586844RR0001": {"name": "ASBURY AND WEST UNITED CHURCH", "designationCode": "C", "categoryCode": "44", "address": "3180 BATHURST ST", "city": "NORTH YORK", "province": "ON", "country": "CA", "postalCode": "M6A2A9", "twitter": "None", "instagram": "None", "facebook": "None", "youtube": "None", "website": "None", "summary": "None", "logo": "None", "latitude": 43.722713001933236, "longitude": -79.43057692402857}, "785074527RR0001": {"name": "ASBURY FREE METHODIST CHURCH", "designationCode": "C", "categoryCode": "39", "address": "144 GORE ST EAST", "city": "PERTH", "province": "ON", "country": "CA", "postalCode": "K7H1J7", "twitter": "None", "instagram": "None", "facebook": "None", "youtube": "None", "website": "None", "summary": "None", "logo": "None", "latitude": 44.89673641020836, "longitude": -76.24571194561133}, "866258833RR0001": {"name": "ASCEND EDUCATION SOCIETY", "designationCode": "C", "categoryCode": "47", "address": "402-5967 WILSON AVENUE", "city": "BURNABY", "province": "BC", "country": "CA", "postalCode": "V5H4N9", "twitter": "None", "instagram": "None", "facebook": "None", "youtube": "None", "website": "None", "summary": "None", "logo": "None", "latitude": 49.23076208687745, "longitude": -123.00828431378028}, "889248605RR0001": {"name": "ASCENSION LIFE CANADA", "designationCode": "C", "categoryCode": "36", "address": "120 FIELDWOOD DR", "city": "SCARBOROUGH", "province": "ON", "country": "CA", "postalCode": "M1V3G4", "twitter": "None", "instagram": "None", "facebook": "None", "youtube": "None", "website": "None", "summary": "None", "logo": "None", "latitude": 43.82500886759202, "longitude": -79.27215492838599}, "106725237RR0001": {"name": "ASCENSION LUTHERAN CHURCH", "designationCode": "C", "categoryCode": "32", "address": "865 JARRY STREET WEST", "city": "MONTREAL", "province": "QC", "country": "CA", "postalCode": "H3N1G8", "twitter": "None", "instagram": "None", "facebook": "None", "youtube": "None", "website": "None", "summary": "None", "logo": "None", "latitude": 45.529544283657415, "longitude": -73.63682231891616}, "106725260RR0001": {"name": "ASCENSION LUTHERAN CHURCH", "designationCode": "C", "categoryCode": "32", "address": "8405-83 ST NW", "city": "EDMONTON", "province": "AB", "country": "CA", "postalCode": "T6C2Z2", "twitter": "None", "instagram": "None", "facebook": "None", "youtube": "None", "website": "None", "summary": "None", "logo": "None", "latitude": 53.520283257285485, "longitude": -113.45484382234996}, "107767279RR0001": {"name": "ASCENSION LUTHERAN CHURCH", "designationCode": "C", "categoryCode": "32", "address": "1805 SILVER KING ROAD", "city": "NELSON", "province": "BC", "country": "CA", "postalCode": "V1L5T4", "twitter": "None", "instagram": "None", "facebook": "None", "youtube": "None", "website": "None", "summary": "None", "logo": "None", "latitude": 49.47899801385392, "longitude": -117.29604271662471}, "118790914RR0001": {"name": "ASCENSION LUTHERAN CHURCH", "designationCode": "C", "categoryCode": "32", "address": "421 CROUSETOWN RD", "city": "CONQUERALL MILLS", "province": "NS", "country": "CA", "postalCode": "B4V6E8", "twitter": "None", "instagram": "None", "facebook": "None", "youtube": "None", "website": "None", "summary": "None", "logo": "None", "latitude": 44.290197000000006, "longitude": -64.51529513915999}, "118790922RR0001": {"name": "ASCENSION LUTHERAN CHURCH", "designationCode": "C", "categoryCode": "32", "address": "1432-19 STREET NE", "city": "CALGARY", "province": "AB", "country": "CA", "postalCode": "T2E4Y2", "twitter": "None", "instagram": "None", "facebook": "None", "youtube": "None", "website": "None", "summary": "None", "logo": "None", "latitude": 51.06484758090485, "longitude": -114.01337725310188}, "866245467RR0001": {"name": "ASCENSION OF OUR LORD UKRAINIAN CATHOLIC CHURCH OF SWAN PLAIN", "designationCode": "C", "categoryCode": "38", "address": "201-500 SPADINA CRESCENT EAST", "city": "SASKATOON", "province": "SK", "country": "CA", "postalCode": "S7K4H9", "twitter": "None", "instagram": "None", "facebook": "None", "youtube": "None", "website": "None", "summary": "None", "logo": "None", "latitude": 52.124885779358245, "longitude": -106.65979465782763}, "107909939RR0005": {"name": "ASCENSION PARISH", "designationCode": "C", "categoryCode": "38", "address": "1100 BERKSHIRE BLVD NW", "city": "CALGARY", "province": "AB", "country": "CA", "postalCode": "T3K3M3", "twitter": "None", "instagram": "None", "facebook": "None", "youtube": "None", "website": "None", "summary": "None", "logo": "None", "latitude": 51.13476821371687, "longitude": -114.08695313073453}, "897990230RR0001": {"name": "ASCENSION UKRAINIAN CATHOLIC PARISH", "designationCode": "C", "categoryCode": "38", "address": "BOX 1409", "city": "VEGREVILLE", "province": "AB", "country": "CA", "postalCode": "T9C1S6", "twitter": "None", "instagram": "None", "facebook": "None", "youtube": "None", "website": "None", "summary": "None", "logo": "None", "latitude": 53.49528600000005, "longitude": -112.05415249999993}, "892883067RR0001": {"name": "ASCENSION UKRAINIAN ORTHODOX CHURCH AT RADWAY", "designationCode": "C", "categoryCode": "39", "address": "BOX 208", "city": "RADWAY", "province": "AB", "country": "CA", "postalCode": "T0A2V0", "twitter": "None", "instagram": "None", "facebook": "None", "youtube": "None", "website": "None", "summary": "None", "logo": "None", "latitude": 54.064550000000054, "longitude": -112.94705999999996}, "858021967RR0001": {"name": "ASCENT MISSION CANADA", "designationCode": "C", "categoryCode": "47", "address": "48 47TH AVE W", "city": "VANCOUVER", "province": "BC", "country": "CA", "postalCode": "V5Y2X8", "twitter": "None", "instagram": "None", "facebook": "None", "youtube": "None", "website": "None", "summary": "None", "logo": "None", "latitude": 49.22766054674261, "longitude": -123.10724186081134}, "119288918RR0837": {"name": "ASCOT WOODS CONGREGATION OF JEHOVAH'S WITNESSES", "designationCode": "C", "categoryCode": "61", "address": "6457 MONTROSE RD", "city": "NIAGARA FALLS", "province": "ON", "country": "CA", "postalCode": "L2H1M1", "twitter": "None", "instagram": "None", "facebook": "None", "youtube": "None", "website": "None", "summary": "None", "logo": "None", "latitude": 43.081255582289835, "longitude": -79.12308961324845}, "889653846RR0001": {"name": "ASESSIPPI CEMETERY FUND", "designationCode": "C", "categoryCode": "59", "address": "BOX 57", "city": "INGLIS", "province": "MB", "country": "CA", "postalCode": "R0J0X0", "twitter": "None", "instagram": "None", "facebook": "None", "youtube": "None", "website": "None", "summary": "None", "logo": "None", "latitude": 50.94838000000004, "longitude": -101.25137999999998}, "892430968RR0001": {"name": "ASHA JYOTI COMMUNITY WELFARE SOCIETY OF CANADA", "designationCode": "C", "categoryCode": "09", "address": "4646 HERITAGE HILLS BLVD      PO BOX 14529", "city": "MISSISSAUGA", "province": "ON", "country": "CA", "postalCode": "L5R4G3", "twitter": "None", "instagram": "None", "facebook": "None", "youtube": "None", "website": "None", "summary": "None", "logo": "None", "latitude": 43.59950838744311, "longitude": -79.66017584514387}, "884781154RR0001": {"name": "ASHAWAABIC MINISTRIES", "designationCode": "C", "categoryCode": "47", "address": "PO BOX 1417", "city": "SIOUX LOOKOUT", "province": "ON", "country": "CA", "postalCode": "P8T1B9", "twitter": "None", "instagram": "None", "facebook": "None", "youtube": "None", "website": "None", "summary": "None", "logo": "None", "latitude": 50.09808300000006, "longitude": -91.91503249999994}, "118790971RR0001": {"name": "ASHBURY COLLEGE FOUNDATION", "designationCode": "A", "categoryCode": "21", "address": "362 MARIPOSA AVENUE", "city": "OTTAWA", "province": "ON", "country": "CA", "postalCode": "K1M0T3", "twitter": "None", "instagram": "None", "facebook": "None", "youtube": "None", "website": "None", "summary": "None", "logo": "None", "latitude": 45.44862164383452, "longitude": -75.67642608976298}, "106726144RR0001": {"name": "ASHBURY COLLEGE INCORPORATED", "designationCode": "C", "categoryCode": "20", "address": "362 MARIPOSA AVE", "city": "OTTAWA", "province": "ON", "country": "CA", "postalCode": "K1M0T3", "twitter": "None", "instagram": "None", "facebook": "None", "youtube": "None", "website": "None", "summary": "None", "logo": "None", "latitude": 45.44862164383452, "longitude": -75.67642608976298}, "118791003RR0001": {"name": "ASHCROFT AND AREA COMMUNITY RESOURCES SOCIETY", "designationCode": "C", "categoryCode": "56", "address": "BOX 843", "city": "ASHCROFT", "province": "BC", "country": "CA", "postalCode": "V0K1A0", "twitter": "None", "instagram": "None", "facebook": "None", "youtube": "None", "website": "None", "summary": "None", "logo": "None", "latitude": 50.7271758075652, "longitude": -121.28212858201184}, "118818491RR0050": {"name": "ASHCROFT SEVENTH-DAY ADVENTIST CHURCH", "designationCode": "C", "categoryCode": "41", "address": "PO 1000", "city": "ABBOTSFORD", "province": "BC", "country": "CA", "postalCode": "V2S4P5", "twitter": "None", "instagram": "None", "facebook": "None", "youtube": "None", "website": "None", "summary": "None", "logo": "None", "latitude": 49.03851300000005, "longitude": -122.29441549999993}, "106726300RR0001": {"name": "ASHERN DAY CARE CO-OP INC.", "designationCode": "C", "categoryCode": "01", "address": "P.O. BOX 587                  #2 MAIN STREET", "city": "ASHERN", "province": "MB", "country": "CA", "postalCode": "R0C0E0", "twitter": "None", "instagram": "None", "facebook": "None", "youtube": "None", "website": "None", "summary": "None", "logo": "None", "latitude": 51.18073571562249, "longitude": -98.35002813305643}, "106726326RR0001": {"name": "ASHERN GOSPEL CHAPEL", "designationCode": "C", "categoryCode": "39", "address": "PO BOX 241", "city": "ASHERN", "province": "MB", "country": "CA", "postalCode": "R0C0E0", "twitter": "None", "instagram": "None", "facebook": "None", "youtube": "None", "website": "None", "summary": "None", "logo": "None", "latitude": 51.18065000000007, "longitude": -98.35010999999997}, "119288918RR1242": {"name": "ASHERN MANITOBA CONGREGATION OF JEHOVAH'S WITNESSES", "designationCode": "C", "categoryCode": "61", "address": "BOX 89", "city": "MOOSEHORN", "province": "MB", "country": "CA", "postalCode": "R0C2E0", "twitter": "None", "instagram": "None", "facebook": "None", "youtube": "None", "website": "None", "summary": "None", "logo": "None", "latitude": 51.29192000000006, "longitude": -98.42536999999999}, "847007473RR0001": {"name": "ASHERN PIONEER MUSEUM INC.", "designationCode": "C", "categoryCode": "50", "address": "26 - 1ST STREET SOUTH         P.O. BOX 642", "city": "ASHERN", "province": "MB", "country": "CA", "postalCode": "R0C0E0", "twitter": "None", "instagram": "None", "facebook": "None", "youtube": "None", "website": "None", "summary": "None", "logo": "None", "latitude": 50.69379583401282, "longitude": -98.03292294467094}, "118791060RR0001": {"name": "ASHERN UNITED CHURCH", "designationCode": "C", "categoryCode": "44", "address": "BOX 248", "city": "ASHERN", "province": "MB", "country": "CA", "postalCode": "R0C0E0", "twitter": "None", "instagram": "None", "facebook": "None", "youtube": "None", "website": "None", "summary": "None", "logo": "None", "latitude": 51.18065000000007, "longitude": -98.35010999999997}}