{"119246635RR0069": {"name": "LIGUE NAVALE 242 GRANBY", "designationCode": "C", "categoryCode": "29", "address": "C.P. 7", "city": "GRANBY", "province": "QC", "country": "CA", "postalCode": "J2G8E2", "twitter": "None", "instagram": "None", "facebook": "None", "youtube": "None", "website": "None", "summary": "None", "logo": "None", "latitude": 45.40189939908514, "longitude": -72.72572603296238}, "119019669RR0001": {"name": "LIGUE POUR LA LECTURE DE LA BIBLE", "designationCode": "C", "categoryCode": "49", "address": "1701, AVENUE BELLEVILLE", "city": "LEMOYNE", "province": "QC", "country": "CA", "postalCode": "J4P3M2", "twitter": "None", "instagram": "None", "facebook": "None", "youtube": "None", "website": "None", "summary": "None", "logo": "None", "latitude": 45.51019018844144, "longitude": -73.49559074660965}, "873788210RR0001": {"name": "LIKELY AND DISTRICT VOLUNTEER FIRE AND RESCUE SOCIETY", "designationCode": "C", "categoryCode": "55", "address": "PO BOX 242", "city": "LIKELY", "province": "BC", "country": "CA", "postalCode": "V0L1N0", "twitter": "None", "instagram": "None", "facebook": "None", "youtube": "None", "website": "None", "summary": "None", "logo": "None", "latitude": 52.585284410057305, "longitude": -121.7874009043013}, "810560938RR0001": {"name": "LIKELY CHAPEL (INDEPENDENT)", "designationCode": "C", "categoryCode": "39", "address": "BOX 9", "city": "LIKELY", "province": "BC", "country": "CA", "postalCode": "V0L1N0", "twitter": "None", "instagram": "None", "facebook": "None", "youtube": "None", "website": "None", "summary": "None", "logo": "None", "latitude": 52.585284410057305, "longitude": -121.7874009043013}, "136897451RR0001": {"name": "LIKELY CHAPEL BIBLE CAMP SOCIETY", "designationCode": "C", "categoryCode": "56", "address": "833 WESTERN AVENUE", "city": "WILLIAMS LAKE", "province": "BC", "country": "CA", "postalCode": "V2G2J5", "twitter": "None", "instagram": "None", "facebook": "None", "youtube": "None", "website": "None", "summary": "None", "logo": "None", "latitude": 52.14331778100302, "longitude": -122.14523844895821}, "119019685RR0001": {"name": "LILITH FOUNDATION FOR THE SUPPORT OF WOMENS' STUDIES", "designationCode": "C", "categoryCode": "21", "address": "SUITE 104                     111 ECHO DRIVE", "city": "OTTAWA", "province": "ON", "country": "CA", "postalCode": "K1S5K8", "twitter": "None", "instagram": "None", "facebook": "None", "youtube": "None", "website": "None", "summary": "None", "logo": "None", "latitude": 45.415727613364965, "longitude": -75.68110157141247}, "119257194RR0001": {"name": "LILLIAN ALLBON CUMBERLAND COUNTY ANIMAL SHELTER", "designationCode": "C", "categoryCode": "54", "address": "PO BOX 1077", "city": "AMHERST", "province": "NS", "country": "CA", "postalCode": "B4H4E2", "twitter": "None", "instagram": "None", "facebook": "None", "youtube": "None", "website": "None", "summary": "None", "logo": "None", "latitude": 45.83198400000006, "longitude": -64.20979249999993}, "119019701RR0001": {"name": "LILLIAN AND LEROY PAGE FOUNDATION", "designationCode": "B", "categoryCode": "03", "address": "1402 - 1 KING ST W", "city": "HAMILTON", "province": "ON", "country": "CA", "postalCode": "L8P1A4", "twitter": "None", "instagram": "None", "facebook": "None", "youtube": "None", "website": "None", "summary": "None", "logo": "None", "latitude": 43.26019321073324, "longitude": -79.88135629363086}, "885843235RR0001": {"name": "LILLIAN BUCH MINISTRIES ASSOCIATION", "designationCode": "C", "categoryCode": "47", "address": "BOX 1794                      ROAD 233", "city": "ATHABASCA", "province": "AB", "country": "CA", "postalCode": "T9S2B5", "twitter": "None", "instagram": "None", "facebook": "None", "youtube": "None", "website": "None", "summary": "None", "logo": "None", "latitude": 54.721284000000054, "longitude": -113.28321049999994}, "118930783RR0001": {"name": "LILLIAN FRASER MEMORIAL HOSPITAL AUXILIARY", "designationCode": "C", "categoryCode": "19", "address": "P.O. BOX 283", "city": "TATAMAGOUCHE", "province": "NS", "country": "CA", "postalCode": "B0K1V0", "twitter": "None", "instagram": "None", "facebook": "None", "youtube": "None", "website": "None", "summary": "None", "logo": "None", "latitude": 45.71288526208159, "longitude": -63.415849046616174}, "119019743RR0001": {"name": "LILLIAN TAYLOR CORMIER FOUNDATION INC./ FONDATION LILLIAN TAYLOR CORMIER INC.", "designationCode": "B", "categoryCode": "03", "address": "40 WEST LANE", "city": "MONCTON", "province": "NB", "country": "CA", "postalCode": "E1C6T7", "twitter": "None", "instagram": "None", "facebook": "None", "youtube": "None", "website": "None", "summary": "None", "logo": "None", "latitude": 46.09966378489816, "longitude": -64.80095502527543}, "892718560RR0001": {"name": "LILLIPUT LAND CO-OPERATIVE NURSERY SCHOOL INC.", "designationCode": "C", "categoryCode": "20", "address": "161 NORFOLK STREET", "city": "GUELPH", "province": "ON", "country": "CA", "postalCode": "N1H4J8", "twitter": "None", "instagram": "None", "facebook": "None", "youtube": "None", "website": "None", "summary": "None", "logo": "None", "latitude": 43.547449807951885, "longitude": -80.25410981040473}, "134259795RR0001": {"name": "LILLOOET AND DISTRICT RESCUE SOCIETY", "designationCode": "C", "categoryCode": "59", "address": "P.O. BOX 717", "city": "LILLOOET", "province": "BC", "country": "CA", "postalCode": "V0K1V0", "twitter": "None", "instagram": "None", "facebook": "None", "youtube": "None", "website": "None", "summary": "None", "logo": "None", "latitude": 50.70518720689823, "longitude": -121.90890624938581}, "131555799RR0001": {"name": "LILLOOET AREA LIBRARY ASSOCIATION", "designationCode": "C", "categoryCode": "50", "address": "P.O. BOX 939", "city": "LILLOOET", "province": "BC", "country": "CA", "postalCode": "V0K1V0", "twitter": "None", "instagram": "None", "facebook": "None", "youtube": "None", "website": "None", "summary": "None", "logo": "None", "latitude": 50.70518720689823, "longitude": -121.90890624938581}, "107626145RR0001": {"name": "LILLOOET DISTRICT HISTORICAL SOCIETY", "designationCode": "C", "categoryCode": "50", "address": "BOX 441", "city": "LILLOOET", "province": "BC", "country": "CA", "postalCode": "V0K1V0", "twitter": "None", "instagram": "None", "facebook": "None", "youtube": "None", "website": "None", "summary": "None", "logo": "None", "latitude": 50.70518720689823, "longitude": -121.90890624938581}, "126259811RR0001": {"name": "LILLOOET FRIENDSHIP CENTRE SOCIETY", "designationCode": "C", "categoryCode": "56", "address": "PO BOX 2170                   357 MAIN ST", "city": "LILLOOET", "province": "BC", "country": "CA", "postalCode": "V0K1V0", "twitter": "None", "instagram": "None", "facebook": "None", "youtube": "None", "website": "None", "summary": "None", "logo": "None", "latitude": 50.69848034143193, "longitude": -121.92712531791904}, "897545679RR0001": {"name": "LILLOOET GOSPEL CHAPEL", "designationCode": "C", "categoryCode": "20", "address": "BOX 647", "city": "LILLOOET", "province": "BC", "country": "CA", "postalCode": "V0K1V0", "twitter": "None", "instagram": "None", "facebook": "None", "youtube": "None", "website": "None", "summary": "None", "logo": "None", "latitude": 50.70518720689823, "longitude": -121.90890624938581}, "118818491RR0060": {"name": "LILLOOET SEVENTH-DAY ADVENTIST CHURCH", "designationCode": "C", "categoryCode": "41", "address": "PO 1000", "city": "ABBOTSFORD", "province": "BC", "country": "CA", "postalCode": "V2S4P5", "twitter": "None", "instagram": "None", "facebook": "None", "youtube": "None", "website": "None", "summary": "None", "logo": "None", "latitude": 49.03851300000005, "longitude": -122.29441549999993}, "119288918RR0769": {"name": "LILLOOET, B C CONGREGATION OF JEHOVAH'S WITNESSES", "designationCode": "C", "categoryCode": "61", "address": "BOX 1492", "city": "LILLOOET", "province": "BC", "country": "CA", "postalCode": "V0K1V0", "twitter": "None", "instagram": "None", "facebook": "None", "youtube": "None", "website": "None", "summary": "None", "logo": "None", "latitude": 50.70518720689823, "longitude": -121.90890624938581}, "841013279RR0001": {"name": "LILY LAKE PAVILION INC.", "designationCode": "C", "categoryCode": "52", "address": "P.O. BOX 492", "city": "SAINT JOHN", "province": "NB", "country": "CA", "postalCode": "E2L3Z8", "twitter": "None", "instagram": "None", "facebook": "None", "youtube": "None", "website": "None", "summary": "None", "logo": "None", "latitude": 45.27342600000006, "longitude": -66.06407149999993}, "868096744RR0001": {"name": "LILY STREET FOUNDATION", "designationCode": "B", "categoryCode": "03", "address": "6807 RAILWAY STREET SE        SUITE 140", "city": "CALGARY", "province": "AB", "country": "CA", "postalCode": "T2H2V6", "twitter": "None", "instagram": "None", "facebook": "None", "youtube": "None", "website": "None", "summary": "None", "logo": "None", "latitude": 50.99160627090414, "longitude": -114.04284542177821}, "119019826RR0001": {"name": "LILYFIELD UNITED CHURCH", "designationCode": "C", "categoryCode": "44", "address": "BOX 22 RURAL ROUTE 2", "city": "WINNIPEG", "province": "MB", "country": "CA", "postalCode": "R3C2E6", "twitter": "None", "instagram": "None", "facebook": "None", "youtube": "None", "website": "None", "summary": "None", "logo": "None", "latitude": 49.899525000000054, "longitude": -97.14112999999993}, "119019834RR0001": {"name": "LIMEHOUSE PRESBYTERIAN CHURCH", "designationCode": "C", "categoryCode": "37", "address": "12418 SIXTH LINE", "city": "LIMEHOUSE", "province": "ON", "country": "CA", "postalCode": "L0P1H0", "twitter": "None", "instagram": "None", "facebook": "None", "youtube": "None", "website": "None", "summary": "None", "logo": "None", "latitude": 43.64670757475936, "longitude": -79.96995148326467}, "121708374RR0001": {"name": "LIMESTONE ADVISORY FOR CHILD CARE PROGRAMS", "designationCode": "C", "categoryCode": "20", "address": "930 WOODBINE ROAD", "city": "KINGSTON", "province": "ON", "country": "CA", "postalCode": "K7P2X4", "twitter": "None", "instagram": "None", "facebook": "None", "youtube": "None", "website": "None", "summary": "None", "logo": "None", "latitude": 44.25883452264971, "longitude": -76.58673244463039}, "884041922RR0001": {"name": "LIMESTONE LEARNING FOUNDATION", "designationCode": "C", "categoryCode": "21", "address": "220 PORTSMOUTH AVENUE", "city": "KINGSTON", "province": "ON", "country": "CA", "postalCode": "K7L4X4", "twitter": "None", "instagram": "None", "facebook": "None", "youtube": "None", "website": "None", "summary": "None", "logo": "None", "latitude": 44.22818759755325, "longitude": -76.52595186629301}, "874453905RR0001": {"name": "LIMMUD CANADA", "designationCode": "C", "categoryCode": "22", "address": "179 LISA CRESCENT", "city": "THORNHILL", "province": "ON", "country": "CA", "postalCode": "L4J2N2", "twitter": "None", "instagram": "None", "facebook": "None", "youtube": "None", "website": "None", "summary": "None", "logo": "None", "latitude": 43.79998771357262, "longitude": -79.44379921192782}, "888639192RR0001": {"name": "LINACY FIRE DEPARTMENT", "designationCode": "C", "categoryCode": "59", "address": "6735 HIGHWAY 4                MOD 3 COMP 15 RR 1", "city": "NEW GLASGOW", "province": "NS", "country": "CA", "postalCode": "B2H5C4", "twitter": "None", "instagram": "None", "facebook": "None", "youtube": "None", "website": "None", "summary": "None", "logo": "None", "latitude": 45.64995900000005, "longitude": -62.49579199999994}, "892196569RR0001": {"name": "LINAS TZEDEK CHARITABLE FOUNDATION", "designationCode": "B", "categoryCode": "23", "address": "970 LAWRENCE AVE WEST         STE 304", "city": "TORONTO", "province": "ON", "country": "CA", "postalCode": "M6A3B6", "twitter": "None", "instagram": "None", "facebook": "None", "youtube": "None", "website": "None", "summary": "None", "logo": "None", "latitude": 43.713414238444024, "longitude": -79.45809593770547}, "119019867RR0001": {"name": "LINCCO-L'INSTITUT POUR LA CULTURE ET LA COOPERATION", "designationCode": "C", "categoryCode": "01", "address": "630 RUE SHERBROOKE O          SUITE 400", "city": "MONTREAL", "province": "QC", "country": "CA", "postalCode": "H3A1E4", "twitter": "None", "instagram": "None", "facebook": "None", "youtube": "None", "website": "None", "summary": "None", "logo": "None", "latitude": 45.505404, "longitude": -73.5724035}, "888694445RR0001": {"name": "LINCOLN & WELLAND REGIMENT FOUNDATION", "designationCode": "A", "categoryCode": "53", "address": "81 LAKE ST                    LAKE ST ARMOURY", "city": "ST CATHARINES", "province": "ON", "country": "CA", "postalCode": "L2R5X3", "twitter": "None", "instagram": "None", "facebook": "None", "youtube": "None", "website": "None", "summary": "None", "logo": "None", "latitude": 43.162711040798655, "longitude": -79.25060093551244}, "859543431RR0001": {"name": "LINCOLN BAPTIST CHURCH,INC.", "designationCode": "C", "categoryCode": "31", "address": "2275 ROUTE# 102", "city": "LINCOLN", "province": "NB", "country": "CA", "postalCode": "E3B8N9", "twitter": "None", "instagram": "None", "facebook": "None", "youtube": "None", "website": "None", "summary": "None", "logo": "None", "latitude": 45.9000881981677, "longitude": -66.57475288388376}, "850970344RR0001": {"name": "LINCOLN CEMETERY ASSOCIATION", "designationCode": "C", "categoryCode": "59", "address": "2355 RTE 102 HWY", "city": "LINCOLN", "province": "NB", "country": "CA", "postalCode": "E3B8N6", "twitter": "None", "instagram": "None", "facebook": "None", "youtube": "None", "website": "None", "summary": "None", "logo": "None", "latitude": 45.899989079361696, "longitude": -66.57469741629971}, "130115397RR0001": {"name": "LINCOLN COUNTY HUMANE SOCIETY", "designationCode": "C", "categoryCode": "54", "address": "160 FOURTH AVE", "city": "ST CATHARINES", "province": "ON", "country": "CA", "postalCode": "L2S0B6", "twitter": "None", "instagram": "None", "facebook": "None", "youtube": "None", "website": "None", "summary": "None", "logo": "None", "latitude": 43.155486462246714, "longitude": -79.26543850041509}, "119019933RR0001": {"name": "LINCOLN ELECTRIC CO. EMPLOYEE CHEST", "designationCode": "B", "categoryCode": "75", "address": "179 WICKSTEED AVE", "city": "TORONTO", "province": "ON", "country": "CA", "postalCode": "M4G2B9", "twitter": "None", "instagram": "None", "facebook": "None", "youtube": "None", "website": "None", "summary": "None", "logo": "None", "latitude": 43.71194980930822, "longitude": -79.35475717984308}, "894152982RR0001": {"name": "LINCOLN GARDEN CLUB AND HORTICULTURAL SOCIETY", "designationCode": "C", "categoryCode": "50", "address": "3512 HERITAGE LANE", "city": "VINELAND", "province": "ON", "country": "CA", "postalCode": "L0R2C0", "twitter": "None", "instagram": "None", "facebook": "None", "youtube": "None", "website": "None", "summary": "None", "logo": "None", "latitude": 43.16246746378898, "longitude": -79.39469244754457}, "107626558RR0001": {"name": "LINCOLN HEIGHTS MISSIONARY CHURCH", "designationCode": "C", "categoryCode": "39", "address": "289 LINCOLN ROAD", "city": "WATERLOO", "province": "ON", "country": "CA", "postalCode": "N2J2P6", "twitter": "None", "instagram": "None", "facebook": "None", "youtube": "None", "website": "None", "summary": "None", "logo": "None", "latitude": 43.482087429366935, "longitude": -80.50590488184585}, "107797383RR0028": {"name": "LINCOLN PIONEER SEVENTH-DAY ADVENTIST CHURCH", "designationCode": "C", "categoryCode": "39", "address": "P.O. BOX 426", "city": "SMITHVILLE", "province": "ON", "country": "CA", "postalCode": "L0R2A0", "twitter": "None", "instagram": "None", "facebook": "None", "youtube": "None", "website": "None", "summary": "None", "logo": "None", "latitude": 43.09114347619214, "longitude": -79.56149144437846}, "107626590RR0001": {"name": "LINCOLN PUBLIC LIBRARY BOARD", "designationCode": "C", "categoryCode": "50", "address": "4800 SOUTH SERVICE RD", "city": "BEAMSVILLE", "province": "ON", "country": "CA", "postalCode": "L0R1B1", "twitter": "None", "instagram": "None", "facebook": "None", "youtube": "None", "website": "None", "summary": "None", "logo": "None", "latitude": 43.18830554616571, "longitude": -79.46450235651217}, "889667044RR0001": {"name": "LINCOLN ROAD CHAPEL", "designationCode": "C", "categoryCode": "39", "address": "145 LINCOLN RD", "city": "WATERLOO", "province": "ON", "country": "CA", "postalCode": "N2J2N8", "twitter": "None", "instagram": "None", "facebook": "None", "youtube": "None", "website": "None", "summary": "None", "logo": "None", "latitude": 43.472397700502235, "longitude": -80.51112907574029}, "119020014RR0001": {"name": "LINCOURT MANOR INC.", "designationCode": "C", "categoryCode": "10", "address": "PO BOX 116", "city": "ST STEPHEN", "province": "NB", "country": "CA", "postalCode": "E3L2W9", "twitter": "None", "instagram": "None", "facebook": "None", "youtube": "None", "website": "None", "summary": "None", "logo": "None", "latitude": 45.19456800000006, "longitude": -67.27532299999993}, "882235005RR0001": {"name": "LIND FAMILY FOUNDATION", "designationCode": "B", "categoryCode": "03", "address": "16243 HWY#35", "city": "ALGONQUIN HIGHLANDS", "province": "ON", "country": "CA", "postalCode": "K0M1J1", "twitter": "None", "instagram": "None", "facebook": "None", "youtube": "None", "website": "None", "summary": "None", "logo": "None", "latitude": 45.07301869048756, "longitude": -78.71999697681613}, "107626830RR0001": {"name": "LINDA HOWARTH MEMORIAL PRESCHOOL (COUNCIL OF PARENT PARTICIPATION PRESCHOOLS IN BRITISH COLUMBIA)", "designationCode": "C", "categoryCode": "20", "address": "130 - 2960 OKANAGAN AVE NE", "city": "SALMON ARM", "province": "BC", "country": "CA", "postalCode": "V1E1E6", "twitter": "None", "instagram": "None", "facebook": "None", "youtube": "None", "website": "None", "summary": "None", "logo": "None", "latitude": 50.699789822519925, "longitude": -119.25053117748007}, "891511743RR0001": {"name": "LINDEN & DISTRICT AGRICULTURAL SOCIETY", "designationCode": "C", "categoryCode": "56", "address": "BOX 483", "city": "LINDEN", "province": "AB", "country": "CA", "postalCode": "T0M1J0", "twitter": "None", "instagram": "None", "facebook": "None", "youtube": "None", "website": "None", "summary": "None", "logo": "None", "latitude": 51.59595000000007, "longitude": -113.49754999999999}, "119020030RR0001": {"name": "LINDEN ALLIANCE CHURCH", "designationCode": "C", "categoryCode": "39", "address": "PO BOX 340", "city": "LINDEN", "province": "AB", "country": "CA", "postalCode": "T0M1J0", "twitter": "None", "instagram": "None", "facebook": "None", "youtube": "None", "website": "None", "summary": "None", "logo": "None", "latitude": 51.59595000000007, "longitude": -113.49754999999999}, "119020048RR0001": {"name": "LINDEN BENEVOLENT SOCIETY FOR SENIORS", "designationCode": "C", "categoryCode": "10", "address": "POST OFFICE BOX 150", "city": "LINDEN", "province": "AB", "country": "CA", "postalCode": "T0M1J0", "twitter": "None", "instagram": "None", "facebook": "None", "youtube": "None", "website": "None", "summary": "None", "logo": "None", "latitude": 51.59595000000007, "longitude": -113.49754999999999}, "120707179RR0001": {"name": "LINDEN CHRISTIAN SCHOOL INC", "designationCode": "C", "categoryCode": "20", "address": "877 WILKES AVE", "city": "WINNIPEG", "province": "MB", "country": "CA", "postalCode": "R3P1B8", "twitter": "None", "instagram": "None", "facebook": "None", "youtube": "None", "website": "None", "summary": "None", "logo": "None", "latitude": 49.847063039536486, "longitude": -97.18311726032502}, "872866603RR0001": {"name": "LINDEN COMMUNITY & EDUCATION CENTRE", "designationCode": "C", "categoryCode": "59", "address": "520 - 44 BOND ST W", "city": "OSHAWA", "province": "ON", "country": "CA", "postalCode": "L1G6R2", "twitter": "None", "instagram": "None", "facebook": "None", "youtube": "None", "website": "None", "summary": "None", "logo": "None", "latitude": 43.89813106691082, "longitude": -78.86537900903103}, "887659027RR0001": {"name": "LINDEN HILLSIDE CEMETERY SOCIETY", "designationCode": "C", "categoryCode": "59", "address": "RURAL ROUTE 1", "city": "PORT HOWE", "province": "NS", "country": "CA", "postalCode": "B0K1K0", "twitter": "None", "instagram": "None", "facebook": "None", "youtube": "None", "website": "None", "summary": "None", "logo": "None", "latitude": 45.85173900000005, "longitude": -63.776761999999934}, "889774428RR0001": {"name": "LINDEN MUNICIPAL LIBRARY", "designationCode": "C", "categoryCode": "50", "address": "PO BOX 120", "city": "LINDEN", "province": "AB", "country": "CA", "postalCode": "T0M1J0", "twitter": "None", "instagram": "None", "facebook": "None", "youtube": "None", "website": "None", "summary": "None", "logo": "None", "latitude": 51.59595000000007, "longitude": -113.49754999999999}, "119020063RR0001": {"name": "LINDEN PARK UNITED CHURCH", "designationCode": "C", "categoryCode": "44", "address": "484 EAST 16TH ST", "city": "HAMILTON", "province": "ON", "country": "CA", "postalCode": "L9A4K8", "twitter": "None", "instagram": "None", "facebook": "None", "youtube": "None", "website": "None", "summary": "None", "logo": "None", "latitude": 43.22718039542357, "longitude": -79.86522921157872}, "888215597RR0001": {"name": "LINDEN WOODS COMMUNITY FOUNDATION INC", "designationCode": "A", "categoryCode": "53", "address": "414 LINDENWOOD DR. WEST", "city": "WINNIPEG", "province": "MB", "country": "CA", "postalCode": "R3P2K5", "twitter": "None", "instagram": "None", "facebook": "None", "youtube": "None", "website": "None", "summary": "None", "logo": "None", "latitude": 49.83595296364475, "longitude": -97.19711439350168}, "107627234RR0001": {"name": "LINDEN'S KID'S KLUB INC.", "designationCode": "C", "categoryCode": "01", "address": "PO BOX 20136", "city": "BRANDON", "province": "MB", "country": "CA", "postalCode": "R7A6Y8", "twitter": "None", "instagram": "None", "facebook": "None", "youtube": "None", "website": "None", "summary": "None", "logo": "None", "latitude": 49.84965600000005, "longitude": -99.96197299999993}, "821949856RR0001": {"name": "LINDENWOOD MINISTRIES", "designationCode": "C", "categoryCode": "39", "address": "311 WRIGHT'S CRES", "city": "SOUTH BRUCE PENINSULA", "province": "ON", "country": "CA", "postalCode": "N0H2T0", "twitter": "None", "instagram": "None", "facebook": "None", "youtube": "None", "website": "None", "summary": "None", "logo": "None", "latitude": 44.846200458077085, "longitude": -81.0594829553311}, "899500532RR0001": {"name": "LINDENWOODS CHILD CARE CENTRE INC", "designationCode": "C", "categoryCode": "01", "address": "320-210 1600 KENASTON BLVD", "city": "WINNIPEG", "province": "MB", "country": "CA", "postalCode": "R3P0Y4", "twitter": "None", "instagram": "None", "facebook": "None", "youtube": "None", "website": "None", "summary": "None", "logo": "None", "latitude": 49.82358641122515, "longitude": -97.20329655042795}, "862990298RR0001": {"name": "LINDISFARNE COMMUNITY", "designationCode": "C", "categoryCode": "49", "address": "3285 BERMON PLACE", "city": "NORTH VANCOUVER", "province": "BC", "country": "CA", "postalCode": "V7J3R2", "twitter": "None", "instagram": "None", "facebook": "None", "youtube": "None", "website": "None", "summary": "None", "logo": "None", "latitude": 49.338739372468126, "longitude": -123.03155504887741}, "855786323RR0001": {"name": "LINDSAY & DISTRICT HORTICULTURAL SOCIETY", "designationCode": "C", "categoryCode": "56", "address": "P.O. BOX 671", "city": "LINDSAY", "province": "ON", "country": "CA", "postalCode": "K9V4W9", "twitter": "None", "instagram": "None", "facebook": "None", "youtube": "None", "website": "None", "summary": "None", "logo": "None", "latitude": 44.35437300000005, "longitude": -78.73967149999993}, "119020097RR0001": {"name": "LINDSAY AGRICULTURAL SOCIETY", "designationCode": "C", "categoryCode": "56", "address": "P.O.BOX 752                   354 ANGELINE STREET, SOUTH", "city": "LINDSAY", "province": "ON", "country": "CA", "postalCode": "K9V4W9", "twitter": "None", "instagram": "None", "facebook": "None", "youtube": "None", "website": "None", "summary": "None", "logo": "None", "latitude": 44.32881078240095, "longitude": -78.74105624079391}, "865913552RR0001": {"name": "LINDSAY AND DISTRICT SPORTS HALL OF FAME", "designationCode": "C", "categoryCode": "50", "address": "P.O. BOX 680", "city": "LINDSAY", "province": "ON", "country": "CA", "postalCode": "K9V4W9", "twitter": "None", "instagram": "None", "facebook": "None", "youtube": "None", "website": "None", "summary": "None", "logo": "None", "latitude": 44.35437300000005, "longitude": -78.73967149999993}, "121679708RR0001": {"name": "LINDSAY CEMETERY COMPANY", "designationCode": "C", "categoryCode": "59", "address": "347 LINDSAY STREET SOUTH", "city": "LINDSAY", "province": "ON", "country": "CA", "postalCode": "K9V4R4", "twitter": "None", "instagram": "None", "facebook": "None", "youtube": "None", "website": "None", "summary": "None", "logo": "None", "latitude": 44.334344712869566, "longitude": -78.72534881485217}, "107627424RR0001": {"name": "LINDSAY CENTRE FOR PRESCHOOL ENRICHMENT INC.", "designationCode": "C", "categoryCode": "20", "address": "51 EGLINTON STREET", "city": "LINDSAY", "province": "ON", "country": "CA", "postalCode": "K9V3Z5", "twitter": "None", "instagram": "None", "facebook": "None", "youtube": "None", "website": "None", "summary": "None", "logo": "None", "latitude": 44.36766515325351, "longitude": -78.74290299518043}, "107627341RR0001": {"name": "LINDSAY CHRISTIAN REFORMED CHURCH", "designationCode": "C", "categoryCode": "39", "address": "206 ANGELINE STREET, NORTH", "city": "LINDSAY", "province": "ON", "country": "CA", "postalCode": "K9V4Y4", "twitter": "None", "instagram": "None", "facebook": "None", "youtube": "None", "website": "None", "summary": "None", "logo": "None", "latitude": 44.36679701260316, "longitude": -78.75819613481397}, "893809293RR0001": {"name": "LINDSAY CRISIS PREGNANCY CENTRE", "designationCode": "C", "categoryCode": "09", "address": "241 KENT ST W", "city": "LINDSAY", "province": "ON", "country": "CA", "postalCode": "K9V2Z3", "twitter": "None", "instagram": "None", "facebook": "None", "youtube": "None", "website": "None", "summary": "None", "logo": "None", "latitude": 44.35297053460437, "longitude": -78.74533249002968}, "119020162RR0001": {"name": "LINDSAY LITTLE THEATRE", "designationCode": "C", "categoryCode": "22", "address": "55 GEORGE STREET WEST", "city": "LINDSAY", "province": "ON", "country": "CA", "postalCode": "K9V4V6", "twitter": "None", "instagram": "None", "facebook": "None", "youtube": "None", "website": "None", "summary": "None", "logo": "None", "latitude": 44.34764724628006, "longitude": -78.73620887032835}, "890212178RR0001": {"name": "LINDSAY MEMORIAL FOUNDATION", "designationCode": "A", "categoryCode": "13", "address": "200-1000 DE LA GAUCHETIERE W", "city": "MONTREAL", "province": "QC", "country": "CA", "postalCode": "H3B4W5", "twitter": "None", "instagram": "None", "facebook": "None", "youtube": "None", "website": "None", "summary": "None", "logo": "None", "latitude": 45.49862215677963, "longitude": -73.56690186894203}, "858754245RR0001": {"name": "LINDSAY MINISTRY OUTREACH CENTER", "designationCode": "C", "categoryCode": "47", "address": "PO BOX 112 STN MAIN", "city": "LINDSAY", "province": "ON", "country": "CA", "postalCode": "K9V4R8", "twitter": "None", "instagram": "None", "facebook": "None", "youtube": "None", "website": "None", "summary": "None", "logo": "None", "latitude": 44.35437300000005, "longitude": -78.73967149999993}, "119020204RR0001": {"name": "LINDSAY ROAD CONGREGATION, UNITED CHURCH", "designationCode": "C", "categoryCode": "44", "address": "11366 CLAYMORE LINE", "city": "DRESDEN", "province": "ON", "country": "CA", "postalCode": "N0P1M0", "twitter": "None", "instagram": "None", "facebook": "None", "youtube": "None", "website": "None", "summary": "None", "logo": "None", "latitude": 42.55442039327147, "longitude": -82.14452342157666}, "877013672RR0001": {"name": "LINDSAY THURBER MUSIC PARENTS' SOCIETY", "designationCode": "C", "categoryCode": "22", "address": "4204-58 STREET", "city": "RED DEER", "province": "AB", "country": "CA", "postalCode": "T4N2L6", "twitter": "None", "instagram": "None", "facebook": "None", "youtube": "None", "website": "None", "summary": "None", "logo": "None", "latitude": 52.276780905280546, "longitude": -113.79607927216504}, "107627499RR0001": {"name": "LINDSAY UNITED BAPTIST CHURCH", "designationCode": "C", "categoryCode": "31", "address": "5168 ROUTE 540", "city": "OAKVILLE", "province": "NB", "country": "CA", "postalCode": "E7M5P7", "twitter": "None", "instagram": "None", "facebook": "None", "youtube": "None", "website": "None", "summary": "None", "logo": "None", "latitude": 46.246698859649314, "longitude": -67.74349609841609}, "119288918RR0321": {"name": "LINDSAY, ONTARIO, CONGREGATION OF JEHOVAH'S WITNESSES", "designationCode": "C", "categoryCode": "61", "address": "3 FENELON WAY RR#1", "city": "LINDSAY", "province": "ON", "country": "CA", "postalCode": "K9V0H5", "twitter": "None", "instagram": "None", "facebook": "None", "youtube": "None", "website": "None", "summary": "None", "logo": "None", "latitude": 44.39453683370151, "longitude": -78.79416744115933}, "131781007RR0001": {"name": "LINE OF LIFE ASSOCIATION OF THE YUKON", "designationCode": "C", "categoryCode": "09", "address": "PO BOX 31682", "city": "WHITEHORSE", "province": "YT", "country": "CA", "postalCode": "Y1A6L3", "twitter": "None", "instagram": "None", "facebook": "None", "youtube": "None", "website": "None", "summary": "None", "logo": "None", "latitude": 60.72084600000005, "longitude": -135.05323399999992}, "869591222RR0001": {"name": "LING JIOU MOUNTAIN BUDDHIST SOCIETY", "designationCode": "C", "categoryCode": "35", "address": "899 8TH AVE W", "city": "VANCOUVER", "province": "BC", "country": "CA", "postalCode": "V5Z1E3", "twitter": "None", "instagram": "None", "facebook": "None", "youtube": "None", "website": "None", "summary": "None", "logo": "None", "latitude": 49.26435813528974, "longitude": -123.12408261936238}, "119020253RR0001": {"name": "LING SHEN CHING TZE TEMPLE (JING SIM BRANCH)", "designationCode": "C", "categoryCode": "39", "address": "18 TROJAN GATE                UNIT A&B", "city": "SCARBOROUGH", "province": "ON", "country": "CA", "postalCode": "M1V3B8", "twitter": "None", "instagram": "None", "facebook": "None", "youtube": "None", "website": "None", "summary": "None", "logo": "None", "latitude": 43.804390052484095, "longitude": -79.29613769499095}, "119020246RR0001": {"name": "LING-LIANG WORLD-WIDE EVANGELISTIC MISSION TORONTO LING-LIANG CHURCH", "designationCode": "C", "categoryCode": "39", "address": "288 CLAYTON DR", "city": "MARKHAM", "province": "ON", "country": "CA", "postalCode": "L3R7P3", "twitter": "None", "instagram": "None", "facebook": "None", "youtube": "None", "website": "None", "summary": "None", "logo": "None", "latitude": 43.83394029225576, "longitude": -79.31374137292946}, "891132383RR0001": {"name": "LINGWICK PROTESTANT CEMETERIES COMPANY", "designationCode": "C", "categoryCode": "59", "address": "444 ROUTE 161 N", "city": "STORNOWAY", "province": "QC", "country": "CA", "postalCode": "G0Y1N0", "twitter": "None", "instagram": "None", "facebook": "None", "youtube": "None", "website": "None", "summary": "None", "logo": "None", "latitude": 45.711594574933955, "longitude": -71.15994841783962}, "136246089RR0001": {"name": "LINGYEN MOUNTAIN TEMPLE", "designationCode": "C", "categoryCode": "39", "address": "10060 NO. 5 RD", "city": "RICHMOND", "province": "BC", "country": "CA", "postalCode": "V7A4E5", "twitter": "None", "instagram": "None", "facebook": "None", "youtube": "None", "website": "None", "summary": "None", "logo": "None", "latitude": 49.14001249578564, "longitude": -123.09170590048542}, "892678640RR0001": {"name": "LINH-SON BUDDHIST RELIGIOUS ASSOCIATION IN WINDSOR", "designationCode": "C", "categoryCode": "35", "address": "706 GOYEAU ST", "city": "WINDSOR", "province": "ON", "country": "CA", "postalCode": "N9A1H6", "twitter": "None", "instagram": "None", "facebook": "None", "youtube": "None", "website": "None", "summary": "None", "logo": "None", "latitude": 42.31341713434123, "longitude": -83.03406596722276}, "888047826RR0001": {"name": "LINK CHARITY CANADA INC", "designationCode": "C", "categoryCode": "03", "address": "45 HARRIET STREET", "city": "TORONTO", "province": "ON", "country": "CA", "postalCode": "M4L2G1", "twitter": "None", "instagram": "None", "facebook": "None", "youtube": "None", "website": "None", "summary": "None", "logo": "None", "latitude": 43.672000842056796, "longitude": -79.3322662636621}, "865106611RR0001": {"name": "LINK DANCE FOUNDATION SOCIETY", "designationCode": "C", "categoryCode": "22", "address": "352 CREEK ROAD", "city": "BOWEN ISLAND", "province": "BC", "country": "CA", "postalCode": "V0N1G1", "twitter": "None", "instagram": "None", "facebook": "None", "youtube": "None", "website": "None", "summary": "None", "logo": "None", "latitude": 49.394846106643655, "longitude": -123.32940605792703}, "136312964RR0001": {"name": "LINK INTERNATIONAL MINISTRIES", "designationCode": "C", "categoryCode": "47", "address": "P.O.BOX 3514", "city": "MISSION", "province": "BC", "country": "CA", "postalCode": "V2V4L1", "twitter": "None", "instagram": "None", "facebook": "None", "youtube": "None", "website": "None", "summary": "None", "logo": "None", "latitude": 49.13294100000006, "longitude": -122.32108249999993}, "849068747RR0001": {"name": "LINK YAD CHESED", "designationCode": "C", "categoryCode": "09", "address": "4 MAIMONIDES COURT", "city": "THORNHILL", "province": "ON", "country": "CA", "postalCode": "L4J4X8", "twitter": "None", "instagram": "None", "facebook": "None", "youtube": "None", "website": "None", "summary": "None", "logo": "None", "latitude": 43.809687711639384, "longitude": -79.44167537443002}, "806305678RR0001": {"name": "LINK 127 HUMANITARIAN AID SOCIETY", "designationCode": "C", "categoryCode": "09", "address": "833 CANAAN MOUNTAIN RD", "city": "CANAAN.", "province": "NS", "country": "CA", "postalCode": "B4N4K1", "twitter": "None", "instagram": "None", "facebook": "None", "youtube": "None", "website": "None", "summary": "None", "logo": "None", "latitude": 45.03511871163937, "longitude": -64.48962446577951}, "890910623RR0001": {"name": "LINKAGES SOCIETY OF ALBERTA", "designationCode": "C", "categoryCode": "09", "address": "3891 TRASIMENE CRESENT SW", "city": "CALGARY", "province": "AB", "country": "CA", "postalCode": "T3E7J6", "twitter": "None", "instagram": "None", "facebook": "None", "youtube": "None", "website": "None", "summary": "None", "logo": "None", "latitude": 51.01980910851754, "longitude": -114.12728228316648}, "845667070RR0001": {"name": "LINKING GENERATIONS SOCIETY OF ALBERTA", "designationCode": "C", "categoryCode": "09", "address": "10 GREENGROVE DR", "city": "SHERWOOD PARK", "province": "AB", "country": "CA", "postalCode": "T8A5G2", "twitter": "None", "instagram": "None", "facebook": "None", "youtube": "None", "website": "None", "summary": "None", "logo": "None", "latitude": 53.52545725145711, "longitude": -113.27149969986704}, "852966563RR0001": {"name": "LINKING HEARTS INC.", "designationCode": "C", "categoryCode": "47", "address": "33 ALBANY ST", "city": "ST JOHN'S", "province": "NL", "country": "CA", "postalCode": "A1E3C6", "twitter": "None", "instagram": "None", "facebook": "None", "youtube": "None", "website": "None", "summary": "None", "logo": "None", "latitude": 47.5478855323159, "longitude": -52.73564330835591}, "869163725RR0001": {"name": "LINKS TO LEARNING RESOURCE CENTRE", "designationCode": "C", "categoryCode": "09", "address": "396 BLEEKER AVE", "city": "BELLEVILLE", "province": "ON", "country": "CA", "postalCode": "K8N3V8", "twitter": "None", "instagram": "None", "facebook": "None", "youtube": "None", "website": "None", "summary": "None", "logo": "None", "latitude": 44.17619002914191, "longitude": -77.37422613601466}, "106684533RR0001": {"name": "LINKS2CARE", "designationCode": "C", "categoryCode": "09", "address": "202 - 2030 BRISTOL CIR", "city": "OAKVILLE", "province": "ON", "country": "CA", "postalCode": "L6H0H2", "twitter": "None", "instagram": "None", "facebook": "None", "youtube": "None", "website": "None", "summary": "None", "logo": "None", "latitude": 43.51046850513589, "longitude": -79.67038882266708}, "140132135RR0001": {"name": "LINNAEA FARM SOCIETY", "designationCode": "C", "categoryCode": "59", "address": "PO BOX 209", "city": "MANSONS LANDING", "province": "BC", "country": "CA", "postalCode": "V0P1K0", "twitter": "None", "instagram": "None", "facebook": "None", "youtube": "None", "website": "None", "summary": "None", "logo": "None", "latitude": 50.036434079347345, "longitude": -124.97587983491626}, "119020519RR0001": {"name": "LINTLAW RECREATION CENTRE", "designationCode": "C", "categoryCode": "56", "address": "BOX 29", "city": "LINTLAW", "province": "SK", "country": "CA", "postalCode": "S0A2H0", "twitter": "None", "instagram": "None", "facebook": "None", "youtube": "None", "website": "None", "summary": "None", "logo": "None", "latitude": 52.066680000000076, "longitude": -103.23427999999996}, "107628026RR0001": {"name": "LINWOOD CHILD CENTRE INC.", "designationCode": "C", "categoryCode": "01", "address": "266 LINWOOD ST", "city": "WINNIPEG", "province": "MB", "country": "CA", "postalCode": "R3J2C6", "twitter": "None", "instagram": "None", "facebook": "None", "youtube": "None", "website": "None", "summary": "None", "logo": "None", "latitude": 49.88050390674589, "longitude": -97.22791623541426}, "119020527RR0001": {"name": "LINWOOD FOUNDATION", "designationCode": "C", "categoryCode": "59", "address": "603 - 510 MARSETT PL", "city": "VICTORIA", "province": "BC", "country": "CA", "postalCode": "V8Z7J1", "twitter": "None", "instagram": "None", "facebook": "None", "youtube": "None", "website": "None", "summary": "None", "logo": "None", "latitude": 48.504438627843165, "longitude": -123.38783690435913}, "128786316RR0001": {"name": "LION BOB MCALLISTER CHARITABLE CORPORATION", "designationCode": "C", "categoryCode": "09", "address": "20 STRATHAVEN DR", "city": "MISSISSAUGA", "province": "ON", "country": "CA", "postalCode": "L5R3R9", "twitter": "None", "instagram": "None", "facebook": "None", "youtube": "None", "website": "None", "summary": "None", "logo": "None", "latitude": 43.61045798332293, "longitude": -79.6589144348782}, "136132339RR0001": {"name": "LION OF JUDAH MINISTRY FELLOWSHIP INTERNATIONAL", "designationCode": "C", "categoryCode": "39", "address": "302, 11530 - 40 AVENUE", "city": "EDMONTON", "province": "AB", "country": "CA", "postalCode": "T6J0R6", "twitter": "None", "instagram": "None", "facebook": "None", "youtube": "None", "website": "None", "summary": "None", "logo": "None", "latitude": 53.4764005010096, "longitude": -113.5320008366611}, "860691435RR0001": {"name": "LION'S HEAD HOSPITAL AUXILIARY", "designationCode": "C", "categoryCode": "11", "address": "22 MOORE STREET", "city": "LION'S HEAD", "province": "ON", "country": "CA", "postalCode": "N0H1W0", "twitter": "None", "instagram": "None", "facebook": "None", "youtube": "None", "website": "None", "summary": "None", "logo": "None"}, "729983320RR0001": {"name": "LION'S MANE MINISTRY- GOSPEL TELEVISION", "designationCode": "C", "categoryCode": "47", "address": "1700 KRAMP ROAD", "city": "BRESLAU", "province": "ON", "country": "CA", "postalCode": "N0B1M0", "twitter": "None", "instagram": "None", "facebook": "None", "youtube": "None", "website": "None", "summary": "None", "logo": "None", "latitude": 43.49006131323296, "longitude": -80.39402458402151}, "891706442RR0001": {"name": "LIONS BAY SEARCH AND RESCUE SOCIETY", "designationCode": "C", "categoryCode": "59", "address": "PO BOX 629", "city": "LIONS BAY", "province": "BC", "country": "CA", "postalCode": "V0N2E0", "twitter": "None", "instagram": "None", "facebook": "None", "youtube": "None", "website": "None", "summary": "None", "logo": "None", "latitude": 49.458746135052195, "longitude": -123.24030764882266}, "829170281RR0001": {"name": "LIONS CLUB OF BRANTFORD CHARITABLE TRUST", "designationCode": "A", "categoryCode": "65", "address": "320 COLBORNE ST WEST          PO BOX 25037", "city": "BRANTFORD", "province": "ON", "country": "CA", "postalCode": "N3T6K5", "twitter": "None", "instagram": "None", "facebook": "None", "youtube": "None", "website": "None", "summary": "None", "logo": "None", "latitude": 43.13078682664606, "longitude": -80.28781199381385}, "892878885RR0001": {"name": "LIONS CLUB OF CLINTON CHARITABLE TRUST", "designationCode": "A", "categoryCode": "65", "address": "BOX 1511                      70 SHIPLEY ST", "city": "CLINTON", "province": "ON", "country": "CA", "postalCode": "N0M1L0", "twitter": "None", "instagram": "None", "facebook": "None", "youtube": "None", "website": "None", "summary": "None", "logo": "None", "latitude": 43.6209604668474, "longitude": -81.54298788721195}, "886123991RR0001": {"name": "LIONS CLUB OF EDMONTON FOUNDATION", "designationCode": "B", "categoryCode": "13", "address": "23 EKOTA CRESCENT", "city": "EDMONTON", "province": "AB", "country": "CA", "postalCode": "T6K2J6", "twitter": "None", "instagram": "None", "facebook": "None", "youtube": "None", "website": "None", "summary": "None", "logo": "None", "latitude": 53.446827458220376, "longitude": -113.43994286681261}, "119020626RR0001": {"name": "LIONS CLUB OF GODERICH CHARITABLE TRUST", "designationCode": "C", "categoryCode": "65", "address": "P.O. BOX 65", "city": "GODERICH", "province": "ON", "country": "CA", "postalCode": "N7A3Y5", "twitter": "None", "instagram": "None", "facebook": "None", "youtube": "None", "website": "None", "summary": "None", "logo": "None", "latitude": 43.74263400000005, "longitude": -81.70775449999994}, "888096773RR0001": {"name": "LIONS CLUB OF GUELPH-EYESIGHT CONSERVATION TRUST", "designationCode": "A", "categoryCode": "15", "address": "17A-218 SILVERCREEK PARKWAY N SUITE 115", "city": "GUELPH", "province": "ON", "country": "CA", "postalCode": "N1H8E8", "twitter": "None", "instagram": "None", "facebook": "None", "youtube": "None", "website": "None", "summary": "None", "logo": "None", "latitude": 43.54500999193451, "longitude": -80.28740428607098}}