{"137200515RR0001": {"name": "SASKATCHEWAN SOIL CONSERVATION ASSOCIATION INC", "designationCode": "C", "categoryCode": "59", "address": "BOX 37029 NORTH PARK PO", "city": "SASKATOON", "province": "SK", "country": "CA", "postalCode": "S7K8J2", "twitter": "None", "instagram": "None", "facebook": "None", "youtube": "None", "website": "None", "summary": "None", "logo": "None", "latitude": 52.14646000000005, "longitude": -106.65207999999996}, "119140473RR0001": {"name": "SASKATCHEWAN SPORTS HALL OF FAME", "designationCode": "C", "categoryCode": "50", "address": "2205 VICTORIA AVENUE", "city": "REGINA", "province": "SK", "country": "CA", "postalCode": "S4P0S4", "twitter": "None", "instagram": "None", "facebook": "None", "youtube": "None", "website": "None", "summary": "None", "logo": "None", "latitude": 50.447076539529256, "longitude": -104.61279052553522}, "130739865RR0001": {"name": "SASKATCHEWAN SYNOD, EVANGELICAL LUTHERAN CHURCH IN CANADA INC", "designationCode": "C", "categoryCode": "32", "address": "114 SEMINARY CRES", "city": "SASKATOON", "province": "SK", "country": "CA", "postalCode": "S7N0X3", "twitter": "None", "instagram": "None", "facebook": "None", "youtube": "None", "website": "None", "summary": "None", "logo": "None", "latitude": 52.13737003188567, "longitude": -106.63470439257208}, "891631186RR0001": {"name": "SASKATCHEWAN TEACHERS FEDERATION EMPLOYEES CHARITY TRUST", "designationCode": "A", "categoryCode": "75", "address": "2317 ARLINGTON AVENUE", "city": "SASKATOON", "province": "SK", "country": "CA", "postalCode": "S7J2H8", "twitter": "None", "instagram": "None", "facebook": "None", "youtube": "None", "website": "None", "summary": "None", "logo": "None", "latitude": 52.10100449376759, "longitude": -106.6106699678866}, "866752553RR0001": {"name": "SASKATCHEWAN TECHNOLOGY RENEWAL INC", "designationCode": "C", "categoryCode": "22", "address": "2106 1ST AVE", "city": "REGINA", "province": "SK", "country": "CA", "postalCode": "S4R8G6", "twitter": "None", "instagram": "None", "facebook": "None", "youtube": "None", "website": "None", "summary": "None", "logo": "None", "latitude": 50.468475453834316, "longitude": -104.61147210935425}, "864712773RR0001": {"name": "SASKATCHEWAN TRAILS ASSOCIATION INC.", "designationCode": "C", "categoryCode": "56", "address": "2260 MCINTYRE STREET", "city": "REGINA", "province": "SK", "country": "CA", "postalCode": "S4P2R9", "twitter": "None", "instagram": "None", "facebook": "None", "youtube": "None", "website": "None", "summary": "None", "logo": "None", "latitude": 50.442813251457096, "longitude": -104.61665313131145}, "892379041RR0001": {"name": "SASKATCHEWAN TRANSPORTATION HALL OF FAME", "designationCode": "C", "categoryCode": "50", "address": "P.O. BOX 1643", "city": "SASKATOON", "province": "SK", "country": "CA", "postalCode": "S7K3R8", "twitter": "None", "instagram": "None", "facebook": "None", "youtube": "None", "website": "None", "summary": "None", "logo": "None", "latitude": 52.13049000000005, "longitude": -106.65926449999994}, "891145740RR0001": {"name": "SASKATCHEWAN UNION OF NURSES MEMORIAL SCHOLARSHIP FUND", "designationCode": "C", "categoryCode": "21", "address": "2330 2ND AVENUE", "city": "REGINA", "province": "SK", "country": "CA", "postalCode": "S4R1A6", "twitter": "None", "instagram": "None", "facebook": "None", "youtube": "None", "website": "None", "summary": "None", "logo": "None", "latitude": 50.46622451990841, "longitude": -104.614344}, "119140515RR0001": {"name": "SASKATCHEWAN VALLEY MUSIC FESTIVAL ASSOCIATION", "designationCode": "C", "categoryCode": "22", "address": "PO BOX 333", "city": "WALDHEIM", "province": "SK", "country": "CA", "postalCode": "S0K4R0", "twitter": "None", "instagram": "None", "facebook": "None", "youtube": "None", "website": "None", "summary": "None", "logo": "None", "latitude": 52.620700000000056, "longitude": -106.65605}, "119140531RR0001": {"name": "SASKATCHEWAN VOICE OF PEOPLE WITH DISABILITIES INC", "designationCode": "C", "categoryCode": "59", "address": "201 - 2206 DEWDNEY AVE", "city": "REGINA", "province": "SK", "country": "CA", "postalCode": "S4R1H3", "twitter": "None", "instagram": "None", "facebook": "None", "youtube": "None", "website": "None", "summary": "None", "logo": "None", "latitude": 50.45513245715253, "longitude": -104.61264202553522}, "139611396RR0001": {"name": "SASKATCHEWAN VOLUNTEER FIRE FIGHTERS ASSOCIATION INC.", "designationCode": "C", "categoryCode": "59", "address": "121 CENTENNIAL ST", "city": "REGINA", "province": "SK", "country": "CA", "postalCode": "S4S6W3", "twitter": "None", "instagram": "None", "facebook": "None", "youtube": "None", "website": "None", "summary": "None", "logo": "None", "latitude": 50.41374383734224, "longitude": -104.5978003137391}, "131476996RR0001": {"name": "SASKATCHEWAN WASTE REDUCTION COUNCIL INC", "designationCode": "C", "categoryCode": "59", "address": "208-220-20TH STREET WEST", "city": "SASKATOON", "province": "SK", "country": "CA", "postalCode": "S7M0W9", "twitter": "None", "instagram": "None", "facebook": "None", "youtube": "None", "website": "None", "summary": "None", "logo": "None", "latitude": 52.126127999999994, "longitude": -106.67271149999999}, "107956518RR0001": {"name": "SASKATCHEWAN WILDLIFE FEDERATION", "designationCode": "C", "categoryCode": "54", "address": "9 LANCASTER RD", "city": "MOOSE JAW", "province": "SK", "country": "CA", "postalCode": "S6J1M8", "twitter": "None", "instagram": "None", "facebook": "None", "youtube": "None", "website": "None", "summary": "None", "logo": "None", "latitude": 50.41364357226123, "longitude": -105.51858784169954}, "119140556RR0001": {"name": "SASKATCHEWAN WRITERS' GUILD INC.", "designationCode": "C", "categoryCode": "22", "address": "PO BOX 3986 STN MAIN", "city": "REGINA", "province": "SK", "country": "CA", "postalCode": "S4P3R9", "twitter": "None", "instagram": "None", "facebook": "None", "youtube": "None", "website": "None", "summary": "None", "logo": "None", "latitude": 50.448246000000054, "longitude": -104.59517299999993}, "131460479RR0001": {"name": "SASKATCHEWAN YOUTH PARLIAMENT", "designationCode": "C", "categoryCode": "21", "address": "PO BOX 362 RPO UNIVERSITY", "city": "SASKATOON", "province": "SK", "country": "CA", "postalCode": "S7N4J8", "twitter": "None", "instagram": "None", "facebook": "None", "youtube": "None", "website": "None", "summary": "None", "logo": "None", "latitude": 52.12925550000001, "longitude": -106.64727524999999}, "119140580RR0001": {"name": "SASKATCHEWAN 4-H FOUNDATION", "designationCode": "C", "categoryCode": "29", "address": "3830 THATCHER AVENUE", "city": "SASKATOON", "province": "SK", "country": "CA", "postalCode": "S7K2H6", "twitter": "None", "instagram": "None", "facebook": "None", "youtube": "None", "website": "None", "summary": "None", "logo": "None", "latitude": 52.19604003136362, "longitude": -106.67753618062248}, "107956914RR0001": {"name": "SASKATOON & DISTRICT CENTRAL OFFICE", "designationCode": "C", "categoryCode": "57", "address": "#515, 245-3RD AVENUE SOUTH", "city": "SASKATOON", "province": "SK", "country": "CA", "postalCode": "S7K0M4", "twitter": "None", "instagram": "None", "facebook": "None", "youtube": "None", "website": "None", "summary": "None", "logo": "None", "latitude": 52.125788348188195, "longitude": -106.66333746652943}, "892463761RR0001": {"name": "SASKATOON & DISTRICT LABOUR COUNCIL SUMMER SNACK PROGRAM", "designationCode": "C", "categoryCode": "09", "address": "325 FAIRMONT DRIVE", "city": "SASKATOON", "province": "SK", "country": "CA", "postalCode": "S7M5G7", "twitter": "None", "instagram": "None", "facebook": "None", "youtube": "None", "website": "None", "summary": "None", "logo": "None", "latitude": 52.124272626983625, "longitude": -106.72217420950459}, "119140598RR0001": {"name": "SASKATOON AGE OF ENLIGHTENMENT CENTER", "designationCode": "C", "categoryCode": "19", "address": "2005 SOMMERFIELD AVENUE", "city": "SASKATOON", "province": "SK", "country": "CA", "postalCode": "S7J2E2", "twitter": "None", "instagram": "None", "facebook": "None", "youtube": "None", "website": "None", "summary": "None", "logo": "None", "latitude": 52.106050089647425, "longitude": -106.62777627944516}, "119288918RR0749": {"name": "SASKATOON ASSEMBLY HALL OF JEHOVAH'S WITNESSES", "designationCode": "C", "categoryCode": "61", "address": "415 FAIRMOUNT DRIVE", "city": "SASKATOON", "province": "SK", "country": "CA", "postalCode": "S7M5N6", "twitter": "None", "instagram": "None", "facebook": "None", "youtube": "None", "website": "None", "summary": "None", "logo": "None", "latitude": 52.120853696087494, "longitude": -106.72151624107067}, "892697251RR0001": {"name": "SASKATOON BONE RESEARCH FOUNDATION INC", "designationCode": "C", "categoryCode": "11", "address": "103 - 39, 23 STREET E.", "city": "SASKATOON", "province": "SK", "country": "CA", "postalCode": "S7K0H6", "twitter": "None", "instagram": "None", "facebook": "None", "youtube": "None", "website": "None", "summary": "None", "logo": "None", "latitude": 52.13123999999999, "longitude": -106.6678425}, "119140630RR0001": {"name": "SASKATOON BRASS BAND INC.", "designationCode": "C", "categoryCode": "22", "address": "CUELENAERE KENDALL            500-128 4TH AVENUE SOUTH", "city": "SASKATOON", "province": "SK", "country": "CA", "postalCode": "S7K1M8", "twitter": "None", "instagram": "None", "facebook": "None", "youtube": "None", "website": "None", "summary": "None", "logo": "None", "latitude": 52.12706712294425, "longitude": -106.6608786888168}, "899149819RR0001": {"name": "SASKATOON CENTRE FOR HOPE INC.", "designationCode": "C", "categoryCode": "39", "address": "10 MOORE PLACE", "city": "SASKATOON", "province": "SK", "country": "CA", "postalCode": "S7L3Z8", "twitter": "None", "instagram": "None", "facebook": "None", "youtube": "None", "website": "None", "summary": "None", "logo": "None", "latitude": 52.142317500432696, "longitude": -106.71551116763806}, "129590204RR0001": {"name": "SASKATOON CHAMBER SINGERS INC", "designationCode": "C", "categoryCode": "22", "address": "PO BOX 431 RPO UNIVERSITY", "city": "SASKATOON", "province": "SK", "country": "CA", "postalCode": "S7N4J8", "twitter": "None", "instagram": "None", "facebook": "None", "youtube": "None", "website": "None", "summary": "None", "logo": "None", "latitude": 52.12925550000001, "longitude": -106.64727524999999}, "119140697RR0001": {"name": "SASKATOON CHINESE ALLIANCE CHURCH", "designationCode": "C", "categoryCode": "39", "address": "108 - 25TH STREET WEST", "city": "SASKATOON", "province": "SK", "country": "CA", "postalCode": "S7L0C1", "twitter": "None", "instagram": "None", "facebook": "None", "youtube": "None", "website": "None", "summary": "None", "logo": "None", "latitude": 52.133770857451616, "longitude": -106.67049222086919}, "867002842RR0001": {"name": "SASKATOON CHINESE CHRISTIAN CHURCH INC", "designationCode": "C", "categoryCode": "39", "address": "PO BOX 23075 RPO MARKET MALL", "city": "SASKATOON", "province": "SK", "country": "CA", "postalCode": "S7J5H3", "twitter": "None", "instagram": "None", "facebook": "None", "youtube": "None", "website": "None", "summary": "None", "logo": "None", "latitude": 52.10145000000006, "longitude": -106.62180999999998}, "119140713RR0001": {"name": "SASKATOON CHORAL SOCIETY INC.", "designationCode": "C", "categoryCode": "22", "address": "31 - 315 BAYVIEW CRES", "city": "SASKATOON", "province": "SK", "country": "CA", "postalCode": "S7V1B5", "twitter": "None", "instagram": "None", "facebook": "None", "youtube": "None", "website": "None", "summary": "None", "logo": "None", "latitude": 52.11244165242261, "longitude": -106.56409834947328}, "140103896RR0001": {"name": "SASKATOON CHRISTIAN ASSEMBLY", "designationCode": "C", "categoryCode": "39", "address": "131 LARONGE RD", "city": "SASKATOON", "province": "SK", "country": "CA", "postalCode": "S7K5T3", "twitter": "None", "instagram": "None", "facebook": "None", "youtube": "None", "website": "None", "summary": "None", "logo": "None", "latitude": 52.16693100000006, "longitude": -106.62641899999993}, "107956674RR0001": {"name": "SASKATOON CHRISTIAN CENTRE INC.", "designationCode": "C", "categoryCode": "39", "address": "102 PINEHOUSE DRIVE", "city": "SASKATOON", "province": "SK", "country": "CA", "postalCode": "S7K5H7", "twitter": "None", "instagram": "None", "facebook": "None", "youtube": "None", "website": "None", "summary": "None", "logo": "None", "latitude": 52.169611198482066, "longitude": -106.63337469175964}, "119140739RR0001": {"name": "SASKATOON CITY HOSPITAL FOUNDATION INC.", "designationCode": "A", "categoryCode": "13", "address": "701 QUEEN ST", "city": "SASKATOON", "province": "SK", "country": "CA", "postalCode": "S7K0M7", "twitter": "None", "instagram": "None", "facebook": "None", "youtube": "None", "website": "None", "summary": "None", "logo": "None", "latitude": 52.13652999911993, "longitude": -106.6520794316844}, "119140770RR0001": {"name": "SASKATOON COMMUNITY CLINIC FOUNDATION INC.", "designationCode": "C", "categoryCode": "11", "address": "455 SECOND AVE NORTH", "city": "SASKATOON", "province": "SK", "country": "CA", "postalCode": "S7K2C2", "twitter": "None", "instagram": "None", "facebook": "None", "youtube": "None", "website": "None", "summary": "None", "logo": "None", "latitude": 52.13449699362336, "longitude": -106.66111919793381}, "119140911RR0001": {"name": "SASKATOON COMMUNITY FOUNDATION", "designationCode": "A", "categoryCode": "03", "address": "101-308-4TH AVE N", "city": "SASKATOON", "province": "SK", "country": "CA", "postalCode": "S7K2L7", "twitter": "None", "instagram": "None", "facebook": "None", "youtube": "None", "website": "None", "summary": "None", "logo": "None", "latitude": 52.13502564656406, "longitude": -106.65753408846757}, "131059404RR0001": {"name": "SASKATOON COMMUNITY MEDIATION SERVICES INC", "designationCode": "C", "categoryCode": "59", "address": "200-245 3RD AVENUE S", "city": "SASKATOON", "province": "SK", "country": "CA", "postalCode": "S7K1M4", "twitter": "None", "instagram": "None", "facebook": "None", "youtube": "None", "website": "None", "summary": "None", "logo": "None", "latitude": 52.125788348188195, "longitude": -106.66333746652943}, "866932072RR0001": {"name": "SASKATOON COMMUNITY SERVICE VILLAGE INC", "designationCode": "C", "categoryCode": "59", "address": "101 506 25TH STREET EAST", "city": "SASKATOON", "province": "SK", "country": "CA", "postalCode": "S7K4A7", "twitter": "None", "instagram": "None", "facebook": "None", "youtube": "None", "website": "None", "summary": "None", "logo": "None", "latitude": 52.1332218899879, "longitude": -106.66010199993282}, "870537412RR0001": {"name": "SASKATOON COMMUNITY YOUTH ARTS PROGRAMMING INC.", "designationCode": "C", "categoryCode": "22", "address": "253 3RD AVE S", "city": "SASKATOON", "province": "SK", "country": "CA", "postalCode": "S7K1M3", "twitter": "None", "instagram": "None", "facebook": "None", "youtube": "None", "website": "None", "summary": "None", "logo": "None", "latitude": 52.126080499808516, "longitude": -106.66327398593192}, "119140796RR0001": {"name": "SASKATOON CONVALESCENT HOME", "designationCode": "C", "categoryCode": "10", "address": "101 31ST ST W", "city": "SASKATOON", "province": "SK", "country": "CA", "postalCode": "S7L0P6", "twitter": "None", "instagram": "None", "facebook": "None", "youtube": "None", "website": "None", "summary": "None", "logo": "None", "latitude": 52.14005753952926, "longitude": -106.67106}, "891571945RR0001": {"name": "SASKATOON CONVALESCENT HOME FOUNDATION INC", "designationCode": "A", "categoryCode": "13", "address": "101-31 ST WEST", "city": "SASKATOON", "province": "SK", "country": "CA", "postalCode": "S7L0P6", "twitter": "None", "instagram": "None", "facebook": "None", "youtube": "None", "website": "None", "summary": "None", "logo": "None", "latitude": 52.14005753952926, "longitude": -106.67106}, "831425319RR0001": {"name": "SASKATOON COSMOPOLITAN CHILDREN'S SAFETY VILLAGE INC.", "designationCode": "C", "categoryCode": "21", "address": "419 DAVID KNIGHT LANE", "city": "SASKATOON", "province": "SK", "country": "CA", "postalCode": "S7K5M1", "twitter": "None", "instagram": "None", "facebook": "None", "youtube": "None", "website": "None", "summary": "None", "logo": "None", "latitude": 52.17748578377298, "longitude": -106.63058543989851}, "130735756RR0001": {"name": "SASKATOON COUNCIL ON AGING, INC", "designationCode": "C", "categoryCode": "09", "address": "2020 COLLEGE DRIVE", "city": "SASKATOON", "province": "SK", "country": "CA", "postalCode": "S7N2W4", "twitter": "None", "instagram": "None", "facebook": "None", "youtube": "None", "website": "None", "summary": "None", "logo": "None", "latitude": 52.12873432749651, "longitude": -106.62844738269278}, "886341684RR0001": {"name": "SASKATOON CRISIS INTERVENTION", "designationCode": "C", "categoryCode": "09", "address": "103 506-25 ST EAST", "city": "SASKATOON", "province": "SK", "country": "CA", "postalCode": "S7K4A7", "twitter": "None", "instagram": "None", "facebook": "None", "youtube": "None", "website": "None", "summary": "None", "logo": "None", "latitude": 52.1332218899879, "longitude": -106.66010199993282}, "140454083RR0001": {"name": "SASKATOON DIOCESE OF HOLY COVENANT CHURCH INC.", "designationCode": "C", "categoryCode": "39", "address": "1426 ALEXANDRA AVE", "city": "SASKATOON", "province": "SK", "country": "CA", "postalCode": "S7K3B9", "twitter": "None", "instagram": "None", "facebook": "None", "youtube": "None", "website": "None", "summary": "None", "logo": "None", "latitude": 52.146818999999994, "longitude": -106.64498726501844}, "889408449RR0001": {"name": "SASKATOON DISTRICT HEALTH EMPLOYEE TRUST", "designationCode": "B", "categoryCode": "75", "address": "900-606 SPADINA CRESCENT", "city": "SASKATOON", "province": "SK", "country": "CA", "postalCode": "S7K3H1", "twitter": "None", "instagram": "None", "facebook": "None", "youtube": "None", "website": "None", "summary": "None", "logo": "None", "latitude": 52.12650591508446, "longitude": -106.65921752250546}, "107957375RR0001": {"name": "SASKATOON DOWNTOWN YOUTH CENTRE INC.", "designationCode": "C", "categoryCode": "59", "address": "485 1 AVE N", "city": "SASKATOON", "province": "SK", "country": "CA", "postalCode": "S7K1X5", "twitter": "None", "instagram": "None", "facebook": "None", "youtube": "None", "website": "None", "summary": "None", "logo": "None", "latitude": 52.13564083181369, "longitude": -106.66240608275118}, "897236469RR0001": {"name": "SASKATOON EQUAL JUSTICE FOR ALL ORGANIZATION INCORPORATED", "designationCode": "C", "categoryCode": "09", "address": "126 - 375 CORNISH RD", "city": "SASKATOON", "province": "SK", "country": "CA", "postalCode": "S7T0P3", "twitter": "None", "instagram": "None", "facebook": "None", "youtube": "None", "website": "None", "summary": "None", "logo": "None", "latitude": 52.086331194010015, "longitude": -106.62895625062038}, "119140861RR0001": {"name": "SASKATOON EVANGELICAL MINISTERS' FELLOWSHIP", "designationCode": "C", "categoryCode": "49", "address": "2333 HERMAN AVE", "city": "SASKATOON", "province": "SK", "country": "CA", "postalCode": "S7M0N5", "twitter": "None", "instagram": "None", "facebook": "None", "youtube": "None", "website": "None", "summary": "None", "logo": "None", "latitude": 52.1007297485429, "longitude": -106.67722675780507}, "119140879RR0001": {"name": "SASKATOON FAITH BAPTIST CHURCH", "designationCode": "C", "categoryCode": "31", "address": "1601 MUNROE AVE S", "city": "SASKATOON", "province": "SK", "country": "CA", "postalCode": "S7H2G7", "twitter": "None", "instagram": "None", "facebook": "None", "youtube": "None", "website": "None", "summary": "None", "logo": "None", "latitude": 52.11000092200936, "longitude": -106.64115529776703}, "862246121RR0001": {"name": "SASKATOON FAMILY CHILD CARE HOME ASSOCIATION INC.", "designationCode": "C", "categoryCode": "01", "address": "PO BOX 8821 STN MAIN", "city": "SASKATOON", "province": "SK", "country": "CA", "postalCode": "S7K6S6", "twitter": "None", "instagram": "None", "facebook": "None", "youtube": "None", "website": "None", "summary": "None", "logo": "None", "latitude": 52.13049000000005, "longitude": -106.65926449999994}, "889538443RR0001": {"name": "SASKATOON FAMILY YOUNG MEN'S CHRISTIAN ASSOCIATION", "designationCode": "C", "categoryCode": "49", "address": "25 - 22ND STREET EAST", "city": "SASKATOON", "province": "SK", "country": "CA", "postalCode": "S7K0C7", "twitter": "None", "instagram": "None", "facebook": "None", "youtube": "None", "website": "None", "summary": "None", "logo": "None", "latitude": 52.129176520630466, "longitude": -106.6687335}, "869257493RR0001": {"name": "SASKATOON FIRE FIGHTERS PEDIATRIC FUND", "designationCode": "C", "categoryCode": "09", "address": "104-2366 AVENUE C NORTH", "city": "SASKATOON", "province": "SK", "country": "CA", "postalCode": "S7L5X5", "twitter": "None", "instagram": "None", "facebook": "None", "youtube": "None", "website": "None", "summary": "None", "logo": "None", "latitude": 52.16308015774813, "longitude": -106.67418846108548}, "104725908RR0001": {"name": "SASKATOON FOLKFEST INCORPORATED", "designationCode": "C", "categoryCode": "22", "address": "127B AVENUE D NORTH", "city": "SASKATOON", "province": "SK", "country": "CA", "postalCode": "S7L1M5", "twitter": "None", "instagram": "None", "facebook": "None", "youtube": "None", "website": "None", "summary": "None", "logo": "None", "latitude": 52.1297558808826, "longitude": -106.67513125721341}, "119140903RR0001": {"name": "SASKATOON FOOD BANK INCORPORATED", "designationCode": "C", "categoryCode": "09", "address": "202 AVE C SOUTH", "city": "SASKATOON", "province": "SK", "country": "CA", "postalCode": "S7M1N2", "twitter": "None", "instagram": "None", "facebook": "None", "youtube": "None", "website": "None", "summary": "None", "logo": "None", "latitude": 52.12742399999999, "longitude": -106.67347925390993}, "899980460RR0001": {"name": "SASKATOON FRIENDS OF STUDENTS AND KIDS INC", "designationCode": "C", "categoryCode": "59", "address": "411 11TH ST E", "city": "SASKATOON", "province": "SK", "country": "CA", "postalCode": "S7N0E9", "twitter": "None", "instagram": "None", "facebook": "None", "youtube": "None", "website": "None", "summary": "None", "logo": "None", "latitude": 52.118834486582905, "longitude": -106.6609935}, "119140937RR0001": {"name": "SASKATOON FRIENDSHIP INN", "designationCode": "C", "categoryCode": "09", "address": "619 20 ST W", "city": "SASKATOON", "province": "SK", "country": "CA", "postalCode": "S7M0X8", "twitter": "None", "instagram": "None", "facebook": "None", "youtube": "None", "website": "None", "summary": "None", "logo": "None", "latitude": 52.12615847013695, "longitude": -106.6790835}, "891612129RR0001": {"name": "SASKATOON FULL GOSPEL CHURCH, INC.", "designationCode": "C", "categoryCode": "36", "address": "2410 HAULTAIN AVE", "city": "SASKATOON", "province": "SK", "country": "CA", "postalCode": "S7J1R3", "twitter": "None", "instagram": "None", "facebook": "None", "youtube": "None", "website": "None", "summary": "None", "logo": "None", "latitude": 52.09951443435862, "longitude": -106.6430160396439}, "889872594RR0001": {"name": "SASKATOON HERITAGE SOCIETY", "designationCode": "C", "categoryCode": "50", "address": "PO BOX 7051 STATION MAIN", "city": "SASKATOON", "province": "SK", "country": "CA", "postalCode": "S7K4J1", "twitter": "None", "instagram": "None", "facebook": "None", "youtube": "None", "website": "None", "summary": "None", "logo": "None", "latitude": 52.13049000000005, "longitude": -106.65926449999994}, "129060877RR0001": {"name": "SASKATOON HOUSING COALITION INC", "designationCode": "C", "categoryCode": "11", "address": "319A CAMPONI PLACE", "city": "SASKATOON", "province": "SK", "country": "CA", "postalCode": "S7M1E9", "twitter": "None", "instagram": "None", "facebook": "None", "youtube": "None", "website": "None", "summary": "None", "logo": "None", "latitude": 52.124036641864, "longitude": -106.72098622769016}, "107957086RR0001": {"name": "SASKATOON INDIAN METIS FRIENDSHIP CENTRE", "designationCode": "C", "categoryCode": "09", "address": "168 WALL STREET", "city": "SASKATOON", "province": "SK", "country": "CA", "postalCode": "S7K1N4", "twitter": "None", "instagram": "None", "facebook": "None", "youtube": "None", "website": "None", "summary": "None", "logo": "None", "latitude": 52.130500679987314, "longitude": -106.66925707475934}, "119141018RR0001": {"name": "SASKATOON INTERVAL HOUSE INC.", "designationCode": "C", "categoryCode": "01", "address": "712 VICTORIA AVENUE", "city": "SASKATOON", "province": "SK", "country": "CA", "postalCode": "S7N0Z2", "twitter": "None", "instagram": "None", "facebook": "None", "youtube": "None", "website": "None", "summary": "None", "logo": "None", "latitude": 52.11829892200936, "longitude": -106.6623582277682}, "119141026RR0001": {"name": "SASKATOON JAZZ SOCIETY", "designationCode": "C", "categoryCode": "22", "address": "B3-202 4TH AVE N", "city": "SASKATOON", "province": "SK", "country": "CA", "postalCode": "S7K0K1", "twitter": "None", "instagram": "None", "facebook": "None", "youtube": "None", "website": "None", "summary": "None", "logo": "None", "latitude": 52.13502564656406, "longitude": -106.65753408846757}, "119141034RR0001": {"name": "SASKATOON KIWANIS FOUNDATION KIWANIS CLUB OF SASKATOON", "designationCode": "A", "categoryCode": "65", "address": "PO BOX 8403  STN MAIN", "city": "SASKATOON", "province": "SK", "country": "CA", "postalCode": "S7K6C7", "twitter": "None", "instagram": "None", "facebook": "None", "youtube": "None", "website": "None", "summary": "None", "logo": "None", "latitude": 52.13049000000005, "longitude": -106.65926449999994}, "890350317RR0001": {"name": "SASKATOON LAESTADIAN LUTHERAN CHURCH", "designationCode": "C", "categoryCode": "39", "address": "BOX 57 RR 6 SITE 601", "city": "SASKATOON", "province": "SK", "country": "CA", "postalCode": "S7K3J9", "twitter": "None", "instagram": "None", "facebook": "None", "youtube": "None", "website": "None", "summary": "None", "logo": "None", "latitude": 52.15025400000006, "longitude": -106.55134549999994}, "104726096RR0001": {"name": "SASKATOON LIONS BAND INC.", "designationCode": "C", "categoryCode": "22", "address": "PO BOX 8986", "city": "SASKATOON", "province": "SK", "country": "CA", "postalCode": "S7K7E7", "twitter": "None", "instagram": "None", "facebook": "None", "youtube": "None", "website": "None", "summary": "None", "logo": "None", "latitude": 52.13049000000005, "longitude": -106.65926449999994}, "120661574RR0001": {"name": "SASKATOON MEN'S CHORUS INC.", "designationCode": "C", "categoryCode": "22", "address": "8B 228 3110 8TH STREET EAST", "city": "SASKATOON", "province": "SK", "country": "CA", "postalCode": "S7H0W2", "twitter": "None", "instagram": "None", "facebook": "None", "youtube": "None", "website": "None", "summary": "None", "logo": "None", "latitude": 52.1146810318711, "longitude": -106.60901193813994}, "106788136RR0001": {"name": "SASKATOON MENNONITE CARE SERVICES INC.", "designationCode": "C", "categoryCode": "09", "address": "110 LA RONGE RD", "city": "SASKATOON", "province": "SK", "country": "CA", "postalCode": "S7K7H8", "twitter": "None", "instagram": "None", "facebook": "None", "youtube": "None", "website": "None", "summary": "None", "logo": "None", "latitude": 52.16853898612155, "longitude": -106.62726018621971}, "868720525RR0001": {"name": "SASKATOON MISBAH SCHOOL INC.", "designationCode": "C", "categoryCode": "20", "address": "PO BOX 21065", "city": "SASKATOON", "province": "SK", "country": "CA", "postalCode": "S7H5N9", "twitter": "None", "instagram": "None", "facebook": "None", "youtube": "None", "website": "None", "summary": "None", "logo": "None", "latitude": 52.13049000000005, "longitude": -106.65926449999994}, "795855311RR0001": {"name": "SASKATOON MUSEUM OF MILITARY ARTIFACTS", "designationCode": "C", "categoryCode": "50", "address": "3021 LOUISE ST", "city": "SASKATOON", "province": "SK", "country": "CA", "postalCode": "S7J3L1", "twitter": "None", "instagram": "None", "facebook": "None", "youtube": "None", "website": "None", "summary": "None", "logo": "None", "latitude": 52.1019, "longitude": -106.60670573166334}, "890747793RR0001": {"name": "SASKATOON MUSIC FESTIVAL COMMITTEE", "designationCode": "C", "categoryCode": "22", "address": "642 BUDZ CRESCENT", "city": "SASKATOON", "province": "SK", "country": "CA", "postalCode": "S7N4N6", "twitter": "None", "instagram": "None", "facebook": "None", "youtube": "None", "website": "None", "summary": "None", "logo": "None", "latitude": 52.13541335832984, "longitude": -106.557825949218}, "129819827RR0001": {"name": "SASKATOON NATURE SOCIETY INC", "designationCode": "C", "categoryCode": "52", "address": "PO BOX 448 RPO UNIVERSITY", "city": "SASKATOON", "province": "SK", "country": "CA", "postalCode": "S7N4J8", "twitter": "None", "instagram": "None", "facebook": "None", "youtube": "None", "website": "None", "summary": "None", "logo": "None", "latitude": 52.12925550000001, "longitude": -106.64727524999999}, "119141133RR0001": {"name": "SASKATOON OPEN DOOR SOCIETY INC.", "designationCode": "C", "categoryCode": "09", "address": "100-129 3RD AVENUE NORTH", "city": "SASKATOON", "province": "SK", "country": "CA", "postalCode": "S7K2H4", "twitter": "None", "instagram": "None", "facebook": "None", "youtube": "None", "website": "None", "summary": "None", "logo": "None", "latitude": 52.12899184192729, "longitude": -106.66185422680279}, "119141141RR0001": {"name": "SASKATOON OPERA ASSOCIATION", "designationCode": "C", "categoryCode": "22", "address": "P O BOX 25114                 RPO RIVER HEIGHTS", "city": "SASKATOON", "province": "SK", "country": "CA", "postalCode": "S7K8B7", "twitter": "None", "instagram": "None", "facebook": "None", "youtube": "None", "website": "None", "summary": "None", "logo": "None", "latitude": 52.15933000000007, "longitude": -106.63383999999996}, "887207793RR0001": {"name": "SASKATOON OSTOMY ASSOCIATION", "designationCode": "C", "categoryCode": "11", "address": "1610 ISABELLA ST E", "city": "SASKATOON", "province": "SK", "country": "CA", "postalCode": "S7J0C1", "twitter": "None", "instagram": "None", "facebook": "None", "youtube": "None", "website": "None", "summary": "None", "logo": "None", "latitude": 52.105235481245465, "longitude": -106.63136163918864}, "119141182RR0001": {"name": "SASKATOON PLEASANT HILL MENNONITE CHURCH", "designationCode": "C", "categoryCode": "34", "address": "111 WITNEY AVE N", "city": "SASKATOON", "province": "SK", "country": "CA", "postalCode": "S7L3M1", "twitter": "None", "instagram": "None", "facebook": "None", "youtube": "None", "website": "None", "summary": "None", "logo": "None", "latitude": 52.12951035433065, "longitude": -106.71042025721772}, "898178462RR0001": {"name": "SASKATOON PRESCHOOL FOUNDATION INC.", "designationCode": "A", "categoryCode": "23", "address": "3144 ARLINGTON AVE", "city": "SASKATOON", "province": "SK", "country": "CA", "postalCode": "S7J3L5", "twitter": "None", "instagram": "None", "facebook": "None", "youtube": "None", "website": "None", "summary": "None", "logo": "None", "latitude": 52.09419047273308, "longitude": -106.62044399999999}, "119415123RR0001": {"name": "SASKATOON PUBLIC LIBRARY", "designationCode": "C", "categoryCode": "50", "address": "311-23RD STREET EAST", "city": "SASKATOON", "province": "SK", "country": "CA", "postalCode": "S7K0J6", "twitter": "None", "instagram": "None", "facebook": "None", "youtube": "None", "website": "None", "summary": "None", "logo": "None", "latitude": 52.12979667052359, "longitude": -106.66028663226375}, "784416497RR0001": {"name": "SASKATOON REGION EARLY CHILDHOOD INTERVENTION PROGRAM INC.", "designationCode": "C", "categoryCode": "09", "address": "1705 MCKERCHER DR", "city": "SASKATOON", "province": "SK", "country": "CA", "postalCode": "S7H5N6", "twitter": "None", "instagram": "None", "facebook": "None", "youtube": "None", "website": "None", "summary": "None", "logo": "None", "latitude": 52.10405846099034, "longitude": -106.58852093303187}, "889674396RR0001": {"name": "SASKATOON ROTARY CLUB CHARITABLE TRUST FUND INC", "designationCode": "A", "categoryCode": "03", "address": "2617 TAYLOR STREET EAST", "city": "SASKATOON", "province": "SK", "country": "CA", "postalCode": "S7H1X1", "twitter": "None", "instagram": "None", "facebook": "None", "youtube": "None", "website": "None", "summary": "None", "logo": "None", "latitude": 52.10617331115454, "longitude": -106.61523808782974}, "895349033RR0001": {"name": "SASKATOON SERVICES FOR SENIORS INC.", "designationCode": "C", "categoryCode": "01", "address": "103-115 19TH ST E", "city": "SASKATOON", "province": "SK", "country": "CA", "postalCode": "S7K7Y8", "twitter": "None", "instagram": "None", "facebook": "None", "youtube": "None", "website": "None", "summary": "None", "logo": "None", "latitude": 52.124120999999995, "longitude": -106.666911}, "119141307RR0001": {"name": "SASKATOON SEXUAL ASSAULT & INFORMATION CENTRE INC.", "designationCode": "C", "categoryCode": "09", "address": "#201, 506 - 25 STREET EAST", "city": "SASKATOON", "province": "SK", "country": "CA", "postalCode": "S7K4A7", "twitter": "None", "instagram": "None", "facebook": "None", "youtube": "None", "website": "None", "summary": "None", "logo": "None", "latitude": 52.132351347221345, "longitude": -106.65514898528481}, "107957318RR0001": {"name": "SASKATOON SOCIETY FOR CHRISTIAN EDUCATION INC.", "designationCode": "C", "categoryCode": "20", "address": "SITE 510, BOX 8,RR5", "city": "SASKATOON", "province": "SK", "country": "CA", "postalCode": "S7K3J8", "twitter": "None", "instagram": "None", "facebook": "None", "youtube": "None", "website": "None", "summary": "None", "logo": "None", "latitude": 52.13049000000005, "longitude": -106.65926449999994}, "119141331RR0001": {"name": "SASKATOON SOCIETY FOR THE PREVENTION OF CRUELTY TO ANIMALS INC.", "designationCode": "C", "categoryCode": "54", "address": "5028 CLARENCE AVE S", "city": "GRASSWOOD", "province": "SK", "country": "CA", "postalCode": "S7T1A7", "twitter": "None", "instagram": "None", "facebook": "None", "youtube": "None", "website": "None", "summary": "None", "logo": "None", "latitude": 52.05654580794044, "longitude": -106.64651125793168}, "107957326RR0001": {"name": "SASKATOON SOCIETY FOR THE PROTECTION OF CHILDREN INC.", "designationCode": "C", "categoryCode": "09", "address": "1020 VICTORIA AVE", "city": "SASKATOON", "province": "SK", "country": "CA", "postalCode": "S7N0Z8", "twitter": "None", "instagram": "None", "facebook": "None", "youtube": "None", "website": "None", "summary": "None", "logo": "None", "latitude": 52.11502200000001, "longitude": -106.66240720944634}, "119141349RR0001": {"name": "SASKATOON SPORTS HALL OF FAME", "designationCode": "C", "categoryCode": "50", "address": "2020 COLLEGE DRIVE", "city": "SASKATOON", "province": "SK", "country": "CA", "postalCode": "S7N2W4", "twitter": "None", "instagram": "None", "facebook": "None", "youtube": "None", "website": "None", "summary": "None", "logo": "None", "latitude": 52.12873432749651, "longitude": -106.62844738269278}, "892364563RR0001": {"name": "SASKATOON STROKE RECOVERY ASSOCIATION", "designationCode": "C", "categoryCode": "11", "address": "106 - 309B CREE CRES", "city": "SASKATOON", "province": "SK", "country": "CA", "postalCode": "S7K7Y3", "twitter": "None", "instagram": "None", "facebook": "None", "youtube": "None", "website": "None", "summary": "None", "logo": "None", "latitude": 52.17162439277442, "longitude": -106.63614309194027}, "107957334RR0001": {"name": "SASKATOON STUDENT CHILD CARE SERVICES INC.", "designationCode": "C", "categoryCode": "01", "address": "2220 RUSHOLME ROAD", "city": "SASKATOON", "province": "SK", "country": "CA", "postalCode": "S7L4A4", "twitter": "None", "instagram": "None", "facebook": "None", "youtube": "None", "website": "None", "summary": "None", "logo": "None", "latitude": 52.13344804294774, "longitude": -106.70456300715794}, "841931744RR0001": {"name": "SASKATOON STUDENT WELLNESS INITIATIVE TOWARD COMMUNITY HEALTH INC.", "designationCode": "C", "categoryCode": "11", "address": "1528-20TH STREET W", "city": "SASKATOON", "province": "SK", "country": "CA", "postalCode": "S7M0Z6", "twitter": "None", "instagram": "None", "facebook": "None", "youtube": "None", "website": "None", "summary": "None", "logo": "None", "latitude": 52.126219486005965, "longitude": -106.69363119317329}, "119141372RR0001": {"name": "SASKATOON SUMMER PLAYERS", "designationCode": "C", "categoryCode": "22", "address": "207 POPLAR CRES", "city": "SASKATOON", "province": "SK", "country": "CA", "postalCode": "S7M0A8", "twitter": "None", "instagram": "None", "facebook": "None", "youtube": "None", "website": "None", "summary": "None", "logo": "None", "latitude": 52.11793754844473, "longitude": -106.67136106275586}, "893165639RR0001": {"name": "SASKATOON SUZUKI STRINGS (1996) INC.", "designationCode": "C", "categoryCode": "22", "address": "PO BOX 72 STN MAIN", "city": "SASKATOON", "province": "SK", "country": "CA", "postalCode": "S7K3K1", "twitter": "None", "instagram": "None", "facebook": "None", "youtube": "None", "website": "None", "summary": "None", "logo": "None", "latitude": 52.13049000000005, "longitude": -106.65926449999994}, "119141380RR0001": {"name": "SASKATOON SYMPHONY SOCIETY", "designationCode": "C", "categoryCode": "22", "address": "408-20 ST W", "city": "SASKATOON", "province": "SK", "country": "CA", "postalCode": "S7M0X4", "twitter": "None", "instagram": "None", "facebook": "None", "youtube": "None", "website": "None", "summary": "None", "logo": "None", "latitude": 52.1261724532574, "longitude": -106.67548333236194}, "131712366RR0001": {"name": "SASKATOON TABERNACLE INC", "designationCode": "C", "categoryCode": "39", "address": "P.O. BOX 672", "city": "MARTENSVILLE", "province": "SK", "country": "CA", "postalCode": "S0K2T0", "twitter": "None", "instagram": "None", "facebook": "None", "youtube": "None", "website": "None", "summary": "None", "logo": "None", "latitude": 52.28949000000006, "longitude": -106.66201999999998}, "119141430RR0001": {"name": "SASKATOON YOUTH DEVELOPMENT COMPLEX", "designationCode": "C", "categoryCode": "09", "address": "BOX 203", "city": "SASKATOON", "province": "SK", "country": "CA", "postalCode": "S7K3K4", "twitter": "None", "instagram": "None", "facebook": "None", "youtube": "None", "website": "None", "summary": "None", "logo": "None", "latitude": 52.13049000000005, "longitude": -106.65926449999994}, "107957383RR0001": {"name": "SASKATOON YOUTH FOR CHRIST", "designationCode": "C", "categoryCode": "47", "address": "1338 AVENUE B NORTH", "city": "SASKATOON", "province": "SK", "country": "CA", "postalCode": "S7L1G5", "twitter": "None", "instagram": "None", "facebook": "None", "youtube": "None", "website": "None", "summary": "None", "logo": "None", "latitude": 52.14681083819033, "longitude": -106.67172723948322}, "107957409RR0001": {"name": "SASKATOON YOUTH ORCHESTRA INC.", "designationCode": "C", "categoryCode": "22", "address": "PO BOX 21108 RPO GROSVENOR PRK", "city": "SASKATOON", "province": "SK", "country": "CA", "postalCode": "S7H5N9", "twitter": "None", "instagram": "None", "facebook": "None", "youtube": "None", "website": "None", "summary": "None", "logo": "None", "latitude": 52.1110795366779, "longitude": -106.62606}, "890076524RR0001": {"name": "SASKATOON ZOO FOUNDATION INC", "designationCode": "A", "categoryCode": "03", "address": "1903 FORRESTRY FARM PARK DRIVE", "city": "SASKATOON", "province": "SK", "country": "CA", "postalCode": "S7S1G9", "twitter": "None", "instagram": "None", "facebook": "None", "youtube": "None", "website": "None", "summary": "None", "logo": "None", "latitude": 52.15618500000005, "longitude": -106.58537449999993}, "119141216RR0001": {"name": "SASKATOON ZOO SOCIETY INC.", "designationCode": "C", "categoryCode": "50", "address": "1903 FORESTRY FARM PARK DR", "city": "SASKATOON", "province": "SK", "country": "CA", "postalCode": "S7S1G9", "twitter": "None", "instagram": "None", "facebook": "None", "youtube": "None", "website": "None", "summary": "None", "logo": "None", "latitude": 52.15668004832921, "longitude": -106.58244002120644}, "119209690RR0001": {"name": "SASKTEL TELCARE EMPLOYEES CHARITY TRUST", "designationCode": "B", "categoryCode": "75", "address": "2121 SASK. DRIVE - 6TH FLOOR", "city": "REGINA", "province": "SK", "country": "CA", "postalCode": "S4P3Y2", "twitter": "None", "instagram": "None", "facebook": "None", "youtube": "None", "website": "None", "summary": "None", "logo": "None", "latitude": 50.45195771438068, "longitude": -104.61162524104108}, "890950975RR0001": {"name": "SASKTIP INC.", "designationCode": "C", "categoryCode": "59", "address": "BOX 114", "city": "MEATH PARK", "province": "SK", "country": "CA", "postalCode": "S0J1T0", "twitter": "None", "instagram": "None", "facebook": "None", "youtube": "None", "website": "None", "summary": "None", "logo": "None", "latitude": 53.39928158737069, "longitude": -105.37125300000001}, "858653975RR0001": {"name": "SAT-7 CANADA", "designationCode": "C", "categoryCode": "47", "address": "4865 VERDI ST", "city": "BURLINGTON", "province": "ON", "country": "CA", "postalCode": "L7M0H4", "twitter": "None", "instagram": "None", "facebook": "None", "youtube": "None", "website": "None", "summary": "None", "logo": "None", "latitude": 43.408722142939574, "longitude": -79.81527808814687}, "840079875RR0001": {"name": "SATCHIDANANDA SADGURU SHIRDI SAINATH MAHARAJ MANDIR", "designationCode": "C", "categoryCode": "39", "address": "1190 MID-WAY BVLD             UNIT 13", "city": "MISSISSAUGA", "province": "ON", "country": "CA", "postalCode": "L5T2B9", "twitter": "None", "instagram": "None", "facebook": "None", "youtube": "None", "website": "None", "summary": "None", "logo": "None", "latitude": 43.662875540544036, "longitude": -79.67084693478017}, "861578441RR0001": {"name": "SATGURU RAM SINGH SATSANG HOLY ASSEMBLY", "designationCode": "C", "categoryCode": "62", "address": "1250 - 1500 GEORGIA ST W", "city": "VANCOUVER", "province": "BC", "country": "CA", "postalCode": "V6G2Z6", "twitter": "None", "instagram": "None", "facebook": "None", "youtube": "None", "website": "None", "summary": "None", "logo": "None", "latitude": 49.29013479542975, "longitude": -123.1300069287031}, "872093299RR0001": {"name": "SATNAM ANAMI OF CANADA INC.", "designationCode": "C", "categoryCode": "62", "address": "8 STINGRAY CRT", "city": "BRAMPTON", "province": "ON", "country": "CA", "postalCode": "L6V4R1", "twitter": "None", "instagram": "None", "facebook": "None", "youtube": "None", "website": "None", "summary": "None", "logo": "None", "latitude": 43.71784709132084, "longitude": -79.76655862034718}}