{"119110450RR0009": {"name": "ST. AUGUSTINE'S PARISH", "designationCode": "C", "categoryCode": "38", "address": "58 SYDENHAM ST", "city": "DUNDAS", "province": "ON", "country": "CA", "postalCode": "L9H2T9", "twitter": "None", "instagram": "None", "facebook": "None", "youtube": "None", "website": "None", "summary": "None", "logo": "None", "latitude": 43.269114698309174, "longitude": -79.95637812949379}, "817121510RR0001": {"name": "ST. AUGUSTINE'S ROMAN CATHOLIC PARISH INC.", "designationCode": "C", "categoryCode": "38", "address": "BOX 5654 RR 3", "city": "HUNTER RIVER", "province": "PE", "country": "CA", "postalCode": "C0A1N0", "twitter": "None", "instagram": "None", "facebook": "None", "youtube": "None", "website": "None", "summary": "None", "logo": "None", "latitude": 46.492926000000054, "longitude": -63.36548449999994}, "119168805RR0001": {"name": "ST. BARBARA'S RUSSIAN GREEK CATHOLIC ORTHODOX CHURCH", "designationCode": "C", "categoryCode": "39", "address": "10105 - 96 ST", "city": "EDMONTON", "province": "AB", "country": "CA", "postalCode": "T5H2G3", "twitter": "None", "instagram": "None", "facebook": "None", "youtube": "None", "website": "None", "summary": "None", "logo": "None", "latitude": 53.543140102977624, "longitude": -113.48172628512931}, "108009846RR0002": {"name": "ST. BARNABAS ANGLICAN CHURCH", "designationCode": "C", "categoryCode": "30", "address": "253 BURRIN AVE", "city": "WINNIPEG", "province": "MB", "country": "CA", "postalCode": "R2V1E6", "twitter": "None", "instagram": "None", "facebook": "None", "youtube": "None", "website": "None", "summary": "None", "logo": "None", "latitude": 49.940072924807964, "longitude": -97.11903483331422}, "119168870RR0001": {"name": "ST. BARNABAS ANGLICAN CHURCH", "designationCode": "C", "categoryCode": "30", "address": "1407 7 AVE NW", "city": "CALGARY", "province": "AB", "country": "CA", "postalCode": "T2N0Z3", "twitter": "None", "instagram": "None", "facebook": "None", "youtube": "None", "website": "None", "summary": "None", "logo": "None", "latitude": 51.05893652120739, "longitude": -114.0923027514571}, "119168904RR0002": {"name": "ST. BARNABAS ANGLICAN CHURCH", "designationCode": "C", "categoryCode": "30", "address": "PO BOX 603", "city": "SANGUDO", "province": "AB", "country": "CA", "postalCode": "T0E2A0", "twitter": "None", "instagram": "None", "facebook": "None", "youtube": "None", "website": "None", "summary": "None", "logo": "None", "latitude": 53.88934000000006, "longitude": -114.90204999999997}, "119169001RR0002": {"name": "ST. BARNABAS ANGLICAN CHURCH", "designationCode": "C", "categoryCode": "30", "address": "BOX 65", "city": "ALTAMONT", "province": "MB", "country": "CA", "postalCode": "R0G0A0", "twitter": "None", "instagram": "None", "facebook": "None", "youtube": "None", "website": "None", "summary": "None", "logo": "None", "latitude": 49.398720000000026, "longitude": -98.49590999999998}, "108009812RR0001": {"name": "ST. BARNABAS CHURCH", "designationCode": "C", "categoryCode": "30", "address": "1040 HILLIARD STREET", "city": "PETERBOROUGH", "province": "ON", "country": "CA", "postalCode": "K9H5S1", "twitter": "None", "instagram": "None", "facebook": "None", "youtube": "None", "website": "None", "summary": "None", "logo": "None", "latitude": 44.33162833694957, "longitude": -78.32294920728289}, "807498076RR0001": {"name": "ST. BARNABAS MISSION INC.", "designationCode": "C", "categoryCode": "30", "address": "219 OXFORD STREET EAST", "city": "MOOSE JAW", "province": "SK", "country": "CA", "postalCode": "S6H0S8", "twitter": "None", "instagram": "None", "facebook": "None", "youtube": "None", "website": "None", "summary": "None", "logo": "None", "latitude": 50.398964605148244, "longitude": -105.52816389485174}, "107910259RR0176": {"name": "ST. BARNABAS PARISH", "designationCode": "C", "categoryCode": "38", "address": "10 WASHBURN WAY", "city": "SCARBOROUGH", "province": "ON", "country": "CA", "postalCode": "M1B1H3", "twitter": "None", "instagram": "None", "facebook": "None", "youtube": "None", "website": "None", "summary": "None", "logo": "None", "latitude": 43.79663489480068, "longitude": -79.22776749991309}, "119168862RR0001": {"name": "ST. BARNABAS' ANGLICAN CHURCH", "designationCode": "C", "categoryCode": "30", "address": "635 FOURTH ST S E", "city": "MEDICINE HAT", "province": "AB", "country": "CA", "postalCode": "T1A0L1", "twitter": "None", "instagram": "None", "facebook": "None", "youtube": "None", "website": "None", "summary": "None", "logo": "None", "latitude": 50.039216141266124, "longitude": -110.67398326879801}, "108099771RR0018": {"name": "ST. BARNABAS' CHURCH", "designationCode": "C", "categoryCode": "30", "address": "33 QUEENSTON ST", "city": "ST CATHARINES", "province": "ON", "country": "CA", "postalCode": "L2R2Y8", "twitter": "None", "instagram": "None", "facebook": "None", "youtube": "None", "website": "None", "summary": "None", "logo": "None", "latitude": 43.16291003416222, "longitude": -79.23778903456625}, "118787142RR0019": {"name": "ST. BARNABAS' CHURCH", "designationCode": "C", "categoryCode": "30", "address": "BOX 5252 STN B", "city": "VICTORIA", "province": "BC", "country": "CA", "postalCode": "V8R6N4", "twitter": "None", "instagram": "None", "facebook": "None", "youtube": "None", "website": "None", "summary": "None", "logo": "None"}, "119168946RR0001": {"name": "ST. BARNABAS' CHURCH", "designationCode": "C", "categoryCode": "30", "address": "640 CH SHERBROOKE", "city": "NORTH HATLEY", "province": "QC", "country": "CA", "postalCode": "J0B2C0", "twitter": "None", "instagram": "None", "facebook": "None", "youtube": "None", "website": "None", "summary": "None", "logo": "None", "latitude": 45.27509964888352, "longitude": -71.97173631141435}, "119168987RR0001": {"name": "ST. BARNABAS' CHURCH", "designationCode": "C", "categoryCode": "30", "address": "361 DANFORTH AVE", "city": "TORONTO", "province": "ON", "country": "CA", "postalCode": "M4K1P1", "twitter": "None", "instagram": "None", "facebook": "None", "youtube": "None", "website": "None", "summary": "None", "logo": "None", "latitude": 43.67745280930821, "longitude": -79.35233792408683}, "119110443RR0052": {"name": "ST. BARNABY'S CHURCH", "designationCode": "C", "categoryCode": "38", "address": "5307 HIGHWAY 15 RR#1", "city": "SEELEY'S BAY", "province": "ON", "country": "CA", "postalCode": "K0H2N0", "twitter": "None", "instagram": "None", "facebook": "None", "youtube": "None", "website": "None", "summary": "None", "logo": "None", "latitude": 44.47137300000006, "longitude": -76.24266649999993}, "108028374RR0001": {"name": "ST. BARSAUMO SYRIAC ORTHODOX CHURCH", "designationCode": "C", "categoryCode": "39", "address": "3250 DENISON ST", "city": "MARKHAM", "province": "ON", "country": "CA", "postalCode": "L3S0C4", "twitter": "None", "instagram": "None", "facebook": "None", "youtube": "None", "website": "None", "summary": "None", "logo": "None", "latitude": 43.8448757638531, "longitude": -79.25182545920492}, "119169175RR0001": {"name": "ST. BARTHOLOMEW'S Anglican Church", "designationCode": "C", "categoryCode": "30", "address": "509 DUNDAS ST E", "city": "TORONTO", "province": "ON", "country": "CA", "postalCode": "M5A3V3", "twitter": "None", "instagram": "None", "facebook": "None", "youtube": "None", "website": "None", "summary": "None", "logo": "None", "latitude": 43.65984482763009, "longitude": -79.36391731473256}, "119169118RR0002": {"name": "ST. BARTHOLOMEW'S ANGLICAN CHURCH", "designationCode": "C", "categoryCode": "30", "address": "PO BOX 557", "city": "GRIMSHAW", "province": "AB", "country": "CA", "postalCode": "T0H1W0", "twitter": "None", "instagram": "None", "facebook": "None", "youtube": "None", "website": "None", "summary": "None", "logo": "None", "latitude": 56.191580000000044, "longitude": -117.60929999999996}, "889625745RR0001": {"name": "ST. BARTHOLOMEW'S CHILDREN'S CENTRE, REGENT PARK INC.", "designationCode": "C", "categoryCode": "01", "address": "509 DUNDAS ST EAST", "city": "TORONTO", "province": "ON", "country": "CA", "postalCode": "M5A3V3", "twitter": "None", "instagram": "None", "facebook": "None", "youtube": "None", "website": "None", "summary": "None", "logo": "None", "latitude": 43.65984482763009, "longitude": -79.36391731473256}, "108010000RR0002": {"name": "ST. BARTHOLOMEW'S CHURCH", "designationCode": "C", "categoryCode": "30", "address": "718 CATHCART BLVD", "city": "SARNIA", "province": "ON", "country": "CA", "postalCode": "N7V2N5", "twitter": "None", "instagram": "None", "facebook": "None", "youtube": "None", "website": "None", "summary": "None", "logo": "None", "latitude": 43.00509841176877, "longitude": -82.38597927940587}, "118990126RR0001": {"name": "ST. BARTHOLOMEW'S HEALTH CARE AUXILIARY", "designationCode": "C", "categoryCode": "19", "address": "BOX 697", "city": "LYTTON", "province": "BC", "country": "CA", "postalCode": "V0K1Z0", "twitter": "None", "instagram": "None", "facebook": "None", "youtube": "None", "website": "None", "summary": "None", "logo": "None", "latitude": 51.53781143121373, "longitude": -120.98021143685018}, "108010067RR0001": {"name": "ST. BARTHOLOMEW'S UNITED CHURCH", "designationCode": "C", "categoryCode": "44", "address": "22 ABBEY RD", "city": "BRAMPTON", "province": "ON", "country": "CA", "postalCode": "L6W2T8", "twitter": "None", "instagram": "None", "facebook": "None", "youtube": "None", "website": "None", "summary": "None", "logo": "None", "latitude": 43.68050959446618, "longitude": -79.74129855291677}, "119169258RR0001": {"name": "ST. BASIL'S CHURCH", "designationCode": "C", "categoryCode": "39", "address": "PO BOX 189                    314 SUPERIOR ST", "city": "WHITE RIVER", "province": "ON", "country": "CA", "postalCode": "P0M3G0", "twitter": "None", "instagram": "None", "facebook": "None", "youtube": "None", "website": "None", "summary": "None", "logo": "None", "latitude": 48.59214846986585, "longitude": -85.28232711991886}, "119110450RR0124": {"name": "ST. BASIL'S PARISH", "designationCode": "C", "categoryCode": "38", "address": "50 PALACE STREET", "city": "BRANTFORD", "province": "ON", "country": "CA", "postalCode": "N3T3W9", "twitter": "None", "instagram": "None", "facebook": "None", "youtube": "None", "website": "None", "summary": "None", "logo": "None", "latitude": 43.144688028910764, "longitude": -80.26919510384299}, "119169308RR0001": {"name": "ST. BASIL'S SENIOR CITIZENS' HOME INCORPORATED", "designationCode": "C", "categoryCode": "01", "address": "1747 TORONTO STREET", "city": "REGINA", "province": "SK", "country": "CA", "postalCode": "S4P1M5", "twitter": "None", "instagram": "None", "facebook": "None", "youtube": "None", "website": "None", "summary": "None", "logo": "None", "latitude": 50.45117831891225, "longitude": -104.59908623831963}, "108010174RR0001": {"name": "ST. BASIL'S UKRAINIAN CATHOLIC PARISH", "designationCode": "C", "categoryCode": "38", "address": "7007 109 ST NW", "city": "EDMONTON", "province": "AB", "country": "CA", "postalCode": "T6H3B9", "twitter": "None", "instagram": "None", "facebook": "None", "youtube": "None", "website": "None", "summary": "None", "logo": "None", "latitude": 53.507033528449426, "longitude": -113.51198628008034}, "119169316RR0001": {"name": "ST. BASIL'S UKRAINIAN CATHOLIC PARISH", "designationCode": "C", "categoryCode": "38", "address": "202 HARCOURT ST", "city": "WINNIPEG", "province": "MB", "country": "CA", "postalCode": "R3J3H3", "twitter": "None", "instagram": "None", "facebook": "None", "youtube": "None", "website": "None", "summary": "None", "logo": "None", "latitude": 49.878226655288806, "longitude": -97.26979526816284}, "106924996RR0001": {"name": "ST. BEDE'S CHURCH", "designationCode": "C", "categoryCode": "30", "address": "79 WESTBOURNE AVE", "city": "SCARBOROUGH", "province": "ON", "country": "CA", "postalCode": "M1L2Y6", "twitter": "None", "instagram": "None", "facebook": "None", "youtube": "None", "website": "None", "summary": "None", "logo": "None", "latitude": 43.70439409270584, "longitude": -79.29072030610557}, "108084658RR0025": {"name": "ST. BEDE'S CHURCH NOLAN'S CORNER", "designationCode": "C", "categoryCode": "30", "address": "11603 HWY 15 RR#3", "city": "SMITHS FALLS", "province": "ON", "country": "CA", "postalCode": "K7A4S4", "twitter": "None", "instagram": "None", "facebook": "None", "youtube": "None", "website": "None", "summary": "None", "logo": "None", "latitude": 44.95314973180728, "longitude": -76.03848916175944}, "119109817RR0128": {"name": "ST. BENEDICT'S - SARNIA", "designationCode": "C", "categoryCode": "38", "address": "1011 OAK AVE", "city": "SARNIA", "province": "ON", "country": "CA", "postalCode": "N7S1J4", "twitter": "None", "instagram": "None", "facebook": "None", "youtube": "None", "website": "None", "summary": "None", "logo": "None", "latitude": 42.970746426366965, "longitude": -82.37288301013824}, "119169381RR0001": {"name": "ST. BENEDICT'S ANGLICAN CHURCH", "designationCode": "C", "categoryCode": "30", "address": "602 3 ST SW", "city": "HIGH RIVER", "province": "AB", "country": "CA", "postalCode": "T1V1B4", "twitter": "None", "instagram": "None", "facebook": "None", "youtube": "None", "website": "None", "summary": "None", "logo": "None", "latitude": 50.57726481453811, "longitude": -113.87620535425908}, "119169415RR0001": {"name": "ST. BENEDICT'S PARISH", "designationCode": "C", "categoryCode": "38", "address": "P.O. BOX 266", "city": "GIMLI", "province": "MB", "country": "CA", "postalCode": "R0C1B0", "twitter": "None", "instagram": "None", "facebook": "None", "youtube": "None", "website": "None", "summary": "None", "logo": "None", "latitude": 50.30677349294383, "longitude": -96.92898988377391}, "107909939RR0023": {"name": "ST. BERNADETTE'S CHURCH", "designationCode": "C", "categoryCode": "38", "address": "7103-20A STREET SE", "city": "CALGARY", "province": "AB", "country": "CA", "postalCode": "T2C0R6", "twitter": "None", "instagram": "None", "facebook": "None", "youtube": "None", "website": "None", "summary": "None", "logo": "None", "latitude": 50.989543292255775, "longitude": -114.01021345158394}, "118849470RR0016": {"name": "ST. BERNADETTE'S PARISH", "designationCode": "C", "categoryCode": "38", "address": "6543 132ND ST", "city": "SURREY", "province": "BC", "country": "CA", "postalCode": "V3W4L4", "twitter": "None", "instagram": "None", "facebook": "None", "youtube": "None", "website": "None", "summary": "None", "logo": "None", "latitude": 49.121576664723875, "longitude": -122.85658295510372}, "119169449RR0001": {"name": "ST. BERNADETTE'S PARISH", "designationCode": "C", "categoryCode": "38", "address": "963 DESPINS ROAD", "city": "SAYWARD", "province": "BC", "country": "CA", "postalCode": "V0P1R0", "twitter": "None", "instagram": "None", "facebook": "None", "youtube": "None", "website": "None", "summary": "None", "logo": "None", "latitude": 50.35778067562853, "longitude": -125.91654327689733}, "119109817RR0101": {"name": "ST. BERNARD OF CLAIRVAUX PARISH", "designationCode": "C", "categoryCode": "38", "address": "110 ADAMS AVENUE", "city": "DELHI", "province": "ON", "country": "CA", "postalCode": "N4B1P7", "twitter": "None", "instagram": "None", "facebook": "None", "youtube": "None", "website": "None", "summary": "None", "logo": "None", "latitude": 42.853536671100514, "longitude": -80.48896900943505}, "107909939RR0059": {"name": "ST. BERNARD ROMAN CATHOLIC PARISH", "designationCode": "C", "categoryCode": "38", "address": "7624-39 AVE NW", "city": "CALGARY", "province": "AB", "country": "CA", "postalCode": "T3B1X3", "twitter": "None", "instagram": "None", "facebook": "None", "youtube": "None", "website": "None", "summary": "None", "logo": "None", "latitude": 51.08792152596793, "longitude": -114.197571}, "107876476RR0081": {"name": "ST. BERNARD'S CHURCH", "designationCode": "C", "categoryCode": "38", "address": "P.O. BOX 757", "city": "LITTLE CURRENT", "province": "ON", "country": "CA", "postalCode": "P0P1K0", "twitter": "None", "instagram": "None", "facebook": "None", "youtube": "None", "website": "None", "summary": "None", "logo": "None", "latitude": 45.82642761199063, "longitude": -82.15772370619678}, "119109833RR0033": {"name": "ST. BERNARD'S CHURCH", "designationCode": "C", "categoryCode": "38", "address": "253 HIGHWAY 2", "city": "ENFIELD", "province": "NS", "country": "CA", "postalCode": "B2T1C9", "twitter": "None", "instagram": "None", "facebook": "None", "youtube": "None", "website": "None", "summary": "None", "logo": "None", "latitude": 44.942533429629485, "longitude": -63.53609280865008}, "108010356RR0001": {"name": "ST. BERNARD'S RESIDENCE", "designationCode": "C", "categoryCode": "10", "address": "685 FINCH AVENUE WEST", "city": "WILLOWDALE", "province": "ON", "country": "CA", "postalCode": "M2R1P2", "twitter": "None", "instagram": "None", "facebook": "None", "youtube": "None", "website": "None", "summary": "None", "logo": "None", "latitude": 43.771012830371376, "longitude": -79.45703637633459}, "107909939RR0060": {"name": "ST. BONAVENTURE PARISH", "designationCode": "C", "categoryCode": "38", "address": "1600 ACADIA DRIVE SE", "city": "CALGARY", "province": "AB", "country": "CA", "postalCode": "T2J3B3", "twitter": "None", "instagram": "None", "facebook": "None", "youtube": "None", "website": "None", "summary": "None", "logo": "None", "latitude": 50.93293533527614, "longitude": -114.0480999390618}, "107876476RR0079": {"name": "ST. BONAVENTURE'S CHURCH", "designationCode": "C", "categoryCode": "38", "address": "32 CHANNEL ST", "city": "KILLARNEY", "province": "ON", "country": "CA", "postalCode": "P0M2A0", "twitter": "None", "instagram": "None", "facebook": "None", "youtube": "None", "website": "None", "summary": "None", "logo": "None", "latitude": 45.971084826562205, "longitude": -81.51374214014093}, "846195345RR0001": {"name": "ST. BONAVENTURE'S COLLEGE ENDOWMENT INC.", "designationCode": "A", "categoryCode": "21", "address": "BONAVENTURE AVENUE", "city": "ST. JOHN'S", "province": "NL", "country": "CA", "postalCode": "A1C6B3", "twitter": "None", "instagram": "None", "facebook": "None", "youtube": "None", "website": "None", "summary": "None", "logo": "None", "latitude": 47.56892904938796, "longitude": -52.71527867214016}, "866868086RR0001": {"name": "ST. BONAVENTURE'S COLLEGE INC.", "designationCode": "C", "categoryCode": "20", "address": "2A BONAVENTURE AVENUE", "city": "ST. JOHN'S", "province": "NL", "country": "CA", "postalCode": "A1C6B3", "twitter": "None", "instagram": "None", "facebook": "None", "youtube": "None", "website": "None", "summary": "None", "logo": "None"}, "107020331RR0028": {"name": "ST. BONAVENTURE'S PARISH", "designationCode": "C", "categoryCode": "38", "address": "105 UNION STREET", "city": "WOODSTOCK", "province": "NB", "country": "CA", "postalCode": "E7M2W4", "twitter": "None", "instagram": "None", "facebook": "None", "youtube": "None", "website": "None", "summary": "None", "logo": "None", "latitude": 46.14524212450594, "longitude": -67.57594802731391}, "812266203RR0001": {"name": "ST. BONAVENTURE'S PARISH", "designationCode": "C", "categoryCode": "38", "address": "RR#1                          TRACADIE CROSS", "city": "MT. STEWART", "province": "PE", "country": "CA", "postalCode": "C0A1T0", "twitter": "None", "instagram": "None", "facebook": "None", "youtube": "None", "website": "None", "summary": "None", "logo": "None", "latitude": 46.30447142760757, "longitude": -62.78748445061387}, "107876476RR0090": {"name": "ST. BONIFACE CATHOLIC CHURCH", "designationCode": "C", "categoryCode": "38", "address": "P.O. BOX 104", "city": "HILTON BEACH", "province": "ON", "country": "CA", "postalCode": "P0R1G0", "twitter": "None", "instagram": "None", "facebook": "None", "youtube": "None", "website": "None", "summary": "None", "logo": "None", "latitude": 46.23848975928452, "longitude": -83.93198501820692}, "105004550RR0001": {"name": "ST. BONIFACE CHILDREN'S PLACE D'ENFANTS INC.", "designationCode": "C", "categoryCode": "20", "address": "365 DESAUTELS ST", "city": "WINNIPEG", "province": "MB", "country": "CA", "postalCode": "R2H0J6", "twitter": "None", "instagram": "None", "facebook": "None", "youtube": "None", "website": "None", "summary": "None", "logo": "None", "latitude": 49.891136489324204, "longitude": -97.11174169900167}, "107909939RR0064": {"name": "ST. BONIFACE CHURCH", "designationCode": "C", "categoryCode": "38", "address": "1923 BROADVIEW RD NW", "city": "CALGARY", "province": "AB", "country": "CA", "postalCode": "T2N3H6", "twitter": "None", "instagram": "None", "facebook": "None", "youtube": "None", "website": "None", "summary": "None", "logo": "None", "latitude": 51.050141528997685, "longitude": -114.10448391618097}, "119109817RR0067": {"name": "ST. BONIFACE CHURCH", "designationCode": "C", "categoryCode": "38", "address": "P.O. BOX 81", "city": "ZURICH", "province": "ON", "country": "CA", "postalCode": "N0M2T0", "twitter": "None", "instagram": "None", "facebook": "None", "youtube": "None", "website": "None", "summary": "None", "logo": "None", "latitude": 37.181580000000054, "longitude": -118.26139999999998}, "119169597RR0001": {"name": "ST. BONIFACE CHURCH", "designationCode": "C", "categoryCode": "38", "address": "PO BOX 134", "city": "DILKE", "province": "SK", "country": "CA", "postalCode": "S0G1C0", "twitter": "None", "instagram": "None", "facebook": "None", "youtube": "None", "website": "None", "summary": "None", "logo": "None", "latitude": 50.86569000000003, "longitude": -105.25358999999997}, "105004576RR0001": {"name": "ST. BONIFACE GARDERIE DE BAMBINS INCORPORATED", "designationCode": "C", "categoryCode": "01", "address": "240 TACHE AVE", "city": "WINNIPEG", "province": "MB", "country": "CA", "postalCode": "R2H1Z7", "twitter": "None", "instagram": "None", "facebook": "None", "youtube": "None", "website": "None", "summary": "None", "logo": "None", "latitude": 49.87927107438397, "longitude": -97.12318029401611}, "119169647RR0001": {"name": "ST. BONIFACE GENERAL HOSPITAL", "designationCode": "C", "categoryCode": "10", "address": "409 TACH\u00c9 AVE", "city": "WINNIPEG", "province": "MB", "country": "CA", "postalCode": "R2H2A6", "twitter": "None", "instagram": "None", "facebook": "None", "youtube": "None", "website": "None", "summary": "None", "logo": "None", "latitude": 49.88406859893824, "longitude": -97.12368486190692}, "872620422RR0001": {"name": "ST. BONIFACE HOSPITAL AUXILARY INC./L'AUXILIAIRE DE L'HOPITAL GENERAL ST. BONIFACE INC.", "designationCode": "C", "categoryCode": "19", "address": "409 TACHE AVE.", "city": "WINNIPEG", "province": "MB", "country": "CA", "postalCode": "R2H2A6", "twitter": "None", "instagram": "None", "facebook": "None", "youtube": "None", "website": "None", "summary": "None", "logo": "None", "latitude": 49.88406859893824, "longitude": -97.12368486190692}, "107585085RR0061": {"name": "ST. BONIFACE PARISH", "designationCode": "C", "categoryCode": "38", "address": "BOX 10", "city": "GOODSOIL", "province": "SK", "country": "CA", "postalCode": "S0M1A0", "twitter": "None", "instagram": "None", "facebook": "None", "youtube": "None", "website": "None", "summary": "None", "logo": "None", "latitude": 54.400190000000066, "longitude": -109.21825999999999}, "119110450RR0092": {"name": "ST. BONIFACE PARISH", "designationCode": "C", "categoryCode": "38", "address": "1355 MARYHILL ROAD BOX 70", "city": "MARYHILL", "province": "ON", "country": "CA", "postalCode": "N0B2B0", "twitter": "None", "instagram": "None", "facebook": "None", "youtube": "None", "website": "None", "summary": "None", "logo": "None", "latitude": 43.5372150547566, "longitude": -80.39355575921509}, "119110450RR0103": {"name": "ST. BONIFACE PARISH", "designationCode": "C", "categoryCode": "38", "address": "700 KING ST W", "city": "HAMILTON", "province": "ON", "country": "CA", "postalCode": "L8P1C7", "twitter": "None", "instagram": "None", "facebook": "None", "youtube": "None", "website": "None", "summary": "None", "logo": "None", "latitude": 43.26284446770546, "longitude": -79.89023923809737}, "875776270RR0001": {"name": "ST. BONIFACE SCHOOL EDUCATIONAL SOCIETY", "designationCode": "C", "categoryCode": "21", "address": "927 LAKE SYLVAN DR SE", "city": "CALGARY", "province": "AB", "country": "CA", "postalCode": "T2J2P8", "twitter": "None", "instagram": "None", "facebook": "None", "youtube": "None", "website": "None", "summary": "None", "logo": "None", "latitude": 50.943404871487154, "longitude": -114.04209040980433}, "108010554RR0001": {"name": "ST. BORIS & HLIB UKRAINIAN CATHOLIC PARISH", "designationCode": "C", "categoryCode": "38", "address": "P.O.BOX 364", "city": "REDWATER", "province": "AB", "country": "CA", "postalCode": "T0A2W0", "twitter": "None", "instagram": "None", "facebook": "None", "youtube": "None", "website": "None", "summary": "None", "logo": "None", "latitude": 53.94921000000005, "longitude": -113.10568999999998}, "119169720RR0002": {"name": "ST. BRICE'S CHURCH", "designationCode": "C", "categoryCode": "30", "address": "1225 CASSELLS ST", "city": "NORTH BAY", "province": "ON", "country": "CA", "postalCode": "P1B4B8", "twitter": "None", "instagram": "None", "facebook": "None", "youtube": "None", "website": "None", "summary": "None", "logo": "None", "latitude": 46.31793127941586, "longitude": -79.45475470411961}, "119169738RR0001": {"name": "ST. BRIDE'S CHURCH", "designationCode": "C", "categoryCode": "30", "address": "BOX 653", "city": "WATSON", "province": "SK", "country": "CA", "postalCode": "S0K4V0", "twitter": "None", "instagram": "None", "facebook": "None", "youtube": "None", "website": "None", "summary": "None", "logo": "None", "latitude": 52.32713850000001, "longitude": -106.57019925}, "119169746RR0001": {"name": "ST. BRIDE'S PARISH", "designationCode": "C", "categoryCode": "38", "address": "4609 50 AVE", "city": "ST PAUL", "province": "AB", "country": "CA", "postalCode": "T0A3A3", "twitter": "None", "instagram": "None", "facebook": "None", "youtube": "None", "website": "None", "summary": "None", "logo": "None", "latitude": 53.99135148730496, "longitude": -111.28695202553523}, "107020331RR0050": {"name": "ST. BRIDGET'S PARISH", "designationCode": "C", "categoryCode": "38", "address": "12 ST. BRIDGET'S CRESCENT", "city": "RENOUS", "province": "NB", "country": "CA", "postalCode": "E9E2G1", "twitter": "None", "instagram": "None", "facebook": "None", "youtube": "None", "website": "None", "summary": "None", "logo": "None", "latitude": 46.815756701229844, "longitude": -65.79747306335878}, "119109833RR0045": {"name": "ST. BRIDGET'S PARISH", "designationCode": "C", "categoryCode": "38", "address": "112 MILL VILLAGE RD", "city": "SHUBENACADIE", "province": "NS", "country": "CA", "postalCode": "B0N2H0", "twitter": "None", "instagram": "None", "facebook": "None", "youtube": "None", "website": "None", "summary": "None", "logo": "None", "latitude": 45.08828076149017, "longitude": -63.42075470143765}, "119110443RR0010": {"name": "ST. BRIDGETS CHURCH", "designationCode": "C", "categoryCode": "38", "address": "BOX 61", "city": "LANARK", "province": "ON", "country": "CA", "postalCode": "K0G1K0", "twitter": "None", "instagram": "None", "facebook": "None", "youtube": "None", "website": "None", "summary": "None", "logo": "None", "latitude": 45.05259300000006, "longitude": -76.40778049999993}, "868735465RR0001": {"name": "ST. BRIEUX & DISTRICT FIRST RESPONDERS INC.", "designationCode": "C", "categoryCode": "11", "address": "BOX 128", "city": "ST BRIEUX", "province": "SK", "country": "CA", "postalCode": "S0K3V0", "twitter": "None", "instagram": "None", "facebook": "None", "youtube": "None", "website": "None", "summary": "None", "logo": "None", "latitude": 52.63333000000006, "longitude": -104.90102999999999}, "835965070RR0001": {"name": "ST. BRIEUX COMMUNITY CHILDCARE CENTRE INC.", "designationCode": "C", "categoryCode": "01", "address": "BOX 485", "city": "ST BRIEUX", "province": "SK", "country": "CA", "postalCode": "S0K3V0", "twitter": "None", "instagram": "None", "facebook": "None", "youtube": "None", "website": "None", "summary": "None", "logo": "None", "latitude": 52.63333000000006, "longitude": -104.90102999999999}, "119169803RR0001": {"name": "ST. BRIEUX DONORS CHOICE", "designationCode": "C", "categoryCode": "05", "address": "PO BOX 415", "city": "ST BRIEUX", "province": "SK", "country": "CA", "postalCode": "S0K3V0", "twitter": "None", "instagram": "None", "facebook": "None", "youtube": "None", "website": "None", "summary": "None", "logo": "None", "latitude": 52.63333000000006, "longitude": -104.90102999999999}, "876112806RR0001": {"name": "ST. BRIGID MISSION", "designationCode": "C", "categoryCode": "38", "address": "10 ST GREGORYS DR", "city": "CAMBRIDGE", "province": "ON", "country": "CA", "postalCode": "N1S3Z1", "twitter": "None", "instagram": "None", "facebook": "None", "youtube": "None", "website": "None", "summary": "None", "logo": "None", "latitude": 43.348010306480006, "longitude": -80.32805951249347}, "107585515RR0015": {"name": "ST. BRIGID PARISH", "designationCode": "C", "categoryCode": "38", "address": "CP 128", "city": "NAKINA", "province": "ON", "country": "CA", "postalCode": "P0T2H0", "twitter": "None", "instagram": "None", "facebook": "None", "youtube": "None", "website": "None", "summary": "None", "logo": "None", "latitude": 43.85838982199973, "longitude": -79.30150501799956}, "119109833RR0040": {"name": "ST. BRIGID'S CHURCH", "designationCode": "C", "categoryCode": "38", "address": "BOX 337", "city": "PARRSBORO", "province": "NS", "country": "CA", "postalCode": "B0M1S0", "twitter": "None", "instagram": "None", "facebook": "None", "youtube": "None", "website": "None", "summary": "None", "logo": "None", "latitude": 45.385971000000055, "longitude": -64.25530099999993}, "131772451RR0001": {"name": "ST. BRIGID'S SUMMER CAMP", "designationCode": "C", "categoryCode": "56", "address": "72 ELVASTON AVENUE", "city": "OTTAWA", "province": "ON", "country": "CA", "postalCode": "K2G3X9", "twitter": "None", "instagram": "None", "facebook": "None", "youtube": "None", "website": "None", "summary": "None", "logo": "None", "latitude": 45.32852688591388, "longitude": -75.77697678628314}, "108010711RR0001": {"name": "ST. CAMILLUS' PARISH", "designationCode": "C", "categoryCode": "38", "address": "BOX 565", "city": "WAKEFIELD", "province": "QC", "country": "CA", "postalCode": "J0X3G0", "twitter": "None", "instagram": "None", "facebook": "None", "youtube": "None", "website": "None", "summary": "None", "logo": "None", "latitude": 45.63534000000004, "longitude": -75.92946999999998}, "119110443RR0006": {"name": "ST. CARTHAGHS CHURCH", "designationCode": "C", "categoryCode": "38", "address": "PO BOX 278                    154 HUNGERFORD RD", "city": "TWEED", "province": "ON", "country": "CA", "postalCode": "K0K3J0", "twitter": "None", "instagram": "None", "facebook": "None", "youtube": "None", "website": "None", "summary": "None", "logo": "None", "latitude": 44.478702888920516, "longitude": -77.3168176581383}, "119109817RR0098": {"name": "ST. CASIMIR PARISH", "designationCode": "C", "categoryCode": "38", "address": "41 TALBOT ROAD", "city": "DELHI", "province": "ON", "country": "CA", "postalCode": "N4B1Z7", "twitter": "None", "instagram": "None", "facebook": "None", "youtube": "None", "website": "None", "summary": "None", "logo": "None", "latitude": 42.856165749379635, "longitude": -80.49568379003405}, "107876476RR0050": {"name": "ST. CASIMIR'S CHURCH", "designationCode": "C", "categoryCode": "38", "address": "210 PARIS STREET", "city": "SUDBURY", "province": "ON", "country": "CA", "postalCode": "P3E3E2", "twitter": "None", "instagram": "None", "facebook": "None", "youtube": "None", "website": "None", "summary": "None", "logo": "None", "latitude": 46.48899321571656, "longitude": -80.98903989788113}, "118849470RR0009": {"name": "ST. CASIMIR'S PARISH", "designationCode": "C", "categoryCode": "38", "address": "1187 E 27TH AVE", "city": "VANCOUVER", "province": "BC", "country": "CA", "postalCode": "V5V2L7", "twitter": "None", "instagram": "None", "facebook": "None", "youtube": "None", "website": "None", "summary": "None", "logo": "None", "latitude": 49.24662950176672, "longitude": -123.08040130035334}, "119109791RR0046": {"name": "ST. CATHARINE OF ALEXANDRIA CATHEDRAL", "designationCode": "C", "categoryCode": "38", "address": "3 LYMAN STREET", "city": "ST-CATHARINES", "province": "ON", "country": "CA", "postalCode": "L2R5M8", "twitter": "None", "instagram": "None", "facebook": "None", "youtube": "None", "website": "None", "summary": "None", "logo": "None", "latitude": 43.16072549008037, "longitude": -79.2463800087315}, "858152440RR0001": {"name": "ST. CATHARINES BLIND BOWLERS", "designationCode": "C", "categoryCode": "56", "address": "2 - 135 HELLEMS AVE", "city": "WELLAND", "province": "ON", "country": "CA", "postalCode": "L3B3B1", "twitter": "None", "instagram": "None", "facebook": "None", "youtube": "None", "website": "None", "summary": "None", "logo": "None", "latitude": 42.98960602553524, "longitude": -79.24669752986304}, "108010851RR0001": {"name": "ST. CATHARINES CHINESE ALLIANCE CHURCH", "designationCode": "C", "categoryCode": "39", "address": "237 RYKERT STREET", "city": "ST CATHARINES", "province": "ON", "country": "CA", "postalCode": "L2S3T8", "twitter": "None", "instagram": "None", "facebook": "None", "youtube": "None", "website": "None", "summary": "None", "logo": "None", "latitude": 43.135869420422814, "longitude": -79.27089319201944}, "892989161RR0001": {"name": "ST. CATHARINES FALCONS FOUNDATION", "designationCode": "C", "categoryCode": "21", "address": "PO BOX 20112 RPO GRANTHAM", "city": "ST CATHARINES", "province": "ON", "country": "CA", "postalCode": "L2M7W7", "twitter": "None", "instagram": "None", "facebook": "None", "youtube": "None", "website": "None", "summary": "None", "logo": "None", "latitude": 43.18595227267854, "longitude": -79.22077768144945}, "119170017RR0001": {"name": "ST. CATHARINES FREE METHODIST CHURCH", "designationCode": "C", "categoryCode": "39", "address": "41 GRAPEVIEW DRIVE", "city": "ST CATHARINES", "province": "ON", "country": "CA", "postalCode": "L2S0A8", "twitter": "None", "instagram": "None", "facebook": "None", "youtube": "None", "website": "None", "summary": "None", "logo": "None", "latitude": 43.16391536661108, "longitude": -79.27204396958868}, "850606872RR0001": {"name": "ST. CATHARINES GOSPEL TRUST", "designationCode": "C", "categoryCode": "39", "address": "720 LAKE STREET", "city": "ST. CATHARINES", "province": "ON", "country": "CA", "postalCode": "L2N4J5", "twitter": "None", "instagram": "None", "facebook": "None", "youtube": "None", "website": "None", "summary": "None", "logo": "None", "latitude": 43.20673264946043, "longitude": -79.25296446956001}, "108011024RR0001": {"name": "ST. CATHARINES PUBLIC LIBRARY", "designationCode": "C", "categoryCode": "50", "address": "54 CHURCH ST", "city": "ST CATHARINES", "province": "ON", "country": "CA", "postalCode": "L2R7K2", "twitter": "None", "instagram": "None", "facebook": "None", "youtube": "None", "website": "None", "summary": "None", "logo": "None", "latitude": 43.160423607248134, "longitude": -79.24649821588123}, "119170116RR0001": {"name": "ST. CATHARINES RIGHT TO LIFE ASSOCIATION INC.", "designationCode": "C", "categoryCode": "09", "address": "3 KING STREET, SUITE 2", "city": "ST CATHARINES", "province": "ON", "country": "CA", "postalCode": "L2R3G3", "twitter": "None", "instagram": "None", "facebook": "None", "youtube": "None", "website": "None", "summary": "None", "logo": "None", "latitude": 43.15656626118062, "longitude": -79.24799683071714}, "132855859RR0001": {"name": "ST. CATHARINES SENIOR CITIZENS RESIDENCES INC.", "designationCode": "C", "categoryCode": "01", "address": "321 GENEVA STREET", "city": "ST CATHARINES", "province": "ON", "country": "CA", "postalCode": "L2N7N4", "twitter": "None", "instagram": "None", "facebook": "None", "youtube": "None", "website": "None", "summary": "None", "logo": "None", "latitude": 43.17955687177561, "longitude": -79.24097805150313}, "107797383RR0056": {"name": "ST. CATHARINES SEVENTH-DAY ADVENTIST CHURCH", "designationCode": "C", "categoryCode": "41", "address": "302 SCOTT ST", "city": "ST. CATHERINES", "province": "ON", "country": "CA", "postalCode": "L2M1J3", "twitter": "None", "instagram": "None", "facebook": "None", "youtube": "None", "website": "None", "summary": "None", "logo": "None", "latitude": 43.18823632421914, "longitude": -79.23081499609452}, "119170132RR0001": {"name": "ST. CATHARINES UKRAINIAN EVANGELICAL BAPTIST CHURCH", "designationCode": "C", "categoryCode": "31", "address": "317 NIAGARA ST", "city": "ST. CATHARINES", "province": "ON", "country": "CA", "postalCode": "L2M4V9", "twitter": "None", "instagram": "None", "facebook": "None", "youtube": "None", "website": "None", "summary": "None", "logo": "None", "latitude": 43.180459521524504, "longitude": -79.22703306194781}, "119122778RR0007": {"name": "ST. CATHERINE DE SIENNE", "designationCode": "C", "categoryCode": "38", "address": "19092 WALLACE ST. R.R.5", "city": "ALEXANDRIA", "province": "ON", "country": "CA", "postalCode": "K0C1A0", "twitter": "None", "instagram": "None", "facebook": "None", "youtube": "None", "website": "None", "summary": "None", "logo": "None", "latitude": 45.324006000000054, "longitude": -74.57325649999993}, "865224166RR0001": {"name": "ST. CATHERINE OF ALEXANDRIA CATHOLIC PARISH (BYZANTINE RITE)", "designationCode": "C", "categoryCode": "39", "address": "16 HEARN STREET", "city": "BOND HEAD", "province": "ON", "country": "CA", "postalCode": "L0G1B0", "twitter": "None", "instagram": "None", "facebook": "None", "youtube": "None", "website": "None", "summary": "None", "logo": "None", "latitude": 44.09002060338166, "longitude": -79.67891489719527}, "119170181RR0002": {"name": "ST. CATHERINE'S ANGLICAN CHURCH", "designationCode": "C", "categoryCode": "30", "address": "BOX 6457", "city": "EDSON", "province": "AB", "country": "CA", "postalCode": "T7E1T8", "twitter": "None", "instagram": "None", "facebook": "None", "youtube": "None", "website": "None", "summary": "None", "logo": "None", "latitude": 53.58212700000006, "longitude": -116.43412399999994}, "107909939RR0053": {"name": "ST. CATHERINE'S CHURCH", "designationCode": "C", "categoryCode": "38", "address": "1513 - 23 AVENUE", "city": "COALDALE", "province": "AB", "country": "CA", "postalCode": "T1M1E2", "twitter": "None", "instagram": "None", "facebook": "None", "youtube": "None", "website": "None", "summary": "None", "logo": "None", "latitude": 49.72201053563412, "longitude": -112.61636163918864}, "119109833RR0009": {"name": "ST. CATHERINE'S CHURCH", "designationCode": "C", "categoryCode": "38", "address": "6466 BAYERS RD", "city": "HALIFAX", "province": "NS", "country": "CA", "postalCode": "B3L2B1", "twitter": "None", "instagram": "None", "facebook": "None", "youtube": "None", "website": "None", "summary": "None", "logo": "None", "latitude": 44.65392149290221, "longitude": -63.611836173582006}, "119109833RR0039": {"name": "ST. CATHERINE'S CHURCH", "designationCode": "C", "categoryCode": "38", "address": "P.O. BOX 209                  509 CHURCH STREET", "city": "INDIAN BROOK", "province": "NS", "country": "CA", "postalCode": "B0N1W0", "twitter": "None", "instagram": "None", "facebook": "None", "youtube": "None", "website": "None", "summary": "None", "logo": "None", "latitude": 45.09446713376432, "longitude": -63.489687608690424}, "119170231RR0001": {"name": "ST. CATHERINE'S CHURCH", "designationCode": "C", "categoryCode": "38", "address": "PO BOX 163", "city": "QUILL LAKE", "province": "SK", "country": "CA", "postalCode": "S0A3E0", "twitter": "None", "instagram": "None", "facebook": "None", "youtube": "None", "website": "None", "summary": "None", "logo": "None", "latitude": 51.6962132372117, "longitude": -103.71097337442652}, "108011131RR0001": {"name": "ST. CATHERINE'S PARISH", "designationCode": "C", "categoryCode": "38", "address": "4609 50 AVE", "city": "ST PAUL", "province": "AB", "country": "CA", "postalCode": "T0A3A3", "twitter": "None", "instagram": "None", "facebook": "None", "youtube": "None", "website": "None", "summary": "None", "logo": "None", "latitude": 53.99135148730496, "longitude": -111.28695202553523}, "862755303RR0001": {"name": "ST. CATHERINE'S RENEWAL CENTRE INCORPORATED", "designationCode": "C", "categoryCode": "49", "address": "3 ST CATHERINES STREET", "city": "GRAND FALLS-WINDSOR", "province": "NL", "country": "CA", "postalCode": "A2A1V7", "twitter": "None", "instagram": "None", "facebook": "None", "youtube": "None", "website": "None", "summary": "None", "logo": "None", "latitude": 48.93718960788345, "longitude": -55.65579849320827}, "107909939RR0061": {"name": "ST. CECILIA'S CHURCH", "designationCode": "C", "categoryCode": "38", "address": "321 90 AVE SE", "city": "CALGARY", "province": "AB", "country": "CA", "postalCode": "T2J0A1", "twitter": "None", "instagram": "None", "facebook": "None", "youtube": "None", "website": "None", "summary": "None", "logo": "None", "latitude": 50.97224153231589, "longitude": -114.06081141618097}, "132410671RR0354": {"name": "ST. CECILIA'S CONFERENCE, SOCIETY OF ST VINCENT DE PAUL", "designationCode": "C", "categoryCode": "09", "address": "1144 CHARVILLE RD 7           RR 6", "city": "SIMCOE", "province": "ON", "country": "CA", "postalCode": "N3Y4K5", "twitter": "None", "instagram": "None", "facebook": "None", "youtube": "None", "website": "None", "summary": "None", "logo": "None", "latitude": 42.81204300000006, "longitude": -80.37755449999993}}