{"108190638RR0001": {"name": "WARMAN MENNONITE SPECIAL CARE HOME INC.", "designationCode": "C", "categoryCode": "01", "address": "BOX 100", "city": "WARMAN", "province": "SK", "country": "CA", "postalCode": "S0K4S0", "twitter": "None", "instagram": "None", "facebook": "None", "youtube": "None", "website": "None", "summary": "None", "logo": "None", "latitude": 52.31985000000006, "longitude": -106.58322349999993}, "853794105RR0001": {"name": "WARMAN MULTI-PURPOSE FACILITY COMMITTEE INC.", "designationCode": "C", "categoryCode": "56", "address": "PO BOX 2073", "city": "WARMAN", "province": "SK", "country": "CA", "postalCode": "S0K4S0", "twitter": "None", "instagram": "None", "facebook": "None", "youtube": "None", "website": "None", "summary": "None", "logo": "None", "latitude": 52.31985000000006, "longitude": -106.58322349999993}, "886940998RR0001": {"name": "WARNER CEMETERY IMPROVEMENT ASSOCIATION", "designationCode": "C", "categoryCode": "59", "address": "BOX 223", "city": "WARNER", "province": "AB", "country": "CA", "postalCode": "T0K2L0", "twitter": "None", "instagram": "None", "facebook": "None", "youtube": "None", "website": "None", "summary": "None", "logo": "None", "latitude": 49.283300000000054, "longitude": -112.20177999999999}, "119288561RR0001": {"name": "WARNER CEMETERY METHODIST EPISCOPAL CHURCH", "designationCode": "C", "categoryCode": "59", "address": "76 ELMA ST", "city": "ST CATHARINES", "province": "ON", "country": "CA", "postalCode": "L2N6Z7", "twitter": "None", "instagram": "None", "facebook": "None", "youtube": "None", "website": "None", "summary": "None", "logo": "None", "latitude": 43.18394498473656, "longitude": -79.25463251731225}, "830752044RR0001": {"name": "WARNER EVANGELICAL CHURCH FELLOWSHIP", "designationCode": "C", "categoryCode": "39", "address": "BOX 36", "city": "WARNER", "province": "AB", "country": "CA", "postalCode": "T0K2L0", "twitter": "None", "instagram": "None", "facebook": "None", "youtube": "None", "website": "None", "summary": "None", "logo": "None", "latitude": 49.283300000000054, "longitude": -112.20177999999999}, "119288587RR0001": {"name": "WARNER MEMORIAL LIBRARY,", "designationCode": "C", "categoryCode": "50", "address": "BOX 270", "city": "WARNER", "province": "AB", "country": "CA", "postalCode": "T0K2L0", "twitter": "None", "instagram": "None", "facebook": "None", "youtube": "None", "website": "None", "summary": "None", "logo": "None", "latitude": 49.283300000000054, "longitude": -112.20177999999999}, "119288595RR0001": {"name": "WARNER SENIOR CITIZENS DROP-IN CENTRE", "designationCode": "C", "categoryCode": "56", "address": "P.O. BOX 105", "city": "WARNER", "province": "AB", "country": "CA", "postalCode": "T0K2L0", "twitter": "None", "instagram": "None", "facebook": "None", "youtube": "None", "website": "None", "summary": "None", "logo": "None", "latitude": 49.283300000000054, "longitude": -112.20177999999999}, "861813913RR0001": {"name": "WARREN ATKINSON SOCIETY", "designationCode": "C", "categoryCode": "57", "address": "SUITE 40-255 PEMBERTON TERRACE", "city": "KAMLOOPS", "province": "BC", "country": "CA", "postalCode": "V2C6R2", "twitter": "None", "instagram": "None", "facebook": "None", "youtube": "None", "website": "None", "summary": "None", "logo": "None", "latitude": 50.67073873908784, "longitude": -120.34621706321175}, "892249442RR0001": {"name": "WARREN BAPTIST CHURCH & CEMETERY SOCIETY", "designationCode": "C", "categoryCode": "31", "address": "#947 HWY #6", "city": "AMHERST", "province": "NS", "country": "CA", "postalCode": "B4H3Y2", "twitter": "None", "instagram": "None", "facebook": "None", "youtube": "None", "website": "None", "summary": "None", "logo": "None", "latitude": 45.84723114129661, "longitude": -64.15549762395337}, "119288918RR0176": {"name": "WARREN CONGREGATION OF JEHOVAH'S WITNESSES", "designationCode": "C", "categoryCode": "61", "address": "27 SUTCLIFFE ROAD", "city": "WARREN", "province": "ON", "country": "CA", "postalCode": "P0H2N0", "twitter": "None", "instagram": "None", "facebook": "None", "youtube": "None", "website": "None", "summary": "None", "logo": "None", "latitude": 46.44341700000005, "longitude": -80.30838499999993}, "831828124RR0001": {"name": "WARREN PEACE BUNNY SANCTUARY", "designationCode": "C", "categoryCode": "54", "address": "14320 PELMEWASH PKY", "city": "LAKE COUNTRY", "province": "BC", "country": "CA", "postalCode": "V4V2G6", "twitter": "None", "instagram": "None", "facebook": "None", "youtube": "None", "website": "None", "summary": "None", "logo": "None", "latitude": 50.08826815237463, "longitude": -119.39726550851142}, "886995828RR0001": {"name": "WARREN STEIN MEMORIAL FUND", "designationCode": "C", "categoryCode": "21", "address": "408 DUNDAS STREET, SUITE 2", "city": "WOODSTOCK", "province": "ON", "country": "CA", "postalCode": "N4S1B9", "twitter": "None", "instagram": "None", "facebook": "None", "youtube": "None", "website": "None", "summary": "None", "logo": "None", "latitude": 43.12964265277867, "longitude": -80.75968760046746}, "119288637RR0001": {"name": "WARREN UNITED CHURCH,", "designationCode": "C", "categoryCode": "44", "address": "PO BOX 324", "city": "WARREN", "province": "MB", "country": "CA", "postalCode": "R0C3E0", "twitter": "None", "instagram": "None", "facebook": "None", "youtube": "None", "website": "None", "summary": "None", "logo": "None", "latitude": 50.1332445, "longitude": -97.5381975}, "875228520RR0001": {"name": "WARRIORS OF HOPE BREAST CANCER SURVIVORS DRAGON BOAT RACING TEAM", "designationCode": "C", "categoryCode": "11", "address": "P.O. BOX 1495", "city": "NORTH BAY", "province": "ON", "country": "CA", "postalCode": "P1B8K6", "twitter": "None", "instagram": "None", "facebook": "None", "youtube": "None", "website": "None", "summary": "None", "logo": "None", "latitude": 46.30661700000006, "longitude": -79.45993249999994}, "108191016RR0001": {"name": "WARSAW PASTORAL CHARGE", "designationCode": "C", "categoryCode": "44", "address": "WARSAW PASTORAL CHARGE        1002 PAYNE LINE ROAD", "city": "DOURO-DUMMER", "province": "ON", "country": "CA", "postalCode": "K0L3A0", "twitter": "None", "instagram": "None", "facebook": "None", "youtube": "None", "website": "None", "summary": "None", "logo": "None", "latitude": 44.43911805388502, "longitude": -78.15225949614263}, "137292520RR0001": {"name": "WARWORTH FREE METHODIST CHURCH", "designationCode": "C", "categoryCode": "39", "address": "P.O. BOX 250", "city": "WARKWORTH", "province": "ON", "country": "CA", "postalCode": "K0K3K0", "twitter": "None", "instagram": "None", "facebook": "None", "youtube": "None", "website": "None", "summary": "None", "logo": "None", "latitude": 44.20071000000007, "longitude": -77.88983999999994}, "108165218RR0001": {"name": "WASA COMMUNITY CHURCH", "designationCode": "C", "categoryCode": "39", "address": "P.O. BOX 69", "city": "WASA", "province": "BC", "country": "CA", "postalCode": "V0B2K0", "twitter": "None", "instagram": "None", "facebook": "None", "youtube": "None", "website": "None", "summary": "None", "logo": "None", "latitude": 49.78984000000003, "longitude": -115.74855999999994}, "108191040RR0001": {"name": "WASAGA BEACH CO-OPERATIVE NURSERY SCHOOL CORPORATION", "designationCode": "C", "categoryCode": "01", "address": "UNIT 2 - 1724 MOSLEY ST", "city": "WASAGA BEACH", "province": "ON", "country": "CA", "postalCode": "L9Z1Z7", "twitter": "None", "instagram": "None", "facebook": "None", "youtube": "None", "website": "None", "summary": "None", "logo": "None", "latitude": 44.47917485746324, "longitude": -80.06812846342149}, "887039832RR0001": {"name": "WASAGA BEACH COMMUNITY PRESBYTERIAN CHURCH", "designationCode": "C", "categoryCode": "37", "address": "208 MOSLEY ST.", "city": "WASAGA BEACH", "province": "ON", "country": "CA", "postalCode": "L9Z2K1", "twitter": "None", "instagram": "None", "facebook": "None", "youtube": "None", "website": "None", "summary": "None", "logo": "None", "latitude": 44.517894388594634, "longitude": -80.0234038402012}, "119288918RR0003": {"name": "WASAGA BEACH CONGREGATION OF JEHOVAH'S WITNESSES, COLLINGWOOD", "designationCode": "C", "categoryCode": "61", "address": "229 CEDAR ST", "city": "STAYNER", "province": "ON", "country": "CA", "postalCode": "L0M1S0", "twitter": "None", "instagram": "None", "facebook": "None", "youtube": "None", "website": "None", "summary": "None", "logo": "None", "latitude": 44.41464724144512, "longitude": -80.08974752097625}, "119288702RR0001": {"name": "WASAGA BEACH JEWISH COMMUNITY CENTRE", "designationCode": "C", "categoryCode": "39", "address": "4646 DUFFERIN STREET, SUITE 6", "city": "TORONTO", "province": "ON", "country": "CA", "postalCode": "M3H5S4", "twitter": "None", "instagram": "None", "facebook": "None", "youtube": "None", "website": "None", "summary": "None", "logo": "None", "latitude": 43.77430353759601, "longitude": -79.46824820881116}, "856025721RR0001": {"name": "WASAGA BEACH MINISTERIAL FOOD BANK", "designationCode": "C", "categoryCode": "09", "address": "1360 MOSLEY ST", "city": "WASAGA BEACH", "province": "ON", "country": "CA", "postalCode": "L9Z2C5", "twitter": "None", "instagram": "None", "facebook": "None", "youtube": "None", "website": "None", "summary": "None", "logo": "None", "latitude": 44.48723492931447, "longitude": -80.05454056668306}, "872593223RR0001": {"name": "WASAGA BEACH UNITED CHURCH MISSION", "designationCode": "C", "categoryCode": "44", "address": "380 Z00 PARK ROAD", "city": "WASAGA BEACH", "province": "ON", "country": "CA", "postalCode": "L9Z1S7", "twitter": "None", "instagram": "None", "facebook": "None", "youtube": "None", "website": "None", "summary": "None", "logo": "None", "latitude": 44.52324900000005, "longitude": -79.99903699999993}, "870053139RR0001": {"name": "WASAGA CHRISTIAN CHURCH", "designationCode": "C", "categoryCode": "39", "address": "278 MAIN ST.", "city": "WASAGA BEACH", "province": "ON", "country": "CA", "postalCode": "L9Z2N6", "twitter": "None", "instagram": "None", "facebook": "None", "youtube": "None", "website": "None", "summary": "None", "logo": "None", "latitude": 44.52308686590895, "longitude": -80.00735287667447}, "127963221RR0001": {"name": "WASAGAMING COMMUNITY ARTS INC", "designationCode": "C", "categoryCode": "22", "address": "BOX 581", "city": "ONANOLE", "province": "MB", "country": "CA", "postalCode": "R0J1N0", "twitter": "None", "instagram": "None", "facebook": "None", "youtube": "None", "website": "None", "summary": "None", "logo": "None", "latitude": 50.62285000000003, "longitude": -99.96866999999997}, "861859023RR0001": {"name": "WASAKOW WASAKONAYCHKAN MINISTRY INTERNATIONAL INC.", "designationCode": "C", "categoryCode": "09", "address": "83 DESHARNAIS ST", "city": "WINNIPEG", "province": "MB", "country": "CA", "postalCode": "R2P1A8", "twitter": "None", "instagram": "None", "facebook": "None", "youtube": "None", "website": "None", "summary": "None", "logo": "None", "latitude": 49.954473419095166, "longitude": -97.17834929167884}, "868359365RR0001": {"name": "WASCANA CENTRE AUTHORITY", "designationCode": "C", "categoryCode": "56", "address": "BOX 7111, 2900 WASCANA DRIVE", "city": "REGINA", "province": "SK", "country": "CA", "postalCode": "S4P3S7", "twitter": "None", "instagram": "None", "facebook": "None", "youtube": "None", "website": "None", "summary": "None", "logo": "None", "latitude": 50.43258005288394, "longitude": -104.60764280944156}, "108191131RR0001": {"name": "WASCANA DAY CARE CO-OPERATIVE", "designationCode": "C", "categoryCode": "01", "address": "3737 WASCANA PARKWAY", "city": "REGINA", "province": "SK", "country": "CA", "postalCode": "S4S0A2", "twitter": "None", "instagram": "None", "facebook": "None", "youtube": "None", "website": "None", "summary": "None", "logo": "None", "latitude": 50.419713656966486, "longitude": -104.59361063742868}, "119288744RR0001": {"name": "WASCANA REHABILITATION CENTRE VOLUNTEERS, INC", "designationCode": "C", "categoryCode": "15", "address": "2180-23RD AVENUE", "city": "REGINA", "province": "SK", "country": "CA", "postalCode": "S4S0A5", "twitter": "None", "instagram": "None", "facebook": "None", "youtube": "None", "website": "None", "summary": "None", "logo": "None", "latitude": 50.42356165155082, "longitude": -104.61143079061694}, "890908353RR0001": {"name": "WASESKUN", "designationCode": "C", "categoryCode": "59", "address": "P O BOX 1059", "city": "KANAWAKE", "province": "QC", "country": "CA", "postalCode": "J0L1B0", "twitter": "None", "instagram": "None", "facebook": "None", "youtube": "None", "website": "None", "summary": "None", "logo": "None", "latitude": 45.41441756192294, "longitude": -73.69457069701573}, "888413143RR0001": {"name": "WASHAGO COMMUNITY CENTRE CORPORATION", "designationCode": "C", "categoryCode": "56", "address": "4361 HAMILTON ST              BOX 419", "city": "WASHAGO", "province": "ON", "country": "CA", "postalCode": "L0K2B0", "twitter": "None", "instagram": "None", "facebook": "None", "youtube": "None", "website": "None", "summary": "None", "logo": "None", "latitude": 44.751048688268554, "longitude": -79.33434828977425}, "119155893RR0001": {"name": "WASHINGTON MILLS ELECTRO MINERALS CORP. EMPLOYEES' CHARITABLE TRUST", "designationCode": "B", "categoryCode": "75", "address": "7780 STANLEY ROAD             PO BOX 1002", "city": "NIAGARA FALLS", "province": "ON", "country": "CA", "postalCode": "L2E6V9", "twitter": "None", "instagram": "None", "facebook": "None", "youtube": "None", "website": "None", "summary": "None", "logo": "None", "latitude": 43.10888400450556, "longitude": -79.08596880030038}, "119288801RR0001": {"name": "WASKADA COMMUNITY CLUB", "designationCode": "C", "categoryCode": "56", "address": "BOX 21", "city": "WASKADA", "province": "MB", "country": "CA", "postalCode": "R0M2E0", "twitter": "None", "instagram": "None", "facebook": "None", "youtube": "None", "website": "None", "summary": "None", "logo": "None", "latitude": 49.09763000000004, "longitude": -100.80228999999997}, "132024662RR0001": {"name": "WASKADA PASTORAL CHARGE,", "designationCode": "C", "categoryCode": "44", "address": "PO BOX 35", "city": "WASKADA", "province": "MB", "country": "CA", "postalCode": "R0M2E0", "twitter": "None", "instagram": "None", "facebook": "None", "youtube": "None", "website": "None", "summary": "None", "logo": "None", "latitude": 49.09763000000004, "longitude": -100.80228999999997}, "119288827RR0001": {"name": "WASKAHEGAN TRAIL ASSOCIATION", "designationCode": "C", "categoryCode": "56", "address": "PO BOX 131", "city": "EDMONTON", "province": "AB", "country": "CA", "postalCode": "T5J2G9", "twitter": "None", "instagram": "None", "facebook": "None", "youtube": "None", "website": "None", "summary": "None", "logo": "None", "latitude": 53.54623500000005, "longitude": -113.49037249999994}, "107878787RR0001": {"name": "WASKASOO ENVIRONMENTAL EDUCATION SOCIETY", "designationCode": "C", "categoryCode": "50", "address": "6300 45 AVENUE", "city": "RED DEER", "province": "AB", "country": "CA", "postalCode": "T4N3M4", "twitter": "None", "instagram": "None", "facebook": "None", "youtube": "None", "website": "None", "summary": "None", "logo": "None", "latitude": 52.28377714542106, "longitude": -113.7970193359113}, "119288918RR1351": {"name": "WASKASOO PARK CONGREGATION OF JEHOVAH'S WITNESSES, RED DEER, ALBERTA", "designationCode": "C", "categoryCode": "61", "address": "440 TIMOTHY DR", "city": "RED DEER", "province": "AB", "country": "CA", "postalCode": "T4P0L2", "twitter": "None", "instagram": "None", "facebook": "None", "youtube": "None", "website": "None", "summary": "None", "logo": "None", "latitude": 52.281884953661404, "longitude": -113.7651429908534}, "128785276RR0001": {"name": "WASTEWISE (HALTON HILLS) COMMUNITY RESOURCE CENTRE", "designationCode": "C", "categoryCode": "59", "address": "12 ARMSTRONG AVENUE", "city": "GEORGETOWN", "province": "ON", "country": "CA", "postalCode": "L7G4R9", "twitter": "None", "instagram": "None", "facebook": "None", "youtube": "None", "website": "None", "summary": "None", "logo": "None", "latitude": 43.65448533441076, "longitude": -79.90693707461512}, "869348664RR0001": {"name": "WASYL TOPOLNICKY MEMORIAL FOUNDATION INC", "designationCode": "B", "categoryCode": "03", "address": "950 MAIN STREET", "city": "WINNIPEG", "province": "MB", "country": "CA", "postalCode": "R2W3P4", "twitter": "None", "instagram": "None", "facebook": "None", "youtube": "None", "website": "None", "summary": "None", "logo": "None", "latitude": 49.91128883097695, "longitude": -97.13294175731413}, "137726196RR0001": {"name": "WAT BUDDHADHAMMA OF REGINA INC", "designationCode": "C", "categoryCode": "35", "address": "1019 ELPHINSTONE ST", "city": "REGINA", "province": "SK", "country": "CA", "postalCode": "S4T3L9", "twitter": "None", "instagram": "None", "facebook": "None", "youtube": "None", "website": "None", "summary": "None", "logo": "None", "latitude": 50.462533173466454, "longitude": -104.63114690865048}, "886605278RR0001": {"name": "WAT LAO VELUWANARAM OF ONTARIO", "designationCode": "C", "categoryCode": "35", "address": "17969 AIRPORT RD", "city": "CALEDON E", "province": "ON", "country": "CA", "postalCode": "L7K2K1", "twitter": "None", "instagram": "None", "facebook": "None", "youtube": "None", "website": "None", "summary": "None", "logo": "None", "latitude": 43.908252291071406, "longitude": -79.91867254411875}, "886760594RR0001": {"name": "WAT LAO XAYARAM OF MANITOBA INC", "designationCode": "C", "categoryCode": "35", "address": "180 SINCLAIR ST", "city": "WINNIPEG", "province": "MB", "country": "CA", "postalCode": "R2X1X3", "twitter": "None", "instagram": "None", "facebook": "None", "youtube": "None", "website": "None", "summary": "None", "logo": "None", "latitude": 49.92110295865309, "longitude": -97.15829758093349}, "119288900RR0001": {"name": "WATARI RESEARCH ASSOCIATION", "designationCode": "C", "categoryCode": "09", "address": "200 - 678 HASTINGS ST E", "city": "VANCOUVER", "province": "BC", "country": "CA", "postalCode": "V6A1R1", "twitter": "None", "instagram": "None", "facebook": "None", "youtube": "None", "website": "None", "summary": "None", "logo": "None", "latitude": 49.28112452842076, "longitude": -123.09017247016561}, "863069761RR0001": {"name": "WATCH AND PRAY", "designationCode": "C", "categoryCode": "39", "address": "1356 MEADOWLANDS DR. E., #108", "city": "NEPEAN", "province": "ON", "country": "CA", "postalCode": "K2E6K6", "twitter": "None", "instagram": "None", "facebook": "None", "youtube": "None", "website": "None", "summary": "None", "logo": "None", "latitude": 45.35410028668717, "longitude": -75.73010662256982}, "865129175RR0001": {"name": "WATCH COMMUNITY SERVICE INTERNATIONAL", "designationCode": "C", "categoryCode": "09", "address": "2503 - 59 EAST LIBERTY ST", "city": "TORONTO", "province": "ON", "country": "CA", "postalCode": "M6K3R1", "twitter": "None", "instagram": "None", "facebook": "None", "youtube": "None", "website": "None", "summary": "None", "logo": "None", "latitude": 43.63887078377299, "longitude": -79.4128064568354}, "853675973RR0001": {"name": "WATCHMEN CHRISTIAN MINISTRIES OF ATLA.", "designationCode": "C", "categoryCode": "39", "address": "980 CANAVERAL CRES,SW", "city": "CALGARY", "province": "AB", "country": "CA", "postalCode": "T2W1N5", "twitter": "None", "instagram": "None", "facebook": "None", "youtube": "None", "website": "None", "summary": "None", "logo": "None", "latitude": 50.94518758312654, "longitude": -114.07971608491555}, "865760557RR0001": {"name": "WATCHMEN FOR ALL NATIONS CHURCH INC.", "designationCode": "C", "categoryCode": "39", "address": "6 AVACO DR", "city": "WINNIPEG", "province": "MB", "country": "CA", "postalCode": "R2K3J4", "twitter": "None", "instagram": "None", "facebook": "None", "youtube": "None", "website": "None", "summary": "None", "logo": "None", "latitude": 49.9185666036701, "longitude": -97.06415792189378}, "140803859RR0001": {"name": "WATCHMEN FOR THE NATIONS MINISTRIES", "designationCode": "C", "categoryCode": "47", "address": "9024 206 STREET", "city": "LANGLEY", "province": "BC", "country": "CA", "postalCode": "V1M2N3", "twitter": "None", "instagram": "None", "facebook": "None", "youtube": "None", "website": "None", "summary": "None", "logo": "None", "latitude": 49.16678400000001, "longitude": -122.65126795169951}, "885144105RR0001": {"name": "WATER & WINE ASSEMBLY OF CHRISTIANS INC.", "designationCode": "C", "categoryCode": "39", "address": "95 MASSEY AVE", "city": "MONCTON", "province": "NB", "country": "CA", "postalCode": "E1A3E3", "twitter": "None", "instagram": "None", "facebook": "None", "youtube": "None", "website": "None", "summary": "None", "logo": "None", "latitude": 46.10532321233186, "longitude": -64.77670768526743}, "898221973RR0001": {"name": "WATER FOR PEOPLE-CANADA/DE L'EAU POUR TOUS-CANADA", "designationCode": "C", "categoryCode": "09", "address": "245 CONSUMERS ROAD            SUITE 400", "city": "TORONTO", "province": "ON", "country": "CA", "postalCode": "M2J1R3", "twitter": "None", "instagram": "None", "facebook": "None", "youtube": "None", "website": "None", "summary": "None", "logo": "None", "latitude": 43.77041897911065, "longitude": -79.33079126729746}, "830174959RR0001": {"name": "WATER MATTERS SOCIETY OF ALBERTA", "designationCode": "C", "categoryCode": "59", "address": "PO BOX 47011                  EDMONTON CITY CENTRE NW", "city": "EDMONTON", "province": "AB", "country": "CA", "postalCode": "T5J2Y7", "twitter": "None", "instagram": "None", "facebook": "None", "youtube": "None", "website": "None", "summary": "None", "logo": "None", "latitude": 53.54288700000005, "longitude": -113.49715849999993}, "893627463RR0001": {"name": "WATER OF LIFE FAMILY CHURCH", "designationCode": "C", "categoryCode": "49", "address": "924 ELEVENTH AVE N", "city": "KENORA", "province": "ON", "country": "CA", "postalCode": "P9N3K8", "twitter": "None", "instagram": "None", "facebook": "None", "youtube": "None", "website": "None", "summary": "None", "logo": "None", "latitude": 49.77747339494491, "longitude": -94.47023976842263}, "834626673RR0001": {"name": "WATER PROJECT FOR HAITI", "designationCode": "C", "categoryCode": "19", "address": "2601-43RD AVE", "city": "VERNON", "province": "BC", "country": "CA", "postalCode": "V1T3L1", "twitter": "None", "instagram": "None", "facebook": "None", "youtube": "None", "website": "None", "summary": "None", "logo": "None", "latitude": 50.27476746047075, "longitude": -119.2652415}, "890639461RR0001": {"name": "WATER STREET SENIOR CENTRE", "designationCode": "C", "categoryCode": "56", "address": "1700 PARKINSON WAY", "city": "KELOWNA", "province": "BC", "country": "CA", "postalCode": "V1Y4P9", "twitter": "None", "instagram": "None", "facebook": "None", "youtube": "None", "website": "None", "summary": "None", "logo": "None", "latitude": 49.8831905004961, "longitude": -119.4575254364031}, "119298024RR0001": {"name": "WATERBOROUGH BAPTIST CHURCH,", "designationCode": "C", "categoryCode": "31", "address": "37 FANJOY'S PT. RD.", "city": "WATERBOROUGH", "province": "NB", "country": "CA", "postalCode": "E4C3A1", "twitter": "None", "instagram": "None", "facebook": "None", "youtube": "None", "website": "None", "summary": "None", "logo": "None", "latitude": 45.904833273097175, "longitude": -66.02151745539217}, "119288934RR0001": {"name": "WATERCAN/EAU VIVE CORPORATION- LA CORPORATION WATERCAN/EAU VIVE", "designationCode": "C", "categoryCode": "03", "address": "321 CHAPEL STREET", "city": "OTTAWA", "province": "ON", "country": "CA", "postalCode": "K1N7Z2", "twitter": "None", "instagram": "None", "facebook": "None", "youtube": "None", "website": "None", "summary": "None", "logo": "None", "latitude": 45.426905758266436, "longitude": -75.67762573033662}, "140171547RR0001": {"name": "WATERDOWN DISTRICT CHILDREN'S CENTRE INC", "designationCode": "C", "categoryCode": "20", "address": "215 PARKSIDE DR", "city": "WATERDOWN", "province": "ON", "country": "CA", "postalCode": "L0R2H1", "twitter": "None", "instagram": "None", "facebook": "None", "youtube": "None", "website": "None", "summary": "None", "logo": "None", "latitude": 43.33359938138358, "longitude": -79.90929044662094}, "126351741RR0001": {"name": "WATERDOWN MONTESSORI SCHOOL", "designationCode": "C", "categoryCode": "20", "address": "1921 SNAKE RD", "city": "BURLINGTON", "province": "ON", "country": "CA", "postalCode": "L7P4Y2", "twitter": "None", "instagram": "None", "facebook": "None", "youtube": "None", "website": "None", "summary": "None", "logo": "None", "latitude": 43.319520556320974, "longitude": -79.89225367035071}, "891012049RR0001": {"name": "WATERDOWN PASTORAL CHARGE ST JAMES UNITED CHURCH", "designationCode": "C", "categoryCode": "44", "address": "BOX 330 306 PARKSIDE DR", "city": "WATERDOWN", "province": "ON", "country": "CA", "postalCode": "L0R2H0", "twitter": "None", "instagram": "None", "facebook": "None", "youtube": "None", "website": "None", "summary": "None", "logo": "None", "latitude": 43.33956980125812, "longitude": -79.90104560932559}, "119288975RR0001": {"name": "WATERFORD AND TOWNSEND HISTORICAL SOCIETY", "designationCode": "C", "categoryCode": "52", "address": "PO BOX 1308", "city": "WATERFORD", "province": "ON", "country": "CA", "postalCode": "N0E1Y0", "twitter": "None", "instagram": "None", "facebook": "None", "youtube": "None", "website": "None", "summary": "None", "logo": "None", "latitude": 42.89519400000006, "longitude": -80.29546099999993}, "888765260RR0001": {"name": "WATERFORD DISTRICT COMMUNITY FOUNDATION", "designationCode": "A", "categoryCode": "03", "address": "P.O. BOX 1000", "city": "WATERFORD", "province": "ON", "country": "CA", "postalCode": "N0E1Y0", "twitter": "None", "instagram": "None", "facebook": "None", "youtube": "None", "website": "None", "summary": "None", "logo": "None", "latitude": 42.89519400000006, "longitude": -80.29546099999993}, "861027217RR0001": {"name": "WATERFORD GREENWOOD CEMETERY", "designationCode": "C", "categoryCode": "59", "address": "P.O. BOX 248", "city": "WATERFORD", "province": "ON", "country": "CA", "postalCode": "N0E1Y0", "twitter": "None", "instagram": "None", "facebook": "None", "youtube": "None", "website": "None", "summary": "None", "logo": "None", "latitude": 42.89519400000006, "longitude": -80.29546099999993}, "864263280RR0001": {"name": "WATERFORD HERITAGE TRAIL ASSOCIATION", "designationCode": "C", "categoryCode": "52", "address": "300 OLD HIGHWAY 24 - RR #3", "city": "WATERFORD", "province": "ON", "country": "CA", "postalCode": "N0E1Y0", "twitter": "None", "instagram": "None", "facebook": "None", "youtube": "None", "website": "None", "summary": "None", "logo": "None", "latitude": 42.889939250620365, "longitude": -80.29827373645345}, "119289007RR0001": {"name": "WATERFORD PASTORAL CHARGE,", "designationCode": "C", "categoryCode": "44", "address": "PO BOX 37                     135 MAIN ST S", "city": "WATERFORD", "province": "ON", "country": "CA", "postalCode": "N0E1Y0", "twitter": "None", "instagram": "None", "facebook": "None", "youtube": "None", "website": "None", "summary": "None", "logo": "None", "latitude": 42.93151501111593, "longitude": -80.28942661195283}, "136804960RR0001": {"name": "WATERFRONT CHILD DEVELOPMENT CENTRE INC", "designationCode": "C", "categoryCode": "01", "address": "175-70 FOSTER DR", "city": "SAULT STE MARIE", "province": "ON", "country": "CA", "postalCode": "P6A6V7", "twitter": "None", "instagram": "None", "facebook": "None", "youtube": "None", "website": "None", "summary": "None", "logo": "None", "latitude": 46.50916189725328, "longitude": -84.33530263821318}, "832827364RR0001": {"name": "WATERFRONT FOUNDATION INC.", "designationCode": "B", "categoryCode": "03", "address": "238 WATERFRONT DRIVE", "city": "WINNIPEG", "province": "MB", "country": "CA", "postalCode": "R3B0C5", "twitter": "None", "instagram": "None", "facebook": "None", "youtube": "None", "website": "None", "summary": "None", "logo": "None", "latitude": 49.89667332361938, "longitude": -97.13362357343168}, "867679821RR0001": {"name": "WATERFRONT REGENERATION TRUST CORPORATION", "designationCode": "C", "categoryCode": "52", "address": "4195 DUNDAS ST WEST           SUITE 227", "city": "TORONTO", "province": "ON", "country": "CA", "postalCode": "M8X1Y4", "twitter": "None", "instagram": "None", "facebook": "None", "youtube": "None", "website": "None", "summary": "None", "logo": "None", "latitude": 43.66032040325481, "longitude": -79.51130409726481}, "848821344RR0001": {"name": "WATERHEN & DISTRICT DAY CARE & DEVELOPMENTAL CENTRE INC.", "designationCode": "C", "categoryCode": "01", "address": "138 MAIN ST                   BLDG 146   GENERAL DELIVERY", "city": "WATERHEN", "province": "MB", "country": "CA", "postalCode": "R0L2C0", "twitter": "None", "instagram": "None", "facebook": "None", "youtube": "None", "website": "None", "summary": "None", "logo": "None", "latitude": 51.22996325724456, "longitude": -101.35412781175717}, "887063923RR0001": {"name": "WATERLOO BIBLE COLLEGE", "designationCode": "C", "categoryCode": "20", "address": "410-125 LINCOLN ROAD", "city": "WATERLOO", "province": "ON", "country": "CA", "postalCode": "N2J2N9", "twitter": "None", "instagram": "None", "facebook": "None", "youtube": "None", "website": "None", "summary": "None", "logo": "None", "latitude": 43.47173445625849, "longitude": -80.51243958156867}, "108191925RR0001": {"name": "WATERLOO CATHOLIC DISTRICT SCHOOL BOARD", "designationCode": "C", "categoryCode": "20", "address": "PO BOX 91116                  35 WEBER ST. W. UNIT A", "city": "KITCHENER", "province": "ON", "country": "CA", "postalCode": "N2G4G2", "twitter": "None", "instagram": "None", "facebook": "None", "youtube": "None", "website": "None", "summary": "None", "logo": "None", "latitude": 43.45123200000006, "longitude": -80.49304249999993}, "139913750RR0001": {"name": "WATERLOO CEMETERY COMPANY", "designationCode": "C", "categoryCode": "59", "address": "147 ST JOSEPH ST", "city": "WATERLOO", "province": "QC", "country": "CA", "postalCode": "J0E2N0", "twitter": "None", "instagram": "None", "facebook": "None", "youtube": "None", "website": "None", "summary": "None", "logo": "None", "latitude": 45.34316071827582, "longitude": -72.51494612738766}, "108191834RR0001": {"name": "WATERLOO CHRISTIAN REFORMED CHURCH", "designationCode": "C", "categoryCode": "39", "address": "209 BEARINGER RD", "city": "WATERLOO", "province": "ON", "country": "CA", "postalCode": "N2L4H5", "twitter": "None", "instagram": "None", "facebook": "None", "youtube": "None", "website": "None", "summary": "None", "logo": "None", "latitude": 43.48528323893495, "longitude": -80.54780453078669}, "119289015RR0001": {"name": "WATERLOO CHURCH OF CHRIST", "designationCode": "C", "categoryCode": "39", "address": "470 GLENELM CRES", "city": "WATERLOO", "province": "ON", "country": "CA", "postalCode": "N2L5C8", "twitter": "None", "instagram": "None", "facebook": "None", "youtube": "None", "website": "None", "summary": "None", "logo": "None", "latitude": 43.48995035079937, "longitude": -80.54399831138569}, "108191859RR0001": {"name": "WATERLOO CO-OPERATIVE PRESCHOOL INC.", "designationCode": "C", "categoryCode": "20", "address": "22 BRIDGEPORT RD. W", "city": "WATERLOO", "province": "ON", "country": "CA", "postalCode": "N2L2Y3", "twitter": "None", "instagram": "None", "facebook": "None", "youtube": "None", "website": "None", "summary": "None", "logo": "None", "latitude": 43.467461077442394, "longitude": -80.52469808174155}, "891630063RR0001": {"name": "WATERLOO COMMUNITY ARTS CENTRE", "designationCode": "C", "categoryCode": "22", "address": "25 REGINA STREET SOUTH", "city": "WATERLOO", "province": "ON", "country": "CA", "postalCode": "N2J1R8", "twitter": "None", "instagram": "None", "facebook": "None", "youtube": "None", "website": "None", "summary": "None", "logo": "None", "latitude": 43.464314619481804, "longitude": -80.5210360653816}, "890565849RR0001": {"name": "WATERLOO CONCERT BAND", "designationCode": "C", "categoryCode": "22", "address": "5-420 ERB STREET W. SUITE 351", "city": "WATERLOO", "province": "ON", "country": "CA", "postalCode": "N2L6K6", "twitter": "None", "instagram": "None", "facebook": "None", "youtube": "None", "website": "None", "summary": "None", "logo": "None", "latitude": 43.4588100085332, "longitude": -80.53799039440979}, "890936248RR0001": {"name": "WATERLOO COUNTY HERITAGE PRESERVATION INC.", "designationCode": "C", "categoryCode": "52", "address": "1440 - 3 KING STREET NORTH    P.O BOX 603", "city": "ST JACOBS", "province": "ON", "country": "CA", "postalCode": "N0B2N0", "twitter": "None", "instagram": "None", "facebook": "None", "youtube": "None", "website": "None", "summary": "None", "logo": "None", "latitude": 43.540471209947675, "longitude": -80.55333456770597}, "890363179RR0001": {"name": "WATERLOO COUNTY HOLOCAUST EDUCATION COMMITTEE", "designationCode": "C", "categoryCode": "21", "address": "64 MENNO STREET", "city": "WATERLOO", "province": "ON", "country": "CA", "postalCode": "N2L2A7", "twitter": "None", "instagram": "None", "facebook": "None", "youtube": "None", "website": "None", "summary": "None", "logo": "None", "latitude": 43.46024279407345, "longitude": -80.52657353078669}, "134114446RR0001": {"name": "WATERLOO EDUCATION FOUNDATION INC.", "designationCode": "C", "categoryCode": "21", "address": "51 ARDELT AVENUE", "city": "KITCHENER", "province": "ON", "country": "CA", "postalCode": "N2C2R5", "twitter": "None", "instagram": "None", "facebook": "None", "youtube": "None", "website": "None", "summary": "None", "logo": "None", "latitude": 43.427562456806754, "longitude": -80.4783515715271}, "119289064RR0001": {"name": "WATERLOO HISTORICAL SOCIETY", "designationCode": "C", "categoryCode": "52", "address": "85 QUEEN STREET N", "city": "KITCHENER", "province": "ON", "country": "CA", "postalCode": "N2H2H1", "twitter": "None", "instagram": "None", "facebook": "None", "youtube": "None", "website": "None", "summary": "None", "logo": "None", "latitude": 43.452864902562304, "longitude": -80.48674868411359}, "119289072RR0001": {"name": "WATERLOO HORTICULTURAL SOCIETY", "designationCode": "C", "categoryCode": "52", "address": "174 HARVARD RD.", "city": "WATERLOO", "province": "ON", "country": "CA", "postalCode": "N2J3V3", "twitter": "None", "instagram": "None", "facebook": "None", "youtube": "None", "website": "None", "summary": "None", "logo": "None", "latitude": 43.48013971859293, "longitude": -80.5012895189857}, "119289080RR0001": {"name": "WATERLOO INFANT TODDLER DAYCARE ASSOCIATION", "designationCode": "C", "categoryCode": "20", "address": "368 ERB STREET WEST", "city": "WATERLOO", "province": "ON", "country": "CA", "postalCode": "N2L1W6", "twitter": "None", "instagram": "None", "facebook": "None", "youtube": "None", "website": "None", "summary": "None", "logo": "None", "latitude": 43.454362691672735, "longitude": -80.5481623117028}, "809328271RR0001": {"name": "WATERLOO LUTHERAN SEMINARY", "designationCode": "C", "categoryCode": "20", "address": "75 UNIVERSITY AVENUE WEST", "city": "WATERLOO", "province": "ON", "country": "CA", "postalCode": "N2L3C5", "twitter": "None", "instagram": "None", "facebook": "None", "youtube": "None", "website": "None", "summary": "None", "logo": "None", "latitude": 43.474871381037815, "longitude": -80.52850186744779}, "847119948RR0001": {"name": "WATERLOO MENNONITE BRETHREN CHURCH", "designationCode": "C", "categoryCode": "34", "address": "245 LEXINGTON ROAD", "city": "WATERLOO", "province": "ON", "country": "CA", "postalCode": "N2K3E1", "twitter": "None", "instagram": "None", "facebook": "None", "youtube": "None", "website": "None", "summary": "None", "logo": "None", "latitude": 43.49366945819174, "longitude": -80.51154492140377}, "119289130RR0001": {"name": "WATERLOO MENNONITE HOMES", "designationCode": "C", "categoryCode": "59", "address": "27 GEORGE ST", "city": "WATERLOO", "province": "ON", "country": "CA", "postalCode": "N2J1K6", "twitter": "None", "instagram": "None", "facebook": "None", "youtube": "None", "website": "None", "summary": "None", "logo": "None", "latitude": 43.46194918232459, "longitude": -80.51912090919875}, "108192055RR0001": {"name": "WATERLOO NORTH MENNONITE CHURCH", "designationCode": "C", "categoryCode": "34", "address": "100 BENJAMIN RD", "city": "WATERLOO", "province": "ON", "country": "CA", "postalCode": "N2V2J9", "twitter": "None", "instagram": "None", "facebook": "None", "youtube": "None", "website": "None", "summary": "None", "logo": "None", "latitude": 43.507612374927604, "longitude": -80.55504200912763}, "890254998RR0001": {"name": "WATERLOO OPEN BIBLE CHURCH OF GOD", "designationCode": "C", "categoryCode": "39", "address": "25 MADISON AVENUE N", "city": "KITCHENER", "province": "ON", "country": "CA", "postalCode": "N2H2Z3", "twitter": "None", "instagram": "None", "facebook": "None", "youtube": "None", "website": "None", "summary": "None", "logo": "None", "latitude": 43.44742645071857, "longitude": -80.48148839852294}, "133462010RR0001": {"name": "WATERLOO PASTORAL CHARGE", "designationCode": "C", "categoryCode": "39", "address": "4929 RUE FOSTER               CP 1292", "city": "WATERLOO", "province": "QC", "country": "CA", "postalCode": "J0E2N0", "twitter": "None", "instagram": "None", "facebook": "None", "youtube": "None", "website": "None", "summary": "None", "logo": "None", "latitude": 45.34375267470721, "longitude": -72.51623650144231}, "827284548RR0001": {"name": "WATERLOO PENTECOSTAL ASSEMBLY", "designationCode": "C", "categoryCode": "36", "address": "395 KING ST. NORTH", "city": "WATERLOO", "province": "ON", "country": "CA", "postalCode": "N2J2Z4", "twitter": "None", "instagram": "None", "facebook": "None", "youtube": "None", "website": "None", "summary": "None", "logo": "None", "latitude": 43.483694102689164, "longitude": -80.52658627257757}, "131770620RR0001": {"name": "WATERLOO PRESBYTERY EXTENSION COUNCIL", "designationCode": "C", "categoryCode": "43", "address": "25 SUMMIT AVE.", "city": "KITCHENER", "province": "ON", "country": "CA", "postalCode": "N2M4W4", "twitter": "None", "instagram": "None", "facebook": "None", "youtube": "None", "website": "None", "summary": "None", "logo": "None", "latitude": 43.42694977378968, "longitude": -80.51973640925607}, "108192113RR0001": {"name": "WATERLOO PUBLIC LIBRARY BOARD", "designationCode": "C", "categoryCode": "50", "address": "35 ALBERT ST", "city": "WATERLOO", "province": "ON", "country": "CA", "postalCode": "N2L5E2", "twitter": "None", "instagram": "None", "facebook": "None", "youtube": "None", "website": "None", "summary": "None", "logo": "None", "latitude": 43.466092618356626, "longitude": -80.52410678743699}, "119289254RR0001": {"name": "WATERLOO REGION COMMUNITY LEGAL SERVICES", "designationCode": "C", "categoryCode": "59", "address": "101-450 FREDERICK ST", "city": "KITCHENER", "province": "ON", "country": "CA", "postalCode": "N2H2P5", "twitter": "None", "instagram": "None", "facebook": "None", "youtube": "None", "website": "None", "summary": "None", "logo": "None", "latitude": 43.45846273163468, "longitude": -80.47261245089145}, "890040462RR0001": {"name": "WATERLOO REGION ROMAN CATHOLIC SEPARATE SCHOOL BOARD EMPLOYEES' CHARITY TRUST", "designationCode": "B", "categoryCode": "75", "address": "35 WEBER ST WEST", "city": "KITCHENER", "province": "ON", "country": "CA", "postalCode": "N2G4G2", "twitter": "None", "instagram": "None", "facebook": "None", "youtube": "None", "website": "None", "summary": "None", "logo": "None", "latitude": 43.45265173131757, "longitude": -80.48931166293485}, "831171723RR0001": {"name": "WATERLOO REGION SUICIDE PREVENTION COUNCIL", "designationCode": "C", "categoryCode": "09", "address": "285 BENJAMIN RD", "city": "WATERLOO", "province": "ON", "country": "CA", "postalCode": "N2J3Z4", "twitter": "None", "instagram": "None", "facebook": "None", "youtube": "None", "website": "None", "summary": "None", "logo": "None", "latitude": 43.50055136935237, "longitude": -80.5675506111146}, "140971193RR0001": {"name": "WATERLOO REGION TRACK 3 SKI SCHOOL", "designationCode": "C", "categoryCode": "56", "address": "396 MORRISON ROAD", "city": "KITCHENER", "province": "ON", "country": "CA", "postalCode": "N2A2Z6", "twitter": "None", "instagram": "None", "facebook": "None", "youtube": "None", "website": "None", "summary": "None", "logo": "None", "latitude": 43.43561045216085, "longitude": -80.41584102062859}, "891317141RR0001": {"name": "WATERLOO REGION 4-H ASSOCIATION", "designationCode": "C", "categoryCode": "29", "address": "1427 PINEHILL RD", "city": "NEW HAMBURG", "province": "ON", "country": "CA", "postalCode": "N3A2Z6", "twitter": "None", "instagram": "None", "facebook": "None", "youtube": "None", "website": "None", "summary": "None", "logo": "None", "latitude": 43.34339595992156, "longitude": -80.6000421287745}, "108192139RR0001": {"name": "WATERLOO REGIONAL BLOCK PARENT PROGRAM INC.", "designationCode": "C", "categoryCode": "59", "address": "SUITE 413                     425 HESPELER ROAD", "city": "CAMBRIDGE", "province": "ON", "country": "CA", "postalCode": "N1R8J6", "twitter": "None", "instagram": "None", "facebook": "None", "youtube": "None", "website": "None", "summary": "None", "logo": "None", "latitude": 43.3958212028968, "longitude": -80.3239978882225}, "119289205RR0001": {"name": "WATERLOO REGIONAL CARDIAC REHABILITATION FOUNDATION INC", "designationCode": "B", "categoryCode": "11", "address": "206 - 564 BELMONT ST", "city": "KITCHENER", "province": "ON", "country": "CA", "postalCode": "N2M5N6", "twitter": "None", "instagram": "None", "facebook": "None", "youtube": "None", "website": "None", "summary": "None", "logo": "None", "latitude": 43.44986400000006, "longitude": -80.51564599999993}, "140854852RR0001": {"name": "WATERLOO REGIONAL CRIME STOPPERS", "designationCode": "C", "categoryCode": "59", "address": "618 KING STREET EAST          P.O.BOX 2482 STATION C", "city": "KITCHENER", "province": "ON", "country": "CA", "postalCode": "N2H6M3", "twitter": "None", "instagram": "None", "facebook": "None", "youtube": "None", "website": "None", "summary": "None", "logo": "None", "latitude": 43.44532392619295, "longitude": -80.47917151038736}, "119289239RR0001": {"name": "WATERLOO REGIONAL HERITAGE FOUNDATION", "designationCode": "A", "categoryCode": "52", "address": "150 FREDERICK ST", "city": "KITCHENER", "province": "ON", "country": "CA", "postalCode": "N2G4J3", "twitter": "None", "instagram": "None", "facebook": "None", "youtube": "None", "website": "None", "summary": "None", "logo": "None", "latitude": 43.452347591493755, "longitude": -80.48436734961594}}