{"106880057RR0001": {"name": "CATHOLIC FAMILY SERVICES OF DURHAM", "designationCode": "C", "categoryCode": "09", "address": "115 SIMCOE ST S", "city": "OSHAWA", "province": "ON", "country": "CA", "postalCode": "L1H4G7", "twitter": "None", "instagram": "None", "facebook": "None", "youtube": "None", "website": "None", "summary": "None", "logo": "None", "latitude": 43.89454991646943, "longitude": -78.86218796886753}, "106880230RR0001": {"name": "CATHOLIC FAMILY SERVICES OF HAMILTON-WENTWORTH", "designationCode": "C", "categoryCode": "49", "address": "447 MAIN STREET EAST UNIT 201", "city": "HAMILTON", "province": "ON", "country": "CA", "postalCode": "L8N1K1", "twitter": "None", "instagram": "None", "facebook": "None", "youtube": "None", "website": "None", "summary": "None", "logo": "None", "latitude": 43.2508970386343, "longitude": -79.85224297305113}, "119087823RR0001": {"name": "CATHOLIC FAMILY SERVICES OF PEEL-DUFFERIN", "designationCode": "C", "categoryCode": "09", "address": "60 WEST DRIVE, SUITE 201", "city": "BRAMPTON", "province": "ON", "country": "CA", "postalCode": "L6T3T6", "twitter": "None", "instagram": "None", "facebook": "None", "youtube": "None", "website": "None", "summary": "None", "logo": "None", "latitude": 43.70337138767425, "longitude": -79.72483183781495}, "129350187RR0001": {"name": "CATHOLIC FAMILY SERVICES OF PRINCE ALBERT INC", "designationCode": "C", "categoryCode": "09", "address": "1008-1ST AVENUE W", "city": "PRINCE ALBERT", "province": "SK", "country": "CA", "postalCode": "S6V4Y4", "twitter": "None", "instagram": "None", "facebook": "None", "youtube": "None", "website": "None", "summary": "None", "logo": "None", "latitude": 53.20370607799066, "longitude": -105.75708567926617}, "893734533RR0001": {"name": "CATHOLIC FAMILY SERVICES OF SASKATOON", "designationCode": "C", "categoryCode": "01", "address": "SUITE 200                     506 25TH STREET EAST", "city": "SASKATOON", "province": "SK", "country": "CA", "postalCode": "S7K4A7", "twitter": "None", "instagram": "None", "facebook": "None", "youtube": "None", "website": "None", "summary": "None", "logo": "None", "latitude": 52.132351347221345, "longitude": -106.65514898528481}, "106880214RR0001": {"name": "CATHOLIC FAMILY SERVICES OF SASKATOON (FOUNDATION) INC.", "designationCode": "A", "categoryCode": "03", "address": "200 506-25 ST E", "city": "SASKATOON", "province": "SK", "country": "CA", "postalCode": "S7K4A7", "twitter": "None", "instagram": "None", "facebook": "None", "youtube": "None", "website": "None", "summary": "None", "logo": "None", "latitude": 52.1332218899879, "longitude": -106.66010199993282}, "108090341RR0001": {"name": "CATHOLIC FAMILY SERVICES OF SIMCOE COUNTY", "designationCode": "C", "categoryCode": "49", "address": "20 ANNE ST SOUTH", "city": "BARRIE", "province": "ON", "country": "CA", "postalCode": "L4N2C6", "twitter": "None", "instagram": "None", "facebook": "None", "youtube": "None", "website": "None", "summary": "None", "logo": "None", "latitude": 44.381543449333584, "longitude": -79.70443558038524}, "132344896RR0001": {"name": "CATHOLIC FAMILY SERVICES OF THE BATTLEFORDS INC", "designationCode": "C", "categoryCode": "09", "address": "101-1272 101ST ST", "city": "N-BATTLEFORD", "province": "SK", "country": "CA", "postalCode": "S9A0Z8", "twitter": "None", "instagram": "None", "facebook": "None", "youtube": "None", "website": "None", "summary": "None", "logo": "None", "latitude": 52.776064045483594, "longitude": -108.29750524907375}, "100844919RR0001": {"name": "CATHOLIC FAMILY SERVICES OF TORONTO", "designationCode": "C", "categoryCode": "09", "address": "200-1155 YONGE ST", "city": "TORONTO", "province": "ON", "country": "CA", "postalCode": "M4T1W2", "twitter": "None", "instagram": "None", "facebook": "None", "youtube": "None", "website": "None", "summary": "None", "logo": "None", "latitude": 43.68216966639731, "longitude": -79.3916210252181}, "883243826RR0001": {"name": "CATHOLIC FAMILY SERVICES OF TORONTO FOUNDATION", "designationCode": "A", "categoryCode": "03", "address": "1155 YONGE STREET             SUITE 200", "city": "TORONTO", "province": "ON", "country": "CA", "postalCode": "M4T1W2", "twitter": "None", "instagram": "None", "facebook": "None", "youtube": "None", "website": "None", "summary": "None", "logo": "None", "latitude": 43.68216966639731, "longitude": -79.3916210252181}, "132584228RR0001": {"name": "CATHOLIC FAMILY SERVICES SOCIETY OF GRANDE PRAIRIE", "designationCode": "C", "categoryCode": "09", "address": "10105 102 ST", "city": "GRANDE PRAIRIE", "province": "AB", "country": "CA", "postalCode": "T8V2V8", "twitter": "None", "instagram": "None", "facebook": "None", "youtube": "None", "website": "None", "summary": "None", "logo": "None", "latitude": 55.171926356367955, "longitude": -118.80126346664582}, "119220572RR0001": {"name": "CATHOLIC HEALTH ASSOCIATION OF BRITISH COLUMBIA", "designationCode": "C", "categoryCode": "11", "address": "9387 HOLMES ST", "city": "BURNABY", "province": "BC", "country": "CA", "postalCode": "V3N4C3", "twitter": "None", "instagram": "None", "facebook": "None", "youtube": "None", "website": "None", "summary": "None", "logo": "None", "latitude": 49.23538344493115, "longitude": -122.89762755098886}, "118841162RR0001": {"name": "CATHOLIC HEALTH ASSOCIATION OF MANITOBA", "designationCode": "C", "categoryCode": "19", "address": "409 TACHE AVE                 SBGH EDUCATION BLDG", "city": "WINNIPEG", "province": "MB", "country": "CA", "postalCode": "R2H2A6", "twitter": "None", "instagram": "None", "facebook": "None", "youtube": "None", "website": "None", "summary": "None", "logo": "None", "latitude": 49.88406859893824, "longitude": -97.12368486190692}, "118841170RR0001": {"name": "CATHOLIC HEALTH ASSOCIATION OF SASKATCHEWAN", "designationCode": "C", "categoryCode": "19", "address": "104 - 3502 TAYLOR ST E", "city": "SASKATOON", "province": "SK", "country": "CA", "postalCode": "S7H5H9", "twitter": "None", "instagram": "None", "facebook": "None", "youtube": "None", "website": "None", "summary": "None", "logo": "None", "latitude": 52.104210408915634, "longitude": -106.5973279833734}, "882585573RR0001": {"name": "CATHOLIC HEALTH CORPORATION OF ONTARIO", "designationCode": "C", "categoryCode": "11", "address": "66 WELLINGTON ST W. STE 4100  PO BOX 35 TD TOWER", "city": "TORONTO", "province": "ON", "country": "CA", "postalCode": "M5K1B7", "twitter": "None", "instagram": "None", "facebook": "None", "youtube": "None", "website": "None", "summary": "None", "logo": "None", "latitude": 43.647055248975605, "longitude": -79.38109901041601}, "118780485RR0001": {"name": "CATHOLIC HEALTH OF ALBERTA", "designationCode": "C", "categoryCode": "19", "address": "5 - 10045 111 ST NW", "city": "EDMONTON", "province": "AB", "country": "CA", "postalCode": "T5K2M5", "twitter": "None", "instagram": "None", "facebook": "None", "youtube": "None", "website": "None", "summary": "None", "logo": "None", "latitude": 53.540064, "longitude": -113.51206428902445}, "872365820RR0001": {"name": "CATHOLIC KIDS NET INC.", "designationCode": "C", "categoryCode": "39", "address": "43 MALIGNE DR", "city": "DEVON", "province": "AB", "country": "CA", "postalCode": "T9G1P7", "twitter": "None", "instagram": "None", "facebook": "None", "youtube": "None", "website": "None", "summary": "None", "logo": "None", "latitude": 53.35772087705573, "longitude": -113.72555030584576}, "118841220RR0001": {"name": "CATHOLIC MARRIAGE TRIBUNAL", "designationCode": "C", "categoryCode": "49", "address": "1155 YONGE ST                 STE 300", "city": "TORONTO", "province": "ON", "country": "CA", "postalCode": "M4T1W2", "twitter": "None", "instagram": "None", "facebook": "None", "youtube": "None", "website": "None", "summary": "None", "logo": "None", "latitude": 43.68207221622701, "longitude": -79.39117540106176}, "875142408RR0001": {"name": "CATHOLIC MISSION OF LOVE", "designationCode": "C", "categoryCode": "39", "address": "6128 PRAIRIE CIRCLE", "city": "MISSISSAUGA", "province": "ON", "country": "CA", "postalCode": "L5N5Y2", "twitter": "None", "instagram": "None", "facebook": "None", "youtube": "None", "website": "None", "summary": "None", "logo": "None", "latitude": 43.56585371022573, "longitude": -79.75357989788776}, "119220531RR0001": {"name": "CATHOLIC MISSIONS IN CANADA", "designationCode": "C", "categoryCode": "49", "address": "201-1155 YONGE ST", "city": "TORONTO", "province": "ON", "country": "CA", "postalCode": "M4T1W2", "twitter": "None", "instagram": "None", "facebook": "None", "youtube": "None", "website": "None", "summary": "None", "logo": "None", "latitude": 43.68216966639731, "longitude": -79.3916210252181}, "107807646RR0001": {"name": "CATHOLIC PARISH OF OUR LADY OF PEACE -INNISFAIL, ALBERTA", "designationCode": "C", "categoryCode": "38", "address": "4304 49 AVE", "city": "INNISFAIL", "province": "AB", "country": "CA", "postalCode": "T4G1M6", "twitter": "None", "instagram": "None", "facebook": "None", "youtube": "None", "website": "None", "summary": "None", "logo": "None", "latitude": 52.02130357507647, "longitude": -113.94715692270184}, "118841279RR0001": {"name": "CATHOLIC PARISH OF OUR LADY OF THE ASSUMPTION", "designationCode": "C", "categoryCode": "38", "address": "P O BOX 8", "city": "RIMBEY", "province": "AB", "country": "CA", "postalCode": "T0C2J0", "twitter": "None", "instagram": "None", "facebook": "None", "youtube": "None", "website": "None", "summary": "None", "logo": "None", "latitude": 52.63970000000006, "longitude": -114.23827999999997}, "130533540RR0001": {"name": "CATHOLIC PARISH OF ST THOMAS MORE", "designationCode": "C", "categoryCode": "38", "address": "210 HADDOW CLOSE", "city": "EDMONTON", "province": "AB", "country": "CA", "postalCode": "T6R2P3", "twitter": "None", "instagram": "None", "facebook": "None", "youtube": "None", "website": "None", "summary": "None", "logo": "None", "latitude": 53.46062038190317, "longitude": -113.59046439332973}, "118841287RR0001": {"name": "CATHOLIC PARISH OF ST. DOMINIC", "designationCode": "C", "categoryCode": "38", "address": "14406-62 ST", "city": "EDMONTON", "province": "AB", "country": "CA", "postalCode": "T5A2E9", "twitter": "None", "instagram": "None", "facebook": "None", "youtube": "None", "website": "None", "summary": "None", "logo": "None", "latitude": 53.60536000582837, "longitude": -113.4373868092213}, "873927008RR0001": {"name": "CATHOLIC PROGRAM OF RADUISIA MARIYA", "designationCode": "C", "categoryCode": "39", "address": "2285 LAKESHORE BOULEVARD WEST SUITE 1605", "city": "TORONTO", "province": "ON", "country": "CA", "postalCode": "M8V3X9", "twitter": "None", "instagram": "None", "facebook": "None", "youtube": "None", "website": "None", "summary": "None", "logo": "None", "latitude": 43.61894038354796, "longitude": -79.4864217587287}, "871759098RR0001": {"name": "CATHOLIC RELIGIOUS SELF-INSURED RETENTION PROGRAM", "designationCode": "C", "categoryCode": "99", "address": "6299 AIRPORT ROAD, SUITE 100", "city": "MISSISSAUGA", "province": "ON", "country": "CA", "postalCode": "L4V1N3", "twitter": "None", "instagram": "None", "facebook": "None", "youtube": "None", "website": "None", "summary": "None", "logo": "None", "latitude": 43.690123284263, "longitude": -79.62375186534166}, "123740243RR0001": {"name": "CATHOLIC RENEWAL MINISTRIES, INC", "designationCode": "C", "categoryCode": "49", "address": "AVE MARIA CENTRE OF PEACE     331 EVANS AVE,", "city": "ETOBICOKE", "province": "ON", "country": "CA", "postalCode": "M8Z1K2", "twitter": "None", "instagram": "None", "facebook": "None", "youtube": "None", "website": "None", "summary": "None", "logo": "None", "latitude": 43.61652380137764, "longitude": -79.52066313608164}, "118841311RR0001": {"name": "CATHOLIC RENEWAL SERVICES (ARCHDIOCESE OF EDMONTON)", "designationCode": "C", "categoryCode": "49", "address": "88026 RABBIT HILL P.O.", "city": "EDMONTON", "province": "AB", "country": "CA", "postalCode": "T6R0M5", "twitter": "None", "instagram": "None", "facebook": "None", "youtube": "None", "website": "None", "summary": "None", "logo": "None", "latitude": 53.44712266655038, "longitude": -113.5656225}, "868079070RR0001": {"name": "CATHOLIC SCHOOL FOUNDATION OF CORNER BROOK INC.", "designationCode": "C", "categoryCode": "20", "address": "112 HUMBER ROAD", "city": "CORNERBROOK", "province": "NL", "country": "CA", "postalCode": "A2H1E8", "twitter": "None", "instagram": "None", "facebook": "None", "youtube": "None", "website": "None", "summary": "None", "logo": "None", "latitude": 48.96335033775763, "longitude": -57.93059162750322}, "131905549RR0001": {"name": "CATHOLIC SCHOOLS FOUNDATION OF NIPISSING-PARRY SOUND", "designationCode": "C", "categoryCode": "21", "address": "570 FIRST AVE E", "city": "NORTH BAY", "province": "ON", "country": "CA", "postalCode": "P1B1K6", "twitter": "None", "instagram": "None", "facebook": "None", "youtube": "None", "website": "None", "summary": "None", "logo": "None", "latitude": 46.3055907607766, "longitude": -79.45513668743182}, "892495771RR0001": {"name": "CATHOLIC SISTERS OF THE HOLY NAME OF SMOKEY LAKE", "designationCode": "C", "categoryCode": "46", "address": "8835 91 STREET", "city": "EDMONTON", "province": "AB", "country": "CA", "postalCode": "T6C3N3", "twitter": "None", "instagram": "None", "facebook": "None", "youtube": "None", "website": "None", "summary": "None", "logo": "None", "latitude": 53.52456599999999, "longitude": -113.46682728181108}, "133696559RR0001": {"name": "CATHOLIC SOCIAL SERVICES", "designationCode": "C", "categoryCode": "49", "address": "12431 STONY PLAIN RD NW", "city": "EDMONTON", "province": "AB", "country": "CA", "postalCode": "T5N3N3", "twitter": "None", "instagram": "None", "facebook": "None", "youtube": "None", "website": "None", "summary": "None", "logo": "None", "latitude": 53.54702461613492, "longitude": -113.537263389405}, "118841378RR0001": {"name": "CATHOLIC YOUTH ORGANIZATION", "designationCode": "C", "categoryCode": "49", "address": "5999 CHIPPEWA RD", "city": "MOUNT HOPE", "province": "ON", "country": "CA", "postalCode": "L0R1W0", "twitter": "None", "instagram": "None", "facebook": "None", "youtube": "None", "website": "None", "summary": "None", "logo": "None", "latitude": 43.120431860378666, "longitude": -79.87006984860633}, "880650148RR0001": {"name": "CATHOLIC YOUTH STUDIO - KSM INC.", "designationCode": "C", "categoryCode": "49", "address": "1 - 183 RONCESVALLES AVE", "city": "TORONTO", "province": "ON", "country": "CA", "postalCode": "M6R2L5", "twitter": "None", "instagram": "None", "facebook": "None", "youtube": "None", "website": "None", "summary": "None", "logo": "None", "latitude": 43.644806454902174, "longitude": -79.44841935815695}, "876769225RR0001": {"name": "CATNAP-(CATS NEEDING AID AND PROTECTION) SOCIETY", "designationCode": "C", "categoryCode": "54", "address": "6004 WALDBANK ROAD", "city": "NANAIMO", "province": "BC", "country": "CA", "postalCode": "V9V1N3", "twitter": "None", "instagram": "None", "facebook": "None", "youtube": "None", "website": "None", "summary": "None", "logo": "None", "latitude": 49.24143947100232, "longitude": -124.02718144463039}, "875573537RR0001": {"name": "CATS ALIVE SOCIETY", "designationCode": "C", "categoryCode": "54", "address": "PO BOX 334", "city": "GABRIOLA", "province": "BC", "country": "CA", "postalCode": "V0R1X0", "twitter": "None", "instagram": "None", "facebook": "None", "youtube": "None", "website": "None", "summary": "None", "logo": "None", "latitude": 49.18637400000006, "longitude": -123.82815049999994}, "865651319RR0001": {"name": "CATS ANONYMOUS RESCUE AND ADOPTION", "designationCode": "C", "categoryCode": "54", "address": "063055 DUFFERIN COUNTY RD. 3", "city": "EAST GARAFRAXA", "province": "ON", "country": "CA", "postalCode": "L9W7J1", "twitter": "None", "instagram": "None", "facebook": "None", "youtube": "None", "website": "None", "summary": "None", "logo": "None", "latitude": 43.831176468155356, "longitude": -80.21923336687358}, "106880750RR0001": {"name": "CATULPA COMMUNITY SUPPORT SERVICES INC.", "designationCode": "C", "categoryCode": "01", "address": "165 FERRIS LANE", "city": "BARRIE", "province": "ON", "country": "CA", "postalCode": "L4M2Y1", "twitter": "None", "instagram": "None", "facebook": "None", "youtube": "None", "website": "None", "summary": "None", "logo": "None", "latitude": 44.409245375238086, "longitude": -79.68919505355196}, "106880768RR0001": {"name": "CATUNDRA DAY CARE CENTRE INC.", "designationCode": "C", "categoryCode": "01", "address": "350 DUNDAS ST WEST", "city": "BELLEVILLE", "province": "ON", "country": "CA", "postalCode": "K8P1B2", "twitter": "None", "instagram": "None", "facebook": "None", "youtube": "None", "website": "None", "summary": "None", "logo": "None", "latitude": 44.14930330864439, "longitude": -77.40183317014822}, "118841428RR0001": {"name": "CAUSE CANADA", "designationCode": "C", "categoryCode": "09", "address": "150 - 301 14 ST NW", "city": "CALGARY", "province": "AB", "country": "CA", "postalCode": "T2N2A1", "twitter": "None", "instagram": "None", "facebook": "None", "youtube": "None", "website": "None", "summary": "None", "logo": "None", "latitude": 51.054849167638054, "longitude": -114.09477471472646}, "118988005RR0001": {"name": "CAUSE OF KATERI", "designationCode": "C", "categoryCode": "49", "address": "P.O BOX 70   CHURCH ST.", "city": "KAHNAWAKE", "province": "QC", "country": "CA", "postalCode": "J0L1B0", "twitter": "None", "instagram": "None", "facebook": "None", "youtube": "None", "website": "None", "summary": "None", "logo": "None", "latitude": 45.40894000000003, "longitude": -73.67382999999995}, "106880859RR0001": {"name": "CAUSEWAY CHRISTIAN ASSEMBLY", "designationCode": "C", "categoryCode": "36", "address": "1307 YANKEE LINE", "city": "ENNISMORE", "province": "ON", "country": "CA", "postalCode": "K0L1T0", "twitter": "None", "instagram": "None", "facebook": "None", "youtube": "None", "website": "None", "summary": "None", "logo": "None", "latitude": 44.383684866438195, "longitude": -78.41553781124146}, "872540844RR0001": {"name": "CAUSEWAY FOUNDATION", "designationCode": "C", "categoryCode": "09", "address": "22 O'MEARA ST", "city": "OTTAWA", "province": "ON", "country": "CA", "postalCode": "K1Y4N6", "twitter": "None", "instagram": "None", "facebook": "None", "youtube": "None", "website": "None", "summary": "None", "logo": "None", "latitude": 45.40674498444809, "longitude": -75.72385647181038}, "893658724RR0001": {"name": "CAUSEWAY PENTECOSTAL CHURCH", "designationCode": "C", "categoryCode": "36", "address": "PO BOX 1184 RPO PRINCE", "city": "TRURO", "province": "NS", "country": "CA", "postalCode": "B2N5H1", "twitter": "None", "instagram": "None", "facebook": "None", "youtube": "None", "website": "None", "summary": "None", "logo": "None", "latitude": 45.36524915901727, "longitude": -63.28200181927177}, "106880883RR0001": {"name": "CAUSEWAY WORK CENTRE", "designationCode": "C", "categoryCode": "59", "address": "22 O'MEARA STREET", "city": "OTTAWA", "province": "ON", "country": "CA", "postalCode": "K1Y4N6", "twitter": "None", "instagram": "None", "facebook": "None", "youtube": "None", "website": "None", "summary": "None", "logo": "None", "latitude": 45.40674498444809, "longitude": -75.72385647181038}, "888575248RR0001": {"name": "CAUT CIVIL LIBERTIES DEFENCE FUND/FONDS POUR LA DEFENSE DES LIBERTES CIVILES CAUT", "designationCode": "C", "categoryCode": "59", "address": "2705 QUEENSVIEW DR", "city": "OTTAWA", "province": "ON", "country": "CA", "postalCode": "K2B8K2", "twitter": "None", "instagram": "None", "facebook": "None", "youtube": "None", "website": "None", "summary": "None", "logo": "None", "latitude": 45.352331117981265, "longitude": -75.78924922773955}, "873149074RR0001": {"name": "CAVALIER RIDING CLUB LTD", "designationCode": "C", "categoryCode": "56", "address": "62 PROM CANAAN", "city": "DIEPPE", "province": "NB", "country": "CA", "postalCode": "E1A7N1", "twitter": "None", "instagram": "None", "facebook": "None", "youtube": "None", "website": "None", "summary": "None", "logo": "None", "latitude": 46.095569550637755, "longitude": -64.68967166625309}, "118841485RR0001": {"name": "CAVAN UNITED CHURCH (WINTHROP)", "designationCode": "C", "categoryCode": "44", "address": "41805 WINTROP RD              RR 1", "city": "LONDESBOROUGH", "province": "ON", "country": "CA", "postalCode": "N0M2H0", "twitter": "None", "instagram": "None", "facebook": "None", "youtube": "None", "website": "None", "summary": "None", "logo": "None", "latitude": 43.64009782509125, "longitude": -81.39437202821827}, "118841535RR0001": {"name": "CAVE SPRINGS CAMP INC.", "designationCode": "C", "categoryCode": "56", "address": "4410 CAVE SPRINGS RD", "city": "BEAMSVILLE", "province": "ON", "country": "CA", "postalCode": "L0R1B0", "twitter": "None", "instagram": "None", "facebook": "None", "youtube": "None", "website": "None", "summary": "None", "logo": "None", "latitude": 43.1532116724995, "longitude": -79.44074603617386}, "118841527RR0001": {"name": "CAVEN PRESBYTERIAN CHURCH", "designationCode": "C", "categoryCode": "37", "address": "68 MAIN ST S", "city": "EXETER", "province": "ON", "country": "CA", "postalCode": "N0M1S1", "twitter": "None", "instagram": "None", "facebook": "None", "youtube": "None", "website": "None", "summary": "None", "logo": "None", "latitude": 43.354614310577624, "longitude": -81.48204653035398}, "133466094RR0001": {"name": "CAVEN PRESBYTERIAN CHURCH", "designationCode": "C", "categoryCode": "37", "address": "110 KING ST W", "city": "BOLTON", "province": "ON", "country": "CA", "postalCode": "L7E1A2", "twitter": "None", "instagram": "None", "facebook": "None", "youtube": "None", "website": "None", "summary": "None", "logo": "None", "latitude": 43.8774339119687, "longitude": -79.740650938802}, "118841493RR0001": {"name": "CAVENDISH BREADALBANE PASTORAL CHARGE", "designationCode": "C", "categoryCode": "44", "address": "90 BAYVIEW DRIVE, RR 3", "city": "HUNTER RIVER", "province": "PE", "country": "CA", "postalCode": "C0A1N0", "twitter": "None", "instagram": "None", "facebook": "None", "youtube": "None", "website": "None", "summary": "None", "logo": "None", "latitude": 46.444351263402325, "longitude": -63.29347945934556}, "892263641RR0001": {"name": "CAVENDISH COMMUNITY CEMETERY INC", "designationCode": "C", "categoryCode": "59", "address": "300 TORONTO RD                RR #1", "city": "HUNTER RIVER", "province": "PE", "country": "CA", "postalCode": "C0A1N0", "twitter": "None", "instagram": "None", "facebook": "None", "youtube": "None", "website": "None", "summary": "None", "logo": "None", "latitude": 45.99214716565255, "longitude": -62.568976249920425}, "118841501RR0001": {"name": "CAVENDISH UNITED BAPTIST CHURCH", "designationCode": "C", "categoryCode": "31", "address": "101 MAPLE AVE", "city": "CHARLOTTETOWN", "province": "PE", "country": "CA", "postalCode": "C1A6G2", "twitter": "None", "instagram": "None", "facebook": "None", "youtube": "None", "website": "None", "summary": "None", "logo": "None", "latitude": 46.26733753566277, "longitude": -63.131720101592634}, "860001437RR0001": {"name": "CAW LOCAL 200 COMPUTERS FOR KIDS", "designationCode": "C", "categoryCode": "21", "address": "4150 SANDWICH STREET", "city": "WINDSOR", "province": "ON", "country": "CA", "postalCode": "N9C1C5", "twitter": "None", "instagram": "None", "facebook": "None", "youtube": "None", "website": "None", "summary": "None", "logo": "None", "latitude": 42.28373905252896, "longitude": -83.0866181804152}, "827473190RR0001": {"name": "CAWS - Companion Animal Welfare Society", "designationCode": "C", "categoryCode": "54", "address": "#20, 314-222 BASELINE ROAD", "city": "SHERWOOD PARK", "province": "AB", "country": "CA", "postalCode": "T8H1S8", "twitter": "None", "instagram": "None", "facebook": "None", "youtube": "None", "website": "None", "summary": "None", "logo": "None", "latitude": 53.54140294859928, "longitude": -113.31721873269487}, "118818491RR0008": {"name": "CAWSTON KEREMEOS SEVENTH-DAY ADVENTIST CHURCH", "designationCode": "C", "categoryCode": "41", "address": "PO 1000", "city": "ABBOTSFORD", "province": "BC", "country": "CA", "postalCode": "V2S4P5", "twitter": "None", "instagram": "None", "facebook": "None", "youtube": "None", "website": "None", "summary": "None", "logo": "None", "latitude": 49.03851300000005, "longitude": -122.29441549999993}, "119026482RR0001": {"name": "CAWTHRA PARK UNITED CHURCH", "designationCode": "C", "categoryCode": "44", "address": "1465 LEDA AVE.", "city": "MISSISSAUGA", "province": "ON", "country": "CA", "postalCode": "L5G4B8", "twitter": "None", "instagram": "None", "facebook": "None", "youtube": "None", "website": "None", "summary": "None", "logo": "None", "latitude": 43.57464716931151, "longitude": -79.58331593115595}, "869620351RR0001": {"name": "CAYER MEMORIAL TRUST FUND INC", "designationCode": "C", "categoryCode": "11", "address": "BOX 189", "city": "WILLOW BUNCH", "province": "SK", "country": "CA", "postalCode": "S0H4K0", "twitter": "None", "instagram": "None", "facebook": "None", "youtube": "None", "website": "None", "summary": "None", "logo": "None", "latitude": 49.38336000000004, "longitude": -105.63441999999998}, "892346560RR0001": {"name": "CAYES FOUNDATION", "designationCode": "B", "categoryCode": "53", "address": "SUITE 1250-1500 W. GEORGIA ST BOX 62", "city": "VANCOUVER", "province": "BC", "country": "CA", "postalCode": "V6G2Z6", "twitter": "None", "instagram": "None", "facebook": "None", "youtube": "None", "website": "None", "summary": "None", "logo": "None", "latitude": 49.290187500000016, "longitude": -123.130035}, "885606137RR0001": {"name": "CAYLEY CHARITABLE TRUST", "designationCode": "B", "categoryCode": "39", "address": "3425 2ND AVENUE SOUTH", "city": "LETHBRIDGE", "province": "AB", "country": "CA", "postalCode": "T1J4V1", "twitter": "None", "instagram": "None", "facebook": "None", "youtube": "None", "website": "None", "summary": "None", "logo": "None", "latitude": 49.696839530439966, "longitude": -112.78914308381903}, "880166228RR0001": {"name": "CAYUGA CHRISTIAN FELLOWSHIP, INC", "designationCode": "C", "categoryCode": "39", "address": "71 HIGHWAY 54", "city": "CAYUGA", "province": "ON", "country": "CA", "postalCode": "N0A1E0", "twitter": "None", "instagram": "None", "facebook": "None", "youtube": "None", "website": "None", "summary": "None", "logo": "None", "latitude": 42.95621019751785, "longitude": -79.85850839030776}, "131480006RR0001": {"name": "CBMC Christian Business Ministries Canada", "designationCode": "C", "categoryCode": "47", "address": "1801 DUNDAS ST E              BOX 70617", "city": "WHITBY", "province": "ON", "country": "CA", "postalCode": "L1N7C5", "twitter": "None", "instagram": "None", "facebook": "None", "youtube": "None", "website": "None", "summary": "None", "logo": "None", "latitude": 43.888361037771496, "longitude": -78.90408382573438}, "138819099RR0001": {"name": "CBS/PARADISE COMMUNITY FOOD BANK LIMITED", "designationCode": "C", "categoryCode": "09", "address": "81 CBS HWY, UNIT 3", "city": "CBS", "province": "NL", "country": "CA", "postalCode": "A1W3A3", "twitter": "None", "instagram": "None", "facebook": "None", "youtube": "None", "website": "None", "summary": "None", "logo": "None", "latitude": 47.52059100000005, "longitude": -52.947187999999926}, "875234213RR0001": {"name": "CBSR EDUCATION FOUNDATION", "designationCode": "C", "categoryCode": "29", "address": "102-145 FRONT STREET EAST", "city": "TORONTO", "province": "ON", "country": "CA", "postalCode": "M5A1E3", "twitter": "None", "instagram": "None", "facebook": "None", "youtube": "None", "website": "None", "summary": "None", "logo": "None", "latitude": 43.65001178766814, "longitude": -79.36928819816495}, "861723526RR0001": {"name": "CBWC FOUNDATION", "designationCode": "C", "categoryCode": "43", "address": "201 - 221 10 AVE SE", "city": "CALGARY", "province": "AB", "country": "CA", "postalCode": "T2G0V9", "twitter": "None", "instagram": "None", "facebook": "None", "youtube": "None", "website": "None", "summary": "None", "logo": "None", "latitude": 51.04317150678067, "longitude": -114.05931286372554}, "809079338RR0001": {"name": "CCAC Chinese Culture and Arts Club", "designationCode": "C", "categoryCode": "22", "address": "17 CRYSTAL DR", "city": "BEDFORD", "province": "NS", "country": "CA", "postalCode": "B4A3R5", "twitter": "None", "instagram": "None", "facebook": "None", "youtube": "None", "website": "None", "summary": "None", "logo": "None", "latitude": 44.723997, "longitude": -63.683811866062804}, "118830561RR0001": {"name": "CCB Nova Scotia Division", "designationCode": "C", "categoryCode": "11", "address": "85 ELMBANK AVE", "city": "SYDNEY", "province": "NS", "country": "CA", "postalCode": "B1S1X8", "twitter": "None", "instagram": "None", "facebook": "None", "youtube": "None", "website": "None", "summary": "None", "logo": "None", "latitude": 46.11955047322403, "longitude": -60.20563104345305}, "870433729RR0001": {"name": "CCI CHRISTIAN COMMUNICATION INC OF CANADA", "designationCode": "A", "categoryCode": "03", "address": "3880 MIDLAND AVENUE, UNIT 2&3", "city": "TORONTO", "province": "ON", "country": "CA", "postalCode": "M1V5K4", "twitter": "None", "instagram": "None", "facebook": "None", "youtube": "None", "website": "None", "summary": "None", "logo": "None", "latitude": 43.82033186343707, "longitude": -79.29480413618754}, "827824251RR0001": {"name": "CCI Scholarship Funds", "designationCode": "C", "categoryCode": "21", "address": "59 MACAMO COURT", "city": "MAPLE", "province": "ON", "country": "CA", "postalCode": "L6A1G1", "twitter": "None", "instagram": "None", "facebook": "None", "youtube": "None", "website": "None", "summary": "None", "logo": "None", "latitude": 43.89025951211813, "longitude": -79.47256081637734}, "125014159RR0001": {"name": "CCL - CHRISTIAN COMMUNICATION INCORPORATED", "designationCode": "C", "categoryCode": "47", "address": "3880 MIDLAND AVE              UNIT 2 AND 3", "city": "SCARBOROUGH", "province": "ON", "country": "CA", "postalCode": "M1V5K4", "twitter": "None", "instagram": "None", "facebook": "None", "youtube": "None", "website": "None", "summary": "None", "logo": "None", "latitude": 43.82033186343707, "longitude": -79.29480413618754}, "812624120RR0001": {"name": "CCMBC Legacy Fund Inc.", "designationCode": "C", "categoryCode": "43", "address": "1310 TAYLOR AVE", "city": "WINNIPEG", "province": "MB", "country": "CA", "postalCode": "R3M3Z6", "twitter": "None", "instagram": "None", "facebook": "None", "youtube": "None", "website": "None", "summary": "None", "logo": "None", "latitude": 49.85163670716732, "longitude": -97.17385596987715}, "100876903RR0001": {"name": "CCSE MAISONNEUVE", "designationCode": "C", "categoryCode": "56", "address": "4375 RUE ONTARIO EST", "city": "MONTREAL", "province": "QC", "country": "CA", "postalCode": "H1V1K5", "twitter": "None", "instagram": "None", "facebook": "None", "youtube": "None", "website": "None", "summary": "None", "logo": "None", "latitude": 45.553633457700776, "longitude": -73.53911170255009}, "838142297RR0001": {"name": "CCTS - Cumberland County Transportation Services Society", "designationCode": "C", "categoryCode": "09", "address": "PO BOX 952 STN MAIN", "city": "AMHERST", "province": "NS", "country": "CA", "postalCode": "B4H4E1", "twitter": "None", "instagram": "None", "facebook": "None", "youtube": "None", "website": "None", "summary": "None", "logo": "None", "latitude": 45.83198400000006, "longitude": -64.20979249999993}, "821379930RR0001": {"name": "CDKL5 Canada", "designationCode": "C", "categoryCode": "21", "address": "55 GLEN ROAD", "city": "TORONTO", "province": "ON", "country": "CA", "postalCode": "M4W2V3", "twitter": "None", "instagram": "None", "facebook": "None", "youtube": "None", "website": "None", "summary": "None", "logo": "None", "latitude": 43.67547608687745, "longitude": -79.37493811001808}, "892084781RR0001": {"name": "CDMF PERFORMING ARTS FESTIVAL SOCIETY", "designationCode": "C", "categoryCode": "22", "address": "80 - 758 RIVERSIDE DR", "city": "PORT COQUITLAM", "province": "BC", "country": "CA", "postalCode": "V3B7V8", "twitter": "None", "instagram": "None", "facebook": "None", "youtube": "None", "website": "None", "summary": "None", "logo": "None", "latitude": 49.2671924689831, "longitude": -122.73710192048013}, "865451611RR0001": {"name": "CEASE-FIRE TABERNACLE", "designationCode": "C", "categoryCode": "39", "address": "P.O. BOX 504", "city": "BRAMPTON", "province": "ON", "country": "CA", "postalCode": "L6V2L4", "twitter": "None", "instagram": "None", "facebook": "None", "youtube": "None", "website": "None", "summary": "None", "logo": "None", "latitude": 43.68430500000005, "longitude": -79.75872349999993}, "842291874RR0001": {"name": "CEASE: CENTRE TO END ALL SEXUAL EXPLOITATION", "designationCode": "C", "categoryCode": "09", "address": "9142 - 118TH AVENUE           P. O. BOX 11471", "city": "EDMONTON", "province": "AB", "country": "CA", "postalCode": "T5J3K6", "twitter": "None", "instagram": "None", "facebook": "None", "youtube": "None", "website": "None", "summary": "None", "logo": "None", "latitude": 53.54623500000005, "longitude": -113.49037249999994}, "889481172RR0001": {"name": "CEBU CHILDREN'S SHELTER SOCIETY OF CANADA", "designationCode": "C", "categoryCode": "09", "address": "PO BOX 141 STN MAIN", "city": "ABBOTSFORD", "province": "BC", "country": "CA", "postalCode": "V2T6Z5", "twitter": "None", "instagram": "None", "facebook": "None", "youtube": "None", "website": "None", "summary": "None", "logo": "None", "latitude": 49.05161700000005, "longitude": -122.32930399999994}, "871144341RR0001": {"name": "CEC CANADA FOUNDATION ASSOCIATION", "designationCode": "C", "categoryCode": "49", "address": "PO BOX 78054                  RPO REGIONAL POST OFFICE", "city": "VANCOUVER", "province": "BC", "country": "CA", "postalCode": "V5N5W1", "twitter": "None", "instagram": "None", "facebook": "None", "youtube": "None", "website": "None", "summary": "None", "logo": "None", "latitude": 49.25483700000005, "longitude": -123.06737599999994}, "894298595RR0001": {"name": "CECCHETTI CANADA", "designationCode": "C", "categoryCode": "22", "address": "525 LORNE ST", "city": "GRAVENHURST", "province": "ON", "country": "CA", "postalCode": "P1P1N1", "twitter": "None", "instagram": "None", "facebook": "None", "youtube": "None", "website": "None", "summary": "None", "logo": "None", "latitude": 44.92680678377299, "longitude": -79.38641526657631}, "118841675RR0001": {"name": "CECIL DELWORTH FOUNDATION", "designationCode": "C", "categoryCode": "21", "address": "P.O. BOX 25022", "city": "GUELPH", "province": "ON", "country": "CA", "postalCode": "N1G4T4", "twitter": "None", "instagram": "None", "facebook": "None", "youtube": "None", "website": "None", "summary": "None", "logo": "None", "latitude": 43.54455300000005, "longitude": -80.24788249999993}, "106882913RR0001": {"name": "CECIL LAKE CHRISTIAN FELLOWSHIP", "designationCode": "C", "categoryCode": "49", "address": "BOX 15", "city": "CECIL LAKE", "province": "BC", "country": "CA", "postalCode": "V0C1G0", "twitter": "None", "instagram": "None", "facebook": "None", "youtube": "None", "website": "None", "summary": "None", "logo": "None", "latitude": 56.333726999999996, "longitude": -120.17815440855709}, "890399389RR0001": {"name": "CEDAR BROOK CHURCH", "designationCode": "C", "categoryCode": "31", "address": "20581 36 AVE", "city": "LANGLEY", "province": "BC", "country": "CA", "postalCode": "V3A4Y3", "twitter": "None", "instagram": "None", "facebook": "None", "youtube": "None", "website": "None", "summary": "None", "logo": "None", "latitude": 49.06746247936954, "longitude": -122.65359202553523}, "118788348RR0001": {"name": "CEDAR CREEK CHRISTIAN FELLOWSHIP", "designationCode": "C", "categoryCode": "36", "address": "RR 1", "city": "DAPP", "province": "AB", "country": "CA", "postalCode": "T0G0S0", "twitter": "None", "instagram": "None", "facebook": "None", "youtube": "None", "website": "None", "summary": "None", "logo": "None", "latitude": 55.31675519581397, "longitude": -115.62772911561181}, "892998964RR0001": {"name": "CEDAR CREEK COMMUNITY BAPTIST CHURCH", "designationCode": "C", "categoryCode": "31", "address": "2042 DUMFRIES RD              RR#4", "city": "CAMBRIDGE", "province": "ON", "country": "CA", "postalCode": "N1R5S5", "twitter": "None", "instagram": "None", "facebook": "None", "youtube": "None", "website": "None", "summary": "None", "logo": "None", "latitude": 43.334115000000054, "longitude": -80.32154299999993}, "892177171RR0001": {"name": "CEDAR CREST SOCIETY FOR COMMUNITY LIVING", "designationCode": "C", "categoryCode": "11", "address": "BOX 1197", "city": "100 MILE HOUSE", "province": "BC", "country": "CA", "postalCode": "V0K2E0", "twitter": "None", "instagram": "None", "facebook": "None", "youtube": "None", "website": "None", "summary": "None", "logo": "None", "latitude": 51.62931000000003, "longitude": -121.30063999999999}, "890314446RR0001": {"name": "CEDAR DISTRICT 4 - H SENIOR ADVISORY COUNCIL", "designationCode": "C", "categoryCode": "29", "address": "4365 BRUCE RD", "city": "LADYSMITH", "province": "BC", "country": "CA", "postalCode": "V9G1G6", "twitter": "None", "instagram": "None", "facebook": "None", "youtube": "None", "website": "None", "summary": "None", "logo": "None", "latitude": 49.039290145369876, "longitude": -123.79775047789934}, "887012722RR0001": {"name": "CEDAR DRIVE PRESCHOOL SOCIETY", "designationCode": "C", "categoryCode": "01", "address": "3170 CEDAR DRIVE", "city": "PORT COQUITLAM", "province": "BC", "country": "CA", "postalCode": "V3B3C3", "twitter": "None", "instagram": "None", "facebook": "None", "youtube": "None", "website": "None", "summary": "None", "logo": "None", "latitude": 49.270896467415305, "longitude": -122.73984860112738}, "866085632RR0001": {"name": "CEDAR FOUNDATION", "designationCode": "C", "categoryCode": "03", "address": "200 - 8661 201 ST", "city": "LANGLEY", "province": "BC", "country": "CA", "postalCode": "V2Y0G9", "twitter": "None", "instagram": "None", "facebook": "None", "youtube": "None", "website": "None", "summary": "None", "logo": "None", "latitude": 49.160020286012525, "longitude": -122.66530950574573}, "141168229RR0001": {"name": "CEDAR GROVE AMISH MENNONITE CHURCH", "designationCode": "C", "categoryCode": "34", "address": "4831 DEBORAH GLAISTER LINE    RR#2", "city": "WELLESLEY", "province": "ON", "country": "CA", "postalCode": "N0B2T0", "twitter": "None", "instagram": "None", "facebook": "None", "youtube": "None", "website": "None", "summary": "None", "logo": "None", "latitude": 43.48815238135491, "longitude": -80.77568926005543}, "118841808RR0001": {"name": "CEDAR GROVE BAPTIST CHURCH", "designationCode": "C", "categoryCode": "31", "address": "10330 144TH ST", "city": "SURREY", "province": "BC", "country": "CA", "postalCode": "V3T4V3", "twitter": "None", "instagram": "None", "facebook": "None", "youtube": "None", "website": "None", "summary": "None", "logo": "None", "latitude": 49.190471800998324, "longitude": -122.82311797665783}, "891026387RR0001": {"name": "CEDAR GROVE REFORMED CHURCH", "designationCode": "C", "categoryCode": "39", "address": "BOX 508", "city": "PORT ALBERNI", "province": "BC", "country": "CA", "postalCode": "V9Y7M9", "twitter": "None", "instagram": "None", "facebook": "None", "youtube": "None", "website": "None", "summary": "None", "logo": "None", "latitude": 49.23443400000005, "longitude": -124.80757099999994}, "118841816RR0001": {"name": "CEDAR HEIGHTS COMMUNITY ASSOCIATION", "designationCode": "C", "categoryCode": "59", "address": "2316 LAKEVIEW DR RR#2", "city": "SORRENTO", "province": "BC", "country": "CA", "postalCode": "V0E2W2", "twitter": "None", "instagram": "None", "facebook": "None", "youtube": "None", "website": "None", "summary": "None", "logo": "None", "latitude": 50.88333894613093, "longitude": -119.39114778354185}, "119288918RR1053": {"name": "CEDAR HILL CONGREGATION OF JEHOVAH'S WITNESSES", "designationCode": "C", "categoryCode": "61", "address": "202 - 3215 ALDER ST", "city": "VICTORIA", "province": "BC", "country": "CA", "postalCode": "V8X1P3", "twitter": "None", "instagram": "None", "facebook": "None", "youtube": "None", "website": "None", "summary": "None", "logo": "None", "latitude": 48.44910379961336, "longitude": -123.36672379667051}, "118841840RR0001": {"name": "CEDAR HILLS PENTECOSTAL LIGHTHOUSE CHURCH", "designationCode": "C", "categoryCode": "39", "address": "BOX 57011-9558-120ST", "city": "SURREY", "province": "BC", "country": "CA", "postalCode": "V3V7V7", "twitter": "None", "instagram": "None", "facebook": "None", "youtube": "None", "website": "None", "summary": "None", "logo": "None", "latitude": 49.176503999999994, "longitude": -122.89006798329426}, "890007776RR0001": {"name": "CEDAR LAKE UNITED BAPTIST CHURCH", "designationCode": "C", "categoryCode": "39", "address": "756 CEDAR LAKE RD", "city": "CEDAR LAKE", "province": "NS", "country": "CA", "postalCode": "B5A5L8", "twitter": "None", "instagram": "None", "facebook": "None", "youtube": "None", "website": "None", "summary": "None", "logo": "None", "latitude": 44.03441334332621, "longitude": -66.10168664458433}, "870848587RR0001": {"name": "CEDAR LODGE SENIORS' TRUST INC", "designationCode": "C", "categoryCode": "09", "address": "29514 ROUTE 134", "city": "POINT LA NIM", "province": "NB", "country": "CA", "postalCode": "E3N6E6", "twitter": "None", "instagram": "None", "facebook": "None", "youtube": "None", "website": "None", "summary": "None", "logo": "None", "latitude": 48.06102032752004, "longitude": -66.46728694915043}, "106883333RR0001": {"name": "CEDAR PARK CHURCH MENNONITE BRETHREN", "designationCode": "C", "categoryCode": "34", "address": "5300 - 44TH AVENUE", "city": "DELTA", "province": "BC", "country": "CA", "postalCode": "V4K1C7", "twitter": "None", "instagram": "None", "facebook": "None", "youtube": "None", "website": "None", "summary": "None", "logo": "None", "latitude": 49.08298780461919, "longitude": -123.07736144038063}, "855528345RR0001": {"name": "CEDAR PARK CHURCH OF CHRIST", "designationCode": "C", "categoryCode": "39", "address": "566 SIMCOE STREET NORTH", "city": "OSHAWA", "province": "ON", "country": "CA", "postalCode": "L1G4V3", "twitter": "None", "instagram": "None", "facebook": "None", "youtube": "None", "website": "None", "summary": "None", "logo": "None", "latitude": 43.91248754648281, "longitude": -78.87024595354583}}