{"867433179RR0001": {"name": "FONDATION HECTOR SAVOIE INC", "designationCode": "B", "categoryCode": "03", "address": "251 ROUTE 180", "city": "ST-QUENTIN", "province": "NB", "country": "CA", "postalCode": "E8A2K9", "twitter": "None", "instagram": "None", "facebook": "None", "youtube": "None", "website": "None", "summary": "None", "logo": "None", "latitude": 47.51339798469365, "longitude": -67.38311981417739}, "887845667RR0001": {"name": "FONDATION HELENE OSTIGUY", "designationCode": "B", "categoryCode": "25", "address": "628 CHEMIN DE LA C\u00d4TE-SAINTE  CATHERINE", "city": "OUTREMONT", "province": "QC", "country": "CA", "postalCode": "H2V2C5", "twitter": "None", "instagram": "None", "facebook": "None", "youtube": "None", "website": "None", "summary": "None", "logo": "None", "latitude": 45.51262297830261, "longitude": -73.61377079442015}, "871984167RR0001": {"name": "FONDATION HENRI-ROY", "designationCode": "C", "categoryCode": "21", "address": "O/S JEAN-ROCH LAPRISE         1099 BOULEVARD HAMEL", "city": "ROBERVAL", "province": "QC", "country": "CA", "postalCode": "G8K1X9", "twitter": "None", "instagram": "None", "facebook": "None", "youtube": "None", "website": "None", "summary": "None", "logo": "None", "latitude": 48.64905999213832, "longitude": -72.45539306139032}, "880195920RR0001": {"name": "FONDATION HENRIETTE-C\u00c9R\u00c9", "designationCode": "C", "categoryCode": "19", "address": "6435, CHEMIN CHAMBLY", "city": "ST-HUBERT", "province": "QC", "country": "CA", "postalCode": "J3Y3R6", "twitter": "None", "instagram": "None", "facebook": "None", "youtube": "None", "website": "None", "summary": "None", "logo": "None", "latitude": 45.49707362859976, "longitude": -73.4036414375899}, "120817671RR0001": {"name": "FONDATION HERITAGE COTE-DU-SUD", "designationCode": "C", "categoryCode": "53", "address": "100 4E AVENUE PAINCHAUD", "city": "LA POCATIERE", "province": "QC", "country": "CA", "postalCode": "G0R1Z0", "twitter": "None", "instagram": "None", "facebook": "None", "youtube": "None", "website": "None", "summary": "None", "logo": "None", "latitude": 47.36699289757065, "longitude": -70.03980789130864}, "126150432RR0001": {"name": "FONDATION HERITAGE FAUNE / WILDLIFE HERITAGE FOUNDATION", "designationCode": "C", "categoryCode": "52", "address": "162 RUE DU BROME", "city": "ST-AUGUSTIN-DE-DESMAURES", "province": "QC", "country": "CA", "postalCode": "G3A2P5", "twitter": "None", "instagram": "None", "facebook": "None", "youtube": "None", "website": "None", "summary": "None", "logo": "None", "latitude": 46.738712067950026, "longitude": -71.47295846981889}, "118923218RR0001": {"name": "FONDATION HERITAGE MONTREAL-HERITAGE MONTREAL FOUNDATION", "designationCode": "C", "categoryCode": "53", "address": "100 RUE SHERBROOKE EST        BUREAU 500", "city": "MONTR\u00c9AL", "province": "QC", "country": "CA", "postalCode": "H2X1C3", "twitter": "None", "instagram": "None", "facebook": "None", "youtube": "None", "website": "None", "summary": "None", "logo": "None", "latitude": 45.51344435330954, "longitude": -73.56899682483144}, "836357079RR0001": {"name": "FONDATION HERITAGE REGIONAL/HERITAGE REGIONAL FOUNDATION", "designationCode": "C", "categoryCode": "21", "address": "7445 CHEMIN CHAMBLY", "city": "SAINT-HUBERT", "province": "QC", "country": "CA", "postalCode": "J3Y3S3", "twitter": "None", "instagram": "None", "facebook": "None", "youtube": "None", "website": "None", "summary": "None", "logo": "None", "latitude": 45.49111003600948, "longitude": -73.39079382993775}, "118923226RR0001": {"name": "FONDATION HERMAS INC.", "designationCode": "A", "categoryCode": "21", "address": "1111 SIMONDS SUD", "city": "GRANBY", "province": "QC", "country": "CA", "postalCode": "J2G9H7", "twitter": "None", "instagram": "None", "facebook": "None", "youtube": "None", "website": "None", "summary": "None", "logo": "None", "latitude": 45.3773785984902, "longitude": -72.74704560226468}, "826237729RR0001": {"name": "FONDATION HISTOIRE QU\u00c9BEC", "designationCode": "A", "categoryCode": "23", "address": "4545, AV. PIERRE-DE-COUBERTIN C.P. 1000, SUCCURSALE M", "city": "MONTREAL", "province": "QC", "country": "CA", "postalCode": "H1V3R2", "twitter": "None", "instagram": "None", "facebook": "None", "youtube": "None", "website": "None", "summary": "None", "logo": "None", "latitude": 45.555920590080106, "longitude": -73.55036240097485}, "101835247RR0001": {"name": "FONDATION HONOR\u00c9-MERCIER", "designationCode": "C", "categoryCode": "11", "address": "2750 BOULEVARD LAFRAMBOISE", "city": "SAINT-HYACINTHE", "province": "QC", "country": "CA", "postalCode": "J2S4Y8", "twitter": "None", "instagram": "None", "facebook": "None", "youtube": "None", "website": "None", "summary": "None", "logo": "None", "latitude": 45.63338904413986, "longitude": -72.95939349847782}, "891275141RR0001": {"name": "FONDATION HOPITAL DR-GEORGES-L. DUMONT INC./DR. GEORGES-L.-DUMONT HOSPITAL FOUNDATION INC.", "designationCode": "A", "categoryCode": "13", "address": "330 AVE UNIVERSITE", "city": "MONCTON", "province": "NB", "country": "CA", "postalCode": "E1C2Z3", "twitter": "None", "instagram": "None", "facebook": "None", "youtube": "None", "website": "None", "summary": "None", "logo": "None", "latitude": 46.09814915624109, "longitude": -64.7860743733908}, "889280574RR0001": {"name": "FONDATION HOPITAL L'ENFANT-JESUS INC", "designationCode": "A", "categoryCode": "13", "address": "C.P. 5752", "city": "CARAQUET", "province": "NB", "country": "CA", "postalCode": "E1W1B7", "twitter": "None", "instagram": "None", "facebook": "None", "youtube": "None", "website": "None", "summary": "None", "logo": "None", "latitude": 47.791365000000056, "longitude": -64.95053299999994}, "890746175RR0001": {"name": "FONDATION HOREB (1993)", "designationCode": "A", "categoryCode": "03", "address": "122 RUE ST-JACQUES", "city": "ST JACQUES", "province": "QC", "country": "CA", "postalCode": "J0K2R0", "twitter": "None", "instagram": "None", "facebook": "None", "youtube": "None", "website": "None", "summary": "None", "logo": "None", "latitude": 45.94917886655283, "longitude": -73.57210309567827}, "885626200RR0001": {"name": "FONDATION HORMISDAS PILON INC.", "designationCode": "B", "categoryCode": "03", "address": "3223 BOUL.DE LA GARE APP.216", "city": "VAUDREUIL-DORION", "province": "QC", "country": "CA", "postalCode": "J7V0L5", "twitter": "None", "instagram": "None", "facebook": "None", "youtube": "None", "website": "None", "summary": "None", "logo": "None", "latitude": 45.40451589058844, "longitude": -74.04461832286955}, "101836054RR0001": {"name": "FONDATION HOSPITALI\u00c8RE D'AMOS INC.", "designationCode": "A", "categoryCode": "13", "address": "C.P. 865", "city": "AMOS", "province": "QC", "country": "CA", "postalCode": "J9T3X4", "twitter": "None", "instagram": "None", "facebook": "None", "youtube": "None", "website": "None", "summary": "None", "logo": "None", "latitude": 48.56376300000005, "longitude": -78.10649449999994}, "125216408RR0001": {"name": "FONDATION HOSPITALIERE DE ROUYN-NORANDA INC.", "designationCode": "A", "categoryCode": "13", "address": "4 9E RUE", "city": "ROUYN-NORANDA", "province": "QC", "country": "CA", "postalCode": "J9X2B2", "twitter": "None", "instagram": "None", "facebook": "None", "youtube": "None", "website": "None", "summary": "None", "logo": "None", "latitude": 48.24390969995396, "longitude": -79.02002186225458}, "118923309RR0001": {"name": "FONDATION HOTEL DIEU D'ARTHABASKA", "designationCode": "C", "categoryCode": "11", "address": "5, RUE DES HOSPITALIERES", "city": "VICTORIAVILLE", "province": "QC", "country": "CA", "postalCode": "G6P6N2", "twitter": "None", "instagram": "None", "facebook": "None", "youtube": "None", "website": "None", "summary": "None", "logo": "None", "latitude": 46.040901004154954, "longitude": -71.91637223201005}, "118923333RR0001": {"name": "FONDATION HOTEL-DIEU DE SOREL", "designationCode": "A", "categoryCode": "13", "address": "400 AVENUE HOTEL-DIEU", "city": "SOREL-TRACY", "province": "QC", "country": "CA", "postalCode": "J3P1N5", "twitter": "None", "instagram": "None", "facebook": "None", "youtube": "None", "website": "None", "summary": "None", "logo": "None", "latitude": 46.046096206117745, "longitude": -73.09702709497122}, "857021588RR0001": {"name": "FONDATION HTAPQ (HYPERTENSION ARTERIELLE PULMONAIRE - QUEBEC)", "designationCode": "C", "categoryCode": "11", "address": "1840 AV PAINCHAUD", "city": "PLESSISVILLE", "province": "QC", "country": "CA", "postalCode": "G6L2Z3", "twitter": "None", "instagram": "None", "facebook": "None", "youtube": "None", "website": "None", "summary": "None", "logo": "None", "latitude": 46.216104431877106, "longitude": -71.78536337619036}, "828593160RR0001": {"name": "FONDATION HULL-VOLANT DE L'OUTAOUAIS", "designationCode": "A", "categoryCode": "03", "address": "3 - 115 BOUL SACRE-COEUR", "city": "GATINEAU", "province": "QC", "country": "CA", "postalCode": "J8X1C5", "twitter": "None", "instagram": "None", "facebook": "None", "youtube": "None", "website": "None", "summary": "None", "logo": "None", "latitude": 45.43728742829908, "longitude": -75.71438591341101}, "848706743RR0001": {"name": "FONDATION HUMANISTE DU QUEBEC / HUMANIST FOUNDATION OF QUEBEC", "designationCode": "A", "categoryCode": "03", "address": "101-1225, BOUL.ST-JOSEPH EST", "city": "MONTR\u00c9AL", "province": "QC", "country": "CA", "postalCode": "H2J1L7", "twitter": "None", "instagram": "None", "facebook": "None", "youtube": "None", "website": "None", "summary": "None", "logo": "None", "latitude": 45.53132509947534, "longitude": -73.58327109424187}, "128626413RR0001": {"name": "FONDATION H\u00d4PITAL DE BAIE-SAINT-PAUL", "designationCode": "A", "categoryCode": "13", "address": "74 RUE AMBROISE-FAFARD", "city": "BAIE-SAINT-PAUL", "province": "QC", "country": "CA", "postalCode": "G3Z2J6", "twitter": "None", "instagram": "None", "facebook": "None", "youtube": "None", "website": "None", "summary": "None", "logo": "None", "latitude": 47.436347985077475, "longitude": -70.50811700497418}, "885435594RR0001": {"name": "FONDATION H\u00d4PITAL STE-MONIQUE", "designationCode": "C", "categoryCode": "19", "address": "4805 BOUL HAMEL", "city": "LES SAULES  QUEBEC", "province": "QC", "country": "CA", "postalCode": "G1P2J7", "twitter": "None", "instagram": "None", "facebook": "None", "youtube": "None", "website": "None", "summary": "None", "logo": "None", "latitude": 46.804497000000055, "longitude": -71.32714999999993}, "838800340RR0001": {"name": "FONDATION H\u00d4PITAL V\u00c9T\u00c9RINAIRE VICTORIA", "designationCode": "B", "categoryCode": "54", "address": "309 RUE SAINT - DENIS", "city": "SAINT-LAMBERT", "province": "QC", "country": "CA", "postalCode": "J4P2G5", "twitter": "None", "instagram": "None", "facebook": "None", "youtube": "None", "website": "None", "summary": "None", "logo": "None", "latitude": 45.49918948514059, "longitude": -73.50810286372554}, "118923317RR0001": {"name": "FONDATION H\u00d4TEL-DIEU DE L\u00c9VIS", "designationCode": "A", "categoryCode": "13", "address": "143, RUE WOLFE", "city": "LEVIS", "province": "QC", "country": "CA", "postalCode": "G6V3Z1", "twitter": "None", "instagram": "None", "facebook": "None", "youtube": "None", "website": "None", "summary": "None", "logo": "None", "latitude": 46.81493886526912, "longitude": -71.17965646801493}, "868003070RR0001": {"name": "FONDATION I E S I", "designationCode": "A", "categoryCode": "03", "address": "737, AVENUE GAMACHE", "city": "SEPT-ILES", "province": "QC", "country": "CA", "postalCode": "G4R2J8", "twitter": "None", "instagram": "None", "facebook": "None", "youtube": "None", "website": "None", "summary": "None", "logo": "None", "latitude": 50.21791126946184, "longitude": -66.38932822268963}, "894242213RR0001": {"name": "FONDATION I MUSICI DE MONTREAL", "designationCode": "A", "categoryCode": "03", "address": "201 - 3575 BOUL SAINT-LAURENT", "city": "MONTREAL", "province": "QC", "country": "CA", "postalCode": "H2X2T7", "twitter": "None", "instagram": "None", "facebook": "None", "youtube": "None", "website": "None", "summary": "None", "logo": "None", "latitude": 45.51380326146907, "longitude": -73.57226889964811}, "889704516RR0001": {"name": "FONDATION IMMOBILIERE DE MONTREAL POUR LES JEUNES/THE MONTREAL REAL ESTATE FOUNDATION FOR KIDS", "designationCode": "C", "categoryCode": "56", "address": "500 RUE SHERBROOKE OUEST      BUREAU 900", "city": "MONTREAL", "province": "QC", "country": "CA", "postalCode": "H3A3C6", "twitter": "None", "instagram": "None", "facebook": "None", "youtube": "None", "website": "None", "summary": "None", "logo": "None", "latitude": 45.50626470133894, "longitude": -73.57252223431867}, "868959362RR0001": {"name": "FONDATION INISKI ET INISURF \u00c0 L'\u00c9COLE", "designationCode": "C", "categoryCode": "21", "address": "1347 RUE NATIONALE", "city": "TERREBONNE", "province": "QC", "country": "CA", "postalCode": "J6W6H8", "twitter": "None", "instagram": "None", "facebook": "None", "youtube": "None", "website": "None", "summary": "None", "logo": "None", "latitude": 45.712931836516894, "longitude": -73.61725926045946}, "101835155RR0001": {"name": "FONDATION INSTITUT DE G\u00c9RIATRIE DE MONTR\u00c9AL", "designationCode": "A", "categoryCode": "13", "address": "4565 CH QUEEN MARY", "city": "MONTREAL", "province": "QC", "country": "CA", "postalCode": "H3W1W5", "twitter": "None", "instagram": "None", "facebook": "None", "youtube": "None", "website": "None", "summary": "None", "logo": "None", "latitude": 45.49101302062861, "longitude": -73.6227385082709}, "855938502RR0001": {"name": "FONDATION INTELLIGENCE / INTELLIGENCE FOUNDATION", "designationCode": "C", "categoryCode": "21", "address": "350 RUE PRINCE-ARTHUR OUEST   BUREAU 2105", "city": "MONTREAL", "province": "QC", "country": "CA", "postalCode": "H2X3R4", "twitter": "None", "instagram": "None", "facebook": "None", "youtube": "None", "website": "None", "summary": "None", "logo": "None", "latitude": 45.51010198055296, "longitude": -73.57596842016301}, "866147002RR0001": {"name": "FONDATION INTER ECHO", "designationCode": "B", "categoryCode": "03", "address": "163 AVENUE BERKLEY", "city": "SAINT-LAMBERT", "province": "QC", "country": "CA", "postalCode": "J4P3C9", "twitter": "None", "instagram": "None", "facebook": "None", "youtube": "None", "website": "None", "summary": "None", "logo": "None", "latitude": 45.514225447111876, "longitude": -73.512980522217}, "873747828RR0001": {"name": "FONDATION INTERNATIONALE \"DES CULTURES \u00c0 PARTAGER\"", "designationCode": "C", "categoryCode": "50", "address": "535 AV. VIGER E.", "city": "MONTREAL", "province": "QC", "country": "CA", "postalCode": "H2L2P3", "twitter": "None", "instagram": "None", "facebook": "None", "youtube": "None", "website": "None", "summary": "None", "logo": "None", "latitude": 45.513075811847045, "longitude": -73.55449791179488}, "863309654RR0001": {"name": "FONDATION INTERNATIONALE DES CULTURES \u00c0 PARTAGER - SECTEUR MONT\u00c9R\u00c9GIE", "designationCode": "C", "categoryCode": "50", "address": "1390 E, RUE NEWTON", "city": "BOUCHERVILLE", "province": "QC", "country": "CA", "postalCode": "J4B5H2", "twitter": "None", "instagram": "None", "facebook": "None", "youtube": "None", "website": "None", "summary": "None", "logo": "None", "latitude": 45.56480251933148, "longitude": -73.42225272300767}, "118923374RR0001": {"name": "FONDATION INTERNATIONALE RONCALLI / RONCALLI INTERNATIONAL FOUNDATION", "designationCode": "A", "categoryCode": "09", "address": "9001 BOULEVARD DE L'ACADIE,   BUREAU 700", "city": "MONTR\u00c9AL", "province": "QC", "country": "CA", "postalCode": "H4N3H5", "twitter": "None", "instagram": "None", "facebook": "None", "youtube": "None", "website": "None", "summary": "None", "logo": "None", "latitude": 45.53265496924197, "longitude": -73.65431520035798}, "861612802RR0001": {"name": "FONDATION IQRA / IQRA FOUNDATION", "designationCode": "C", "categoryCode": "49", "address": "2385 CENTRE", "city": "MONTREAL", "province": "QC", "country": "CA", "postalCode": "H3K1J6", "twitter": "None", "instagram": "None", "facebook": "None", "youtube": "None", "website": "None", "summary": "None", "logo": "None", "latitude": 45.47998529560265, "longitude": -73.56694536499495}, "879084317RR0001": {"name": "FONDATION ISABELLE PELADEAU", "designationCode": "A", "categoryCode": "03", "address": "366 OUTREMONT", "city": "OUTREMONT", "province": "QC", "country": "CA", "postalCode": "H2V3M2", "twitter": "None", "instagram": "None", "facebook": "None", "youtube": "None", "website": "None", "summary": "None", "logo": "None", "latitude": 45.51751078238801, "longitude": -73.60565219138427}, "886483999RR0001": {"name": "FONDATION ITALIENNE ST-JOSEPH", "designationCode": "C", "categoryCode": "29", "address": "5555, RUE ANTONIO-DAGENAIS", "city": "SAINT-L\u00c9ONARD", "province": "QC", "country": "CA", "postalCode": "H1S3C5", "twitter": "None", "instagram": "None", "facebook": "None", "youtube": "None", "website": "None", "summary": "None", "logo": "None", "latitude": 45.58310660395857, "longitude": -73.5841107124761}, "887697464RR0001": {"name": "FONDATION J A LOUIS LAGASSE", "designationCode": "B", "categoryCode": "05", "address": "455 RUE KING OUEST            BUREAU 610", "city": "SHERBROOKE", "province": "QC", "country": "CA", "postalCode": "J1H6E9", "twitter": "None", "instagram": "None", "facebook": "None", "youtube": "None", "website": "None", "summary": "None", "logo": "None", "latitude": 45.3988521492616, "longitude": -71.89677538401061}, "890729825RR0001": {"name": "FONDATION J M BELAND", "designationCode": "B", "categoryCode": "09", "address": "60, DE LA FABRIQUE", "city": "BOISCHATEL", "province": "QC", "country": "CA", "postalCode": "G0A1H0", "twitter": "None", "instagram": "None", "facebook": "None", "youtube": "None", "website": "None", "summary": "None", "logo": "None", "latitude": 46.89339514902773, "longitude": -71.13741371438067}, "119022929RR0001": {"name": "FONDATION J. A. DES\u00c8VE", "designationCode": "B", "categoryCode": "09", "address": "475-1981 AV MCGILL COLLEGE", "city": "MONTREAL", "province": "QC", "country": "CA", "postalCode": "H3A2Y1", "twitter": "None", "instagram": "None", "facebook": "None", "youtube": "None", "website": "None", "summary": "None", "logo": "None", "latitude": 45.50305997394517, "longitude": -73.57323951800474}, "118923440RR0001": {"name": "FONDATION J. ARMAND BOMBARDIER- J. ARMAND BOMBARDIER FOUNDATION", "designationCode": "B", "categoryCode": "03", "address": "1000 AV J.A. BOMBARDIER", "city": "VALCOURT", "province": "QC", "country": "CA", "postalCode": "J0E2L0", "twitter": "None", "instagram": "None", "facebook": "None", "youtube": "None", "website": "None", "summary": "None", "logo": "None", "latitude": 45.49444287982572, "longitude": -72.31071255848535}, "118923457RR0001": {"name": "FONDATION J. ARTHUR VINCENT", "designationCode": "C", "categoryCode": "21", "address": "600 RUE DE LA GAUCHETIERE O   BUREAU 1762", "city": "MONTREAL", "province": "QC", "country": "CA", "postalCode": "H3B4L2", "twitter": "None", "instagram": "None", "facebook": "None", "youtube": "None", "website": "None", "summary": "None", "logo": "None", "latitude": 45.50188920231989, "longitude": -73.56436485827253}, "892956459RR0001": {"name": "FONDATION J. DANIEL LACHANCE", "designationCode": "B", "categoryCode": "09", "address": "JORDAN LEBEL                  100-1192 RUE BEAUDRY", "city": "MONTREAL", "province": "QC", "country": "CA", "postalCode": "H2L3E4", "twitter": "None", "instagram": "None", "facebook": "None", "youtube": "None", "website": "None", "summary": "None", "logo": "None", "latitude": 45.51795680070987, "longitude": -73.55408306662234}, "882150105RR0001": {"name": "FONDATION J. MARCEL LEFEBVRE", "designationCode": "A", "categoryCode": "03", "address": "165, RUE MARCHAND             C. P. 801", "city": "DRUMMONDVILLE", "province": "QC", "country": "CA", "postalCode": "J2B6X1", "twitter": "None", "instagram": "None", "facebook": "None", "youtube": "None", "website": "None", "summary": "None", "logo": "None", "latitude": 45.88306043715722, "longitude": -72.48934062063564}, "118923671RR0001": {"name": "FONDATION J. RENE OUIMET", "designationCode": "B", "categoryCode": "03", "address": "1071 RUE DE LA CATHEDRALE", "city": "MONTREAL", "province": "QC", "country": "CA", "postalCode": "H3B2V4", "twitter": "None", "instagram": "None", "facebook": "None", "youtube": "None", "website": "None", "summary": "None", "logo": "None", "latitude": 45.49842495504641, "longitude": -73.56775853690353}, "889404596RR0001": {"name": "FONDATION J.-M. LACASSE-MERCI MON DIEU", "designationCode": "B", "categoryCode": "03", "address": "700 RUE RICHELIEU             APT # 104", "city": "BELOEIL", "province": "QC", "country": "CA", "postalCode": "J3G5E8", "twitter": "None", "instagram": "None", "facebook": "None", "youtube": "None", "website": "None", "summary": "None", "logo": "None", "latitude": 45.56290983876724, "longitude": -73.20354960649738}, "882217102RR0001": {"name": "FONDATION J.ARTHUR DESJARDINS", "designationCode": "B", "categoryCode": "05", "address": "600 LA GAUCHETIERE O          28E SUITE 1762", "city": "MONTREAL", "province": "QC", "country": "CA", "postalCode": "H3B4L2", "twitter": "None", "instagram": "None", "facebook": "None", "youtube": "None", "website": "None", "summary": "None", "logo": "None", "latitude": 45.50188920231989, "longitude": -73.56436485827253}, "141013789RR0001": {"name": "FONDATION J.F. PERRAULT POUR LE DEVELOPPEMENT DE LA MUSIQUE SYMPHONIQUE ET DE L'ART VOCAL INC.", "designationCode": "C", "categoryCode": "21", "address": "7450, RUE FRANCOIS PERRAULT", "city": "MONTREAL", "province": "QC", "country": "CA", "postalCode": "H2A1L9", "twitter": "None", "instagram": "None", "facebook": "None", "youtube": "None", "website": "None", "summary": "None", "logo": "None", "latitude": 45.5637166483066, "longitude": -73.59988387789247}, "118923622RR0001": {"name": "FONDATION J.M. LAPLANTE INC.", "designationCode": "B", "categoryCode": "59", "address": "1236 CHEMIN UPTON", "city": "ST-VAL\u00c9RIEN", "province": "QC", "country": "CA", "postalCode": "J0H2B0", "twitter": "None", "instagram": "None", "facebook": "None", "youtube": "None", "website": "None", "summary": "None", "logo": "None", "latitude": 45.574726976340585, "longitude": -72.71267186152119}, "140862327RR0001": {"name": "FONDATION J-HUBERT BIERMANS POUR L'HOPITAL NOTRE-DAME", "designationCode": "B", "categoryCode": "15", "address": "600 GAUCHETIERE O             28E, SUITE 1762", "city": "MONTREAL", "province": "QC", "country": "CA", "postalCode": "H3B4L2", "twitter": "None", "instagram": "None", "facebook": "None", "youtube": "None", "website": "None", "summary": "None", "logo": "None", "latitude": 45.50188920231989, "longitude": -73.56436485827253}, "140890963RR0001": {"name": "FONDATION J-HUBERT BIERMANS POUR L'UNIVERSITE DE MONTREAL", "designationCode": "B", "categoryCode": "25", "address": "600 RUE DE LA GAUCHETIERE O   BUREAU 1762", "city": "MONTREAL", "province": "QC", "country": "CA", "postalCode": "H3B4L2", "twitter": "None", "instagram": "None", "facebook": "None", "youtube": "None", "website": "None", "summary": "None", "logo": "None", "latitude": 45.50188920231989, "longitude": -73.56436485827253}, "118923614RR0001": {"name": "FONDATION J-LOUIS LEVESQUE", "designationCode": "B", "categoryCode": "25", "address": "2340-2000 AV MCGILL COLLEGE", "city": "MONTREAL", "province": "QC", "country": "CA", "postalCode": "H3A3H3", "twitter": "None", "instagram": "None", "facebook": "None", "youtube": "None", "website": "None", "summary": "None", "logo": "None", "latitude": 45.502789414749586, "longitude": -73.5731644067988}, "892058041RR0001": {"name": "FONDATION J-RODOLPHE-LA HAYE INC", "designationCode": "B", "categoryCode": "03", "address": "46 PLACE MASSEY", "city": "SAINT-BRUNO", "province": "QC", "country": "CA", "postalCode": "J3V1A1", "twitter": "None", "instagram": "None", "facebook": "None", "youtube": "None", "website": "None", "summary": "None", "logo": "None", "latitude": 45.53930642463507, "longitude": -73.35992225203401}, "898682240RR0001": {"name": "FONDATION JACK SWIFT INC./JACK SWIFT FOUNDATION INC.", "designationCode": "C", "categoryCode": "21", "address": "40 RUE BOUCHER                CP 970", "city": "TEMISCAMING", "province": "QC", "country": "CA", "postalCode": "J0Z3R0", "twitter": "None", "instagram": "None", "facebook": "None", "youtube": "None", "website": "None", "summary": "None", "logo": "None", "latitude": 46.72080322675858, "longitude": -79.10060533596861}, "867942708RR0001": {"name": "FONDATION JACQUELINE SABOURIN", "designationCode": "B", "categoryCode": "03", "address": "7430, RUE DE LA ROCHE", "city": "MONTREAL", "province": "QC", "country": "CA", "postalCode": "H2R2T5", "twitter": "None", "instagram": "None", "facebook": "None", "youtube": "None", "website": "None", "summary": "None", "logo": "None", "latitude": 45.54500182234997, "longitude": -73.61528393562801}, "867169468RR0001": {"name": "FONDATION JACQUES & MICHEL AUGER", "designationCode": "B", "categoryCode": "05", "address": "117 RUE NOTRE-DAME EST        YVON PELLERIN", "city": "VICTORIAVILLE", "province": "QC", "country": "CA", "postalCode": "G6P3Z9", "twitter": "None", "instagram": "None", "facebook": "None", "youtube": "None", "website": "None", "summary": "None", "logo": "None", "latitude": 46.0565383011139, "longitude": -71.956280746581}, "891808081RR0001": {"name": "FONDATION JACQUES FOREST (COLS BLEUS DE LA VILLE DE MONTR\u00c9AL ET DE LA C.U.M.)", "designationCode": "C", "categoryCode": "09", "address": "8455 AVENUE PAPINEAU", "city": "MONTREAL", "province": "QC", "country": "CA", "postalCode": "H2M2G2", "twitter": "None", "instagram": "None", "facebook": "None", "youtube": "None", "website": "None", "summary": "None", "logo": "None", "latitude": 45.55634431253952, "longitude": -73.62564895793192}, "855236162RR0001": {"name": "FONDATION JAIDE (JEUNES ADULTES ITIN\u00c9RANTS, D\u00c9MUNIS ET EXCLUS)", "designationCode": "A", "categoryCode": "03", "address": "1818, RUE GILFORD", "city": "MONTR\u00c9AL", "province": "QC", "country": "CA", "postalCode": "H2H1G5", "twitter": "None", "instagram": "None", "facebook": "None", "youtube": "None", "website": "None", "summary": "None", "logo": "None", "latitude": 45.534839364966295, "longitude": -73.57765817081206}, "118923432RR0001": {"name": "FONDATION JAMES E. CONNERS INC.", "designationCode": "C", "categoryCode": "21", "address": "47 CHEMIN RENAUD", "city": "MAGOG", "province": "QC", "country": "CA", "postalCode": "J1X0V5", "twitter": "None", "instagram": "None", "facebook": "None", "youtube": "None", "website": "None", "summary": "None", "logo": "None", "latitude": 45.30410147100234, "longitude": -72.16257079808413}, "856347133RR0001": {"name": "FONDATION JARDINS \u00c9DEN", "designationCode": "C", "categoryCode": "09", "address": "79 RUE DE TROYES", "city": "GATINEAU", "province": "QC", "country": "CA", "postalCode": "J8T6E3", "twitter": "None", "instagram": "None", "facebook": "None", "youtube": "None", "website": "None", "summary": "None", "logo": "None", "latitude": 45.48582149956731, "longitude": -75.69902824701369}, "140951674RR0001": {"name": "FONDATION JEAN DE LA MENNAIS", "designationCode": "C", "categoryCode": "09", "address": "870 CH DE SAINT-JEAN", "city": "LA PRAIRIE", "province": "QC", "country": "CA", "postalCode": "J5R2L5", "twitter": "None", "instagram": "None", "facebook": "None", "youtube": "None", "website": "None", "summary": "None", "logo": "None", "latitude": 45.4136204272915, "longitude": -73.48291245716955}, "871124707RR0001": {"name": "FONDATION JEAN DUPERE", "designationCode": "B", "categoryCode": "23", "address": "5 PLACE ONTARIO", "city": "MONTREAL", "province": "QC", "country": "CA", "postalCode": "H3G1E9", "twitter": "None", "instagram": "None", "facebook": "None", "youtube": "None", "website": "None", "summary": "None", "logo": "None", "latitude": 45.49959151846608, "longitude": -73.5803140073576}, "891725442RR0001": {"name": "FONDATION JEAN LAPOINTE", "designationCode": "C", "categoryCode": "09", "address": "123 RUE SAINT-PIERRE", "city": "MONTREAL", "province": "QC", "country": "CA", "postalCode": "H2Y2L6", "twitter": "None", "instagram": "None", "facebook": "None", "youtube": "None", "website": "None", "summary": "None", "logo": "None", "latitude": 45.50043650181768, "longitude": -73.55426308422305}, "880125273RR0002": {"name": "FONDATION JEAN P. DALLAIRE", "designationCode": "A", "categoryCode": "23", "address": "3, RUE CAMILLE-GAY", "city": "GATINEAU", "province": "QC", "country": "CA", "postalCode": "J8Y2K4", "twitter": "None", "instagram": "None", "facebook": "None", "youtube": "None", "website": "None", "summary": "None", "logo": "None", "latitude": 45.43806947013696, "longitude": -75.74511133236193}, "136726734RR0001": {"name": "FONDATION JEAN PAILLE", "designationCode": "B", "categoryCode": "03", "address": "125, CHEMIN DES PETITES-FORGES", "city": "HEROUXVILLE", "province": "QC", "country": "CA", "postalCode": "G0X1J0", "twitter": "None", "instagram": "None", "facebook": "None", "youtube": "None", "website": "None", "summary": "None", "logo": "None", "latitude": 46.71289916758076, "longitude": -72.66195786851564}, "887905156RR0001": {"name": "FONDATION JEAN-ALLARD", "designationCode": "C", "categoryCode": "09", "address": "415 RUE RACINE E", "city": "CHICOUTIMI", "province": "QC", "country": "CA", "postalCode": "G7H1S8", "twitter": "None", "instagram": "None", "facebook": "None", "youtube": "None", "website": "None", "summary": "None", "logo": "None", "latitude": 48.42830976438328, "longitude": -71.05537320526274}, "118923481RR0001": {"name": "FONDATION JEAN-CHARLES BONENFANT", "designationCode": "C", "categoryCode": "21", "address": "1035, RUE DES PARLEMENTAIRES  BUREAU 2.24", "city": "QUEBEC", "province": "QC", "country": "CA", "postalCode": "G1A1A3", "twitter": "None", "instagram": "None", "facebook": "None", "youtube": "None", "website": "None", "summary": "None", "logo": "None", "latitude": 46.80870521358834, "longitude": -71.2151940485489}, "856586482RR0001": {"name": "FONDATION JEAN-CLAUDE BERGERON", "designationCode": "C", "categoryCode": "22", "address": "150 ST. PATRICK ST", "city": "OTTAWA", "province": "ON", "country": "CA", "postalCode": "K1N5J8", "twitter": "None", "instagram": "None", "facebook": "None", "youtube": "None", "website": "None", "summary": "None", "logo": "None", "latitude": 45.42964369856899, "longitude": -75.69562061114326}, "868838269RR0001": {"name": "FONDATION JEAN-CLAUDE BRANCHAUD", "designationCode": "A", "categoryCode": "03", "address": "52, ROUTE 105", "city": "MANIWAKI", "province": "QC", "country": "CA", "postalCode": "J9E3A9", "twitter": "None", "instagram": "None", "facebook": "None", "youtube": "None", "website": "None", "summary": "None", "logo": "None", "latitude": 46.379400196318535, "longitude": -75.9828029764839}, "888564267RR0001": {"name": "FONDATION JEAN-DOLBEAU", "designationCode": "C", "categoryCode": "21", "address": "300 AV JEAN-DOLBEAU", "city": "DOLBEAU", "province": "QC", "country": "CA", "postalCode": "G8L2T7", "twitter": "None", "instagram": "None", "facebook": "None", "youtube": "None", "website": "None", "summary": "None", "logo": "None", "latitude": 48.870506093671516, "longitude": -72.22528151054746}, "891285199RR0001": {"name": "FONDATION JEAN-FRANCOIS AUBE", "designationCode": "B", "categoryCode": "21", "address": "15 SUD RUE BALSAM", "city": "TIMMINS", "province": "ON", "country": "CA", "postalCode": "P4N2C7", "twitter": "None", "instagram": "None", "facebook": "None", "youtube": "None", "website": "None", "summary": "None", "logo": "None", "latitude": 48.47570290220344, "longitude": -81.33082079338968}, "866544729RR0001": {"name": "FONDATION JEAN-LOUIS TASSE", "designationCode": "B", "categoryCode": "03", "address": "2752 RUE DE VIGNY", "city": "MASCOUCHE", "province": "QC", "country": "CA", "postalCode": "J7K1W6", "twitter": "None", "instagram": "None", "facebook": "None", "youtube": "None", "website": "None", "summary": "None", "logo": "None", "latitude": 45.74818897556131, "longitude": -73.61110880278734}, "868881103RR0001": {"name": "FONDATION JEAN-MARC BOUCHER", "designationCode": "C", "categoryCode": "19", "address": "1048 AV SEIGNEUR-LUSSIER", "city": "LAVAL", "province": "QC", "country": "CA", "postalCode": "H7C2H3", "twitter": "None", "instagram": "None", "facebook": "None", "youtube": "None", "website": "None", "summary": "None", "logo": "None", "latitude": 45.60989286926548, "longitude": -73.65259434168142}, "891547242RR0001": {"name": "FONDATION JEAN-MARC LEBEAU", "designationCode": "A", "categoryCode": "43", "address": "3115 MONSABRE", "city": "MONTREAL", "province": "QC", "country": "CA", "postalCode": "H1N2L3", "twitter": "None", "instagram": "None", "facebook": "None", "youtube": "None", "website": "None", "summary": "None", "logo": "None", "latitude": 45.573139727739544, "longitude": -73.54546391811421}, "888975190RR0001": {"name": "FONDATION JEAN-MARIE BROCHU", "designationCode": "A", "categoryCode": "03", "address": "1411 BOUL. P\u00c8RE-LELI\u00c8VRE", "city": "QU\u00c9BEC", "province": "QC", "country": "CA", "postalCode": "G1M1N7", "twitter": "None", "instagram": "None", "facebook": "None", "youtube": "None", "website": "None", "summary": "None", "logo": "None", "latitude": 46.811550583674816, "longitude": -71.27760965777031}, "860338847RR0001": {"name": "FONDATION JEAN-PAUL FORTIN INC.", "designationCode": "C", "categoryCode": "22", "address": "47 RUE LEBLOND", "city": "EDMUNDSTON", "province": "NB", "country": "CA", "postalCode": "E3V4K9", "twitter": "None", "instagram": "None", "facebook": "None", "youtube": "None", "website": "None", "summary": "None", "logo": "None", "latitude": 47.38469477381834, "longitude": -68.3505627344333}, "891577991RR0001": {"name": "FONDATION JEAN-PAUL GOHIER INC", "designationCode": "C", "categoryCode": "09", "address": "377 PLACE BANTING", "city": "ST-BRUNO", "province": "QC", "country": "CA", "postalCode": "J3V5X1", "twitter": "None", "instagram": "None", "facebook": "None", "youtube": "None", "website": "None", "summary": "None", "logo": "None", "latitude": 45.52061846185573, "longitude": -73.35135235830118}, "141672881RR0001": {"name": "FONDATION JEAN-PAUL MOUSSEAU", "designationCode": "C", "categoryCode": "21", "address": "2065, RUE PARTHENAIS          BUREAU 014", "city": "MONTREAL", "province": "QC", "country": "CA", "postalCode": "H2K3T1", "twitter": "None", "instagram": "None", "facebook": "None", "youtube": "None", "website": "None", "summary": "None", "logo": "None", "latitude": 45.52993011936625, "longitude": -73.55707809420639}, "118923572RR0001": {"name": "FONDATION JEAN-PIERRE PERREAULT FOUNDATION", "designationCode": "C", "categoryCode": "22", "address": "2022 RUE SHERBROOKE EST", "city": "MONTR\u00c9AL", "province": "QC", "country": "CA", "postalCode": "H2K1B9", "twitter": "None", "instagram": "None", "facebook": "None", "youtube": "None", "website": "None", "summary": "None", "logo": "None", "latitude": 45.53036469885744, "longitude": -73.56310573754998}, "128938107RR0001": {"name": "FONDATION JEANNE SAUVE FOUNDATION", "designationCode": "C", "categoryCode": "29", "address": "1514 AV DU DOCTEUR-PENFIELD", "city": "MONTREAL", "province": "QC", "country": "CA", "postalCode": "H3G1B9", "twitter": "None", "instagram": "None", "facebook": "None", "youtube": "None", "website": "None", "summary": "None", "logo": "None", "latitude": 45.498310826533555, "longitude": -73.58501856852693}, "118923531RR0001": {"name": "FONDATION JEANNE-CREVIER INC.", "designationCode": "A", "categoryCode": "13", "address": "151 AVE DE MUY", "city": "BOUCHERVILLE", "province": "QC", "country": "CA", "postalCode": "J4B4W7", "twitter": "None", "instagram": "None", "facebook": "None", "youtube": "None", "website": "None", "summary": "None", "logo": "None", "latitude": 45.61349830613423, "longitude": -73.4519651289742}, "130533680RR0001": {"name": "FONDATION JEANNE-MANCE", "designationCode": "A", "categoryCode": "13", "address": "2901-1 PLACE VILLE-MARIE      C.P. 97", "city": "MONTREAL", "province": "QC", "country": "CA", "postalCode": "H3B0E9", "twitter": "None", "instagram": "None", "facebook": "None", "youtube": "None", "website": "None", "summary": "None", "logo": "None", "latitude": 45.50129006939237, "longitude": -73.56805004775217}, "130490840RR0001": {"name": "FONDATION JELLINEK", "designationCode": "C", "categoryCode": "57", "address": "25 RUE ST-FRANCOIS", "city": "GATINEAU", "province": "QC", "country": "CA", "postalCode": "J9A1B1", "twitter": "None", "instagram": "None", "facebook": "None", "youtube": "None", "website": "None", "summary": "None", "logo": "None", "latitude": 45.4223063089042, "longitude": -75.7478284789655}, "891349474RR0001": {"name": "FONDATION JEUNE-S 2003", "designationCode": "C", "categoryCode": "56", "address": "1156, DES PERDRIX", "city": "LONGUEUIL", "province": "QC", "country": "CA", "postalCode": "J4J5J8", "twitter": "None", "instagram": "None", "facebook": "None", "youtube": "None", "website": "None", "summary": "None", "logo": "None", "latitude": 45.54903302524675, "longitude": -73.47876364028518}, "899497044RR0001": {"name": "FONDATION JEUNES - PROJET", "designationCode": "C", "categoryCode": "21", "address": "150 RUE GRANT                 PORTE 316", "city": "LONGUEUIL", "province": "QC", "country": "CA", "postalCode": "J4H3H6", "twitter": "None", "instagram": "None", "facebook": "None", "youtube": "None", "website": "None", "summary": "None", "logo": "None", "latitude": 45.53932343989851, "longitude": -73.50840163878462}, "867514028RR0001": {"name": "FONDATION JEUNES ET SOCI\u00c9T\u00c9", "designationCode": "A", "categoryCode": "03", "address": "25 RUE JARRY OUEST", "city": "MONTREAL", "province": "QC", "country": "CA", "postalCode": "H2P1S6", "twitter": "None", "instagram": "None", "facebook": "None", "youtube": "None", "website": "None", "summary": "None", "logo": "None", "latitude": 45.53849931447277, "longitude": -73.63160199685467}, "809573876RR0001": {"name": "FONDATION JEUNESSE ACTION DE CHERTSEY", "designationCode": "C", "categoryCode": "09", "address": "333 AVENUE DE L'AMITIE", "city": "CHERTSEY", "province": "QC", "country": "CA", "postalCode": "J0K3K0", "twitter": "None", "instagram": "None", "facebook": "None", "youtube": "None", "website": "None", "summary": "None", "logo": "None"}, "890753379RR0001": {"name": "FONDATION JEUNESSE CHAUDIERE-APPALACHES", "designationCode": "C", "categoryCode": "09", "address": "100 MGR BOURGET, BUREAU 300", "city": "LEVIS", "province": "QC", "country": "CA", "postalCode": "G6V2Y9", "twitter": "None", "instagram": "None", "facebook": "None", "youtube": "None", "website": "None", "summary": "None", "logo": "None", "latitude": 46.81842019233657, "longitude": -71.15644292867444}, "868220369RR0001": {"name": "FONDATION JEUNESSE DE BORDEAUX-CARTIERVILLE", "designationCode": "A", "categoryCode": "03", "address": "10780 LAVERDURE", "city": "MONTR\u00c9AL", "province": "QC", "country": "CA", "postalCode": "H3L2L9", "twitter": "None", "instagram": "None", "facebook": "None", "youtube": "None", "website": "None", "summary": "None", "logo": "None", "latitude": 45.55253309351391, "longitude": -73.67173931738695}, "873409767RR0001": {"name": "FONDATION JEUNESSE DE L'\u00c9COLE SECONDAIRE D'OKA", "designationCode": "C", "categoryCode": "21", "address": "1700 CHEMIN OKA", "city": "OKA", "province": "QC", "country": "CA", "postalCode": "J0N1E0", "twitter": "None", "instagram": "None", "facebook": "None", "youtube": "None", "website": "None", "summary": "None", "logo": "None", "latitude": 45.48973635794875, "longitude": -74.03569869285066}, "846756724RR0001": {"name": "FONDATION JEUNESSE DE RICHELIEU", "designationCode": "C", "categoryCode": "21", "address": "304-13EME AVENUE", "city": "RICHELIEU", "province": "QC", "country": "CA", "postalCode": "J3L3T7", "twitter": "None", "instagram": "None", "facebook": "None", "youtube": "None", "website": "None", "summary": "None", "logo": "None", "latitude": 45.44024743493552, "longitude": -73.24783924548449}, "857145601RR0001": {"name": "FONDATION JEUNESSE JEAN MOREAU", "designationCode": "C", "categoryCode": "23", "address": "355 RUE DU CAP", "city": "SAINTE-SOPHIE", "province": "QC", "country": "CA", "postalCode": "J5J1T6", "twitter": "None", "instagram": "None", "facebook": "None", "youtube": "None", "website": "None", "summary": "None", "logo": "None", "latitude": 45.82622861200865, "longitude": -73.95261235807004}, "872107446RR0001": {"name": "FONDATION JEUNESSE LES COOP\u00c9RANTS DE LA MRC DE DEUX-MONTAGNES", "designationCode": "C", "categoryCode": "01", "address": "576 RUE DES ALYSSUMS", "city": "ST-EUSTACHE", "province": "QC", "country": "CA", "postalCode": "J7P5T8", "twitter": "None", "instagram": "None", "facebook": "None", "youtube": "None", "website": "None", "summary": "None", "logo": "None", "latitude": 45.57947416654155, "longitude": -73.89157572704706}, "866119340RR0001": {"name": "FONDATION JEUNESSE MEKINAC", "designationCode": "C", "categoryCode": "09", "address": "1480 GRAND RANG", "city": "ST-TITE", "province": "QC", "country": "CA", "postalCode": "G0X3H0", "twitter": "None", "instagram": "None", "facebook": "None", "youtube": "None", "website": "None", "summary": "None", "logo": "None", "latitude": 46.6964895875413, "longitude": -72.53944938599986}, "120785951RR0001": {"name": "FONDATION JEUNESSE ROLAND GAUVREAU DE LANAUDIERE", "designationCode": "A", "categoryCode": "03", "address": "638,BASE DE ROC", "city": "JOLIETTE", "province": "QC", "country": "CA", "postalCode": "J6E5P7", "twitter": "None", "instagram": "None", "facebook": "None", "youtube": "None", "website": "None", "summary": "None", "logo": "None", "latitude": 46.01544060923868, "longitude": -73.43239812972493}, "871906491RR0001": {"name": "FONDATION JEUNESSE SECONDAIRE DISRAELI", "designationCode": "C", "categoryCode": "21", "address": "950 ST-GERARD", "city": "DISRAELI", "province": "QC", "country": "CA", "postalCode": "G0N1E0", "twitter": "None", "instagram": "None", "facebook": "None", "youtube": "None", "website": "None", "summary": "None", "logo": "None", "latitude": 45.90825807553868, "longitude": -71.35416857576543}, "860071901RR0001": {"name": "FONDATION JEUNESSE SOLEIL / SUN YOUTH ORGANIZATION FOUNDATION", "designationCode": "A", "categoryCode": "03", "address": "4251 ST. URBAIN STREET", "city": "MONTREAL", "province": "QC", "country": "CA", "postalCode": "H2W1V6", "twitter": "None", "instagram": "None", "facebook": "None", "youtube": "None", "website": "None", "summary": "None", "logo": "None", "latitude": 45.51723215600997, "longitude": -73.58364008601207}, "882538382RR0001": {"name": "FONDATION JEUNESSE-IN'AFU", "designationCode": "A", "categoryCode": "43", "address": "10355 VERVILLE", "city": "MONTREAL", "province": "QC", "country": "CA", "postalCode": "H3L3E6", "twitter": "None", "instagram": "None", "facebook": "None", "youtube": "None", "website": "None", "summary": "None", "logo": "None", "latitude": 45.543498935339564, "longitude": -73.66880602608349}}