{"119020675RR0001": {"name": "LIONS CLUB OF ORANGEVILLE CHARITABLE TRUST", "designationCode": "C", "categoryCode": "65", "address": "75 FIRST STREET               SUITE 201", "city": "ORANGEVILLE", "province": "ON", "country": "CA", "postalCode": "L9W5B6", "twitter": "None", "instagram": "None", "facebook": "None", "youtube": "None", "website": "None", "summary": "None", "logo": "None", "latitude": 43.92694858618496, "longitude": -80.09931477791595}, "119020758RR0001": {"name": "LIONS CLUB OF VANCOUVER CHINATOWN, 1982", "designationCode": "A", "categoryCode": "63", "address": "830 CAMPBELL AVE", "city": "VANCOUVER", "province": "BC", "country": "CA", "postalCode": "V6A3V2", "twitter": "None", "instagram": "None", "facebook": "None", "youtube": "None", "website": "None", "summary": "None", "logo": "None", "latitude": 49.27693416180969, "longitude": -123.08488990337037}, "119020766RR0001": {"name": "LIONS CLUB OF WINNIPEG PLACE FOR SENIOR CITIZENS INC.", "designationCode": "C", "categoryCode": "09", "address": "320 SHERBROOK STREET", "city": "WINNIPEG", "province": "MB", "country": "CA", "postalCode": "R3B2W6", "twitter": "None", "instagram": "None", "facebook": "None", "youtube": "None", "website": "None", "summary": "None", "logo": "None", "latitude": 49.88892790674591, "longitude": -97.15910271319724}, "890310444RR0001": {"name": "LIONS CLUB SEAFORTH INC CHARITABLE TRUST", "designationCode": "C", "categoryCode": "65", "address": "BOX 292", "city": "SEAFORTH", "province": "ON", "country": "CA", "postalCode": "N0K1W0", "twitter": "None", "instagram": "None", "facebook": "None", "youtube": "None", "website": "None", "summary": "None", "logo": "None", "latitude": 43.55304000000007, "longitude": -81.39369999999997}, "890358849RR0001": {"name": "LIONS CLUBS CAMP KIRK FOUNDATION", "designationCode": "C", "categoryCode": "56", "address": "87 KING ST. E.                BOX 104", "city": "OMEMEE", "province": "ON", "country": "CA", "postalCode": "K0L2W0", "twitter": "None", "instagram": "None", "facebook": "None", "youtube": "None", "website": "None", "summary": "None", "logo": "None"}, "890753049RR0001": {"name": "LIONS CLUBS INTERNATIONAL DISTRICT 5CN SIGHT AND SERVICE FOUNDATION INC", "designationCode": "C", "categoryCode": "09", "address": "PO BOX 9 STN MAIN", "city": "PRINCE ALBERT", "province": "SK", "country": "CA", "postalCode": "S6V5R4", "twitter": "None", "instagram": "None", "facebook": "None", "youtube": "None", "website": "None", "summary": "None", "logo": "None", "latitude": 53.199456000000055, "longitude": -105.74863099999993}, "888700796RR0001": {"name": "LIONS DISTRICT A2 CHARITIES INC", "designationCode": "A", "categoryCode": "63", "address": "4162 PORTAGE RD", "city": "NIAGARA FALLS", "province": "ON", "country": "CA", "postalCode": "L2E6A4", "twitter": "None", "instagram": "None", "facebook": "None", "youtube": "None", "website": "None", "summary": "None", "logo": "None", "latitude": 43.112956326677775, "longitude": -79.0978776841136}, "119020790RR0001": {"name": "LIONS EYE BANK OF MANITOBA AND NORTHWEST ONTARIO INC.", "designationCode": "C", "categoryCode": "19", "address": "320 SHERBROOK ST", "city": "WINNIPEG", "province": "MB", "country": "CA", "postalCode": "R3B2W6", "twitter": "None", "instagram": "None", "facebook": "None", "youtube": "None", "website": "None", "summary": "None", "logo": "None", "latitude": 49.88892790674591, "longitude": -97.15910271319724}, "107628380RR0001": {"name": "LIONS EYE BANK OF SASKATCHEWAN INC.", "designationCode": "C", "categoryCode": "11", "address": "CITY HOSPITAL                 701 QUEEN STREET", "city": "SASKATOON", "province": "SK", "country": "CA", "postalCode": "S7K0M7", "twitter": "None", "instagram": "None", "facebook": "None", "youtube": "None", "website": "None", "summary": "None", "logo": "None", "latitude": 52.135800000000074, "longitude": -106.65319999999997}, "130245129RR0001": {"name": "LIONS FOUNDATION OF CANADA/FONDATION DES LIONS DU CANADA", "designationCode": "A", "categoryCode": "03", "address": "152 WILSON ST", "city": "OAKVILLE", "province": "ON", "country": "CA", "postalCode": "L6K0G6", "twitter": "None", "instagram": "None", "facebook": "None", "youtube": "None", "website": "None", "summary": "None", "logo": "None", "latitude": 43.44171437301638, "longitude": -79.67578425021635}, "119020840RR0001": {"name": "LIONS FOUNDATION OF MANITOBA & NORTHWESTERN ONTARIO INCORP ORATED", "designationCode": "C", "categoryCode": "63", "address": "320 SHERBROOK ST", "city": "WINNIPEG", "province": "MB", "country": "CA", "postalCode": "R3B2W6", "twitter": "None", "instagram": "None", "facebook": "None", "youtube": "None", "website": "None", "summary": "None", "logo": "None", "latitude": 49.88892790674591, "longitude": -97.15910271319724}, "119020824RR0001": {"name": "LIONS FOUNDATION OF NOVA SCOTIA", "designationCode": "A", "categoryCode": "65", "address": "999 ELIZABETH DRIVE", "city": "KENTVILLE", "province": "NS", "country": "CA", "postalCode": "B4N4K6", "twitter": "None", "instagram": "None", "facebook": "None", "youtube": "None", "website": "None", "summary": "None", "logo": "None", "latitude": 45.08877069995397, "longitude": -64.48521676519132}, "119020865RR0001": {"name": "LIONS GATE BUDDHIST PRIORY", "designationCode": "C", "categoryCode": "35", "address": "P.O BOX 701", "city": "LYTTON", "province": "BC", "country": "CA", "postalCode": "V0K1Z0", "twitter": "None", "instagram": "None", "facebook": "None", "youtube": "None", "website": "None", "summary": "None", "logo": "None", "latitude": 51.53781143121373, "longitude": -120.98021143685018}, "119020873RR0001": {"name": "LIONS GATE CHAPTER OF SWEET ADELINES, INC.", "designationCode": "C", "categoryCode": "22", "address": "971 BAYVIEW SQ.", "city": "COQUITLAM", "province": "BC", "country": "CA", "postalCode": "V3J5M6", "twitter": "None", "instagram": "None", "facebook": "None", "youtube": "None", "website": "None", "summary": "None", "logo": "None", "latitude": 49.26877370719598, "longitude": -122.85642139673392}, "140635517RR0001": {"name": "LIONS GATE CHRISTIAN ACADEMY ASSOCIATION", "designationCode": "C", "categoryCode": "20", "address": "919 TOLLCROSS RD", "city": "NORTH VANCOUVER", "province": "BC", "country": "CA", "postalCode": "V7H2G3", "twitter": "None", "instagram": "None", "facebook": "None", "youtube": "None", "website": "None", "summary": "None", "logo": "None", "latitude": 49.31377510678678, "longitude": -122.9941505545902}, "119020907RR0001": {"name": "LIONS GATE HOSPITAL FOUNDATION", "designationCode": "A", "categoryCode": "13", "address": "231 EAST 15TH STREET", "city": "NORTH VANCOUVER", "province": "BC", "country": "CA", "postalCode": "V7L2L7", "twitter": "None", "instagram": "None", "facebook": "None", "youtube": "None", "website": "None", "summary": "None", "logo": "None", "latitude": 49.32198948730498, "longitude": -123.06792171440934}, "837893478RR0001": {"name": "LIONS HOMES FOR DEAF PEOPLE", "designationCode": "C", "categoryCode": "01", "address": "9-75 FIRST STREET SUITE 240", "city": "ORANGEVILLE", "province": "ON", "country": "CA", "postalCode": "L9W5B6", "twitter": "None", "instagram": "None", "facebook": "None", "youtube": "None", "website": "None", "summary": "None", "logo": "None", "latitude": 43.92694858618496, "longitude": -80.09931477791595}, "886885193RR0001": {"name": "LIONS OF ALBERTA FOUNDATION", "designationCode": "C", "categoryCode": "63", "address": "PO BOX 716", "city": "CARSTAIRS", "province": "AB", "country": "CA", "postalCode": "T0M0N0", "twitter": "None", "instagram": "None", "facebook": "None", "youtube": "None", "website": "None", "summary": "None", "logo": "None", "latitude": 51.562880000000064, "longitude": -114.09537999999998}, "864063235RR0001": {"name": "LIONS OF B.C. HEARING CONSERVATION SOCIETY", "designationCode": "C", "categoryCode": "63", "address": "6476 REID ROAD", "city": "CHILLIWACK", "province": "BC", "country": "CA", "postalCode": "V2R1T9", "twitter": "None", "instagram": "None", "facebook": "None", "youtube": "None", "website": "None", "summary": "None", "logo": "None", "latitude": 49.119983276992315, "longitude": -121.97062101604284}, "898941471RR0001": {"name": "LIONS PRAIRIE MANOR FOUNDATION INC", "designationCode": "A", "categoryCode": "03", "address": "24-9TH STREET SE              UNIT 114", "city": "PORTAGE LA PRAIRIE", "province": "MB", "country": "CA", "postalCode": "R1N3V4", "twitter": "None", "instagram": "None", "facebook": "None", "youtube": "None", "website": "None", "summary": "None", "logo": "None", "latitude": 49.9718631765036, "longitude": -98.27768700973668}, "135988848RR0001": {"name": "LIONS RESOURCE CENTRE FOR THE DEAF AND HARD OF HEARING, NORTHEASTERN ONTARIO", "designationCode": "C", "categoryCode": "09", "address": "1107-110 PLAINS ROAD WEST", "city": "BURLINGTON", "province": "ON", "country": "CA", "postalCode": "L7T0A6", "twitter": "None", "instagram": "None", "facebook": "None", "youtube": "None", "website": "None", "summary": "None", "logo": "None", "latitude": 43.303938266504346, "longitude": -79.8562486845231}, "119020964RR0001": {"name": "LIONS SIGHT AND SERVICE FOUNDATION DISTRICT 5CE", "designationCode": "A", "categoryCode": "65", "address": "71 DENNY CRES", "city": "REGINA", "province": "SK", "country": "CA", "postalCode": "S4N5J8", "twitter": "None", "instagram": "None", "facebook": "None", "youtube": "None", "website": "None", "summary": "None", "logo": "None", "latitude": 50.449527419095176, "longitude": -104.54377714573818}, "893951426RR0001": {"name": "LIONS VILLAGE OF GREATER EDMONTON SOCIETY", "designationCode": "C", "categoryCode": "09", "address": "204 HADDOW CLOSE              SUITE 112", "city": "EDMONTON", "province": "AB", "country": "CA", "postalCode": "T6R3B3", "twitter": "None", "instagram": "None", "facebook": "None", "youtube": "None", "website": "None", "summary": "None", "logo": "None", "latitude": 53.4608715004327, "longitude": -113.5914714841883}, "136437357RR0001": {"name": "LIONSVIEW SENIORS' PLANNING SOCIETY NORTH AND WEST VANCOUVER,B C", "designationCode": "C", "categoryCode": "59", "address": "600 WEST QUEENS ROAD,", "city": "NORTH VANCOUVER", "province": "BC", "country": "CA", "postalCode": "V7N2L3", "twitter": "None", "instagram": "None", "facebook": "None", "youtube": "None", "website": "None", "summary": "None", "logo": "None", "latitude": 49.33664766123687, "longitude": -123.08545116123688}, "892975764RR0001": {"name": "LIPI- LOW INCOME PEOPLE INVOLVEMENT OF NIPISSING", "designationCode": "C", "categoryCode": "09", "address": "127 MAIN ST E", "city": "NORTH BAY", "province": "ON", "country": "CA", "postalCode": "P1B1A9", "twitter": "None", "instagram": "None", "facebook": "None", "youtube": "None", "website": "None", "summary": "None", "logo": "None", "latitude": 46.3100019045242, "longitude": -79.46372653872119}, "107628570RR0001": {"name": "LIPTON EVANGELICAL MISSIONARY CHURCH", "designationCode": "C", "categoryCode": "39", "address": "PO BOX 165", "city": "LIPTON", "province": "SK", "country": "CA", "postalCode": "S0G3B0", "twitter": "None", "instagram": "None", "facebook": "None", "youtube": "None", "website": "None", "summary": "None", "logo": "None", "latitude": 50.36424824390069, "longitude": -102.4129944774132}, "890005465RR0001": {"name": "LIQUOR CONTROL BOARD OF ONTARIO EMPLOYEES CHARITABLE TRUST", "designationCode": "B", "categoryCode": "75", "address": "1 YONGE STREET                13TH FLOOR", "city": "TORONTO", "province": "ON", "country": "CA", "postalCode": "M5E1A5", "twitter": "None", "instagram": "None", "facebook": "None", "youtube": "None", "website": "None", "summary": "None", "logo": "None", "latitude": 43.64226473221161, "longitude": -79.37377030547039}, "873199509RR0001": {"name": "LIRE ET FAIRE LIRE", "designationCode": "C", "categoryCode": "21", "address": "311A - 150 RUE GRANT", "city": "LONGUEUIL", "province": "QC", "country": "CA", "postalCode": "J4H3H6", "twitter": "None", "instagram": "None", "facebook": "None", "youtube": "None", "website": "None", "summary": "None", "logo": "None", "latitude": 45.53932343989851, "longitude": -73.50840163878462}, "885841239RR0001": {"name": "LIRE LA MER, BIBLIOTHEQUE DE LA MER ET DU SAINT-LAURENT", "designationCode": "C", "categoryCode": "50", "address": "C.P. 414                      \u00c9DIFICE DE LA GARE", "city": "MATANE", "province": "QC", "country": "CA", "postalCode": "G4W3N3", "twitter": "None", "instagram": "None", "facebook": "None", "youtube": "None", "website": "None", "summary": "None", "logo": "None", "latitude": 48.84310011499124, "longitude": -67.53533497561732}, "869303313RR0001": {"name": "LIS AVEC MOI", "designationCode": "C", "categoryCode": "22", "address": "397 BOUL. DES PRAIRIES        BUREAU 309", "city": "LAVAL", "province": "QC", "country": "CA", "postalCode": "H7N2W6", "twitter": "None", "instagram": "None", "facebook": "None", "youtube": "None", "website": "None", "summary": "None", "logo": "None", "latitude": 45.545539135754865, "longitude": -73.7095698612727}, "894746643RR0001": {"name": "LIS-MOI TOUT LIMOILOU", "designationCode": "C", "categoryCode": "21", "address": "798-12E RUE", "city": "QUEBEC", "province": "QC", "country": "CA", "postalCode": "G1J2M8", "twitter": "None", "instagram": "None", "facebook": "None", "youtube": "None", "website": "None", "summary": "None", "logo": "None", "latitude": 46.82917086620703, "longitude": -71.22777061252825}, "119288918RR0376": {"name": "LISBOA CONGREGATION OF JEHOVAH'S WITNESSES, TORONTO, ONTARIO", "designationCode": "C", "categoryCode": "61", "address": "959 COLLEGE ST", "city": "TORONTO", "province": "ON", "country": "CA", "postalCode": "M6H1A6", "twitter": "None", "instagram": "None", "facebook": "None", "youtube": "None", "website": "None", "summary": "None", "logo": "None", "latitude": 43.653475834843434, "longitude": -79.42689562155927}, "888198934RR0001": {"name": "LISCOMB VOLUNTEER FIRE DEPARTMENT", "designationCode": "C", "categoryCode": "59", "address": "GENERAL DELIVERY", "city": "LISCOMB", "province": "NS", "country": "CA", "postalCode": "B0J2A0", "twitter": "None", "instagram": "None", "facebook": "None", "youtube": "None", "website": "None", "summary": "None", "logo": "None", "latitude": 45.03111900000006, "longitude": -61.99802449999993}, "866534480RR0001": {"name": "LISIMS FISHERIES CONSERVATION TRUST", "designationCode": "C", "categoryCode": "55", "address": "14 7TH AVE E", "city": "VANCOUVER", "province": "BC", "country": "CA", "postalCode": "V5T1M2", "twitter": "None", "instagram": "None", "facebook": "None", "youtube": "None", "website": "None", "summary": "None", "logo": "None", "latitude": 49.264582386891945, "longitude": -123.10454021365442}, "107628901RR0001": {"name": "LISLE MEMORIAL BAPTIST CHURCH", "designationCode": "C", "categoryCode": "31", "address": "PO BOX 21021, 3975 JANE ST.", "city": "DOWNSVIEW", "province": "ON", "country": "CA", "postalCode": "M3N2K1", "twitter": "None", "instagram": "None", "facebook": "None", "youtube": "None", "website": "None", "summary": "None", "logo": "None", "latitude": 43.75645356832767, "longitude": -79.51741267626893}, "891431603RR0001": {"name": "LISTENING PRAYER COMMUNITY MINISTRIES", "designationCode": "C", "categoryCode": "47", "address": "9988 DOYLE STREET", "city": "MISSION", "province": "BC", "country": "CA", "postalCode": "V2V7E3", "twitter": "None", "instagram": "None", "facebook": "None", "youtube": "None", "website": "None", "summary": "None", "logo": "None", "latitude": 49.18373047599399, "longitude": -122.28357053321086}, "127186138RR0001": {"name": "LISTOWEL AGRICULTURAL SOCIETY", "designationCode": "C", "categoryCode": "56", "address": "PO BOX 222  STN MAIN", "city": "LISTOWEL", "province": "ON", "country": "CA", "postalCode": "N4W3H4", "twitter": "None", "instagram": "None", "facebook": "None", "youtube": "None", "website": "None", "summary": "None", "logo": "None"}, "119021103RR0001": {"name": "LISTOWEL BIBLE CHAPEL", "designationCode": "C", "categoryCode": "39", "address": "545 BLAKE STREET E", "city": "LISTOWEL", "province": "ON", "country": "CA", "postalCode": "N4W3N6", "twitter": "None", "instagram": "None", "facebook": "None", "youtube": "None", "website": "None", "summary": "None", "logo": "None", "latitude": 43.73542178328205, "longitude": -80.94254399705714}, "107628950RR0001": {"name": "LISTOWEL CHRISTIAN REFORMED CHURCH", "designationCode": "C", "categoryCode": "39", "address": "345 ELIZABETH ST. E.", "city": "LISTOWEL", "province": "ON", "country": "CA", "postalCode": "N4W2P7", "twitter": "None", "instagram": "None", "facebook": "None", "youtube": "None", "website": "None", "summary": "None", "logo": "None", "latitude": 43.73209935137119, "longitude": -80.94828117574531}, "131376303RR0001": {"name": "LISTOWEL CHRISTIAN SCHOOL SOCIETY", "designationCode": "C", "categoryCode": "20", "address": "P.O. BOX 151", "city": "LISTOWEL", "province": "ON", "country": "CA", "postalCode": "N4W3H2", "twitter": "None", "instagram": "None", "facebook": "None", "youtube": "None", "website": "None", "summary": "None", "logo": "None", "latitude": 43.73203200000006, "longitude": -80.95433299999993}, "889486445RR0001": {"name": "LISTOWEL COMMUNITY CHURCH", "designationCode": "C", "categoryCode": "47", "address": "156 HALSTEAD AVE N", "city": "LISTOWEL", "province": "ON", "country": "CA", "postalCode": "N4W3C4", "twitter": "None", "instagram": "None", "facebook": "None", "youtube": "None", "website": "None", "summary": "None", "logo": "None", "latitude": 43.730350905750306, "longitude": -80.9484949564874}, "119021129RR0001": {"name": "LISTOWEL DISTRICT SENIOR CITIZEN'S COMPLEX", "designationCode": "C", "categoryCode": "01", "address": "555 ELM AVE N", "city": "LISTOWEL", "province": "ON", "country": "CA", "postalCode": "N4W3P5", "twitter": "None", "instagram": "None", "facebook": "None", "youtube": "None", "website": "None", "summary": "None", "logo": "None", "latitude": 43.732099197799336, "longitude": -80.94145631038813}, "811214147RR0001": {"name": "LISTOWEL EVANGELICAL MISSIONARY CHURCH", "designationCode": "C", "categoryCode": "39", "address": "1205 TREMAINE AVE SOUTH       PO BOX 23", "city": "LISTOWEL", "province": "ON", "country": "CA", "postalCode": "N4W3H2", "twitter": "None", "instagram": "None", "facebook": "None", "youtube": "None", "website": "None", "summary": "None", "logo": "None", "latitude": 43.717019812803706, "longitude": -80.95145823373858}, "107629024RR0001": {"name": "LISTOWEL MEMORIAL HOSPITAL", "designationCode": "C", "categoryCode": "10", "address": "255 ELIZABETH STREET E", "city": "LISTOWEL", "province": "ON", "country": "CA", "postalCode": "N4W2P5", "twitter": "None", "instagram": "None", "facebook": "None", "youtube": "None", "website": "None", "summary": "None", "logo": "None", "latitude": 43.732878242130894, "longitude": -80.95030130314764}, "119021152RR0001": {"name": "LISTOWEL MENNONITE CHURCH", "designationCode": "C", "categoryCode": "34", "address": "465 MAITLAND AVE S", "city": "LISTOWEL", "province": "ON", "country": "CA", "postalCode": "N4W2M7", "twitter": "None", "instagram": "None", "facebook": "None", "youtube": "None", "website": "None", "summary": "None", "logo": "None", "latitude": 43.72511144957161, "longitude": -80.94803988347584}, "812972164RR0001": {"name": "LISTOWEL PENTECOSTAL CHURCH", "designationCode": "C", "categoryCode": "36", "address": "PO BOX 217", "city": "LISTOWEL", "province": "ON", "country": "CA", "postalCode": "N4W3H4", "twitter": "None", "instagram": "None", "facebook": "None", "youtube": "None", "website": "None", "summary": "None", "logo": "None", "latitude": 43.73203200000006, "longitude": -80.95433299999993}, "852039940RR0001": {"name": "LITERACY ALBERNI SOCIETY", "designationCode": "C", "categoryCode": "21", "address": "5100E TEBO AVE", "city": "PORT ALBERNI", "province": "BC", "country": "CA", "postalCode": "V9Y5Y6", "twitter": "None", "instagram": "None", "facebook": "None", "youtube": "None", "website": "None", "summary": "None", "logo": "None", "latitude": 49.26736936309687, "longitude": -124.79439181144019}, "141039040RR0001": {"name": "LITERACY ALLIANCE OF WEST NIPISSING", "designationCode": "C", "categoryCode": "21", "address": "184 KING ST", "city": "STURGEON FALLS", "province": "ON", "country": "CA", "postalCode": "P2B1R5", "twitter": "None", "instagram": "None", "facebook": "None", "youtube": "None", "website": "None", "summary": "None", "logo": "None", "latitude": 46.368504, "longitude": -79.92954017037937}, "139831697RR0001": {"name": "LITERACY ASSOCIATION OF NOVA SCOTIA", "designationCode": "C", "categoryCode": "21", "address": "P.O. BOX 1516", "city": "TRURO", "province": "NS", "country": "CA", "postalCode": "B2N5V2", "twitter": "None", "instagram": "None", "facebook": "None", "youtube": "None", "website": "None", "summary": "None", "logo": "None", "latitude": 45.36602700000006, "longitude": -63.289042999999936}, "882480205RR0001": {"name": "LITERACY COALITION OF NEW BRUNSWICK, LTD.", "designationCode": "C", "categoryCode": "21", "address": "SUITE 303                     221 QUEEN STREET", "city": "FREDERICTION", "province": "NB", "country": "CA", "postalCode": "E3B1A8", "twitter": "None", "instagram": "None", "facebook": "None", "youtube": "None", "website": "None", "summary": "None", "logo": "None", "latitude": 45.96477401966931, "longitude": -66.64719977054634}, "119021194RR0001": {"name": "LITERACY COUNCIL OF DURHAM REGION", "designationCode": "C", "categoryCode": "20", "address": "115 SIMCOE STREET SOUTH       2ND FLOOR", "city": "OSHAWA", "province": "ON", "country": "CA", "postalCode": "L1H4G7", "twitter": "None", "instagram": "None", "facebook": "None", "youtube": "None", "website": "None", "summary": "None", "logo": "None", "latitude": 43.89454991646943, "longitude": -78.86218796886753}, "888903143RR0001": {"name": "LITERACY COUNCIL OF SOUTH SIMCOE", "designationCode": "C", "categoryCode": "21", "address": "PO BOX 286", "city": "ALLISTON", "province": "ON", "country": "CA", "postalCode": "L9R1V5", "twitter": "None", "instagram": "None", "facebook": "None", "youtube": "None", "website": "None", "summary": "None", "logo": "None", "latitude": 44.15432100000005, "longitude": -79.86752449999993}, "130389372RR0001": {"name": "LITERACY COUNCIL OF SOUTH TEMISKAMING", "designationCode": "C", "categoryCode": "21", "address": "PO BOX 1558                   40 PAGET ST N", "city": "NEW LISKEARD", "province": "ON", "country": "CA", "postalCode": "P0J1P0", "twitter": "None", "instagram": "None", "facebook": "None", "youtube": "None", "website": "None", "summary": "None", "logo": "None", "latitude": 47.509528175112344, "longitude": -79.67443444685874}, "890599780RR0001": {"name": "LITERACY COUNCIL YORK SOUTH", "designationCode": "C", "categoryCode": "21", "address": "THORNHILL COMMUNITY CENTRE    7755 BAYVIEW AVE.", "city": "THORNHILL", "province": "ON", "country": "CA", "postalCode": "L3T4P1", "twitter": "None", "instagram": "None", "facebook": "None", "youtube": "None", "website": "None", "summary": "None", "logo": "None", "latitude": 43.819820080500875, "longitude": -79.4013799821117}, "137164869RR0001": {"name": "LITERACY COUNCIL YORK-SIMCOE", "designationCode": "C", "categoryCode": "20", "address": "1100 GORHAM STREET, UNIT 15", "city": "NEWMARKET", "province": "ON", "country": "CA", "postalCode": "L3Y8Y8", "twitter": "None", "instagram": "None", "facebook": "None", "youtube": "None", "website": "None", "summary": "None", "logo": "None", "latitude": 44.05704975044748, "longitude": -79.42853872993258}, "892187162RR0001": {"name": "LITERACY FOR EAST TORONTO", "designationCode": "C", "categoryCode": "21", "address": "765 QUEEN STREET E. 3RD FLOOR", "city": "TORONTO", "province": "ON", "country": "CA", "postalCode": "M4M1H3", "twitter": "None", "instagram": "None", "facebook": "None", "youtube": "None", "website": "None", "summary": "None", "logo": "None", "latitude": 43.65934188591388, "longitude": -79.34760537010217}, "894121409RR0001": {"name": "LITERACY FOR LEADERSHIP", "designationCode": "C", "categoryCode": "21", "address": "407 PAINTED POST DRIVE", "city": "TORONTO", "province": "ON", "country": "CA", "postalCode": "M1G2M7", "twitter": "None", "instagram": "None", "facebook": "None", "youtube": "None", "website": "None", "summary": "None", "logo": "None", "latitude": 43.77165596557798, "longitude": -79.22239072949989}, "869707661RR0001": {"name": "LITERACY FOR LIFE FOUNDATION", "designationCode": "C", "categoryCode": "21", "address": "3 1204 10TH ST SE", "city": "HIGH RIVER", "province": "AB", "country": "CA", "postalCode": "T1V1P2", "twitter": "None", "instagram": "None", "facebook": "None", "youtube": "None", "website": "None", "summary": "None", "logo": "None", "latitude": 50.57508150000002, "longitude": -113.85192149999999}, "862694056RR0001": {"name": "LITERACY FOUNDATION INCORPORATED", "designationCode": "A", "categoryCode": "23", "address": "P.O. BOX 8700", "city": "ST. JOHN'S", "province": "NL", "country": "CA", "postalCode": "A1B4J6", "twitter": "None", "instagram": "None", "facebook": "None", "youtube": "None", "website": "None", "summary": "None", "logo": "None", "latitude": 47.56938900000006, "longitude": -52.78609699999993}, "135064822RR0001": {"name": "LITERACY LINK EASTERN ONTARIO INC", "designationCode": "C", "categoryCode": "21", "address": "23 MILL STREET                UNIT 100", "city": "GANANOQUE", "province": "ON", "country": "CA", "postalCode": "K7G2L5", "twitter": "None", "instagram": "None", "facebook": "None", "youtube": "None", "website": "None", "summary": "None", "logo": "None", "latitude": 44.32665800837499, "longitude": -76.16327070886732}, "134236553RR0001": {"name": "LITERACY LINK NIAGARA INC.", "designationCode": "C", "categoryCode": "21", "address": "404 - 36 PAGE ST", "city": "ST CATHARINES", "province": "ON", "country": "CA", "postalCode": "L2R4A7", "twitter": "None", "instagram": "None", "facebook": "None", "youtube": "None", "website": "None", "summary": "None", "logo": "None", "latitude": 43.16567330835593, "longitude": -79.23390584909727}, "130751431RR0001": {"name": "LITERACY LINK SOUTH CENTRAL", "designationCode": "C", "categoryCode": "21", "address": "255 HORTON STREET             THIRD FLOOR - SUITE 3", "city": "LONDON", "province": "ON", "country": "CA", "postalCode": "N6B1L1", "twitter": "None", "instagram": "None", "facebook": "None", "youtube": "None", "website": "None", "summary": "None", "logo": "None", "latitude": 42.97989302743981, "longitude": -81.24370692587583}, "857013700RR0001": {"name": "LITERACY LONDON INCORPORATED", "designationCode": "C", "categoryCode": "21", "address": "70 JACQUELINE STREET", "city": "LONDON", "province": "ON", "country": "CA", "postalCode": "N5Z3P7", "twitter": "None", "instagram": "None", "facebook": "None", "youtube": "None", "website": "None", "summary": "None", "logo": "None", "latitude": 42.97128037130594, "longitude": -81.22135109931365}, "140784489RR0001": {"name": "LITERACY NETWORK OF DURHAM REGION", "designationCode": "C", "categoryCode": "22", "address": "PO BOX 117 STN MAIN", "city": "PICKERING", "province": "ON", "country": "CA", "postalCode": "L1V2R2", "twitter": "None", "instagram": "None", "facebook": "None", "youtube": "None", "website": "None", "summary": "None", "logo": "None", "latitude": 43.837818000000055, "longitude": -79.08191449999994}, "107782609RR0001": {"name": "LITERACY NORTH HALTON", "designationCode": "C", "categoryCode": "21", "address": "PO BOX 218 STN MAIN           72 MILL ST.,", "city": "GEORGETOWN", "province": "ON", "country": "CA", "postalCode": "L7G4Y5", "twitter": "None", "instagram": "None", "facebook": "None", "youtube": "None", "website": "None", "summary": "None", "logo": "None", "latitude": 43.65005833694958, "longitude": -79.92520014974889}, "131163248RR0001": {"name": "LITERACYWORKS INC.", "designationCode": "C", "categoryCode": "20", "address": "2ND FLOOR, UNIT 510           330 PORTAGE AVENUE", "city": "WINNIPEG", "province": "MB", "country": "CA", "postalCode": "R3C0C4", "twitter": "None", "instagram": "None", "facebook": "None", "youtube": "None", "website": "None", "summary": "None", "logo": "None", "latitude": 49.893002268365336, "longitude": -97.1450412764154}, "119021210RR0001": {"name": "LITERARY AND HISTORICAL SOCIETY OF QUEBEC", "designationCode": "C", "categoryCode": "50", "address": "44 CHAUSSEE DES \u00c9COSSAIS", "city": "QU\u00c9BEC", "province": "QC", "country": "CA", "postalCode": "G1R4H3", "twitter": "None", "instagram": "None", "facebook": "None", "youtube": "None", "website": "None", "summary": "None", "logo": "None"}, "832141477RR0001": {"name": "LITERARY ARTS FOUNDATION OF NEWFOUNDLAND AND LABRADOR, INC.", "designationCode": "C", "categoryCode": "22", "address": "2 TUNIS CRT", "city": "ST. JOHN'S", "province": "NL", "country": "CA", "postalCode": "A1A1T9", "twitter": "None", "instagram": "None", "facebook": "None", "youtube": "None", "website": "None", "summary": "None", "logo": "None", "latitude": 47.5800355434244, "longitude": -52.707240408823374}, "887356905RR0001": {"name": "LITERARY ARTS WINDSOR-PROMOTION, PERFORMANCE, PUBLISHING", "designationCode": "C", "categoryCode": "22", "address": "267 VILLAIRE AVE.", "city": "WINDSOR", "province": "ON", "country": "CA", "postalCode": "N8S2J1", "twitter": "None", "instagram": "None", "facebook": "None", "youtube": "None", "website": "None", "summary": "None", "logo": "None", "latitude": 42.329419942264465, "longitude": -82.97011901445538}, "894318617RR0001": {"name": "LITERATURE FOR LIFE", "designationCode": "C", "categoryCode": "21", "address": "1007 - 1171 QUEEN ST W", "city": "TORONTO", "province": "ON", "country": "CA", "postalCode": "M6J0A5", "twitter": "None", "instagram": "None", "facebook": "None", "youtube": "None", "website": "None", "summary": "None", "logo": "None", "latitude": 43.64469992410521, "longitude": -79.41633972590202}, "107629198RR0001": {"name": "LITHUANIAN BILINGUAL LUTHERAN CHURCH OF THE REDEEMER", "designationCode": "C", "categoryCode": "31", "address": "1691 BLOOR STREET WEST", "city": "TORONTO", "province": "ON", "country": "CA", "postalCode": "M6P1B1", "twitter": "None", "instagram": "None", "facebook": "None", "youtube": "None", "website": "None", "summary": "None", "logo": "None", "latitude": 43.655225838161655, "longitude": -79.45741549679735}, "892760463RR0001": {"name": "LITHUANIAN CANADIAN COMMUNITY FUND FOR CULTURE EDUCATION ANDCHARITY", "designationCode": "A", "categoryCode": "05", "address": "1 RESURRECTION ROAD", "city": "TORONTO", "province": "ON", "country": "CA", "postalCode": "M9A5G1", "twitter": "None", "instagram": "None", "facebook": "None", "youtube": "None", "website": "None", "summary": "None", "logo": "None", "latitude": 43.643364149604665, "longitude": -79.53092027918537}, "119021236RR0001": {"name": "LITHUANIAN CANADIAN FOUNDATION", "designationCode": "A", "categoryCode": "03", "address": "1 RESURRECTION ROAD", "city": "TORONTO", "province": "ON", "country": "CA", "postalCode": "M9A5G1", "twitter": "None", "instagram": "None", "facebook": "None", "youtube": "None", "website": "None", "summary": "None", "logo": "None", "latitude": 43.643364149604665, "longitude": -79.53092027918537}, "107629248RR0001": {"name": "LITTLE ACRE COMMUNITY RESIDENCE INC.", "designationCode": "C", "categoryCode": "11", "address": "10 PRINCE WILLIAM STREET", "city": "ST. STEPHEN", "province": "NB", "country": "CA", "postalCode": "E3L1R5", "twitter": "None", "instagram": "None", "facebook": "None", "youtube": "None", "website": "None", "summary": "None", "logo": "None", "latitude": 45.19406336222499, "longitude": -67.27444886343709}, "888514460RR0001": {"name": "LITTLE ANGELS BLOOD CANCER FUND", "designationCode": "C", "categoryCode": "09", "address": "703 - 420 BERKLEY AVE", "city": "OTTAWA", "province": "ON", "country": "CA", "postalCode": "K2A4H5", "twitter": "None", "instagram": "None", "facebook": "None", "youtube": "None", "website": "None", "summary": "None", "logo": "None", "latitude": 45.39026990285077, "longitude": -75.75803230131544}, "119021269RR0001": {"name": "LITTLE BEAVER HI-U SENIOR CENTRE", "designationCode": "C", "categoryCode": "56", "address": "BOX 103", "city": "FERINTOSH", "province": "AB", "country": "CA", "postalCode": "T0B1M0", "twitter": "None", "instagram": "None", "facebook": "None", "youtube": "None", "website": "None", "summary": "None", "logo": "None", "latitude": 52.76784572794733, "longitude": -112.96655684762285}, "118804715RR0001": {"name": "LITTLE BETHEL COMMUNITY CHURCH", "designationCode": "C", "categoryCode": "31", "address": "320 PALING AVENUE N.", "city": "HAMILTON", "province": "ON", "country": "CA", "postalCode": "L8H5J9", "twitter": "None", "instagram": "None", "facebook": "None", "youtube": "None", "website": "None", "summary": "None", "logo": "None", "latitude": 43.24663982347515, "longitude": -79.79801816691692}, "119021277RR0001": {"name": "LITTLE BITS THERAPEUTIC RIDING ASSOCIATION", "designationCode": "C", "categoryCode": "56", "address": "PO BOX 29016 RPO PLEASANTVIEW", "city": "EDMONTON", "province": "AB", "country": "CA", "postalCode": "T6H5Z6", "twitter": "None", "instagram": "None", "facebook": "None", "youtube": "None", "website": "None", "summary": "None", "logo": "None", "latitude": 53.49372000000005, "longitude": -113.50692999999995}, "888538691RR0001": {"name": "LITTLE BOW CHARITABLE TRUST", "designationCode": "B", "categoryCode": "39", "address": "3425- 2ND AVENUE SOUTH", "city": "LETHBRIDGE", "province": "AB", "country": "CA", "postalCode": "T1J4V1", "twitter": "None", "instagram": "None", "facebook": "None", "youtube": "None", "website": "None", "summary": "None", "logo": "None", "latitude": 49.696839530439966, "longitude": -112.78914308381903}, "859890519RR0001": {"name": "LITTLE BRITAIN COMMUNITY BAPTIST CHURCH", "designationCode": "C", "categoryCode": "31", "address": "489 ELDON STREET              P.O. BOX 62", "city": "LITTLE BRITAIN", "province": "ON", "country": "CA", "postalCode": "K0M2C0", "twitter": "None", "instagram": "None", "facebook": "None", "youtube": "None", "website": "None", "summary": "None", "logo": "None", "latitude": 44.29149291186076, "longitude": -78.86237095429176}, "139905467RR0001": {"name": "LITTLE BRITAIN UNITED CHURCH,", "designationCode": "C", "categoryCode": "44", "address": "ATTN:  TREASURER              5879 HIGHWAY #9", "city": "LOCKPORT", "province": "MB", "country": "CA", "postalCode": "R1A2P7", "twitter": "None", "instagram": "None", "facebook": "None", "youtube": "None", "website": "None", "summary": "None", "logo": "None", "latitude": 50.102516079820006, "longitude": -96.9420867130249}, "119021293RR0001": {"name": "LITTLE BROWN CHURCH", "designationCode": "C", "categoryCode": "36", "address": "5363 RIVER RD", "city": "RENFREW", "province": "ON", "country": "CA", "postalCode": "K7V3Z8", "twitter": "None", "instagram": "None", "facebook": "None", "youtube": "None", "website": "None", "summary": "None", "logo": "None", "latitude": 45.54520334220104, "longitude": -76.6438084205088}, "137417358RR0001": {"name": "LITTLE CLAYBELT HOMESTEADERS MUSEUM", "designationCode": "C", "categoryCode": "50", "address": "PO BOX 525", "city": "NEW LISKEARD", "province": "ON", "country": "CA", "postalCode": "P0J1P0", "twitter": "None", "instagram": "None", "facebook": "None", "youtube": "None", "website": "None", "summary": "None", "logo": "None", "latitude": 47.50254600000005, "longitude": -79.69562449999994}, "119288918RR0371": {"name": "LITTLE CURRENT CONGREGATION OF JEHOVAH'S WITNESSES", "designationCode": "C", "categoryCode": "61", "address": "PO BOX 75", "city": "SHEGUIANDAH", "province": "ON", "country": "CA", "postalCode": "P0P1W0", "twitter": "None", "instagram": "None", "facebook": "None", "youtube": "None", "website": "None", "summary": "None", "logo": "None", "latitude": 45.88444000000004, "longitude": -81.91707999999994}, "869514646RR0001": {"name": "LITTLE DOVE UNIVERSAL FAITH SANCTUARY", "designationCode": "C", "categoryCode": "47", "address": "470-8TH ST SE", "city": "MEDICINE HAT", "province": "AB", "country": "CA", "postalCode": "T1A1L9", "twitter": "None", "instagram": "None", "facebook": "None", "youtube": "None", "website": "None", "summary": "None", "logo": "None", "latitude": 50.031496529286144, "longitude": -110.6751735}, "865808760RR0001": {"name": "LITTLE DREAMERS DAY CARE INC.", "designationCode": "C", "categoryCode": "59", "address": "BOX 2756", "city": "THE PAS", "province": "MB", "country": "CA", "postalCode": "R9A1M5", "twitter": "None", "instagram": "None", "facebook": "None", "youtube": "None", "website": "None", "summary": "None", "logo": "None", "latitude": 53.81342700000006, "longitude": -101.25038149999993}, "107307191RR0068": {"name": "LITTLE FLOWER PARISH", "designationCode": "C", "categoryCode": "38", "address": "BOX 100", "city": "LEADER", "province": "SK", "country": "CA", "postalCode": "S0N1H0", "twitter": "None", "instagram": "None", "facebook": "None", "youtube": "None", "website": "None", "summary": "None", "logo": "None", "latitude": 50.883410000000026, "longitude": -109.55153999999999}, "107629651RR0001": {"name": "LITTLE FOLKS NURSERY SCHOOL SOCIETY", "designationCode": "C", "categoryCode": "20", "address": "BOX 852", "city": "PRINCETON", "province": "BC", "country": "CA", "postalCode": "V0X1W0", "twitter": "None", "instagram": "None", "facebook": "None", "youtube": "None", "website": "None", "summary": "None", "logo": "None", "latitude": 49.458687000000054, "longitude": -120.50591299999994}, "119021368RR0001": {"name": "LITTLE FRIENDS NURSERY CENTRE SOCIETY", "designationCode": "C", "categoryCode": "20", "address": "9915-148 ST", "city": "EDMONTON", "province": "AB", "country": "CA", "postalCode": "T5N3G1", "twitter": "None", "instagram": "None", "facebook": "None", "youtube": "None", "website": "None", "summary": "None", "logo": "None", "latitude": 53.538093, "longitude": -113.57621774401352}, "830946364RR0001": {"name": "LITTLE GEEKS FOUNDATION", "designationCode": "C", "categoryCode": "21", "address": "2630 BAYVIEW AVE", "city": "TORONTO", "province": "ON", "country": "CA", "postalCode": "M2L1B3", "twitter": "None", "instagram": "None", "facebook": "None", "youtube": "None", "website": "None", "summary": "None", "logo": "None", "latitude": 43.75286409158064, "longitude": -79.38514944915977}, "119021376RR0001": {"name": "LITTLE HARBOUR AND AREA RECREATION ASSOCIATION", "designationCode": "C", "categoryCode": "56", "address": "1042 LITTLE HARBOUR RD        RR 1", "city": "SABLE RIVER", "province": "NS", "country": "CA", "postalCode": "B0T1V0", "twitter": "None", "instagram": "None", "facebook": "None", "youtube": "None", "website": "None", "summary": "None", "logo": "None", "latitude": 43.725536236453465, "longitude": -65.03796748796786}, "891926362RR0001": {"name": "LITTLE HARBOUR FIRE DEPARTMENT", "designationCode": "C", "categoryCode": "59", "address": "139 POWELL RD,  RR #1", "city": "NEW GLASGOW", "province": "NS", "country": "CA", "postalCode": "B2H5C4", "twitter": "None", "instagram": "None", "facebook": "None", "youtube": "None", "website": "None", "summary": "None", "logo": "None"}, "888671864RR0001": {"name": "LITTLE HARBOUR PIONEER CEMETERY ASSOCIATION", "designationCode": "C", "categoryCode": "56", "address": "95 BALLANTYNE DRIVE", "city": "WOODBURN", "province": "NS", "country": "CA", "postalCode": "B2H5C4", "twitter": "None", "instagram": "None", "facebook": "None", "youtube": "None", "website": "None", "summary": "None", "logo": "None", "latitude": 45.617972711062464, "longitude": -62.53052812308848}, "107629776RR0001": {"name": "LITTLE HARBOUR PRESBYTERIAN CHURCH", "designationCode": "C", "categoryCode": "37", "address": "5430 LITTLE HARBOUR ROAD      RR #1", "city": "NEW GLASGOW", "province": "NS", "country": "CA", "postalCode": "B2H5C4", "twitter": "None", "instagram": "None", "facebook": "None", "youtube": "None", "website": "None", "summary": "None", "logo": "None", "latitude": 45.641748710919174, "longitude": -62.53436766616617}, "884468828RR0001": {"name": "LITTLE HEART'S EASE PASTORAL CHARGE", "designationCode": "C", "categoryCode": "44", "address": "BOX 2506, CAPLIN COVE", "city": "HILLVIEW", "province": "NL", "country": "CA", "postalCode": "A0E2A0", "twitter": "None", "instagram": "None", "facebook": "None", "youtube": "None", "website": "None", "summary": "None", "logo": "None", "latitude": 48.00866248852969, "longitude": -53.726516203102264}, "891869117RR0001": {"name": "LITTLE JACKIE FUND", "designationCode": "C", "categoryCode": "11", "address": "PO BOX 4340 STN MAIN", "city": "SUSSEX", "province": "NB", "country": "CA", "postalCode": "E4E0H3", "twitter": "None", "instagram": "None", "facebook": "None", "youtube": "None", "website": "None", "summary": "None", "logo": "None", "latitude": 45.71318059377118, "longitude": -65.48550961549311}, "119021400RR0001": {"name": "LITTLE LIONS WALDORF DAYCARE & KINDERGARTEN (THUNDER BAY) INC.", "designationCode": "C", "categoryCode": "20", "address": "211 CLARKE STREET", "city": "THUNDER BAY", "province": "ON", "country": "CA", "postalCode": "P7A2M1", "twitter": "None", "instagram": "None", "facebook": "None", "youtube": "None", "website": "None", "summary": "None", "logo": "None", "latitude": 48.44788814042939, "longitude": -89.20107114559394}, "891741241RR0001": {"name": "LITTLE MOUNTAIN BIBLE CHAPEL", "designationCode": "C", "categoryCode": "47", "address": "PO BOX 343", "city": "SALMON ARM", "province": "BC", "country": "CA", "postalCode": "V1E4N5", "twitter": "None", "instagram": "None", "facebook": "None", "youtube": "None", "website": "None", "summary": "None", "logo": "None", "latitude": 50.70318000000006, "longitude": -119.26884049999992}, "119288918RR1097": {"name": "LITTLE MOUNTAIN CONGREGATION OF JEHOVAH'S WITNESSES", "designationCode": "C", "categoryCode": "61", "address": "335 BUTLER AVE", "city": "PARKSVILLE", "province": "BC", "country": "CA", "postalCode": "V9P1K9", "twitter": "None", "instagram": "None", "facebook": "None", "youtube": "None", "website": "None", "summary": "None", "logo": "None", "latitude": 49.30821328507246, "longitude": -124.30148521492752}, "107629941RR0001": {"name": "LITTLE MOUNTAIN RESIDENTIAL CARE & HOUSING SOCIETY", "designationCode": "C", "categoryCode": "09", "address": "330 EAST 36TH AVENUE", "city": "VANCOUVER", "province": "BC", "country": "CA", "postalCode": "V5W3Z4", "twitter": "None", "instagram": "None", "facebook": "None", "youtube": "None", "website": "None", "summary": "None", "logo": "None", "latitude": 49.2380945134171, "longitude": -123.09992002553523}}