{"106883366RR0001": {"name": "CEDAR PARK UNITED CHURCH", "designationCode": "C", "categoryCode": "44", "address": "204 LAKEVIEW AVE.,", "city": "POINTE CLAIRE", "province": "QC", "country": "CA", "postalCode": "H9S4C5", "twitter": "None", "instagram": "None", "facebook": "None", "youtube": "None", "website": "None", "summary": "None", "logo": "None", "latitude": 45.437272042443446, "longitude": -73.8150645294017}, "118841881RR0001": {"name": "CEDAR RIDGE STUDIO-GALLERY", "designationCode": "C", "categoryCode": "23", "address": "ATTN: JOY HUGHES              225 CONFEDERATION DRIVE", "city": "TORONTO", "province": "ON", "country": "CA", "postalCode": "M1G1B2", "twitter": "None", "instagram": "None", "facebook": "None", "youtube": "None", "website": "None", "summary": "None", "logo": "None", "latitude": 43.75869581753211, "longitude": -79.20766570422447}, "890069222RR0001": {"name": "CEDAR SCHOOL AND COMMUNITY ENHANCEMENT SOCIETY", "designationCode": "C", "categoryCode": "59", "address": "1644 MACMILLAN ROAD", "city": "NANAIMO", "province": "BC", "country": "CA", "postalCode": "V9X1L9", "twitter": "None", "instagram": "None", "facebook": "None", "youtube": "None", "website": "None", "summary": "None", "logo": "None", "latitude": 49.11452846067785, "longitude": -123.86528518757373}, "867047821RR0001": {"name": "CEDAR SPRINGS FOUNDATION", "designationCode": "B", "categoryCode": "03", "address": "1500 WEST GEORGIA STREET      BOX 62 SUITE 1250", "city": "VANCOUVER", "province": "BC", "country": "CA", "postalCode": "V6G2Z6", "twitter": "None", "instagram": "None", "facebook": "None", "youtube": "None", "website": "None", "summary": "None", "logo": "None", "latitude": 49.29013479542975, "longitude": -123.1300069287031}, "802507541RR0001": {"name": "CEDAR SPRINGS HEALTH SOCIETY", "designationCode": "C", "categoryCode": "09", "address": "42 - 21704 96 AVE", "city": "LANGLEY", "province": "BC", "country": "CA", "postalCode": "V1M0A8", "twitter": "None", "instagram": "None", "facebook": "None", "youtube": "None", "website": "None", "summary": "None", "logo": "None", "latitude": 49.17690847230134, "longitude": -122.62211180682671}, "106883416RR0001": {"name": "CEDAR SPRINGS PASTORAL CHARGE", "designationCode": "C", "categoryCode": "44", "address": "8647 TALBOT TRAIL", "city": "CEDAR SPRINGS", "province": "ON", "country": "CA", "postalCode": "N0P1E0", "twitter": "None", "instagram": "None", "facebook": "None", "youtube": "None", "website": "None", "summary": "None", "logo": "None", "latitude": 42.2835732387038, "longitude": -82.02946430910573}, "119150365RR0001": {"name": "CEDAR ST. COMMUNITY CHURCH", "designationCode": "C", "categoryCode": "39", "address": "264 CEDAR ST", "city": "SIMCOE", "province": "ON", "country": "CA", "postalCode": "N3Y2H9", "twitter": "None", "instagram": "None", "facebook": "None", "youtube": "None", "website": "None", "summary": "None", "logo": "None", "latitude": 42.840966762132915, "longitude": -80.31678651471518}, "118841956RR0001": {"name": "CEDAR UNITED CHURCH", "designationCode": "C", "categoryCode": "44", "address": "3181 YELLOW PT RD.", "city": "LADYSMITH", "province": "BC", "country": "CA", "postalCode": "V9G1C6", "twitter": "None", "instagram": "None", "facebook": "None", "youtube": "None", "website": "None", "summary": "None", "logo": "None", "latitude": 49.057797745221585, "longitude": -123.77392351737}, "860069236RR0001": {"name": "CEDAR VALLEY CHURCH INC.", "designationCode": "C", "categoryCode": "39", "address": "20440 COUNTY ROAD 25          RR2", "city": "ALEXANDRIE", "province": "ON", "country": "CA", "postalCode": "K0C1A0", "twitter": "None", "instagram": "None", "facebook": "None", "youtube": "None", "website": "None", "summary": "None", "logo": "None", "latitude": 45.27541764418031, "longitude": -74.59349900859834}, "119288918RR0729": {"name": "CEDAR VALLEY CONGREGATION OF JEHOVAH'S WITNESSES, MISSION, BRITISH COLUMBIA", "designationCode": "C", "categoryCode": "61", "address": "33550 BALSAM AVENUE", "city": "MISSION", "province": "BC", "country": "CA", "postalCode": "V2V6L6", "twitter": "None", "instagram": "None", "facebook": "None", "youtube": "None", "website": "None", "summary": "None", "logo": "None", "latitude": 49.14866852120739, "longitude": -122.29511302553522}, "118841964RR0001": {"name": "CEDAR VALLEY MENNONITE CHURCH", "designationCode": "C", "categoryCode": "34", "address": "32860 CHERRY AVE", "city": "MISSION", "province": "BC", "country": "CA", "postalCode": "V2V2T9", "twitter": "None", "instagram": "None", "facebook": "None", "youtube": "None", "website": "None", "summary": "None", "logo": "None", "latitude": 49.15453487823431, "longitude": -122.31430332407614}, "118841741RR0001": {"name": "CEDARBRAE SCHOLARSHIP FUNDS", "designationCode": "C", "categoryCode": "21", "address": "550 MARKHAM ROAD", "city": "SCARBOROUGH", "province": "ON", "country": "CA", "postalCode": "M1H2A2", "twitter": "None", "instagram": "None", "facebook": "None", "youtube": "None", "website": "None", "summary": "None", "logo": "None", "latitude": 43.75657332887084, "longitude": -79.22439852207184}, "108077744RR0001": {"name": "CEDARDALE CHURCH OF THE NAZARENE", "designationCode": "C", "categoryCode": "39", "address": "471 PEFFERLAW ROAD            R. R.#2", "city": "PEFFERLAW", "province": "ON", "country": "CA", "postalCode": "L0E1N0", "twitter": "None", "instagram": "None", "facebook": "None", "youtube": "None", "website": "None", "summary": "None", "logo": "None", "latitude": 44.32205909657231, "longitude": -79.21483661024828}, "118841774RR0001": {"name": "CEDARDALE NAZARENE CAMP-CHURCH OF THE NAZARENE", "designationCode": "C", "categoryCode": "56", "address": "34 BOBMAR RD", "city": "SCARBOROUGH", "province": "ON", "country": "CA", "postalCode": "M1C1C9", "twitter": "None", "instagram": "None", "facebook": "None", "youtube": "None", "website": "None", "summary": "None", "logo": "None", "latitude": 43.78442501664843, "longitude": -79.17805628492683}, "118841782RR0001": {"name": "CEDARDALE UNITED CHURCH", "designationCode": "C", "categoryCode": "44", "address": "419 HILLSIDE AVE", "city": "OSHAWA", "province": "ON", "country": "CA", "postalCode": "L1B6L6", "twitter": "None", "instagram": "None", "facebook": "None", "youtube": "None", "website": "None", "summary": "None", "logo": "None", "latitude": 43.880916783773, "longitude": -78.87284818275727}, "119288918RR0348": {"name": "CEDARHILL CONGREGATION OF JEHOVAH'S WITNESSES, OTTAWA, ONTARIO", "designationCode": "C", "categoryCode": "61", "address": "40B WHELAN DRIVE", "city": "OTTAWA", "province": "ON", "country": "CA", "postalCode": "K2J3K6", "twitter": "None", "instagram": "None", "facebook": "None", "youtube": "None", "website": "None", "summary": "None", "logo": "None", "latitude": 45.27640180622839, "longitude": -75.76188212033637}, "119288918RR0776": {"name": "CEDARVALE CONGREGATION OF JEHOVAH'S WITNESSES", "designationCode": "C", "categoryCode": "61", "address": "402 OAKWOOD AVE", "city": "TORONTO", "province": "ON", "country": "CA", "postalCode": "M6E2W3", "twitter": "None", "instagram": "None", "facebook": "None", "youtube": "None", "website": "None", "summary": "None", "logo": "None", "latitude": 43.68814363474525, "longitude": -79.43909397671513}, "894360544RR0001": {"name": "CEDARVALE CONSERVATIVE MENNONITE CHURCH", "designationCode": "C", "categoryCode": "34", "address": "3127 PATRICK ST", "city": "FORDWICH", "province": "ON", "country": "CA", "postalCode": "N0G1V0", "twitter": "None", "instagram": "None", "facebook": "None", "youtube": "None", "website": "None", "summary": "None", "logo": "None", "latitude": 43.86532837330482, "longitude": -81.02976464262244}, "118841972RR0001": {"name": "CEDARVIEW ALLIANCE CHURCH", "designationCode": "C", "categoryCode": "39", "address": "2784 CEDARVIEW RD", "city": "NEPEAN", "province": "ON", "country": "CA", "postalCode": "K2J4J2", "twitter": "None", "instagram": "None", "facebook": "None", "youtube": "None", "website": "None", "summary": "None", "logo": "None", "latitude": 45.27584733135232, "longitude": -75.77819293796435}, "106883507RR0001": {"name": "CEDARVIEW COMMUNITY CHURCH", "designationCode": "C", "categoryCode": "36", "address": "BOX 132", "city": "PORT CLEMENTS", "province": "BC", "country": "CA", "postalCode": "V0T1R0", "twitter": "None", "instagram": "None", "facebook": "None", "youtube": "None", "website": "None", "summary": "None", "logo": "None", "latitude": 53.68667000000005, "longitude": -132.16904999999997}, "801850413RR0001": {"name": "CEDARVIEW COMMUNITY CHURCH", "designationCode": "C", "categoryCode": "36", "address": "1000 GORHAM STREET", "city": "NEWMARKET", "province": "ON", "country": "CA", "postalCode": "L3Y1L8", "twitter": "None", "instagram": "None", "facebook": "None", "youtube": "None", "website": "None", "summary": "None", "logo": "None", "latitude": 44.05599121510518, "longitude": -79.43301022880426}, "134664804RR0001": {"name": "CEDARVIEW EVANGELISTIC CENTRE", "designationCode": "C", "categoryCode": "36", "address": "20 CEDAR STREET", "city": "PARIS", "province": "ON", "country": "CA", "postalCode": "N3L0A1", "twitter": "None", "instagram": "None", "facebook": "None", "youtube": "None", "website": "None", "summary": "None", "logo": "None", "latitude": 43.2126518318809, "longitude": -80.35239041594043}, "813864444RR0001": {"name": "CEDSA", "designationCode": "C", "categoryCode": "11", "address": "124 LOCHIEL STREET SOUTH", "city": "RENFREW", "province": "ON", "country": "CA", "postalCode": "K7V1W7", "twitter": "None", "instagram": "None", "facebook": "None", "youtube": "None", "website": "None", "summary": "None", "logo": "None", "latitude": 45.47194498721806, "longitude": -76.68701909688944}, "121101802RR0001": {"name": "CEED CENTRE SOCIETY", "designationCode": "C", "categoryCode": "22", "address": "11739 223 ST", "city": "MAPLE RIDGE", "province": "BC", "country": "CA", "postalCode": "V2X5X8", "twitter": "None", "instagram": "None", "facebook": "None", "youtube": "None", "website": "None", "summary": "None", "logo": "None", "latitude": 49.215168000000006, "longitude": -122.60461307051747}, "106883689RR0001": {"name": "CEGEP DE BAIE-COMEAU", "designationCode": "C", "categoryCode": "20", "address": "537 BOUL BLANCHE", "city": "BAIE-COMEAU", "province": "QC", "country": "CA", "postalCode": "G5C2B2", "twitter": "None", "instagram": "None", "facebook": "None", "youtube": "None", "website": "None", "summary": "None", "logo": "None", "latitude": 49.18625999285453, "longitude": -68.25894403458886}, "106952971RR0001": {"name": "CEGEP DE GRANBY - HAUTE-YAMASKA", "designationCode": "C", "categoryCode": "20", "address": "235 SAINT-JACQUES             C.P. 7000", "city": "GRANBY", "province": "QC", "country": "CA", "postalCode": "J2G9H7", "twitter": "None", "instagram": "None", "facebook": "None", "youtube": "None", "website": "None", "summary": "None", "logo": "None", "latitude": 45.39851640002255, "longitude": -72.73038642073995}, "106953300RR0001": {"name": "CEGEP REGIONAL DE LANAUDIERE", "designationCode": "C", "categoryCode": "20", "address": "781 RUE NOTRE-DAME", "city": "REPENTIGNY", "province": "QC", "country": "CA", "postalCode": "J5Y1B4", "twitter": "None", "instagram": "None", "facebook": "None", "youtube": "None", "website": "None", "summary": "None", "logo": "None", "latitude": 45.75961654206808, "longitude": -73.42551854570341}, "866249931RR0001": {"name": "CELEBRATION CHRISTIAN FELLOWSHIP", "designationCode": "C", "categoryCode": "36", "address": "105-12332 PATTULLO PL", "city": "SURREY", "province": "BC", "country": "CA", "postalCode": "V3V8C3", "twitter": "None", "instagram": "None", "facebook": "None", "youtube": "None", "website": "None", "summary": "None", "logo": "None", "latitude": 49.20403345989382, "longitude": -122.88003440677457}, "129670485RR0001": {"name": "CELEBRATION CHURCH INC.", "designationCode": "C", "categoryCode": "32", "address": "3130E RENFREW CRES", "city": "REGINA", "province": "SK", "country": "CA", "postalCode": "S4V2X6", "twitter": "None", "instagram": "None", "facebook": "None", "youtube": "None", "website": "None", "summary": "None", "logo": "None", "latitude": 50.42829922570836, "longitude": -104.5361469162826}, "890575541RR0001": {"name": "CELEBRATION LIFE MINISTRIES", "designationCode": "C", "categoryCode": "39", "address": "2A - 13139 80 AVE", "city": "SURREY", "province": "BC", "country": "CA", "postalCode": "V3W3B1", "twitter": "None", "instagram": "None", "facebook": "None", "youtube": "None", "website": "None", "summary": "None", "logo": "None", "latitude": 49.148190533181285, "longitude": -122.85830353116113}, "892338963RR0001": {"name": "CELEBRATION OF HOPE FOUNDATION", "designationCode": "C", "categoryCode": "09", "address": "2FL-290 3RD AVE W", "city": "VANCOUVER", "province": "BC", "country": "CA", "postalCode": "V5Y1G1", "twitter": "None", "instagram": "None", "facebook": "None", "youtube": "None", "website": "None", "summary": "None", "logo": "None", "latitude": 49.26834886888777, "longitude": -123.10791348939047}, "118867308RR0001": {"name": "CELEBRATION PRESBYTERIAN CHURCH", "designationCode": "C", "categoryCode": "37", "address": "500 COLDSTREAM AVENUE", "city": "TORONTO", "province": "ON", "country": "CA", "postalCode": "M6B2K6", "twitter": "None", "instagram": "None", "facebook": "None", "youtube": "None", "website": "None", "summary": "None", "logo": "None", "latitude": 43.71507634752916, "longitude": -79.4288537282443}, "889085163RR0001": {"name": "CELEBRATION PRESBYTERIAN CHURCH NORTH (CPC NORTH)", "designationCode": "C", "categoryCode": "37", "address": "2800 JOHN ST, UNIT 14", "city": "MARKHAM", "province": "ON", "country": "CA", "postalCode": "L3R0E2", "twitter": "None", "instagram": "None", "facebook": "None", "youtube": "None", "website": "None", "summary": "None", "logo": "None", "latitude": 43.82546152048532, "longitude": -79.35542201500364}, "738497924RR0001": {"name": "CELEBRATIONS CHURCH", "designationCode": "C", "categoryCode": "39", "address": "7156 WRIGHT WAY", "city": "TRAIL", "province": "BC", "country": "CA", "postalCode": "V1R4X6", "twitter": "None", "instagram": "None", "facebook": "None", "youtube": "None", "website": "None", "summary": "None", "logo": "None", "latitude": 49.09467656516732, "longitude": -117.64051893177673}, "888270139RR0001": {"name": "CELESTIAL CHURCH OF CHRIST (IMINSI-IBUKUN) PARISH INC.", "designationCode": "C", "categoryCode": "39", "address": "1101 SCURFIELD BLVD", "city": "WINNIPEG", "province": "MB", "country": "CA", "postalCode": "R3Y1L8", "twitter": "None", "instagram": "None", "facebook": "None", "youtube": "None", "website": "None", "summary": "None", "logo": "None", "latitude": 49.81121375575626, "longitude": -97.21131296569354}, "898198973RR0001": {"name": "CELESTIAL CHURCH OF CHRIST (TORONTO)/EGLISE DU CHRISTIANISME CELESTE (TORONTO)", "designationCode": "C", "categoryCode": "39", "address": "3339 DUNDAS STREET", "city": "TORONTO", "province": "ON", "country": "CA", "postalCode": "M6P2A6", "twitter": "None", "instagram": "None", "facebook": "None", "youtube": "None", "website": "None", "summary": "None", "logo": "None", "latitude": 43.665536474032095, "longitude": -79.48134352553522}, "789987120RR0001": {"name": "CELESTIAL CHURCH OF CHRIST REDEMPTION PARISH INC.", "designationCode": "C", "categoryCode": "39", "address": "636 NOTRE DAME AVE", "city": "WINNIPEG", "province": "MB", "country": "CA", "postalCode": "R3B1S9", "twitter": "None", "instagram": "None", "facebook": "None", "youtube": "None", "website": "None", "summary": "None", "logo": "None", "latitude": 49.90081911904913, "longitude": -97.15738123218293}, "891022782RR0001": {"name": "CELIA FRANCA FOUNDATION", "designationCode": "C", "categoryCode": "21", "address": "200 CRICHTON ST", "city": "OTTAWA", "province": "ON", "country": "CA", "postalCode": "K1M1W2", "twitter": "None", "instagram": "None", "facebook": "None", "youtube": "None", "website": "None", "summary": "None", "logo": "None", "latitude": 45.43988384098893, "longitude": -75.68378421244743}, "118842038RR0001": {"name": "CELIAC ASSOCIATION TORONTO CHAPTER", "designationCode": "C", "categoryCode": "11", "address": "P.O.BOX 25056 RPO CASTLEWOOD", "city": "TORONTO", "province": "ON", "country": "CA", "postalCode": "M5N3A8", "twitter": "None", "instagram": "None", "facebook": "None", "youtube": "None", "website": "None", "summary": "None", "logo": "None", "latitude": 43.7066917058492, "longitude": -79.41580685343143}, "106884471RR0001": {"name": "CELTIC COMMUNITY HOMES ASSOCIATION", "designationCode": "C", "categoryCode": "11", "address": "16 MACLELLAN ST", "city": "ANTIGONISH", "province": "NS", "country": "CA", "postalCode": "B2G1V5", "twitter": "None", "instagram": "None", "facebook": "None", "youtube": "None", "website": "None", "summary": "None", "logo": "None", "latitude": 45.62682662476193, "longitude": -61.996944966818724}, "889620399RR0001": {"name": "CELTIC HERITAGE TRUST FUND", "designationCode": "C", "categoryCode": "21", "address": "203-1 HAVILAND STREET", "city": "CHARLOTTETOWN", "province": "PE", "country": "CA", "postalCode": "C1A0A8", "twitter": "None", "instagram": "None", "facebook": "None", "youtube": "None", "website": "None", "summary": "None", "logo": "None", "latitude": 46.23018149235396, "longitude": -63.127740525535216}, "867898751RR0001": {"name": "CELTIC MUSIC INTERPRETATIVE CENTRE SOCIETY", "designationCode": "C", "categoryCode": "22", "address": "5471 HIGHWAY 19               PO BOX 157", "city": "JUDIQUE", "province": "NS", "country": "CA", "postalCode": "B0E1P0", "twitter": "None", "instagram": "None", "facebook": "None", "youtube": "None", "website": "None", "summary": "None", "logo": "None"}, "890174667RR0001": {"name": "CEMETERY IMPROVEMENT ASSOCIATION", "designationCode": "C", "categoryCode": "59", "address": "PO BOX 10                     28 SANGSTER RD", "city": "LARRY'S RIVER", "province": "NS", "country": "CA", "postalCode": "B0H1T0", "twitter": "None", "instagram": "None", "facebook": "None", "youtube": "None", "website": "None", "summary": "None", "logo": "None", "latitude": 45.20068380128681, "longitude": -61.496608511166755}, "829370949RR0001": {"name": "CEMI OF CANADA/CHRIST IS THE ANSWER CHURCH", "designationCode": "C", "categoryCode": "49", "address": "3799 WARREN ST.", "city": "BURNABY", "province": "BC", "country": "CA", "postalCode": "V5G2G6", "twitter": "None", "instagram": "None", "facebook": "None", "youtube": "None", "website": "None", "summary": "None", "logo": "None", "latitude": 49.24218485660322, "longitude": -123.01994757983435}, "118842087RR0001": {"name": "CENAIKO FOUNDATION", "designationCode": "B", "categoryCode": "03", "address": "106 - 90 FREEPORT BLVD NE", "city": "CALGARY", "province": "AB", "country": "CA", "postalCode": "T3J5J9", "twitter": "None", "instagram": "None", "facebook": "None", "youtube": "None", "website": "None", "summary": "None", "logo": "None", "latitude": 51.15088148211083, "longitude": -114.01245369317328}, "118842095RR0001": {"name": "CENCOURSE PROJECT INC.", "designationCode": "C", "categoryCode": "59", "address": "600 - 30 TUSCARORA ST", "city": "WINDSOR", "province": "ON", "country": "CA", "postalCode": "N9A6Y6", "twitter": "None", "instagram": "None", "facebook": "None", "youtube": "None", "website": "None", "summary": "None", "logo": "None", "latitude": 42.31317148075451, "longitude": -83.03526203000727}, "829024603RR0001": {"name": "CENS", "designationCode": "C", "categoryCode": "52", "address": "1680, ROUTE 241", "city": "SHEFFORD", "province": "QC", "country": "CA", "postalCode": "J2M0C3", "twitter": "None", "instagram": "None", "facebook": "None", "youtube": "None", "website": "None", "summary": "None", "logo": "None", "latitude": 45.33922210268773, "longitude": -72.59462108850158}, "118842103RR0001": {"name": "CENSONO INC.", "designationCode": "C", "categoryCode": "09", "address": "415 LAFONTAINE", "city": "THETFORD MINES", "province": "QC", "country": "CA", "postalCode": "G6G3J4", "twitter": "None", "instagram": "None", "facebook": "None", "youtube": "None", "website": "None", "summary": "None", "logo": "None", "latitude": 46.08927900862702, "longitude": -71.28784828172417}, "140939612RR0001": {"name": "CENTE CHR\u00c9TIEN DE VAL D'OR", "designationCode": "C", "categoryCode": "36", "address": "BOX 563", "city": "VALDOR", "province": "QC", "country": "CA", "postalCode": "J9P4P5", "twitter": "None", "instagram": "None", "facebook": "None", "youtube": "None", "website": "None", "summary": "None", "logo": "None", "latitude": 45.640480000000025, "longitude": -75.18820999999997}, "106884687RR0001": {"name": "CENTENARY UNITED CHURCH", "designationCode": "C", "categoryCode": "44", "address": "585 FORTUNE ST", "city": "MONTREAL", "province": "QC", "country": "CA", "postalCode": "H3K2R7", "twitter": "None", "instagram": "None", "facebook": "None", "youtube": "None", "website": "None", "summary": "None", "logo": "None", "latitude": 45.47789947489746, "longitude": -73.55839046863639}, "118842152RR0001": {"name": "CENTENARY UNITED CHURCH", "designationCode": "C", "categoryCode": "44", "address": "479 DUFFERIN ST.", "city": "STANSTEAD", "province": "QC", "country": "CA", "postalCode": "J0B3E0", "twitter": "None", "instagram": "None", "facebook": "None", "youtube": "None", "website": "None", "summary": "None", "logo": "None", "latitude": 45.013861790466756, "longitude": -72.09500845966268}, "140803958RR0001": {"name": "CENTENARY-QUEEN SQUARE DAY CARE CENTRES INC", "designationCode": "C", "categoryCode": "01", "address": "310 PRINCESS ST", "city": "SAINT JOHN", "province": "NB", "country": "CA", "postalCode": "E2L1L5", "twitter": "None", "instagram": "None", "facebook": "None", "youtube": "None", "website": "None", "summary": "None", "logo": "None", "latitude": 45.273256722170956, "longitude": -66.05046914141035}, "106884760RR0001": {"name": "CENTENNIAL COLLEGE OF APPLIED ARTS AND TECHNOLOGY", "designationCode": "C", "categoryCode": "21", "address": "PO BOX 631 STATION A", "city": "TORONTO", "province": "ON", "country": "CA", "postalCode": "M1K5E9", "twitter": "None", "instagram": "None", "facebook": "None", "youtube": "None", "website": "None", "summary": "None", "logo": "None", "latitude": 43.72579500000006, "longitude": -79.26285049999993}, "891071946RR0001": {"name": "CENTENNIAL COUNCIL 6074 CHARITABLE TRUST", "designationCode": "A", "categoryCode": "65", "address": "1952 MADISON AVE", "city": "SUDBURY", "province": "ON", "country": "CA", "postalCode": "P3A2P6", "twitter": "None", "instagram": "None", "facebook": "None", "youtube": "None", "website": "None", "summary": "None", "logo": "None", "latitude": 46.53036883462514, "longitude": -80.92806299437885}, "106835002RR0001": {"name": "CENTENNIAL DAY CARE SOCIETY", "designationCode": "C", "categoryCode": "01", "address": "106 - 740 HILLSIDE AVE", "city": "VICTORIA", "province": "BC", "country": "CA", "postalCode": "V8T1Z4", "twitter": "None", "instagram": "None", "facebook": "None", "youtube": "None", "website": "None", "summary": "None", "logo": "None", "latitude": 48.438633307836334, "longitude": -123.36546746032651}, "118842194RR0001": {"name": "CENTENNIAL INFANT AND CHILD CENTRE (FOR CHILDREN WITH SPECIAL NEEDS)", "designationCode": "C", "categoryCode": "20", "address": "1580 YONGE STREET", "city": "TORONTO", "province": "ON", "country": "CA", "postalCode": "M4T1Z8", "twitter": "None", "instagram": "None", "facebook": "None", "youtube": "None", "website": "None", "summary": "None", "logo": "None", "latitude": 43.6905960246985, "longitude": -79.39504727938692}, "118842202RR0001": {"name": "CENTENNIAL MUSEUM SOCIETY OF CANMORE", "designationCode": "C", "categoryCode": "50", "address": "902B 7TH AVE", "city": "CANMORE", "province": "AB", "country": "CA", "postalCode": "T1W3K1", "twitter": "None", "instagram": "None", "facebook": "None", "youtube": "None", "website": "None", "summary": "None", "logo": "None", "latitude": 51.09004295558495, "longitude": -115.36080993484812}, "130341431RR0001": {"name": "CENTENNIAL PARK BAPTIST CHURCH", "designationCode": "C", "categoryCode": "31", "address": "11 KENNEDY RD.", "city": "GRIMSBY", "province": "ON", "country": "CA", "postalCode": "L3M1E8", "twitter": "None", "instagram": "None", "facebook": "None", "youtube": "None", "website": "None", "summary": "None", "logo": "None", "latitude": 43.18813299743252, "longitude": -79.55026976106504}, "119152072RR0001": {"name": "CENTENNIAL PARK FELLOWSHIP BAPTIST CHURCH", "designationCode": "C", "categoryCode": "31", "address": "7577 WALLACE DR", "city": "SAANICHTON", "province": "BC", "country": "CA", "postalCode": "V8M1V8", "twitter": "None", "instagram": "None", "facebook": "None", "youtube": "None", "website": "None", "summary": "None", "logo": "None", "latitude": 48.58782511729307, "longitude": -123.42199381558038}, "118842236RR0001": {"name": "CENTENNIAL PRESBYTERIAN CHURCH", "designationCode": "C", "categoryCode": "37", "address": "103 PINETOWN PLACE NE", "city": "CALGARY", "province": "AB", "country": "CA", "postalCode": "T1Y5J1", "twitter": "None", "instagram": "None", "facebook": "None", "youtube": "None", "website": "None", "summary": "None", "logo": "None", "latitude": 51.07496453318128, "longitude": -113.95345444463038}, "873994305RR0001": {"name": "CENTENNIAL ROAD STANDARD CHURCH", "designationCode": "C", "categoryCode": "39", "address": "3545 CENTENNIAL RD RR2", "city": "LYN", "province": "ON", "country": "CA", "postalCode": "K0E1M0", "twitter": "None", "instagram": "None", "facebook": "None", "youtube": "None", "website": "None", "summary": "None", "logo": "None", "latitude": 44.44785407227281, "longitude": -76.0020122734823}, "118842251RR0001": {"name": "CENTENNIAL SENIOR CITIZENS OPPORTUNITY CLUB", "designationCode": "C", "categoryCode": "01", "address": "5114-49 STREET", "city": "ST. PAUL", "province": "AB", "country": "CA", "postalCode": "T0A3A2", "twitter": "None", "instagram": "None", "facebook": "None", "youtube": "None", "website": "None", "summary": "None", "logo": "None", "latitude": 53.99309616180969, "longitude": -111.29449873884805}, "118842277RR0001": {"name": "CENTENNIAL UKRAINIAN COMMITTEE", "designationCode": "C", "categoryCode": "21", "address": "47 HAWKFIELD RISE N.W.", "city": "CALGARY", "province": "AB", "country": "CA", "postalCode": "T3G1Z6", "twitter": "None", "instagram": "None", "facebook": "None", "youtube": "None", "website": "None", "summary": "None", "logo": "None", "latitude": 51.13119750874259, "longitude": -114.18735620304103}, "106885072RR0001": {"name": "CENTENNIAL UNITED CHURCH", "designationCode": "C", "categoryCode": "44", "address": "612 DAVID STREET", "city": "VICTORIA", "province": "BC", "country": "CA", "postalCode": "V8T2E1", "twitter": "None", "instagram": "None", "facebook": "None", "youtube": "None", "website": "None", "summary": "None", "logo": "None", "latitude": 48.438615183478426, "longitude": -123.36942008993587}, "118842285RR0001": {"name": "CENTENNIAL UNITED CHURCH", "designationCode": "C", "categoryCode": "44", "address": "BOX 385", "city": "STAYNER", "province": "ON", "country": "CA", "postalCode": "L0M1S0", "twitter": "None", "instagram": "None", "facebook": "None", "youtube": "None", "website": "None", "summary": "None", "logo": "None", "latitude": 44.42021839038064, "longitude": -80.10092542779911}, "119288918RR0587": {"name": "CENTER CONGREGATION OF JEHOVAH'S WITNESSES, LANGLEY, BRITISH COLUMBIA", "designationCode": "C", "categoryCode": "61", "address": "4830 216TH STREET", "city": "LANGLEY", "province": "BC", "country": "CA", "postalCode": "V3A2M7", "twitter": "None", "instagram": "None", "facebook": "None", "youtube": "None", "website": "None", "summary": "None", "logo": "None", "latitude": 49.08991298834323, "longitude": -122.6246701337643}, "887750552RR0001": {"name": "CENTER MEDJUGORJE RELIEF FUND OF CANADA INC", "designationCode": "C", "categoryCode": "09", "address": "2820 CARLING AVENUE           SUITE 206", "city": "OTTAWA", "province": "ON", "country": "CA", "postalCode": "K2B7J3", "twitter": "None", "instagram": "None", "facebook": "None", "youtube": "None", "website": "None", "summary": "None", "logo": "None", "latitude": 45.35852970188721, "longitude": -75.79708947235864}, "866879216RR0001": {"name": "CENTER OF HOPE INTERNATIONAL CHURCH", "designationCode": "C", "categoryCode": "39", "address": "PO BOX 99542                  1095 O'CONNOR DR", "city": "TORONTO", "province": "ON", "country": "CA", "postalCode": "M4B3M9", "twitter": "None", "instagram": "None", "facebook": "None", "youtube": "None", "website": "None", "summary": "None", "logo": "None", "latitude": 43.710364300017375, "longitude": -79.3090873936755}, "859682726RR0001": {"name": "CENTER OF LIFE CHURCH", "designationCode": "C", "categoryCode": "39", "address": "25 CLAIREPORT CRESCENT", "city": "ETOBICOKE", "province": "ON", "country": "CA", "postalCode": "M9W6P7", "twitter": "None", "instagram": "None", "facebook": "None", "youtube": "None", "website": "None", "summary": "None", "logo": "None", "latitude": 43.74682342437528, "longitude": -79.63206775529491}, "892525049RR0001": {"name": "CENTER OF LIFE MINISTRY", "designationCode": "C", "categoryCode": "49", "address": "#213-556 NORTH NECHAKO ROAD", "city": "PRINCE GEORGE", "province": "BC", "country": "CA", "postalCode": "V2K1A1", "twitter": "None", "instagram": "None", "facebook": "None", "youtube": "None", "website": "None", "summary": "None", "logo": "None", "latitude": 53.93118924938793, "longitude": -122.78078176069265}, "119288918RR1098": {"name": "CENTERMOUNT CONGREGATION OF JEHOVAH'S WITNESSES HAMILTON", "designationCode": "C", "categoryCode": "61", "address": "127 EAST 42ND ST", "city": "HAMILTON", "province": "ON", "country": "CA", "postalCode": "L8T3A2", "twitter": "None", "instagram": "None", "facebook": "None", "youtube": "None", "website": "None", "summary": "None", "logo": "None", "latitude": 43.23238015390992, "longitude": -79.83480255079786}, "120598404RR0002": {"name": "CENTR'ELLES COMIT\u00c9 D'ACTION DES FEMMES D'AVIGNON", "designationCode": "C", "categoryCode": "59", "address": "105 132 RTE E", "city": "SAINT-OMER", "province": "QC", "country": "CA", "postalCode": "G0C2Z0", "twitter": "None", "instagram": "None", "facebook": "None", "youtube": "None", "website": "None", "summary": "None", "logo": "None", "latitude": 48.109582333842816, "longitude": -66.21779315459267}, "106885130RR0001": {"name": "CENTRA CAM VOCATIONAL TRAINING ASSOCIATION", "designationCode": "C", "categoryCode": "20", "address": "PO BOX 1443  STN MAIN", "city": "CAMROSE", "province": "AB", "country": "CA", "postalCode": "T4V1X4", "twitter": "None", "instagram": "None", "facebook": "None", "youtube": "None", "website": "None", "summary": "None", "logo": "None", "latitude": 53.019161503313846, "longitude": -112.82562875165692}, "118842400RR0001": {"name": "CENTRAIDE BAS ST-LAURENT", "designationCode": "A", "categoryCode": "03", "address": "1555 BOUL. JACQUES-CARTIER    BUREAU 303", "city": "MONT-JOLI", "province": "QC", "country": "CA", "postalCode": "G5H2W1", "twitter": "None", "instagram": "None", "facebook": "None", "youtube": "None", "website": "None", "summary": "None", "logo": "None", "latitude": 48.58679255759131, "longitude": -68.18905475214957}, "118842426RR0001": {"name": "CENTRAIDE DES R\u00c9GIONS DU CENTRE-OUEST DU QU\u00c9BEC", "designationCode": "A", "categoryCode": "59", "address": "154 RUE DUNKIN", "city": "DRUMMONDVILLE", "province": "QC", "country": "CA", "postalCode": "J2B5V1", "twitter": "None", "instagram": "None", "facebook": "None", "youtube": "None", "website": "None", "summary": "None", "logo": "None", "latitude": 45.87723435913792, "longitude": -72.47857186842873}, "118842517RR0001": {"name": "CENTRAIDE DU GRAND MONTREAL CENTRAIDE OF GREATER MONTREAL", "designationCode": "A", "categoryCode": "03", "address": "493 RUE SHERBROOKE O", "city": "MONTREAL", "province": "QC", "country": "CA", "postalCode": "H3A1B6", "twitter": "None", "instagram": "None", "facebook": "None", "youtube": "None", "website": "None", "summary": "None", "logo": "None", "latitude": 45.50642027644407, "longitude": -73.5725132317789}, "130387277RR0001": {"name": "CENTRAIDE DUPLESSIS INC", "designationCode": "A", "categoryCode": "03", "address": "185, RUE NAPOL\u00c9ON             BUREAU 101", "city": "SEPT-ILES", "province": "QC", "country": "CA", "postalCode": "G4R4R7", "twitter": "None", "instagram": "None", "facebook": "None", "youtube": "None", "website": "None", "summary": "None", "logo": "None", "latitude": 50.21423103944233, "longitude": -66.36681497339691}, "118842467RR0001": {"name": "CENTRAIDE ESTRIE (CONSEIL R\u00c9GIONAL DE BIEN-\u00caTRE DE SHERBROOKE)", "designationCode": "A", "categoryCode": "03", "address": "1150 BELVEDERE SUD", "city": "SHERBROOKE", "province": "QC", "country": "CA", "postalCode": "J1H4C7", "twitter": "None", "instagram": "None", "facebook": "None", "youtube": "None", "website": "None", "summary": "None", "logo": "None", "latitude": 45.388863000000015, "longitude": -71.8959149070057}, "119459097RR0001": {"name": "CENTRAIDE GASPESIE-ILES-DELA MADELEINE", "designationCode": "C", "categoryCode": "03", "address": "230, ROUTE DU PARC BUREAU 216", "city": "STE-ANNE DES MONTS", "province": "QC", "country": "CA", "postalCode": "G4V2C4", "twitter": "None", "instagram": "None", "facebook": "None", "youtube": "None", "website": "None", "summary": "None", "logo": "None", "latitude": 49.11972667502432, "longitude": -66.47925420584059}, "140707217RR0001": {"name": "CENTRAIDE HAUTE-COTE-NORD / MANICOUAGAN", "designationCode": "A", "categoryCode": "03", "address": "301-858 RUE DE PUYJALON", "city": "BAIE-COMEAU", "province": "QC", "country": "CA", "postalCode": "G5C1N1", "twitter": "None", "instagram": "None", "facebook": "None", "youtube": "None", "website": "None", "summary": "None", "logo": "None", "latitude": 49.1918574532574, "longitude": -68.25789422176693}, "106885288RR0001": {"name": "CENTRAIDE KRTB-C\u00d4TE-DU-SUD", "designationCode": "A", "categoryCode": "49", "address": "100, 4 EME AVE", "city": "LA POCATIERE", "province": "QC", "country": "CA", "postalCode": "G0R1Z0", "twitter": "None", "instagram": "None", "facebook": "None", "youtube": "None", "website": "None", "summary": "None", "logo": "None", "latitude": 47.35548000000006, "longitude": -70.06540999999999}, "106885270RR0001": {"name": "CENTRAIDE LAURENTIDES", "designationCode": "A", "categoryCode": "09", "address": "880 MICH\u00c8LE BOHEC             BUREAU 107", "city": "BLAINVILLE", "province": "QC", "country": "CA", "postalCode": "J7C5E2", "twitter": "None", "instagram": "None", "facebook": "None", "youtube": "None", "website": "None", "summary": "None", "logo": "None", "latitude": 45.66353938112378, "longitude": -73.88789643184843}, "118842459RR0001": {"name": "CENTRAIDE OUTAOUAIS", "designationCode": "A", "categoryCode": "03", "address": "74 BOUL. MONTCLAIR", "city": "GATINEAU", "province": "QC", "country": "CA", "postalCode": "J8Y2E7", "twitter": "None", "instagram": "None", "facebook": "None", "youtube": "None", "website": "None", "summary": "None", "logo": "None", "latitude": 45.44022344214888, "longitude": -75.73656136372554}, "132286808RR0001": {"name": "CENTRAIDE QU\u00c9BEC ET CHAUDI\u00c8RE-APPALACHES", "designationCode": "A", "categoryCode": "03", "address": "550 CH SAINTE-FOY", "city": "QUEBEC", "province": "QC", "country": "CA", "postalCode": "G1S2J5", "twitter": "None", "instagram": "None", "facebook": "None", "youtube": "None", "website": "None", "summary": "None", "logo": "None", "latitude": 46.80243083395702, "longitude": -71.23624557400815}, "130628936RR0001": {"name": "CENTRAIDE RICHELIEU-YAMASKA INC", "designationCode": "A", "categoryCode": "05", "address": "320, AV. DE LA CONCORDE NORD", "city": "SAINT-HYACINTHE", "province": "QC", "country": "CA", "postalCode": "J2S4N7", "twitter": "None", "instagram": "None", "facebook": "None", "youtube": "None", "website": "None", "summary": "None", "logo": "None", "latitude": 45.6253115229095, "longitude": -72.9421052808588}, "106885312RR0001": {"name": "CENTRAIDE SAGUENAY LAC ST-JEAN INC.", "designationCode": "A", "categoryCode": "03", "address": "107-475 BOUL. TALBOT", "city": "CHICOUTIMI", "province": "QC", "country": "CA", "postalCode": "G7H4A3", "twitter": "None", "instagram": "None", "facebook": "None", "youtube": "None", "website": "None", "summary": "None", "logo": "None", "latitude": 48.42278767470719, "longitude": -71.04251452686287}, "892279043RR0001": {"name": "CENTRAL ALBERTA BRAIN INJURY SOCIETY", "designationCode": "C", "categoryCode": "11", "address": "#202 4805-48TH STREET", "city": "RED DEER", "province": "AB", "country": "CA", "postalCode": "T4N1S6", "twitter": "None", "instagram": "None", "facebook": "None", "youtube": "None", "website": "None", "summary": "None", "logo": "None", "latitude": 52.26708047013694, "longitude": -113.80941}, "131789562RR0001": {"name": "CENTRAL ALBERTA CHRISTIAN HIGH SCHOOL SOCIETY", "designationCode": "C", "categoryCode": "20", "address": "22 EAGLE ROAD", "city": "LACOMBE", "province": "AB", "country": "CA", "postalCode": "T4L1G7", "twitter": "None", "instagram": "None", "facebook": "None", "youtube": "None", "website": "None", "summary": "None", "logo": "None", "latitude": 52.471214463001715, "longitude": -113.75166642055176}, "893572982RR0001": {"name": "CENTRAL ALBERTA IMMIGRANT WOMEN'S ASSOCIATION", "designationCode": "C", "categoryCode": "09", "address": "110-5017 49 STREET", "city": "RED DEER", "province": "AB", "country": "CA", "postalCode": "T4N1V4", "twitter": "None", "instagram": "None", "facebook": "None", "youtube": "None", "website": "None", "summary": "None", "logo": "None", "latitude": 52.26802453621104, "longitude": -113.8157235}, "135912244RR0001": {"name": "CENTRAL ALBERTA ISLAMIC CULTURAL ASSOCIATION", "designationCode": "C", "categoryCode": "60", "address": "195 DOUGLAS AVE", "city": "RED DEER", "province": "AB", "country": "CA", "postalCode": "T4R2G2", "twitter": "None", "instagram": "None", "facebook": "None", "youtube": "None", "website": "None", "summary": "None", "logo": "None", "latitude": 52.25901300000001, "longitude": -113.76172815955933}, "848819546RR0001": {"name": "CENTRAL ALBERTA LEGAL CLINIC FOUNDATION", "designationCode": "C", "categoryCode": "59", "address": "301-5008 ROSS STREET RD", "city": "RED DEER", "province": "AB", "country": "CA", "postalCode": "T4N1Y3", "twitter": "None", "instagram": "None", "facebook": "None", "youtube": "None", "website": "None", "summary": "None", "logo": "None", "latitude": 52.269039511541195, "longitude": -113.8146435}, "119112357RR0001": {"name": "CENTRAL ALBERTA PREGNANCY CARE CENTRE SOCIETY", "designationCode": "C", "categoryCode": "09", "address": "5116 47 ST", "city": "RED DEER", "province": "AB", "country": "CA", "postalCode": "T4N1R9", "twitter": "None", "instagram": "None", "facebook": "None", "youtube": "None", "website": "None", "summary": "None", "logo": "None", "latitude": 52.26620751875456, "longitude": -113.81722191618097}, "118842616RR0001": {"name": "CENTRAL ALBERTA REFUGEE EFFORT (C.A.R.E.) COMMITTEE", "designationCode": "C", "categoryCode": "09", "address": "202-5000 GAETZ AVE", "city": "RED DEER", "province": "AB", "country": "CA", "postalCode": "T4N6C2", "twitter": "None", "instagram": "None", "facebook": "None", "youtube": "None", "website": "None", "summary": "None", "logo": "None", "latitude": 52.269318, "longitude": -113.81411841704634}, "118842608RR0001": {"name": "CENTRAL ALBERTA RESIDENCE SOCIETY", "designationCode": "C", "categoryCode": "01", "address": "101-5589 47 ST", "city": "RED DEER", "province": "AB", "country": "CA", "postalCode": "T4N1S1", "twitter": "None", "instagram": "None", "facebook": "None", "youtube": "None", "website": "None", "summary": "None", "logo": "None", "latitude": 52.26715031083743, "longitude": -113.82746793730145}, "118842624RR0001": {"name": "CENTRAL ALBERTA SEXUAL ASSAULT SUPPORT CENTRE", "designationCode": "C", "categoryCode": "09", "address": "A201, 5212 48 ST", "city": "RED DEER", "province": "AB", "country": "CA", "postalCode": "T4N7C3", "twitter": "None", "instagram": "None", "facebook": "None", "youtube": "None", "website": "None", "summary": "None", "logo": "None", "latitude": 52.26717300000006, "longitude": -113.81848099999993}, "118842632RR0001": {"name": "CENTRAL ALBERTA THEATRE", "designationCode": "C", "categoryCode": "22", "address": "4214 58 ST", "city": "RED DEER", "province": "AB", "country": "CA", "postalCode": "T4N2L6", "twitter": "None", "instagram": "None", "facebook": "None", "youtube": "None", "website": "None", "summary": "None", "logo": "None", "latitude": 52.276717486005964, "longitude": -113.79618008381902}, "879420628RR0001": {"name": "CENTRAL ALBERTA VICTIM AND WITNESS SUPPORT SOCIETY", "designationCode": "C", "categoryCode": "09", "address": "PO BOX 1780", "city": "BLACKFALDS", "province": "AB", "country": "CA", "postalCode": "T0M0J0", "twitter": "None", "instagram": "None", "facebook": "None", "youtube": "None", "website": "None", "summary": "None", "logo": "None", "latitude": 52.37008281578276, "longitude": -113.79281997964283}, "137445821RR0001": {"name": "CENTRAL ALBERTA WOMEN'S OUTREACH SOCIETY", "designationCode": "C", "categoryCode": "09", "address": "4101 54 AVE.", "city": "RED DEER", "province": "AB", "country": "CA", "postalCode": "T4N7G3", "twitter": "None", "instagram": "None", "facebook": "None", "youtube": "None", "website": "None", "summary": "None", "logo": "None", "latitude": 52.26097083931551, "longitude": -113.82350492584716}, "861962280RR0001": {"name": "CENTRAL ALBERTA'S SAFE HARBOUR SOCIETY FOR HEALTH AND HOUSING", "designationCode": "C", "categoryCode": "57", "address": "5246 53 AVE", "city": "RED DEER", "province": "AB", "country": "CA", "postalCode": "T4N5K2", "twitter": "None", "instagram": "None", "facebook": "None", "youtube": "None", "website": "None", "summary": "None", "logo": "None", "latitude": 52.272223710254394, "longitude": -113.8163432816086}, "886107895RR0001": {"name": "CENTRAL ARCTIC BAPTIST CHURCH", "designationCode": "C", "categoryCode": "31", "address": "PO BOX 2803", "city": "YELLOWKNIFE", "province": "NT", "country": "CA", "postalCode": "X1A3R1", "twitter": "None", "instagram": "None", "facebook": "None", "youtube": "None", "website": "None", "summary": "None", "logo": "None", "latitude": 62.44958400000006, "longitude": -114.41590549999994}}