{"890655947RR0001": {"name": "VANKLEEK HILL & DISTRICT NATURE SOCIETY", "designationCode": "C", "categoryCode": "52", "address": "P.O. BOX 12", "city": "VANKLEEK HILL", "province": "ON", "country": "CA", "postalCode": "K0B1R0", "twitter": "None", "instagram": "None", "facebook": "None", "youtube": "None", "website": "None", "summary": "None", "logo": "None", "latitude": 45.526948915276186, "longitude": -74.68129408071073}, "842909145RR0001": {"name": "VANKLEEK HILL AGRICULTURAL SOCIETY", "designationCode": "C", "categoryCode": "56", "address": "P.O. BOX 749                  92 MAIN ST. WEST", "city": "VANKLEEK HILL", "province": "ON", "country": "CA", "postalCode": "K0B1R0", "twitter": "None", "instagram": "None", "facebook": "None", "youtube": "None", "website": "None", "summary": "None", "logo": "None", "latitude": 45.52112998242889, "longitude": -74.65806753473915}, "118916170RR0001": {"name": "VANKLEEK HILL BAPTIST CHURCH", "designationCode": "C", "categoryCode": "31", "address": "P.O. BOX 161", "city": "VANKLEEK HILL", "province": "ON", "country": "CA", "postalCode": "K0B1R0", "twitter": "None", "instagram": "None", "facebook": "None", "youtube": "None", "website": "None", "summary": "None", "logo": "None", "latitude": 45.526948915276186, "longitude": -74.68129408071073}, "866930647RR0001": {"name": "VANKLEEK HILL MUSIC FESTIVAL", "designationCode": "C", "categoryCode": "22", "address": "21 DERBY AVENUE               P O BOX 731", "city": "VANKLEEK HILL", "province": "ON", "country": "CA", "postalCode": "K0B1R0", "twitter": "None", "instagram": "None", "facebook": "None", "youtube": "None", "website": "None", "summary": "None", "logo": "None", "latitude": 45.51903479877664, "longitude": -74.64805189104978}, "119282622RR0001": {"name": "VANKLEEK HILL PASTORAL CHARGE", "designationCode": "C", "categoryCode": "44", "address": "BOX 221", "city": "VANKLEEK HILL", "province": "ON", "country": "CA", "postalCode": "K0B1R0", "twitter": "None", "instagram": "None", "facebook": "None", "youtube": "None", "website": "None", "summary": "None", "logo": "None", "latitude": 45.526948915276186, "longitude": -74.68129408071073}, "119282630RR0001": {"name": "VANNECK UNITED CHURCH,", "designationCode": "C", "categoryCode": "44", "address": "22060 WONDERLAND ROAD NORTH", "city": "ILDERTON", "province": "ON", "country": "CA", "postalCode": "N0M2A0", "twitter": "None", "instagram": "None", "facebook": "None", "youtube": "None", "website": "None", "summary": "None", "logo": "None", "latitude": 43.06599915043711, "longitude": -81.33493574951751}, "871231973RR0001": {"name": "VANTAGE COMMUNITY SERVICES SOCIETY", "designationCode": "C", "categoryCode": "57", "address": "4920 54 ST", "city": "RED DEER", "province": "AB", "country": "CA", "postalCode": "T4N2G8", "twitter": "None", "instagram": "None", "facebook": "None", "youtube": "None", "website": "None", "summary": "None", "logo": "None", "latitude": 52.27280547157925, "longitude": -113.81276322300768}, "897340113RR0001": {"name": "VANTAGE SUPPORT SERVICES LTD.", "designationCode": "C", "categoryCode": "09", "address": "219-18 STREET SE", "city": "CALGARY", "province": "AB", "country": "CA", "postalCode": "T2E6J5", "twitter": "None", "instagram": "None", "facebook": "None", "youtube": "None", "website": "None", "summary": "None", "logo": "None", "latitude": 51.05177974854291, "longitude": -114.0113372102544}, "119288918RR0883": {"name": "VANWAY CONGREGATION OF JEHOVAH'S WITNESSES", "designationCode": "C", "categoryCode": "61", "address": "4350 15TH AVE.", "city": "PRINCE GEORGE", "province": "BC", "country": "CA", "postalCode": "V2M5K7", "twitter": "None", "instagram": "None", "facebook": "None", "youtube": "None", "website": "None", "summary": "None", "logo": "None", "latitude": 53.91047448268776, "longitude": -122.808933}, "118955137RR0001": {"name": "VARIETY - THE CHILDREN'S CHARITY (ONTARIO)", "designationCode": "C", "categoryCode": "05", "address": "3701 DANFORTH AV", "city": "SCARBOROUGH", "province": "ON", "country": "CA", "postalCode": "M1N2G2", "twitter": "None", "instagram": "None", "facebook": "None", "youtube": "None", "website": "None", "summary": "None", "logo": "None", "latitude": 43.69892362528153, "longitude": -79.25867008895587}, "108168709RR0001": {"name": "VARIETY - THE CHILDREN'S CHARITY OF BC", "designationCode": "C", "categoryCode": "65", "address": "4300 STILL CREEK DR.", "city": "BURNABY", "province": "BC", "country": "CA", "postalCode": "V5C6C6", "twitter": "None", "instagram": "None", "facebook": "None", "youtube": "None", "website": "None", "summary": "None", "logo": "None", "latitude": 49.25904049624908, "longitude": -123.00937261809682}, "891470221RR0001": {"name": "VARIETY CLUB OF OTTAWA-TENT 71", "designationCode": "A", "categoryCode": "03", "address": "1392 COULTER PLACE", "city": "OTTAWA", "province": "ON", "country": "CA", "postalCode": "K1E3H8", "twitter": "None", "instagram": "None", "facebook": "None", "youtube": "None", "website": "None", "summary": "None", "logo": "None", "latitude": 45.47635659977497, "longitude": -75.50232265849147}, "119282713RR0001": {"name": "VARIETY PLACE ASSOCIATION", "designationCode": "C", "categoryCode": "11", "address": "BOX 1362", "city": "OUTLOOK", "province": "SK", "country": "CA", "postalCode": "S0L2N0", "twitter": "None", "instagram": "None", "facebook": "None", "youtube": "None", "website": "None", "summary": "None", "logo": "None", "latitude": 51.5306764246367, "longitude": -107.23731016398128}, "123625618RR0001": {"name": "VARIETY VILLAGE", "designationCode": "C", "categoryCode": "56", "address": "3701 DANFORTH AVE", "city": "SCARBOROUGH", "province": "ON", "country": "CA", "postalCode": "M1N2G2", "twitter": "None", "instagram": "None", "facebook": "None", "youtube": "None", "website": "None", "summary": "None", "logo": "None", "latitude": 43.69892362528153, "longitude": -79.25867008895587}, "119282689RR0001": {"name": "VARIETY-THE CHILDREN'S CHARITY OF ALBERTA ASSOCIATION", "designationCode": "C", "categoryCode": "05", "address": "153 - 1811 4 ST SW", "city": "CALGARY", "province": "AB", "country": "CA", "postalCode": "T2S1W2", "twitter": "None", "instagram": "None", "facebook": "None", "youtube": "None", "website": "None", "summary": "None", "logo": "None", "latitude": 51.036415742714524, "longitude": -114.07157510090015}, "891618373RR0001": {"name": "VARLEY-MCKAY ART FOUNDATION OF MARKHAM", "designationCode": "C", "categoryCode": "22", "address": "216 MAIN STREET", "city": "UNIONVILLE", "province": "ON", "country": "CA", "postalCode": "L3R2H1", "twitter": "None", "instagram": "None", "facebook": "None", "youtube": "None", "website": "None", "summary": "None", "logo": "None", "latitude": 43.86920636692818, "longitude": -79.3121421389575}, "131802720RR0001": {"name": "VARSITY BIBLE CHURCH", "designationCode": "C", "categoryCode": "31", "address": "4807 VALIANT DRIVE NW", "city": "CALGARY", "province": "AB", "country": "CA", "postalCode": "T3A0Y3", "twitter": "None", "instagram": "None", "facebook": "None", "youtube": "None", "website": "None", "summary": "None", "logo": "None", "latitude": 51.090591678313864, "longitude": -114.15549634609617}, "119282754RR0001": {"name": "VARSITY COMMUNITY ASSOCIATION", "designationCode": "C", "categoryCode": "56", "address": "4303 VARSITY DRIVE NW", "city": "CALGARY", "province": "AB", "country": "CA", "postalCode": "T3A0Z7", "twitter": "None", "instagram": "None", "facebook": "None", "youtube": "None", "website": "None", "summary": "None", "logo": "None", "latitude": 51.09240967831388, "longitude": -114.14964484707711}, "841369366RR0001": {"name": "VARSITY GRADS FOUNDATION", "designationCode": "A", "categoryCode": "23", "address": "340 RICHMOND ST W", "city": "TORONTO", "province": "ON", "country": "CA", "postalCode": "M5V1X2", "twitter": "None", "instagram": "None", "facebook": "None", "youtube": "None", "website": "None", "summary": "None", "logo": "None", "latitude": 43.64871244353386, "longitude": -79.39273131031781}, "108168881RR0001": {"name": "VARSITY PRESBYTERIAN CHURCH", "designationCode": "C", "categoryCode": "37", "address": "4612 VARSITY DRIVE N W", "city": "CALGARY", "province": "AB", "country": "CA", "postalCode": "T3A1V7", "twitter": "None", "instagram": "None", "facebook": "None", "youtube": "None", "website": "None", "summary": "None", "logo": "None", "latitude": 51.093059321686134, "longitude": -114.15301773674192}, "119282770RR0001": {"name": "VARSITY VIEW COMMUNITY CENTRE INC", "designationCode": "C", "categoryCode": "56", "address": "315 LAXDAL ROAD", "city": "WINNIPEG", "province": "MB", "country": "CA", "postalCode": "R3R0W3", "twitter": "None", "instagram": "None", "facebook": "None", "youtube": "None", "website": "None", "summary": "None", "logo": "None", "latitude": 49.8640483447112, "longitude": -97.25951123573229}, "865809198RR0001": {"name": "VASILIOS TSIOLIS FOUNDATION", "designationCode": "A", "categoryCode": "21", "address": "9001 BOUL L'ACADIE            SUITE 904", "city": "MONTREAL", "province": "QC", "country": "CA", "postalCode": "H4N3H5", "twitter": "None", "instagram": "None", "facebook": "None", "youtube": "None", "website": "None", "summary": "None", "logo": "None", "latitude": 45.53265496924197, "longitude": -73.65431520035798}, "890690266RR0001": {"name": "VAUGHAN BAPTIST CHURCH", "designationCode": "C", "categoryCode": "31", "address": "8274 ISLINGTON AVE.", "city": "WOODBRIDGE", "province": "ON", "country": "CA", "postalCode": "L4L1W8", "twitter": "None", "instagram": "None", "facebook": "None", "youtube": "None", "website": "None", "summary": "None", "logo": "None", "latitude": 43.79436813044609, "longitude": -79.58461051835052}, "121974182RR0001": {"name": "VAUGHAN COMMUNITY CHURCH", "designationCode": "C", "categoryCode": "37", "address": "200 RACCO PARKWAY", "city": "THORNHILL", "province": "ON", "country": "CA", "postalCode": "L4J8X9", "twitter": "None", "instagram": "None", "facebook": "None", "youtube": "None", "website": "None", "summary": "None", "logo": "None", "latitude": 43.817426306162886, "longitude": -79.47285065436517}, "108169046RR0001": {"name": "VAUGHAN COMMUNITY INFORMATION SERVICES", "designationCode": "C", "categoryCode": "09", "address": "71 MARYCROFT AVE UNIT 8", "city": "WOODBRIDGE", "province": "ON", "country": "CA", "postalCode": "L4L5Y6", "twitter": "None", "instagram": "None", "facebook": "None", "youtube": "None", "website": "None", "summary": "None", "logo": "None", "latitude": 43.78075962643538, "longitude": -79.56459690028328}, "892386962RR0001": {"name": "VAUGHANS PASTORAL CHARGE", "designationCode": "C", "categoryCode": "44", "address": "1428 HIGHWAY 14 RR3", "city": "WINDSOR", "province": "NS", "country": "CA", "postalCode": "B0N2T0", "twitter": "None", "instagram": "None", "facebook": "None", "youtube": "None", "website": "None", "summary": "None", "logo": "None", "latitude": 44.97928324701369, "longitude": -64.12858477575156}, "871667168RR0001": {"name": "VAUXHALL & AREA FOOD BANK SOCIETY", "designationCode": "C", "categoryCode": "09", "address": "813 - 7 AVE N.                BOX 746", "city": "VAUXHALL", "province": "AB", "country": "CA", "postalCode": "T0K2K0", "twitter": "None", "instagram": "None", "facebook": "None", "youtube": "None", "website": "None", "summary": "None", "logo": "None", "latitude": 50.073184317567986, "longitude": -112.11411479032053}, "119282812RR0001": {"name": "VAUXHALL PUBLIC LIBRARY", "designationCode": "C", "categoryCode": "50", "address": "P.O. BOX 265", "city": "VAUXHALL", "province": "AB", "country": "CA", "postalCode": "T0K2K0", "twitter": "None", "instagram": "None", "facebook": "None", "youtube": "None", "website": "None", "summary": "None", "logo": "None", "latitude": 50.070880000000045, "longitude": -112.09733999999997}, "119282820RR0001": {"name": "VAVENBY CHRISTIAN CHURCH", "designationCode": "C", "categoryCode": "39", "address": "P.O. BOX 99", "city": "VAVENBY", "province": "BC", "country": "CA", "postalCode": "V0E3A0", "twitter": "None", "instagram": "None", "facebook": "None", "youtube": "None", "website": "None", "summary": "None", "logo": "None", "latitude": 51.59284000000008, "longitude": -119.72549999999995}, "814698726RR0001": {"name": "VBF-CAD Veterans Benevolent Fund", "designationCode": "C", "categoryCode": "21", "address": "192 SOMERSET STREET W", "city": "OTTAWA", "province": "ON", "country": "CA", "postalCode": "K2P0J4", "twitter": "None", "instagram": "None", "facebook": "None", "youtube": "None", "website": "None", "summary": "None", "logo": "None", "latitude": 45.41764053814428, "longitude": -75.69083973062507}, "119258754RR0001": {"name": "VDC DANCE CENTRE SOCIETY", "designationCode": "C", "categoryCode": "22", "address": "677 DAVIE ST, LEVEL 6", "city": "VANCOUVER", "province": "BC", "country": "CA", "postalCode": "V6B2G6", "twitter": "None", "instagram": "None", "facebook": "None", "youtube": "None", "website": "None", "summary": "None", "logo": "None", "latitude": 49.27699514960467, "longitude": -123.12586593698433}, "888042439RR0001": {"name": "VE'AHAVTA: THE CANADIAN JEWISH HUMANITARIAN & RELIEF COMMITTEE", "designationCode": "C", "categoryCode": "09", "address": "200 BRIDGELAND AVE. UNIT D", "city": "TORONTO", "province": "ON", "country": "CA", "postalCode": "M6A1Z4", "twitter": "None", "instagram": "None", "facebook": "None", "youtube": "None", "website": "None", "summary": "None", "logo": "None", "latitude": 43.72484013240798, "longitude": -79.46673918096826}, "119286912RR0001": {"name": "VECOVA CENTRE FOR DISABILITY SERVICES AND RESEARCH", "designationCode": "C", "categoryCode": "20", "address": "3304 - 33RD STREET N.W.", "city": "CALGARY", "province": "AB", "country": "CA", "postalCode": "T2L2A6", "twitter": "None", "instagram": "None", "facebook": "None", "youtube": "None", "website": "None", "summary": "None", "logo": "None", "latitude": 51.08216307799066, "longitude": -114.13418027142374}, "889008843RR0001": {"name": "VEDANTA ASHRAM SOCIETY", "designationCode": "C", "categoryCode": "39", "address": "6421 CORK STREET", "city": "HALIFAX", "province": "NS", "country": "CA", "postalCode": "B3L1Z5", "twitter": "None", "instagram": "None", "facebook": "None", "youtube": "None", "website": "None", "summary": "None", "logo": "None", "latitude": 44.65349258119329, "longitude": -63.60940969069178}, "119261345RR0001": {"name": "VEDANTA SOCIETY OF CALGARY", "designationCode": "C", "categoryCode": "39", "address": "PO BOX 67009                  NORTHLAND VILLAGE PO", "city": "CALGARY", "province": "AB", "country": "CA", "postalCode": "T2L2L2", "twitter": "None", "instagram": "None", "facebook": "None", "youtube": "None", "website": "None", "summary": "None", "logo": "None", "latitude": 51.097390051070526, "longitude": -114.14277998326557}, "119282861RR0001": {"name": "VEDANTA SOCIETY OF EDMONTON", "designationCode": "C", "categoryCode": "39", "address": "#31, 882 RYAN PLACE", "city": "EDMONTON", "province": "AB", "country": "CA", "postalCode": "T6R2K9", "twitter": "None", "instagram": "None", "facebook": "None", "youtube": "None", "website": "None", "summary": "None", "logo": "None", "latitude": 53.469939783773, "longitude": -113.58324941799864}, "136070828RR0001": {"name": "VEDANTA SOCIETY OF TORONTO", "designationCode": "C", "categoryCode": "47", "address": "120 EMMETT AVENUE", "city": "TORONTO", "province": "ON", "country": "CA", "postalCode": "M6M2E6", "twitter": "None", "instagram": "None", "facebook": "None", "youtube": "None", "website": "None", "summary": "None", "logo": "None", "latitude": 43.68687026423904, "longitude": -79.50840040510113}, "881145627RR0001": {"name": "VEDANTA SOCIETY OF WINNIPEG", "designationCode": "C", "categoryCode": "48", "address": "62 BETHUNE WAY", "city": "WINNIPEG", "province": "MB", "country": "CA", "postalCode": "R2M5J3", "twitter": "None", "instagram": "None", "facebook": "None", "youtube": "None", "website": "None", "summary": "None", "logo": "None", "latitude": 49.831802079087176, "longitude": -97.1206837606037}, "119282895RR0001": {"name": "VEDIC ARYAN CULTURAL SOCIETY", "designationCode": "C", "categoryCode": "49", "address": "P.O. BOX 87118                2942 FINCH AVENUE EAST", "city": "SCARBOROUGH", "province": "ON", "country": "CA", "postalCode": "M1W2T4", "twitter": "None", "instagram": "None", "facebook": "None", "youtube": "None", "website": "None", "summary": "None", "logo": "None", "latitude": 43.79372068106577, "longitude": -79.32906590995779}, "891137945RR0001": {"name": "VEDIC CULTURAL SOCIETY OF BRITISH COLUMBIA", "designationCode": "C", "categoryCode": "39", "address": "4841 NEVILLE ST", "city": "BURNABY", "province": "BC", "country": "CA", "postalCode": "V5J2H4", "twitter": "None", "instagram": "None", "facebook": "None", "youtube": "None", "website": "None", "summary": "None", "logo": "None", "latitude": 49.21380146436588, "longitude": -122.99502141618098}, "136312907RR0001": {"name": "VEDIC HINDU SOCIETY OF BRITISH COLUMBIA", "designationCode": "C", "categoryCode": "48", "address": "108-13049 76 AVE", "city": "SURREY", "province": "BC", "country": "CA", "postalCode": "V3W2V7", "twitter": "None", "instagram": "None", "facebook": "None", "youtube": "None", "website": "None", "summary": "None", "logo": "None", "latitude": 49.14101048211083, "longitude": -122.86120385789715}, "891793317RR0001": {"name": "VEDIC MISSION SCARBOROUGH INC.", "designationCode": "C", "categoryCode": "48", "address": "200 SIVERSTAR BLVD            #331", "city": "SCARBOROUGH", "province": "ON", "country": "CA", "postalCode": "M1V5H4", "twitter": "None", "instagram": "None", "facebook": "None", "youtube": "None", "website": "None", "summary": "None", "logo": "None", "latitude": 43.8101603488088, "longitude": -79.29309453384417}, "888039443RR0001": {"name": "VEERASHAIVA SAMAJA OF NORTH AMERICA TORONTO, ONTARIO CHAPTER", "designationCode": "C", "categoryCode": "39", "address": "6 RAITHBY CRES", "city": "AJAX", "province": "ON", "country": "CA", "postalCode": "L1Z0S2", "twitter": "None", "instagram": "None", "facebook": "None", "youtube": "None", "website": "None", "summary": "None", "logo": "None", "latitude": 43.87844352491596, "longitude": -79.00890508986711}, "140151051RR0001": {"name": "VEG AL-DRUG SOCIETY", "designationCode": "C", "categoryCode": "57", "address": "PO BOX 65", "city": "VEGREVILLE", "province": "AB", "country": "CA", "postalCode": "T9C1R1", "twitter": "None", "instagram": "None", "facebook": "None", "youtube": "None", "website": "None", "summary": "None", "logo": "None", "latitude": 53.49528600000005, "longitude": -112.05415249999993}, "131908139RR0001": {"name": "VEGREVILLE ALLIANCE CHURCH OF THE CHRISTIAN AND MISSIONARY", "designationCode": "C", "categoryCode": "39", "address": "4606 55TH AVENUE", "city": "VEGREVILLE", "province": "AB", "country": "CA", "postalCode": "T9C1G3", "twitter": "None", "instagram": "None", "facebook": "None", "youtube": "None", "website": "None", "summary": "None", "logo": "None", "latitude": 53.497936461624576, "longitude": -112.04020926865378}, "898545496RR0001": {"name": "VEGREVILLE CHARITABLE TRUST", "designationCode": "B", "categoryCode": "39", "address": "3425 2 AVE S", "city": "LETHBRIDGE", "province": "AB", "country": "CA", "postalCode": "T1J4V1", "twitter": "None", "instagram": "None", "facebook": "None", "youtube": "None", "website": "None", "summary": "None", "logo": "None", "latitude": 49.696839530439966, "longitude": -112.78914308381903}, "119282929RR0001": {"name": "VEGREVILLE CHRISTMAS BUREAU", "designationCode": "C", "categoryCode": "09", "address": "PO BOX 31", "city": "VEGREVILLE", "province": "AB", "country": "CA", "postalCode": "T9C1R1", "twitter": "None", "instagram": "None", "facebook": "None", "youtube": "None", "website": "None", "summary": "None", "logo": "None", "latitude": 53.49528600000005, "longitude": -112.05415249999993}, "122919236RR0001": {"name": "VEGREVILLE CULTURAL ASSOCIATION", "designationCode": "C", "categoryCode": "22", "address": "PO BOX 908", "city": "VEGREVILLE", "province": "AB", "country": "CA", "postalCode": "T9C1S1", "twitter": "None", "instagram": "None", "facebook": "None", "youtube": "None", "website": "None", "summary": "None", "logo": "None", "latitude": 53.49528600000005, "longitude": -112.05415249999993}, "892843848RR0001": {"name": "VEGREVILLE FOOD BANK SOCIETY", "designationCode": "C", "categoryCode": "09", "address": "PO BOX 705", "city": "VEGREVILLE", "province": "AB", "country": "CA", "postalCode": "T9C1R7", "twitter": "None", "instagram": "None", "facebook": "None", "youtube": "None", "website": "None", "summary": "None", "logo": "None", "latitude": 53.49528600000005, "longitude": -112.05415249999993}, "119041507RR0001": {"name": "VEGREVILLE LONG TERM CARE PATIENT'S COMFORT SOCIETY", "designationCode": "C", "categoryCode": "19", "address": "BOX 295", "city": "VEGREVILLE", "province": "AB", "country": "CA", "postalCode": "T9C1R2", "twitter": "None", "instagram": "None", "facebook": "None", "youtube": "None", "website": "None", "summary": "None", "logo": "None", "latitude": 53.49528600000005, "longitude": -112.05415249999993}, "119282945RR0001": {"name": "VEGREVILLE PENTECOSTAL CHURCH", "designationCode": "C", "categoryCode": "36", "address": "4615 MAPLE STREET", "city": "VEGREVILLE", "province": "AB", "country": "CA", "postalCode": "T9C1N4", "twitter": "None", "instagram": "None", "facebook": "None", "youtube": "None", "website": "None", "summary": "None", "logo": "None", "latitude": 53.49417816097504, "longitude": -112.06617573668076}, "122301500RR0001": {"name": "VEGREVILLE PRESCHOOL ASSOCIATION", "designationCode": "C", "categoryCode": "20", "address": "5106 48 AVE", "city": "VEGREVILLE", "province": "AB", "country": "CA", "postalCode": "T9C1L8", "twitter": "None", "instagram": "None", "facebook": "None", "youtube": "None", "website": "None", "summary": "None", "logo": "None", "latitude": 53.49450277159663, "longitude": -112.05755974505179}, "119282952RR0001": {"name": "VEGREVILLE PUBLIC LIBRARY", "designationCode": "C", "categoryCode": "50", "address": "PO BOX 129", "city": "VEGREVILLE", "province": "AB", "country": "CA", "postalCode": "T9C1R1", "twitter": "None", "instagram": "None", "facebook": "None", "youtube": "None", "website": "None", "summary": "None", "logo": "None", "latitude": 53.49528600000005, "longitude": -112.05415249999993}, "896884152RR0001": {"name": "VEGREVILLE PUBLIC LIBRARY FOUNDATION", "designationCode": "A", "categoryCode": "53", "address": "P.O. BOX 129", "city": "VEGREVILLE", "province": "AB", "country": "CA", "postalCode": "T9C1R1", "twitter": "None", "instagram": "None", "facebook": "None", "youtube": "None", "website": "None", "summary": "None", "logo": "None", "latitude": 53.49528600000005, "longitude": -112.05415249999993}, "867029761RR0001": {"name": "VEGREVILLE REGIONAL MUSEUM SOCIETY", "designationCode": "C", "categoryCode": "53", "address": "PO BOX 328", "city": "VEGREVILLE", "province": "AB", "country": "CA", "postalCode": "T9C1R3", "twitter": "None", "instagram": "None", "facebook": "None", "youtube": "None", "website": "None", "summary": "None", "logo": "None", "latitude": 53.49528600000005, "longitude": -112.05415249999993}, "133277061RR0001": {"name": "VEGREVILLE SEVENTH-DAY ADVENTIST CHURCH", "designationCode": "C", "categoryCode": "41", "address": "5816 HIGHWAY 2A", "city": "LACOMBE", "province": "AB", "country": "CA", "postalCode": "T4L2G5", "twitter": "None", "instagram": "None", "facebook": "None", "youtube": "None", "website": "None", "summary": "None", "logo": "None", "latitude": 52.474063600197404, "longitude": -113.71692568401835}, "855807939RR0001": {"name": "VEGREVILLE TRANSPORTATION SERVICES SOCIETY", "designationCode": "C", "categoryCode": "03", "address": "BOX 1113", "city": "VEGREVILLE", "province": "AB", "country": "CA", "postalCode": "T9C1S3", "twitter": "None", "instagram": "None", "facebook": "None", "youtube": "None", "website": "None", "summary": "None", "logo": "None", "latitude": 53.49528600000005, "longitude": -112.05415249999993}, "135431120RR0001": {"name": "VEGREVILLE, ALBERTA, CONGREGATION OF JEHOVAH'S WITNESSES", "designationCode": "C", "categoryCode": "61", "address": "4706 59 AVE", "city": "VEGREVILLE", "province": "AB", "country": "CA", "postalCode": "T9C1X3", "twitter": "None", "instagram": "None", "facebook": "None", "youtube": "None", "website": "None", "summary": "None", "logo": "None", "latitude": 53.503123533758206, "longitude": -112.04283158381902}, "119282978RR0001": {"name": "VEITH HOUSE", "designationCode": "C", "categoryCode": "01", "address": "3115 VEITH STREET", "city": "HALIFAX", "province": "NS", "country": "CA", "postalCode": "B3K3G9", "twitter": "None", "instagram": "None", "facebook": "None", "youtube": "None", "website": "None", "summary": "None", "logo": "None", "latitude": 44.66467664752719, "longitude": -63.59584915096097}, "854134343RR0001": {"name": "VEITH STREET GALLERY STUDIO ASSOCIATION", "designationCode": "C", "categoryCode": "22", "address": "156 OCHTERLONEY ST", "city": "DARTMOUTH", "province": "NS", "country": "CA", "postalCode": "B2Y1E1", "twitter": "None", "instagram": "None", "facebook": "None", "youtube": "None", "website": "None", "summary": "None", "logo": "None", "latitude": 44.67005878544642, "longitude": -63.564369879941275}, "119282986RR0001": {"name": "VELA MICROBOARD ASSOCIATION OF B.C.", "designationCode": "C", "categoryCode": "01", "address": "1-5761 GLOVER ROAD", "city": "LANGLEY", "province": "BC", "country": "CA", "postalCode": "V3A8M8", "twitter": "None", "instagram": "None", "facebook": "None", "youtube": "None", "website": "None", "summary": "None", "logo": "None", "latitude": 49.10751179434635, "longitude": -122.65171741602366}, "866893621RR0001": {"name": "VENNACHAR CEMETERY BOARD", "designationCode": "C", "categoryCode": "59", "address": "RR 1", "city": "CLOYNE", "province": "ON", "country": "CA", "postalCode": "K0H1K0", "twitter": "None", "instagram": "None", "facebook": "None", "youtube": "None", "website": "None", "summary": "None", "logo": "None", "latitude": 44.82319000000007, "longitude": -77.18713999999994}, "119233963RR0001": {"name": "VENNACHER FREE METHODIST CHURCH", "designationCode": "C", "categoryCode": "39", "address": "271 AIRDS LK RD", "city": "GRIFFITH", "province": "ON", "country": "CA", "postalCode": "K0J2R0", "twitter": "None", "instagram": "None", "facebook": "None", "youtube": "None", "website": "None", "summary": "None", "logo": "None", "latitude": 45.130743232155226, "longitude": -77.091234320879}, "108169830RR0001": {"name": "VENTA PREPARATORY SCHOOL INC.", "designationCode": "C", "categoryCode": "20", "address": "2013 OLD CARP RD", "city": "CARP", "province": "ON", "country": "CA", "postalCode": "K0A1L0", "twitter": "None", "instagram": "None", "facebook": "None", "youtube": "None", "website": "None", "summary": "None", "logo": "None", "latitude": 45.34026495481525, "longitude": -76.00356401009888}, "889998373RR0001": {"name": "VENTRY CEMETERY", "designationCode": "C", "categoryCode": "59", "address": "146573 SOUTHGATE RD 14        RR 2", "city": "DUNDALK", "province": "ON", "country": "CA", "postalCode": "N0C1B0", "twitter": "None", "instagram": "None", "facebook": "None", "youtube": "None", "website": "None", "summary": "None", "logo": "None", "latitude": 44.120909298383964, "longitude": -80.43848847821607}, "891952137RR0001": {"name": "VENTURA MEMORIAL FLIGHT ASSOCIATION", "designationCode": "C", "categoryCode": "50", "address": "11410 KINGSWAY AVENUE", "city": "EDMONTON", "province": "AB", "country": "CA", "postalCode": "T5G0X4", "twitter": "None", "instagram": "None", "facebook": "None", "youtube": "None", "website": "None", "summary": "None", "logo": "None", "latitude": 53.565409817634944, "longitude": -113.51819930094248}, "119283026RR0001": {"name": "VENTURES DRUM & BUGLE CORPS INC", "designationCode": "C", "categoryCode": "22", "address": "403-539 BELMONT AVE. W.", "city": "KITCHENER", "province": "ON", "country": "CA", "postalCode": "N2M0A2", "twitter": "None", "instagram": "None", "facebook": "None", "youtube": "None", "website": "None", "summary": "None", "logo": "None", "latitude": 43.445592309205885, "longitude": -80.51325890664451}, "140695933RR0001": {"name": "VERBO CHRISTIAN MINISTRIES OF ONTARIO", "designationCode": "C", "categoryCode": "39", "address": "7 CREDO DR", "city": "WOODBRIDGE", "province": "ON", "country": "CA", "postalCode": "L4H0M6", "twitter": "None", "instagram": "None", "facebook": "None", "youtube": "None", "website": "None", "summary": "None", "logo": "None", "latitude": 43.831179525102534, "longitude": -79.5708135}, "857779300RR0001": {"name": "VERBO COMMUNITY CHURCH OF MISSISSAUGA", "designationCode": "C", "categoryCode": "39", "address": "6027 CHIDHAM CRESCENT", "city": "MISSISSAUGA", "province": "ON", "country": "CA", "postalCode": "L5N2R8", "twitter": "None", "instagram": "None", "facebook": "None", "youtube": "None", "website": "None", "summary": "None", "logo": "None", "latitude": 43.57652227006741, "longitude": -79.73691620731155}, "871811295RR0001": {"name": "VERDANT VALLEY CHARITABLE TRUST", "designationCode": "B", "categoryCode": "39", "address": "3425 2 AVE S", "city": "LETHBRIDGE", "province": "AB", "country": "CA", "postalCode": "T1J4V1", "twitter": "None", "instagram": "None", "facebook": "None", "youtube": "None", "website": "None", "summary": "None", "logo": "None", "latitude": 49.696839530439966, "longitude": -112.78914308381903}, "119283059RR0001": {"name": "VERDI SOCIAL PROGRAM FOR HANDICAPPED ADULTS", "designationCode": "C", "categoryCode": "09", "address": "32 CAMPBELL AVE", "city": "SAULT STE. MARIE", "province": "ON", "country": "CA", "postalCode": "P6B3B2", "twitter": "None", "instagram": "None", "facebook": "None", "youtube": "None", "website": "None", "summary": "None", "logo": "None", "latitude": 46.51664467055227, "longitude": -84.3115910832421}, "119283075RR0001": {"name": "VERDUN POPPY TRUST FUND", "designationCode": "C", "categoryCode": "09", "address": "5969 VERDUN AVENUE", "city": "VERDUN", "province": "QC", "country": "CA", "postalCode": "H4H1M6", "twitter": "None", "instagram": "None", "facebook": "None", "youtube": "None", "website": "None", "summary": "None", "logo": "None", "latitude": 45.44744629447746, "longitude": -73.5727898637542}, "119283067RR0001": {"name": "VERDUN-LASALLE BAPTIST CHURCH", "designationCode": "C", "categoryCode": "31", "address": "106 - 1450 BOUL SHEVCHENKO", "city": "LASALLE", "province": "QC", "country": "CA", "postalCode": "H8N1P1", "twitter": "None", "instagram": "None", "facebook": "None", "youtube": "None", "website": "None", "summary": "None", "logo": "None", "latitude": 45.431075474032085, "longitude": -73.62211402553523}, "835059270RR0001": {"name": "VEREIN ZUR FORDERUNG DES CHRISTLICHEN GLAUBENS INC.", "designationCode": "C", "categoryCode": "39", "address": "35062 32 RD E", "city": "MITCHELL", "province": "MB", "country": "CA", "postalCode": "R5G2N1", "twitter": "None", "instagram": "None", "facebook": "None", "youtube": "None", "website": "None", "summary": "None", "logo": "None", "latitude": 50.63103600000005, "longitude": -96.59055949999994}, "892016817RR0001": {"name": "VERGE FOR YOUTH SOCIETY", "designationCode": "C", "categoryCode": "21", "address": "7302 BANFF COURT ROAD         P. O. BOX 178", "city": "RADIUM HOT SPRINGS", "province": "BC", "country": "CA", "postalCode": "V0A1M0", "twitter": "None", "instagram": "None", "facebook": "None", "youtube": "None", "website": "None", "summary": "None", "logo": "None", "latitude": 50.62926974062447, "longitude": -116.08078106325895}, "119283091RR0001": {"name": "VERIGIN NEW HORIZONS INC", "designationCode": "C", "categoryCode": "56", "address": "PO BOX 96", "city": "VEREGIN", "province": "SK", "country": "CA", "postalCode": "S0A4H0", "twitter": "None", "instagram": "None", "facebook": "None", "youtube": "None", "website": "None", "summary": "None", "logo": "None", "latitude": 51.342398990315594, "longitude": -102.10042949656935}, "139195150RR0001": {"name": "VERITAS SOCIETY", "designationCode": "C", "categoryCode": "49", "address": "113 - 30 FARNHAM GATE RD", "city": "HALIFAX", "province": "NS", "country": "CA", "postalCode": "B3M3W8", "twitter": "None", "instagram": "None", "facebook": "None", "youtube": "None", "website": "None", "summary": "None", "logo": "None", "latitude": 44.67322242429246, "longitude": -63.664684059775034}, "898362173RR0001": {"name": "VERITY CENTRE FOR BETTER LIVING INC.", "designationCode": "C", "categoryCode": "39", "address": "28 MILFORD AVENUE", "city": "TORONTO", "province": "ON", "country": "CA", "postalCode": "M6M2V8", "twitter": "None", "instagram": "None", "facebook": "None", "youtube": "None", "website": "None", "summary": "None", "logo": "None", "latitude": 43.7051041690517, "longitude": -79.47426697336826}, "889887980RR0001": {"name": "VERMILION & AREA BRIGHTER BEGINNINGS SOCIETY", "designationCode": "C", "categoryCode": "20", "address": "SUITE 14, 5125-50TH AVE.", "city": "VERMILLION", "province": "AB", "country": "CA", "postalCode": "T9X1L9", "twitter": "None", "instagram": "None", "facebook": "None", "youtube": "None", "website": "None", "summary": "None", "logo": "None", "latitude": 53.353945521207386, "longitude": -110.8573335}, "898203989RR0001": {"name": "VERMILION & DISTRICT HOUSING FOUNDATION", "designationCode": "C", "categoryCode": "01", "address": "4610 - 53 AVE.", "city": "VERMILION", "province": "AB", "country": "CA", "postalCode": "T9X1G6", "twitter": "None", "instagram": "None", "facebook": "None", "youtube": "None", "website": "None", "summary": "None", "logo": "None", "latitude": 53.35673968553025, "longitude": -110.84258059664651}, "119283109RR0001": {"name": "VERMILION ALLIED ARTS COUNCIL", "designationCode": "C", "categoryCode": "22", "address": "PO BOX 3042", "city": "VERMILION", "province": "AB", "country": "CA", "postalCode": "T9X2B1", "twitter": "None", "instagram": "None", "facebook": "None", "youtube": "None", "website": "None", "summary": "None", "logo": "None", "latitude": 53.35397700000006, "longitude": -110.85710299999994}, "108170200RR0001": {"name": "VERMILION AND AREA VOLUNTEER CRISIS LINE ASSOCIATION", "designationCode": "C", "categoryCode": "09", "address": "PO BOX 3652", "city": "VERMILION", "province": "AB", "country": "CA", "postalCode": "T9X2B6", "twitter": "None", "instagram": "None", "facebook": "None", "youtube": "None", "website": "None", "summary": "None", "logo": "None", "latitude": 53.35397700000006, "longitude": -110.85710299999994}, "893385567RR0001": {"name": "VERMILION AND DISTRICT MULTI-CULTURAL AND HISTORICAL SOCIETY", "designationCode": "C", "categoryCode": "50", "address": "5310 50 AVE", "city": "VERMILION", "province": "AB", "country": "CA", "postalCode": "T9X1L1", "twitter": "None", "instagram": "None", "facebook": "None", "youtube": "None", "website": "None", "summary": "None", "logo": "None", "latitude": 53.3539894899011, "longitude": -110.86231049999999}, "108103151RR0001": {"name": "VERMILION ASSOCIATION FOR PERSONS WITH DISABILITIES - F O C U S VERMILION", "designationCode": "C", "categoryCode": "11", "address": "4921 51ST AVENUE", "city": "VERMILION", "province": "AB", "country": "CA", "postalCode": "T9X1S8", "twitter": "None", "instagram": "None", "facebook": "None", "youtube": "None", "website": "None", "summary": "None", "logo": "None", "latitude": 53.35484153952927, "longitude": -110.8521}, "119283125RR0001": {"name": "VERMILION BAY PASTORAL CHARGE,", "designationCode": "C", "categoryCode": "44", "address": "BOX 154", "city": "VERMILION BAY", "province": "ON", "country": "CA", "postalCode": "P0V2V0", "twitter": "None", "instagram": "None", "facebook": "None", "youtube": "None", "website": "None", "summary": "None", "logo": "None", "latitude": 49.86185100000006, "longitude": -93.39024049999993}, "119283133RR0001": {"name": "VERMILION CONGREGATION OF JEHOVAH'S WITNESSES", "designationCode": "C", "categoryCode": "61", "address": "5325 51ST AVE", "city": "VERMILION", "province": "AB", "country": "CA", "postalCode": "T9X1V2", "twitter": "None", "instagram": "None", "facebook": "None", "youtube": "None", "website": "None", "summary": "None", "logo": "None", "latitude": 53.35482953231589, "longitude": -110.86423500152921}, "873973127RR0001": {"name": "VERMILION ELEMENTARY SCHOOL LUNCH PROGRAM SOCIETY", "designationCode": "C", "categoryCode": "09", "address": "4837 - 44 STREET", "city": "VERMILION", "province": "AB", "country": "CA", "postalCode": "T9X1G3", "twitter": "None", "instagram": "None", "facebook": "None", "youtube": "None", "website": "None", "summary": "None", "logo": "None", "latitude": 53.35193300288737, "longitude": -110.83426636341098}, "869778415RR0001": {"name": "VERMILION FORKS FIELD NATURALISTS' SOCIETY", "designationCode": "C", "categoryCode": "52", "address": "P.O.BOX 2074", "city": "PRINCETON", "province": "BC", "country": "CA", "postalCode": "V0X1W0", "twitter": "None", "instagram": "None", "facebook": "None", "youtube": "None", "website": "None", "summary": "None", "logo": "None", "latitude": 49.458687000000054, "longitude": -120.50591299999994}, "119283166RR0001": {"name": "VERMILION PLAY DEVELOPMENT PROGRAM", "designationCode": "C", "categoryCode": "01", "address": "PO BOX 3806 STN MAIN", "city": "VERMILION", "province": "AB", "country": "CA", "postalCode": "T9X2B8", "twitter": "None", "instagram": "None", "facebook": "None", "youtube": "None", "website": "None", "summary": "None", "logo": "None", "latitude": 53.35397700000006, "longitude": -110.85710299999994}, "108130709RR0001": {"name": "VERMILION PUBLIC LIBRARY BOARD", "designationCode": "C", "categoryCode": "50", "address": "5001 49 AVE", "city": "VERMILION", "province": "AB", "country": "CA", "postalCode": "T9X1B8", "twitter": "None", "instagram": "None", "facebook": "None", "youtube": "None", "website": "None", "summary": "None", "logo": "None", "latitude": 53.35293932255222, "longitude": -110.85237486754671}, "890167372RR0001": {"name": "VERMILION SENIOR CITIZENS' CENTRE", "designationCode": "C", "categoryCode": "56", "address": "5324 50 AVENUE", "city": "VERMILION", "province": "AB", "country": "CA", "postalCode": "T9X1V2", "twitter": "None", "instagram": "None", "facebook": "None", "youtube": "None", "website": "None", "summary": "None", "logo": "None", "latitude": 53.35399052654482, "longitude": -110.86363349999999}, "119283158RR0001": {"name": "VERMILION-MANVILLE PASTORAL CHARGE", "designationCode": "C", "categoryCode": "44", "address": "4918 - 52 AVE", "city": "VERMILION", "province": "AB", "country": "CA", "postalCode": "T9X1S6", "twitter": "None", "instagram": "None", "facebook": "None", "youtube": "None", "website": "None", "summary": "None", "logo": "None", "latitude": 53.35578552986305, "longitude": -110.85158258381902}, "140768482RR0001": {"name": "VERMILLION CHARITABLE TRUST", "designationCode": "B", "categoryCode": "39", "address": "2500-201 PORTAGE AVENUE", "city": "WINNIPEG", "province": "MB", "country": "CA", "postalCode": "R3B3K6", "twitter": "None", "instagram": "None", "facebook": "None", "youtube": "None", "website": "None", "summary": "None", "logo": "None", "latitude": 49.895359615067065, "longitude": -97.13919299627776}, "892881988RR0001": {"name": "VERMONT SQUARE PARENT - CHILD MOTHER GOOSE PROGRAM", "designationCode": "C", "categoryCode": "20", "address": "720 BATHURST ST               SUITE 500A", "city": "TORONTO", "province": "ON", "country": "CA", "postalCode": "M5S2R4", "twitter": "None", "instagram": "None", "facebook": "None", "youtube": "None", "website": "None", "summary": "None", "logo": "None", "latitude": 43.663157287264106, "longitude": -79.41102923048085}, "853036333RR0001": {"name": "VERNON & DISTRICT ANIMAL CARE SOCIETY", "designationCode": "C", "categoryCode": "54", "address": "P.O. BOX 1564", "city": "VERNON", "province": "BC", "country": "CA", "postalCode": "V1T8C2", "twitter": "None", "instagram": "None", "facebook": "None", "youtube": "None", "website": "None", "summary": "None", "logo": "None", "latitude": 50.26567200000005, "longitude": -119.27378149999993}, "889949772RR0001": {"name": "VERNON & DISTRICT FAMILY HISTORY SOCIETY", "designationCode": "C", "categoryCode": "50", "address": "PO BOX 1447 STN MAIN", "city": "VERNON", "province": "BC", "country": "CA", "postalCode": "V1T6N7", "twitter": "None", "instagram": "None", "facebook": "None", "youtube": "None", "website": "None", "summary": "None", "logo": "None", "latitude": 50.26567200000005, "longitude": -119.27378149999993}, "119283208RR0001": {"name": "VERNON ALLIANCE CHURCH,", "designationCode": "C", "categoryCode": "39", "address": "2601 43RD AVENUE", "city": "VERNON", "province": "BC", "country": "CA", "postalCode": "V1T3L1", "twitter": "None", "instagram": "None", "facebook": "None", "youtube": "None", "website": "None", "summary": "None", "logo": "None", "latitude": 50.27476746047075, "longitude": -119.2652415}, "119283216RR0001": {"name": "VERNON AND AREA PRO-LIFE SOCIETY", "designationCode": "C", "categoryCode": "09", "address": "PO BOX 1718", "city": "VERNON", "province": "BC", "country": "CA", "postalCode": "V1T8C3", "twitter": "None", "instagram": "None", "facebook": "None", "youtube": "None", "website": "None", "summary": "None", "logo": "None", "latitude": 50.26567200000005, "longitude": -119.27378149999993}, "108170614RR0001": {"name": "VERNON AND DISTRICT ASSOCIATION FOR COMMUNITY LIVING", "designationCode": "C", "categoryCode": "11", "address": "4240 ALEXIS PARK DRIVE", "city": "VERNON", "province": "BC", "country": "CA", "postalCode": "V1T6H3", "twitter": "None", "instagram": "None", "facebook": "None", "youtube": "None", "website": "None", "summary": "None", "logo": "None", "latitude": 50.27465445242067, "longitude": -119.28180983937281}, "130877855RR0001": {"name": "VERNON AND DISTRICT PERFORMING ARTS CENTRE SOCIETY", "designationCode": "C", "categoryCode": "22", "address": "3800 33 ST", "city": "VERNON", "province": "BC", "country": "CA", "postalCode": "V1T5T6", "twitter": "None", "instagram": "None", "facebook": "None", "youtube": "None", "website": "None", "summary": "None", "logo": "None", "latitude": 50.269627288649076, "longitude": -119.27518435042398}}