{"888317062RR0001": {"name": "THE LLOYD CARR-HARRIS FOUNDATION", "designationCode": "B", "categoryCode": "05", "address": "26 RIVER VIEW DR", "city": "BRAMPTON", "province": "ON", "country": "CA", "postalCode": "L6W2E5", "twitter": "None", "instagram": "None", "facebook": "None", "youtube": "None", "website": "None", "summary": "None", "logo": "None", "latitude": 43.67053217320664, "longitude": -79.73610011659626}, "119242527RR0001": {"name": "THE LLOYD GROSE MEMORIAL AWARD FOR AGRICULTURE TRUST", "designationCode": "B", "categoryCode": "23", "address": "106 HIGHBOURNE ROAD", "city": "TORONTO", "province": "ON", "country": "CA", "postalCode": "M5P2J6", "twitter": "None", "instagram": "None", "facebook": "None", "youtube": "None", "website": "None", "summary": "None", "logo": "None", "latitude": 43.70069590008081, "longitude": -79.40576462060699}, "889311064RR0001": {"name": "THE LLOYD JONES COLLINS FOUNDATION", "designationCode": "B", "categoryCode": "13", "address": "12 - 3459 RIVER RD W", "city": "DELTA", "province": "BC", "country": "CA", "postalCode": "V4K4Y6", "twitter": "None", "instagram": "None", "facebook": "None", "youtube": "None", "website": "None", "summary": "None", "logo": "None", "latitude": 49.07854083769392, "longitude": -123.12667994241637}, "892567561RR0001": {"name": "THE LLOYDMINSTER & DISTRICT MUSIC FESTIVAL ASSOCIATION", "designationCode": "C", "categoryCode": "22", "address": "P.O. BOX # 1888", "city": "LLOYDMINSTER", "province": "SK", "country": "CA", "postalCode": "S9V1N4", "twitter": "None", "instagram": "None", "facebook": "None", "youtube": "None", "website": "None", "summary": "None", "logo": "None", "latitude": 53.274840000000054, "longitude": -109.99074949999994}, "895567543RR0001": {"name": "THE LOAVES AND FISHES FOODBANK", "designationCode": "C", "categoryCode": "09", "address": "40B TORONTO STREET SOUTH", "city": "UXBRIDGE", "province": "ON", "country": "CA", "postalCode": "L9P1G9", "twitter": "None", "instagram": "None", "facebook": "None", "youtube": "None", "website": "None", "summary": "None", "logo": "None", "latitude": 44.10757469937528, "longitude": -79.12309536710247}, "891309346RR0001": {"name": "THE LOCAL IMPROVEMENT ASSOCIATION OF THE CITY OF FREDERICTON INC", "designationCode": "C", "categoryCode": "52", "address": "PO BOX 57 STATION A", "city": "FREDERICTON", "province": "NB", "country": "CA", "postalCode": "E3B4Y2", "twitter": "None", "instagram": "None", "facebook": "None", "youtube": "None", "website": "None", "summary": "None", "logo": "None", "latitude": 45.96062100000006, "longitude": -66.63911299999994}, "892286949RR0001": {"name": "THE LOCAL SERVICES BOARD OF KING-LEBEL", "designationCode": "C", "categoryCode": "59", "address": "2C JORDAN ST", "city": "KING KIRKLAND", "province": "ON", "country": "CA", "postalCode": "P0K1K0", "twitter": "None", "instagram": "None", "facebook": "None", "youtube": "None", "website": "None", "summary": "None", "logo": "None", "latitude": 48.15999078232192, "longitude": -79.95776065562303}, "119242634RR0001": {"name": "THE LOCAL SERVICES BOARD OF WABIGOON", "designationCode": "C", "categoryCode": "59", "address": "BOX 97", "city": "WABIGOON", "province": "ON", "country": "CA", "postalCode": "P0V2W0", "twitter": "None", "instagram": "None", "facebook": "None", "youtube": "None", "website": "None", "summary": "None", "logo": "None", "latitude": 50.19031269710155, "longitude": -93.60199089611389}, "861034163RR0001": {"name": "THE LOCH HAME FOUNDATION", "designationCode": "B", "categoryCode": "05", "address": "52 ALDERSHOT CRECENT", "city": "TORONTO", "province": "ON", "country": "CA", "postalCode": "M2P1L9", "twitter": "None", "instagram": "None", "facebook": "None", "youtube": "None", "website": "None", "summary": "None", "logo": "None", "latitude": 43.75355718347843, "longitude": -79.3993094521322}, "863521019RR0001": {"name": "THE LOCKSLEY FOUNDATION", "designationCode": "A", "categoryCode": "03", "address": "401 BAY ST. SUITE 3100        P.O. BOX 49", "city": "TORONTO", "province": "ON", "country": "CA", "postalCode": "M5H2Y4", "twitter": "None", "instagram": "None", "facebook": "None", "youtube": "None", "website": "None", "summary": "None", "logo": "None", "latitude": 43.651658304201, "longitude": -79.38148850259707}, "119242642RR0001": {"name": "THE LOCKWOOD FOUNDATION", "designationCode": "B", "categoryCode": "23", "address": "130 KING STREET WEST,         20TH FLOOR", "city": "TORONTO", "province": "ON", "country": "CA", "postalCode": "M5X1K1", "twitter": "None", "instagram": "None", "facebook": "None", "youtube": "None", "website": "None", "summary": "None", "logo": "None", "latitude": 43.64798216515656, "longitude": -79.38336717805407}, "888754249RR0001": {"name": "THE LOCOMOTIVE & RAILWAY HISTORICAL SOCIETY OF WESTERN CANADA", "designationCode": "C", "categoryCode": "50", "address": "87 CHELSEA STREET N.W.", "city": "CALGARY", "province": "AB", "country": "CA", "postalCode": "T2K1P1", "twitter": "None", "instagram": "None", "facebook": "None", "youtube": "None", "website": "None", "summary": "None", "logo": "None", "latitude": 51.08130461004674, "longitude": -114.0918867238444}, "877873729RR0001": {"name": "THE LOFT MINISTRIES", "designationCode": "C", "categoryCode": "39", "address": "2640 248 ST", "city": "LANGLEY", "province": "BC", "country": "CA", "postalCode": "V4W1X4", "twitter": "None", "instagram": "None", "facebook": "None", "youtube": "None", "website": "None", "summary": "None", "logo": "None", "latitude": 49.048857, "longitude": -122.53684160101571}, "888851193RR0001": {"name": "THE LOGAN LAKE COMMUNITY CHURCH COMMITTEE", "designationCode": "C", "categoryCode": "39", "address": "2 SAPHIRE COURT BOX 539", "city": "LOGAN LAKE", "province": "BC", "country": "CA", "postalCode": "V0K1W0", "twitter": "None", "instagram": "None", "facebook": "None", "youtube": "None", "website": "None", "summary": "None", "logo": "None", "latitude": 50.49426540680635, "longitude": -120.8170999636499}, "890778855RR0001": {"name": "THE LOGOS DELIVERANCE MINISTRIES OF CANADA/LES MINISTERES LOGOS DELIVERANCE DU CANADA", "designationCode": "C", "categoryCode": "47", "address": "201 ADAMS AVE", "city": "PTE-CLAIRE", "province": "QC", "country": "CA", "postalCode": "H9R5X1", "twitter": "None", "instagram": "None", "facebook": "None", "youtube": "None", "website": "None", "summary": "None", "logo": "None", "latitude": 45.46540986401399, "longitude": -73.79512479115924}, "868906579RR0001": {"name": "THE LOGOS KOREAN PRESBYTERIAN CHURCH", "designationCode": "C", "categoryCode": "39", "address": "68 NILES WAY", "city": "THORNHILL", "province": "ON", "country": "CA", "postalCode": "L3T5B8", "twitter": "None", "instagram": "None", "facebook": "None", "youtube": "None", "website": "None", "summary": "None", "logo": "None", "latitude": 43.81770165277865, "longitude": -79.3997176486237}, "871862470RR0001": {"name": "THE LOIS & DAVID BUCKSTEIN FAMILY FOUNDATION", "designationCode": "B", "categoryCode": "05", "address": "3 DEWBOURNE AVE", "city": "TORONTO", "province": "ON", "country": "CA", "postalCode": "M5P1Z1", "twitter": "None", "instagram": "None", "facebook": "None", "youtube": "None", "website": "None", "summary": "None", "logo": "None", "latitude": 43.69960684927017, "longitude": -79.42023715139366}, "891935009RR0001": {"name": "THE LOLA JANOWSKI CHARITABLE FOUNDATION", "designationCode": "B", "categoryCode": "03", "address": "64 GLEN PARK AVENUE", "city": "TORONTO", "province": "ON", "country": "CA", "postalCode": "M6B2C4", "twitter": "None", "instagram": "None", "facebook": "None", "youtube": "None", "website": "None", "summary": "None", "logo": "None", "latitude": 43.71218117626506, "longitude": -79.43324658702167}, "119023505RR0001": {"name": "THE LONDON AND DISTRICT ASSOCIATION OF THE FELLOWSHIP OF EVA", "designationCode": "C", "categoryCode": "49", "address": "P.O. BOX 25183", "city": "LONDON", "province": "ON", "country": "CA", "postalCode": "N6C6A9", "twitter": "None", "instagram": "None", "facebook": "None", "youtube": "None", "website": "None", "summary": "None", "logo": "None", "latitude": 42.98689500000006, "longitude": -81.24624349999993}, "889298246RR0001": {"name": "THE LONDON AND DISTRICT WHEELCHAIR SPORTS ASSOCIATION", "designationCode": "C", "categoryCode": "09", "address": "4 PERIN PLACE", "city": "KITCHENER", "province": "ON", "country": "CA", "postalCode": "N2P1L5", "twitter": "None", "instagram": "None", "facebook": "None", "youtube": "None", "website": "None", "summary": "None", "logo": "None", "latitude": 43.39430398447676, "longitude": -80.44863969634727}, "806975678RR0001": {"name": "THE LONDON CINDERELLA PROJECT", "designationCode": "C", "categoryCode": "09", "address": "764 DUNDALK DR.", "city": "LONDON", "province": "ON", "country": "CA", "postalCode": "N6C3V2", "twitter": "None", "instagram": "None", "facebook": "None", "youtube": "None", "website": "None", "summary": "None", "logo": "None", "latitude": 42.94584529141905, "longitude": -81.24405380792324}, "861283091RR0001": {"name": "THE LONDON COMMUNITY ORCHESTRA", "designationCode": "C", "categoryCode": "22", "address": "838 WELLINGTON STREET N", "city": "LONDON", "province": "ON", "country": "CA", "postalCode": "N6A3S7", "twitter": "None", "instagram": "None", "facebook": "None", "youtube": "None", "website": "None", "summary": "None", "logo": "None", "latitude": 42.99902879462171, "longitude": -81.25247172672992}, "103378725RR0001": {"name": "THE LONDON CROSS-CULTURAL LEARNER CENTRE", "designationCode": "C", "categoryCode": "20", "address": "505 DUNDAS ST E", "city": "LONDON", "province": "ON", "country": "CA", "postalCode": "N6B1W4", "twitter": "None", "instagram": "None", "facebook": "None", "youtube": "None", "website": "None", "summary": "None", "logo": "None", "latitude": 42.98765511183576, "longitude": -81.23559520093491}, "131158586RR0001": {"name": "THE LONDON DISTRICT CHRISTIAN SECONDARY SCHOOL SOCIETY", "designationCode": "C", "categoryCode": "20", "address": "24 BRAESYDE AVE", "city": "LONDON", "province": "ON", "country": "CA", "postalCode": "N5W1V3", "twitter": "None", "instagram": "None", "facebook": "None", "youtube": "None", "website": "None", "summary": "None", "logo": "None", "latitude": 42.97512263696695, "longitude": -81.17120022127692}, "890276926RR0001": {"name": "THE LONDON DRUGS FOUNDATION", "designationCode": "A", "categoryCode": "03", "address": "12831 HORSESHOE PLACE", "city": "RICHMOND", "province": "BC", "country": "CA", "postalCode": "V7A4Y5", "twitter": "None", "instagram": "None", "facebook": "None", "youtube": "None", "website": "None", "summary": "None", "logo": "None", "latitude": 49.12166357369147, "longitude": -123.10000101930282}, "833054075RR0001": {"name": "THE LONDON FREEDOM CHURCH", "designationCode": "C", "categoryCode": "39", "address": "231 FAIRHAVEN CIRCLE", "city": "LONDON", "province": "ON", "country": "CA", "postalCode": "N5W1E3", "twitter": "None", "instagram": "None", "facebook": "None", "youtube": "None", "website": "None", "summary": "None", "logo": "None", "latitude": 42.98155205355196, "longitude": -81.19339428475395}, "888005840RR0001": {"name": "THE LONDON JEWISH COMMUNITY FOUNDATION", "designationCode": "B", "categoryCode": "23", "address": "536 HURON STREET", "city": "LONDON", "province": "ON", "country": "CA", "postalCode": "N5Y4J5", "twitter": "None", "instagram": "None", "facebook": "None", "youtube": "None", "website": "None", "summary": "None", "logo": "None", "latitude": 43.011370433369336, "longitude": -81.244859759368}, "867158750RR0001": {"name": "THE LONDON KOREAN METHODIST CHURCH", "designationCode": "C", "categoryCode": "39", "address": "552 FANSHAWE PARK ROAD EAST", "city": "LONDON", "province": "ON", "country": "CA", "postalCode": "N5X1L1", "twitter": "None", "instagram": "None", "facebook": "None", "youtube": "None", "website": "None", "summary": "None", "logo": "None", "latitude": 43.03390886320593, "longitude": -81.25807796338492}, "119242782RR0001": {"name": "THE LONDON POLICE ASSOCIATION CHARITY FUND", "designationCode": "C", "categoryCode": "05", "address": "330 WILLIAM STREET", "city": "LONDON", "province": "ON", "country": "CA", "postalCode": "N6B3C2", "twitter": "None", "instagram": "None", "facebook": "None", "youtube": "None", "website": "None", "summary": "None", "logo": "None", "latitude": 42.985804619770256, "longitude": -81.23295958073196}, "886676790RR0001": {"name": "THE LONDON POTTERS GUILD", "designationCode": "C", "categoryCode": "22", "address": "664 DUNDAS ST", "city": "LONDON", "province": "ON", "country": "CA", "postalCode": "N5W2Y8", "twitter": "None", "instagram": "None", "facebook": "None", "youtube": "None", "website": "None", "summary": "None", "logo": "None", "latitude": 42.98945492091283, "longitude": -81.22952118971084}, "895627271RR0001": {"name": "THE LONE PINE MARSH SANCTUARY INC.", "designationCode": "C", "categoryCode": "54", "address": "4748 COUNTY RD 45", "city": "COBOURG", "province": "ON", "country": "CA", "postalCode": "K9A4J9", "twitter": "None", "instagram": "None", "facebook": "None", "youtube": "None", "website": "None", "summary": "None", "logo": "None", "latitude": 44.01703310272498, "longitude": -78.14801559214773}, "130695166RR0001": {"name": "THE LOOKOUT EMERGENCY AID SOCIETY", "designationCode": "C", "categoryCode": "59", "address": "544 COLUMBIA ST", "city": "NEW WESTMINSTER", "province": "BC", "country": "CA", "postalCode": "V3L1B1", "twitter": "None", "instagram": "None", "facebook": "None", "youtube": "None", "website": "None", "summary": "None", "logo": "None", "latitude": 49.20341004105846, "longitude": -122.90741876031524}, "851372169RR0001": {"name": "THE LORD LOVE UNITED CHURCH", "designationCode": "C", "categoryCode": "39", "address": "2808 - 121 MCMAHON DR", "city": "NORTH YORK", "province": "ON", "country": "CA", "postalCode": "M2K0C1", "twitter": "None", "instagram": "None", "facebook": "None", "youtube": "None", "website": "None", "summary": "None", "logo": "None", "latitude": 43.76746154965801, "longitude": -79.3712801535629}, "107643397RR0001": {"name": "THE LORD SELKIRK SCHOOL DIVISION", "designationCode": "C", "categoryCode": "20", "address": "205 MERCY ST", "city": "SELKIRK", "province": "MB", "country": "CA", "postalCode": "R1A2C8", "twitter": "None", "instagram": "None", "facebook": "None", "youtube": "None", "website": "None", "summary": "None", "logo": "None", "latitude": 50.14053636787499, "longitude": -96.8898105}, "119242857RR0001": {"name": "THE LORD SELKIRK SCHOOL DIVISION SCHOLARSHIP FOUNDATION INC", "designationCode": "C", "categoryCode": "21", "address": "205 MERCY STREET", "city": "SELKIRK", "province": "MB", "country": "CA", "postalCode": "R1A2C8", "twitter": "None", "instagram": "None", "facebook": "None", "youtube": "None", "website": "None", "summary": "None", "logo": "None", "latitude": 50.14053636787499, "longitude": -96.8898105}, "892613761RR0001": {"name": "THE LORD'S BOUNTY INC.", "designationCode": "C", "categoryCode": "09", "address": "2 HIAWATHA AVE", "city": "FLIN FLON", "province": "MB", "country": "CA", "postalCode": "R8A0X3", "twitter": "None", "instagram": "None", "facebook": "None", "youtube": "None", "website": "None", "summary": "None", "logo": "None", "latitude": 54.76597244936226, "longitude": -101.86993530697094}, "881171326RR0001": {"name": "THE LORD'S CHOSEN CHARISMATIC REVIVAL MINISTRY", "designationCode": "C", "categoryCode": "49", "address": "P.O. BOX 79712 #1995 WESTON RD", "city": "TORONTO", "province": "ON", "country": "CA", "postalCode": "M9N3W9", "twitter": "None", "instagram": "None", "facebook": "None", "youtube": "None", "website": "None", "summary": "None", "logo": "None", "latitude": 43.701102008627004, "longitude": -79.5195066017082}, "864420294RR0001": {"name": "THE LORD'S FOOD BANK ROCKY MOUNTAIN HOUSE SOCIETY", "designationCode": "C", "categoryCode": "09", "address": "4923 - 52ND STREET            P. O. BOX 1242", "city": "ROCKY MOUNTAIN HOUSE", "province": "AB", "country": "CA", "postalCode": "T4T1A9", "twitter": "None", "instagram": "None", "facebook": "None", "youtube": "None", "website": "None", "summary": "None", "logo": "None", "latitude": 52.37377292200935, "longitude": -114.92223608021236}, "119242865RR0001": {"name": "THE LORD'S KITCHEN SOCIETY INC", "designationCode": "C", "categoryCode": "01", "address": "PO BOX 72                     STN MAIN", "city": "TIMMINS", "province": "ON", "country": "CA", "postalCode": "P4N7C5", "twitter": "None", "instagram": "None", "facebook": "None", "youtube": "None", "website": "None", "summary": "None", "logo": "None", "latitude": 48.47611200000006, "longitude": -81.32891299999993}, "132204777RR0001": {"name": "THE LORD'S LOVE CHURCH SOCIETY", "designationCode": "C", "categoryCode": "39", "address": "645 E 47TH AVE", "city": "VANCOUVER", "province": "BC", "country": "CA", "postalCode": "V5W2B5", "twitter": "None", "instagram": "None", "facebook": "None", "youtube": "None", "website": "None", "summary": "None", "logo": "None", "latitude": 49.227490507646046, "longitude": -123.0920221902591}, "873648067RR0001": {"name": "THE LORD'S PEACE CHAPEL SOCIETY", "designationCode": "C", "categoryCode": "39", "address": "503-5525 WEST BLVD", "city": "VANCOUVER", "province": "BC", "country": "CA", "postalCode": "V6M3W6", "twitter": "None", "instagram": "None", "facebook": "None", "youtube": "None", "website": "None", "summary": "None", "logo": "None", "latitude": 49.23618429704238, "longitude": -123.15559426785543}, "871330825RR0001": {"name": "THE LORD'S PRAYER OUTREACH ASSOCIATION INCORPORATED", "designationCode": "C", "categoryCode": "47", "address": "220-7620 12 ST SE", "city": "CALGARY", "province": "AB", "country": "CA", "postalCode": "T2H2S5", "twitter": "None", "instagram": "None", "facebook": "None", "youtube": "None", "website": "None", "summary": "None", "logo": "None", "latitude": 50.98972366929476, "longitude": -114.03693513564362}, "888318094RR0001": {"name": "THE LORDS ARMY MISSION", "designationCode": "C", "categoryCode": "39", "address": "22-294 LORNE AVENUE", "city": "KITCHENER", "province": "ON", "country": "CA", "postalCode": "N2M3Z1", "twitter": "None", "instagram": "None", "facebook": "None", "youtube": "None", "website": "None", "summary": "None", "logo": "None", "latitude": 43.43275398915131, "longitude": -80.49161217170608}, "119242873RR0001": {"name": "THE LORETTO LADIES' COLLEGES AND SCHOOLS", "designationCode": "C", "categoryCode": "20", "address": "101 MASON BLVD", "city": "TORONTO", "province": "ON", "country": "CA", "postalCode": "M5M3E2", "twitter": "None", "instagram": "None", "facebook": "None", "youtube": "None", "website": "None", "summary": "None", "logo": "None", "latitude": 43.74092769917456, "longitude": -79.41138910886426}, "119242881RR0001": {"name": "THE LORITA LEUNG DANCE ASSOCIATION", "designationCode": "C", "categoryCode": "22", "address": "2070 WEST 46TH AVENUE", "city": "VANCOUVER", "province": "BC", "country": "CA", "postalCode": "V6M2K9", "twitter": "None", "instagram": "None", "facebook": "None", "youtube": "None", "website": "None", "summary": "None", "logo": "None", "latitude": 49.22978753231591, "longitude": -123.15408155398464}, "859453037RR0001": {"name": "THE LORNE AND ELSIE HANKINSON CHARITABLE TRUST FOUNDATION", "designationCode": "A", "categoryCode": "05", "address": "75 CHATHAM STREET             P.O. BOX 488", "city": "BRANTFORD", "province": "ON", "country": "CA", "postalCode": "N3T5N9", "twitter": "None", "instagram": "None", "facebook": "None", "youtube": "None", "website": "None", "summary": "None", "logo": "None", "latitude": 43.14316755785113, "longitude": -80.26209035636795}, "889328993RR0001": {"name": "THE LORNEVILLE CEMETERY COMPANY", "designationCode": "C", "categoryCode": "59", "address": "5864 HIGHWAY 366", "city": "LORNEVILLE", "province": "NS", "country": "CA", "postalCode": "B4H3X9", "twitter": "None", "instagram": "None", "facebook": "None", "youtube": "None", "website": "None", "summary": "None", "logo": "None", "latitude": 45.97918332206682, "longitude": -63.917886108047504}, "893068205RR0001": {"name": "THE LORRAINE JOHNSTON FOUNDATION", "designationCode": "B", "categoryCode": "03", "address": "912-5418 YONGE STREET", "city": "TORONTO", "province": "ON", "country": "CA", "postalCode": "M2N6X4", "twitter": "None", "instagram": "None", "facebook": "None", "youtube": "None", "website": "None", "summary": "None", "logo": "None", "latitude": 43.775594969184674, "longitude": -79.41454848563059}, "892259847RR0001": {"name": "THE LOST VILLAGES HISTORICAL SOCIETY", "designationCode": "C", "categoryCode": "50", "address": "PO BOX 306", "city": "INGLESIDE", "province": "ON", "country": "CA", "postalCode": "K0C1M0", "twitter": "None", "instagram": "None", "facebook": "None", "youtube": "None", "website": "None", "summary": "None", "logo": "None", "latitude": 44.995790000000056, "longitude": -74.98682999999994}, "119242907RR0001": {"name": "THE LOUISE POWELL CANCER TRUST", "designationCode": "C", "categoryCode": "09", "address": "3298 GIBBINS ROAD", "city": "DUNCAN", "province": "BC", "country": "CA", "postalCode": "V9L1G8", "twitter": "None", "instagram": "None", "facebook": "None", "youtube": "None", "website": "None", "summary": "None", "logo": "None", "latitude": 48.780392152071194, "longitude": -123.7361765237186}, "887242279RR0001": {"name": "THE LOVE OF JESUS EVANGELISTIC MINISTRY", "designationCode": "C", "categoryCode": "47", "address": "1753 CHERRYHILL ROAD", "city": "PETERBOROUGH", "province": "ON", "country": "CA", "postalCode": "K9K1J5", "twitter": "None", "instagram": "None", "facebook": "None", "youtube": "None", "website": "None", "summary": "None", "logo": "None", "latitude": 44.278761805413076, "longitude": -78.37290721980503}, "890434392RR0001": {"name": "THE LOVERNA CEMETERY CLUB", "designationCode": "C", "categoryCode": "59", "address": "BOX 30", "city": "LOVERNA", "province": "SK", "country": "CA", "postalCode": "S0L1Y0", "twitter": "None", "instagram": "None", "facebook": "None", "youtube": "None", "website": "None", "summary": "None", "logo": "None", "latitude": 51.661050000000046, "longitude": -109.99246999999997}, "119242972RR0001": {"name": "THE LOW UNITED CHURCH", "designationCode": "C", "categoryCode": "44", "address": "PO BOX 12                     85 MARTINDALE ROAD", "city": "LOW", "province": "QC", "country": "CA", "postalCode": "J0X2C0", "twitter": "None", "instagram": "None", "facebook": "None", "youtube": "None", "website": "None", "summary": "None", "logo": "None", "latitude": 45.81517842685678, "longitude": -75.94610184364332}, "839564747RR0001": {"name": "THE LOWE FOUNDATION", "designationCode": "B", "categoryCode": "03", "address": "1 TORONTO STREET              SUITE 800 BOX 1", "city": "TORONTO", "province": "ON", "country": "CA", "postalCode": "M5C2V6", "twitter": "None", "instagram": "None", "facebook": "None", "youtube": "None", "website": "None", "summary": "None", "logo": "None", "latitude": 43.64988730558597, "longitude": -79.37604079929623}, "891149783RR0001": {"name": "THE LOWER CANADA COLLEGE FOUNDATION/LA FONDATION LOWER CANADA COLLEGE", "designationCode": "A", "categoryCode": "23", "address": "4090 ROYAL AVENUE", "city": "MONTREAL", "province": "QC", "country": "CA", "postalCode": "H4A2M5", "twitter": "None", "instagram": "None", "facebook": "None", "youtube": "None", "website": "None", "summary": "None", "logo": "None", "latitude": 45.47071980402811, "longitude": -73.62386481184703}, "891939233RR0001": {"name": "THE LOWER GRAND RIVER LAND TRUST INC.", "designationCode": "C", "categoryCode": "52", "address": "243 HALDIMAND HWY 54          BOX 610", "city": "CAYUGA", "province": "ON", "country": "CA", "postalCode": "N0A1E0", "twitter": "None", "instagram": "None", "facebook": "None", "youtube": "None", "website": "None", "summary": "None", "logo": "None", "latitude": 42.97708389198517, "longitude": -79.87159074748918}, "108087313RR0001": {"name": "THE LOWER MAINLAND PURPOSE SOCIETY FOR YOUTH AND FAMILIES", "designationCode": "C", "categoryCode": "09", "address": "40 BEGBIE ST", "city": "NEW WESTMINSTER", "province": "BC", "country": "CA", "postalCode": "V3M3L9", "twitter": "None", "instagram": "None", "facebook": "None", "youtube": "None", "website": "None", "summary": "None", "logo": "None", "latitude": 49.202205109065794, "longitude": -122.9109418795659}, "875532228RR0001": {"name": "THE LOWER PLEASANT VALLEY CEMETERY COMPANY", "designationCode": "C", "categoryCode": "59", "address": "37 DELANEY QUAY", "city": "ABERCROMBIE", "province": "NS", "country": "CA", "postalCode": "B2H5C6", "twitter": "None", "instagram": "None", "facebook": "None", "youtube": "None", "website": "None", "summary": "None", "logo": "None", "latitude": 45.62991451485942, "longitude": -62.68595137702709}, "890763980RR0001": {"name": "THE LOWER RIVER HEBERT CEMETERY COMPANY OF LOWER RIVER HEBERT, CUMBERLAND COUNTY", "designationCode": "C", "categoryCode": "59", "address": "1400 LOWER MACCAN ROAD        P.O. BOX 67", "city": "MACCAN", "province": "NS", "country": "CA", "postalCode": "B0L1B0", "twitter": "None", "instagram": "None", "facebook": "None", "youtube": "None", "website": "None", "summary": "None", "logo": "None", "latitude": 45.76212853448028, "longitude": -64.29510361339362}, "107646556RR0001": {"name": "THE LOWER SIMILKAMEEN COMMUNITY SERVICES SOCIETY", "designationCode": "C", "categoryCode": "09", "address": "720 3RD ST", "city": "KEREMEOS", "province": "BC", "country": "CA", "postalCode": "V0X1N3", "twitter": "None", "instagram": "None", "facebook": "None", "youtube": "None", "website": "None", "summary": "None", "logo": "None", "latitude": 49.204864795729726, "longitude": -119.83164186617593}, "888004249RR0001": {"name": "THE LOWIDT FOUNDATION", "designationCode": "A", "categoryCode": "23", "address": "40 DEVERES GARDENS", "city": "TORONTO", "province": "ON", "country": "CA", "postalCode": "M5M3E7", "twitter": "None", "instagram": "None", "facebook": "None", "youtube": "None", "website": "None", "summary": "None", "logo": "None", "latitude": 43.73796300000005, "longitude": -79.40986549999994}, "119242980RR0001": {"name": "THE LOYAL EDMONTON REGIMENT MUSEUM FOUNDATION", "designationCode": "C", "categoryCode": "50", "address": "118 PRINCE OF WALES ARMOURY   10440 108 AVE", "city": "EDMONTON PARK", "province": "AB", "country": "CA", "postalCode": "T5H3Z9", "twitter": "None", "instagram": "None", "facebook": "None", "youtube": "None", "website": "None", "summary": "None", "logo": "None"}, "890528060RR0001": {"name": "THE LOYALIST COLLEGE FOUNDATION", "designationCode": "A", "categoryCode": "23", "address": "PO BOX 4200", "city": "BELLEVILLE", "province": "ON", "country": "CA", "postalCode": "K8N5B9", "twitter": "None", "instagram": "None", "facebook": "None", "youtube": "None", "website": "None", "summary": "None", "logo": "None", "latitude": 44.16104400000006, "longitude": -77.38183249999993}, "891719163RR0001": {"name": "THE LPBC SOCIETY FOR SHORT STATURE AWARENESS", "designationCode": "C", "categoryCode": "09", "address": "PO BOX 409 7101C-120TH STREET", "city": "DELTA", "province": "BC", "country": "CA", "postalCode": "V4E2A9", "twitter": "None", "instagram": "None", "facebook": "None", "youtube": "None", "website": "None", "summary": "None", "logo": "None"}, "105225718RR0001": {"name": "THE LUCAS FOUNDATION - LA FONDATION LUCAS", "designationCode": "A", "categoryCode": "23", "address": "95 CH COTE ST-ANTOINE", "city": "WESTMOUNT", "province": "QC", "country": "CA", "postalCode": "H3Y2H8", "twitter": "None", "instagram": "None", "facebook": "None", "youtube": "None", "website": "None", "summary": "None", "logo": "None", "latitude": 45.48584311076791, "longitude": -73.5973385856367}, "881373716RR0001": {"name": "THE LUCERNE ASSOCIATION FOR COMMUNITY EDUCATION (LACE)", "designationCode": "C", "categoryCode": "55", "address": "710 BELLEVUE ST               BOX 208", "city": "NEW DENVER", "province": "BC", "country": "CA", "postalCode": "V0G1S0", "twitter": "None", "instagram": "None", "facebook": "None", "youtube": "None", "website": "None", "summary": "None", "logo": "None", "latitude": 49.990671049691464, "longitude": -117.37680202829826}, "874063647RR0001": {"name": "THE LUDMILA KNEZKOVA-HUSSEY INTERNATIONAL PIANO COMPETITION", "designationCode": "C", "categoryCode": "22", "address": "34 COVE CRES", "city": "ROTHESAY", "province": "NB", "country": "CA", "postalCode": "E2E5C6", "twitter": "None", "instagram": "None", "facebook": "None", "youtube": "None", "website": "None", "summary": "None", "logo": "None", "latitude": 45.40957548739096, "longitude": -65.99605339826314}, "119243020RR0001": {"name": "THE LUDWIG FAMILY FOUNDATION", "designationCode": "B", "categoryCode": "03", "address": "25 GARDINER RD", "city": "TORONTO", "province": "ON", "country": "CA", "postalCode": "M5P3B4", "twitter": "None", "instagram": "None", "facebook": "None", "youtube": "None", "website": "None", "summary": "None", "logo": "None", "latitude": 43.700577338334554, "longitude": -79.41897077765614}, "860937390RR0001": {"name": "THE LUFT SCHWARTZ FAMILY FOUNDATION", "designationCode": "B", "categoryCode": "03", "address": "7 NORLINGTON DRIVE", "city": "TORONTO", "province": "ON", "country": "CA", "postalCode": "M2L2B8", "twitter": "None", "instagram": "None", "facebook": "None", "youtube": "None", "website": "None", "summary": "None", "logo": "None", "latitude": 43.75789993308919, "longitude": -79.37343724548448}, "868475559RR0001": {"name": "THE LUIGI LIBERATORE FOUNDATION LA FONDATION LUIGI LIBERATORE", "designationCode": "B", "categoryCode": "03", "address": "3650 BOUL PITFIELD", "city": "PIERREFONDS", "province": "QC", "country": "CA", "postalCode": "H8Y3L4", "twitter": "None", "instagram": "None", "facebook": "None", "youtube": "None", "website": "None", "summary": "None", "logo": "None", "latitude": 45.50455348448359, "longitude": -73.7581788250746}, "119243038RR0001": {"name": "THE LUMBY FOOD BANK SOCIETY", "designationCode": "C", "categoryCode": "09", "address": "P.O. BOX 791", "city": "LUMBY", "province": "BC", "country": "CA", "postalCode": "V0E2G0", "twitter": "None", "instagram": "None", "facebook": "None", "youtube": "None", "website": "None", "summary": "None", "logo": "None", "latitude": 50.247340000000065, "longitude": -118.96645999999998}, "889339974RR0001": {"name": "THE LUNDY'S LANE HISTORICAL SOCIETY", "designationCode": "C", "categoryCode": "50", "address": "5810 FERRY ST", "city": "NIAGARA FALLS", "province": "ON", "country": "CA", "postalCode": "L2G1S9", "twitter": "None", "instagram": "None", "facebook": "None", "youtube": "None", "website": "None", "summary": "None", "logo": "None", "latitude": 43.08948847230133, "longitude": -79.09127172300768}, "892500372RR0001": {"name": "THE LUNENBURG COUNTY ADULT LEARNING NETWORK ASSOCIATION", "designationCode": "C", "categoryCode": "21", "address": "215 DOMINION STREET", "city": "BRIDGEWATER", "province": "NS", "country": "CA", "postalCode": "B4V2K7", "twitter": "None", "instagram": "None", "facebook": "None", "youtube": "None", "website": "None", "summary": "None", "logo": "None", "latitude": 44.37118726946184, "longitude": -64.52630832910197}, "131983041RR0001": {"name": "THE LUNENBURG COUNTY GROUND SEARCH AND RESCUE TEAM", "designationCode": "C", "categoryCode": "59", "address": "PO BOX 203  STN MAIN", "city": "BRIDGEWATER", "province": "NS", "country": "CA", "postalCode": "B4V2W8", "twitter": "None", "instagram": "None", "facebook": "None", "youtube": "None", "website": "None", "summary": "None", "logo": "None", "latitude": 44.3673083542989, "longitude": -64.55336416911219}, "872304811RR0001": {"name": "THE LUNG ASSOCIATION OF SASKATCHEWAN INC.", "designationCode": "C", "categoryCode": "11", "address": "1231-8TH STREET EAST", "city": "SASKATOON", "province": "SK", "country": "CA", "postalCode": "S7H0S5", "twitter": "None", "instagram": "None", "facebook": "None", "youtube": "None", "website": "None", "summary": "None", "logo": "None", "latitude": 52.11483952596792, "longitude": -106.6402215}, "872288014RR0001": {"name": "THE LUNG FOUNDATION OF SASKATCHEWAN INC.", "designationCode": "B", "categoryCode": "11", "address": "1231-8TH STREET EAST", "city": "SASKATOON", "province": "SK", "country": "CA", "postalCode": "S7H0S5", "twitter": "None", "instagram": "None", "facebook": "None", "youtube": "None", "website": "None", "summary": "None", "logo": "None", "latitude": 52.11483952596792, "longitude": -106.6402215}, "865294037RR0001": {"name": "THE LUPINA FOUNDATION", "designationCode": "B", "categoryCode": "03", "address": "1 DEVONSHIRE PLACE", "city": "TORONTO", "province": "ON", "country": "CA", "postalCode": "M5S3K7", "twitter": "None", "instagram": "None", "facebook": "None", "youtube": "None", "website": "None", "summary": "None", "logo": "None", "latitude": 43.664896214553586, "longitude": -79.39713719326019}, "132017815RR0001": {"name": "THE LUTHERAN CHURCH OF THE GOOD SHEPHERD", "designationCode": "C", "categoryCode": "32", "address": "401 KILDARE AVE WEST", "city": "WINNIPEG", "province": "MB", "country": "CA", "postalCode": "R2C2B4", "twitter": "None", "instagram": "None", "facebook": "None", "youtube": "None", "website": "None", "summary": "None", "logo": "None", "latitude": 49.900796453257385, "longitude": -97.01260272300767}, "119243384RR0001": {"name": "THE LUTHERAN CHURCH OF THE GOOD SHEPHERD OF RED DEER", "designationCode": "C", "categoryCode": "32", "address": "40 HOLMES STREET", "city": "RED DEER", "province": "AB", "country": "CA", "postalCode": "T4N6L6", "twitter": "None", "instagram": "None", "facebook": "None", "youtube": "None", "website": "None", "summary": "None", "logo": "None"}, "883632697RR0001": {"name": "THE LUXTON MUSEUM SOCIETY", "designationCode": "C", "categoryCode": "50", "address": "PO BOX 850", "city": "BANFF", "province": "AB", "country": "CA", "postalCode": "T1L1A8", "twitter": "None", "instagram": "None", "facebook": "None", "youtube": "None", "website": "None", "summary": "None", "logo": "None", "latitude": 51.17577900000006, "longitude": -115.57274299999993}, "849034566RR0001": {"name": "THE LYALLEN HAYES MEMORIAL FUND", "designationCode": "C", "categoryCode": "09", "address": "1780 STONEHENGE CRES", "city": "GLOUCESTER", "province": "ON", "country": "CA", "postalCode": "K1B4Z9", "twitter": "None", "instagram": "None", "facebook": "None", "youtube": "None", "website": "None", "summary": "None", "logo": "None", "latitude": 45.41870390787109, "longitude": -75.60231083262174}, "876694407RR0001": {"name": "THE LYLE SHANTZ HALLMAN CHARITABLE FOUNDATION", "designationCode": "A", "categoryCode": "05", "address": "20 CRESTVIEW PLACE", "city": "KITCHENER", "province": "ON", "country": "CA", "postalCode": "N2B0A2", "twitter": "None", "instagram": "None", "facebook": "None", "youtube": "None", "website": "None", "summary": "None", "logo": "None", "latitude": 43.479014582866746, "longitude": -80.43120463038876}, "871655049RR0001": {"name": "THE LYMPHOVENOUS ASSOCIATION OF ONTARIO", "designationCode": "C", "categoryCode": "13", "address": "101 - 330 BRONTE ST S", "city": "MILTON", "province": "ON", "country": "CA", "postalCode": "L9T7X1", "twitter": "None", "instagram": "None", "facebook": "None", "youtube": "None", "website": "None", "summary": "None", "logo": "None", "latitude": 43.49262459184623, "longitude": -79.8666981603627}, "891111650RR0001": {"name": "THE M A C AIDS FUND/LE FONDS SIDA M A C", "designationCode": "B", "categoryCode": "13", "address": "5800 - 40 KING ST W", "city": "TORONTO", "province": "ON", "country": "CA", "postalCode": "M5H3S1", "twitter": "None", "instagram": "None", "facebook": "None", "youtube": "None", "website": "None", "summary": "None", "logo": "None", "latitude": 43.64813467004466, "longitude": -79.38254906728791}, "119246080RR0001": {"name": "THE M T M AGRICULTURAL SOCIETY", "designationCode": "C", "categoryCode": "56", "address": "BOX 3", "city": "TIGER LILY", "province": "AB", "country": "CA", "postalCode": "T0G2G0", "twitter": "None", "instagram": "None", "facebook": "None", "youtube": "None", "website": "None", "summary": "None", "logo": "None", "latitude": 54.181170000000066, "longitude": -114.76433999999995}, "861568368RR0001": {"name": "THE M. GOUDARZI FOUNDATION", "designationCode": "C", "categoryCode": "21", "address": "505 HWY 7 EAST                SUITE 304", "city": "THORNHILL", "province": "ON", "country": "CA", "postalCode": "L3T7T1", "twitter": "None", "instagram": "None", "facebook": "None", "youtube": "None", "website": "None", "summary": "None", "logo": "None", "latitude": 43.84321813348469, "longitude": -79.38654264491018}, "872970603RR0001": {"name": "THE M.K. FOUNDATION/LA FONDATION M.K.", "designationCode": "B", "categoryCode": "03", "address": "405 CHAMPAGNEUR", "city": "OUTREMONT", "province": "QC", "country": "CA", "postalCode": "H2V3P4", "twitter": "None", "instagram": "None", "facebook": "None", "youtube": "None", "website": "None", "summary": "None", "logo": "None", "latitude": 45.51854319207677, "longitude": -73.60582010822907}, "119026789RR0001": {"name": "THE MABOU AND DISTRICT VOLUNTEER FIRE DEPARTMENT", "designationCode": "C", "categoryCode": "59", "address": "11287 ROUTE 19 HIGHWAY        PO BOX 81", "city": "MABOU", "province": "NS", "country": "CA", "postalCode": "B0E1X0", "twitter": "None", "instagram": "None", "facebook": "None", "youtube": "None", "website": "None", "summary": "None", "logo": "None", "latitude": 46.06626136149191, "longitude": -61.40384216178948}, "108087586RR0001": {"name": "THE MACAULAY CHILD DEVELOPMENT CENTRE", "designationCode": "C", "categoryCode": "01", "address": "2010 EGLINTON AVE WEST        STE 400", "city": "TORONTO", "province": "ON", "country": "CA", "postalCode": "M6E2K3", "twitter": "None", "instagram": "None", "facebook": "None", "youtube": "None", "website": "None", "summary": "None", "logo": "None", "latitude": 43.69495892977098, "longitude": -79.45556364418032}, "121270227RR0001": {"name": "THE MACAULAY TREE HOUSE DAY NURSERY", "designationCode": "C", "categoryCode": "01", "address": "50 THE GRANITE BLUFF", "city": "BRACEBRIDGE", "province": "ON", "country": "CA", "postalCode": "P1L1L4", "twitter": "None", "instagram": "None", "facebook": "None", "youtube": "None", "website": "None", "summary": "None", "logo": "None", "latitude": 45.05352184927017, "longitude": -79.29658499388316}, "119243475RR0001": {"name": "THE MACCALLUM S GRANT CHARITABLE FOUNDATION", "designationCode": "B", "categoryCode": "21", "address": "155 WELLINGTON ST. WEST,      20TH FLOOR", "city": "TORONTO", "province": "ON", "country": "CA", "postalCode": "M5V3K7", "twitter": "None", "instagram": "None", "facebook": "None", "youtube": "None", "website": "None", "summary": "None", "logo": "None", "latitude": 43.64596585316531, "longitude": -79.38574575644876}, "834467367RR0001": {"name": "THE MACDONALD GRIFFIN CHARITABLE FOUNDATION", "designationCode": "B", "categoryCode": "05", "address": "15 YORK STREET                2ND FLOOR", "city": "TORONTO", "province": "ON", "country": "CA", "postalCode": "M5J0A3", "twitter": "None", "instagram": "None", "facebook": "None", "youtube": "None", "website": "None", "summary": "None", "logo": "None", "latitude": 43.6422643580414, "longitude": -79.38119853771158}, "886699396RR0001": {"name": "THE MACDONALD STEWART FOUNDATION - LA FONDATION MACDONALD STEWART", "designationCode": "B", "categoryCode": "10", "address": "1195 SHERBROOKE ST W", "city": "MONTREAL", "province": "QC", "country": "CA", "postalCode": "H3A1H9", "twitter": "None", "instagram": "None", "facebook": "None", "youtube": "None", "website": "None", "summary": "None", "logo": "None", "latitude": 45.50071925258228, "longitude": -73.57773646367339}, "891976599RR0001": {"name": "THE MACGILLIVRAY PIPE BAND OF THUNDER BAY", "designationCode": "C", "categoryCode": "22", "address": "211-315 HILLDALE ROAD", "city": "THUNDAY BAY", "province": "ON", "country": "CA", "postalCode": "P7G1J7", "twitter": "None", "instagram": "None", "facebook": "None", "youtube": "None", "website": "None", "summary": "None", "logo": "None", "latitude": 48.46287300000006, "longitude": -89.25829999999993}, "119243525RR0001": {"name": "THE MACKAY CENTRE FOR SENIORS", "designationCode": "C", "categoryCode": "56", "address": "10 NELSON STREET", "city": "GODERICH", "province": "ON", "country": "CA", "postalCode": "N7A1R6", "twitter": "None", "instagram": "None", "facebook": "None", "youtube": "None", "website": "None", "summary": "None", "logo": "None", "latitude": 43.74561090878612, "longitude": -81.71165691320546}, "119243533RR0001": {"name": "THE MACKAY CENTRE FOUNDATION-LA FONDATION DU CENTRE MACKAY", "designationCode": "A", "categoryCode": "23", "address": "7010 RUE SHERBROOKE O", "city": "MONTREAL", "province": "QC", "country": "CA", "postalCode": "H4B1R2", "twitter": "None", "instagram": "None", "facebook": "None", "youtube": "None", "website": "None", "summary": "None", "logo": "None", "latitude": 45.45973036658242, "longitude": -73.63644348730497}, "827949470RR0001": {"name": "THE MACKENNA FOUNDATION INCORPORATED", "designationCode": "B", "categoryCode": "03", "address": "54 CALDERWOOD DRIVE", "city": "SYDNEY", "province": "NS", "country": "CA", "postalCode": "B1S3G3", "twitter": "None", "instagram": "None", "facebook": "None", "youtube": "None", "website": "None", "summary": "None", "logo": "None", "latitude": 46.11487702247682, "longitude": -60.208014334064025}, "108087636RR0001": {"name": "THE MACKENZIE INSTITUTE FOR THE STUDY OF TERRORISM, REVOLUTION AND PROPAGANDA", "designationCode": "C", "categoryCode": "21", "address": "P.O. BOX 338                  ADELAIDE STATION", "city": "TORONTO", "province": "ON", "country": "CA", "postalCode": "M5C2J4", "twitter": "None", "instagram": "None", "facebook": "None", "youtube": "None", "website": "None", "summary": "None", "logo": "None", "latitude": 43.65106129336214, "longitude": -79.3754558860496}, "119243566RR0001": {"name": "THE MACKINNON FOUNDATION", "designationCode": "B", "categoryCode": "03", "address": "1350 GRANT AVE", "city": "WINNIPEG", "province": "MB", "country": "CA", "postalCode": "R3M2A7", "twitter": "None", "instagram": "None", "facebook": "None", "youtube": "None", "website": "None", "summary": "None", "logo": "None", "latitude": 49.85600147735032, "longitude": -97.17646210796927}, "119243574RR0001": {"name": "THE MACLACHLAN COLLEGE EDUCATIONAL FOUNDATION", "designationCode": "C", "categoryCode": "21", "address": "337 TRAFALGAR ROAD", "city": "OAKVILLE", "province": "ON", "country": "CA", "postalCode": "L6J3H3", "twitter": "None", "instagram": "None", "facebook": "None", "youtube": "None", "website": "None", "summary": "None", "logo": "None", "latitude": 43.45220992229781, "longitude": -79.67581153981772}}