{"140847781RR0001": {"name": "CHRYSALIS CHARITABLE FOUNDATION", "designationCode": "A", "categoryCode": "03", "address": "13325 ST ALBERT TRAIL", "city": "EDMONTON", "province": "AB", "country": "CA", "postalCode": "T5L4R3", "twitter": "None", "instagram": "None", "facebook": "None", "youtube": "None", "website": "None", "summary": "None", "logo": "None", "latitude": 53.59394106394283, "longitude": -113.56894201815237}, "890002868RR0001": {"name": "CHRYSALIS DRUG AND ALCOHOL ABUSE RECOVERY SOCIETY", "designationCode": "C", "categoryCode": "57", "address": "218-3369 FRASER ST", "city": "VANCOUVER", "province": "BC", "country": "CA", "postalCode": "V5V4C2", "twitter": "None", "instagram": "None", "facebook": "None", "youtube": "None", "website": "None", "summary": "None", "logo": "None", "latitude": 49.25485076019967, "longitude": -123.08998196895351}, "131595209RR0001": {"name": "CHRYSALIS HOUSE ASSOCIATION", "designationCode": "C", "categoryCode": "09", "address": "PO BOX 356", "city": "KENTVILLE", "province": "NS", "country": "CA", "postalCode": "B4N3X1", "twitter": "None", "instagram": "None", "facebook": "None", "youtube": "None", "website": "None", "summary": "None", "logo": "None", "latitude": 45.06954900000005, "longitude": -64.55506399999993}, "108200049RR0001": {"name": "CHRYSALIS: AN ALBERTA SOCIETY FOR CITIZENS WITH DISABILITIES", "designationCode": "C", "categoryCode": "20", "address": "13325 ST ALBERT TRAIL NW", "city": "EDMONTON", "province": "AB", "country": "CA", "postalCode": "T5L4R3", "twitter": "None", "instagram": "None", "facebook": "None", "youtube": "None", "website": "None", "summary": "None", "logo": "None", "latitude": 53.59394106394283, "longitude": -113.56894201815237}, "118858984RR0001": {"name": "CHRYSLER CANADA LTD. EMPLOYEES' CHARITABLE FUND", "designationCode": "B", "categoryCode": "75", "address": "PO BOX 1621  STN A", "city": "WINDSOR", "province": "ON", "country": "CA", "postalCode": "N9A6S2", "twitter": "None", "instagram": "None", "facebook": "None", "youtube": "None", "website": "None", "summary": "None", "logo": "None", "latitude": 42.31784400000005, "longitude": -83.03387299999993}, "118858992RR0001": {"name": "CHRYSLER TRANSPORT INC. EMPLOYEES' CHARITABLE FUND", "designationCode": "B", "categoryCode": "75", "address": "PO BOX 1621", "city": "WINDSOR", "province": "ON", "country": "CA", "postalCode": "N9A4H6", "twitter": "None", "instagram": "None", "facebook": "None", "youtube": "None", "website": "None", "summary": "None", "logo": "None", "latitude": 42.31784400000005, "longitude": -83.03387299999993}, "107534844RR0001": {"name": "CHSLD JUIF DE MONTREAL", "designationCode": "C", "categoryCode": "10", "address": "5725 AVE. VICTORIA", "city": "MONTREAL", "province": "QC", "country": "CA", "postalCode": "H3W3H6", "twitter": "None", "instagram": "None", "facebook": "None", "youtube": "None", "website": "None", "summary": "None", "logo": "None", "latitude": 45.49259822208404, "longitude": -73.6336117386465}, "107491516RR0001": {"name": "CHSLD PROVIDENCE NOTRE-DAME DE LOURDES INC.", "designationCode": "C", "categoryCode": "10", "address": "1870 BOUL PIE-IX", "city": "MONTREAL", "province": "QC", "country": "CA", "postalCode": "H1V2C6", "twitter": "None", "instagram": "None", "facebook": "None", "youtube": "None", "website": "None", "summary": "None", "logo": "None", "latitude": 45.5500071845463, "longitude": -73.54053956454487}, "141078212RR0001": {"name": "CHU de Qu\u00e9bec", "designationCode": "C", "categoryCode": "10", "address": "1401 18E RUE                  LOCAL H-225", "city": "QU\u00c9BEC", "province": "QC", "country": "CA", "postalCode": "G1J1Z4", "twitter": "None", "instagram": "None", "facebook": "None", "youtube": "None", "website": "None", "summary": "None", "logo": "None", "latitude": 46.836314064977564, "longitude": -71.22554357949119}, "887831063RR0001": {"name": "CHUBB LAKE BIBLE CAMP", "designationCode": "C", "categoryCode": "49", "address": "143 COACH ROAD NORTH", "city": "QUESNEL", "province": "BC", "country": "CA", "postalCode": "V2J4W8", "twitter": "None", "instagram": "None", "facebook": "None", "youtube": "None", "website": "None", "summary": "None", "logo": "None", "latitude": 52.980092664723884, "longitude": -122.43716665367269}, "894038660RR0001": {"name": "CHUEN TE BUDDHIST SOCIETY (CITY OF TORONTO)", "designationCode": "C", "categoryCode": "35", "address": "204 BEVERLEY STREET", "city": "TORONTO", "province": "ON", "country": "CA", "postalCode": "M5T1Z1", "twitter": "None", "instagram": "None", "facebook": "None", "youtube": "None", "website": "None", "summary": "None", "logo": "None", "latitude": 43.65678320260835, "longitude": -79.39512583542036}, "870461225RR0001": {"name": "CHUEN YING ARTS CENTRE", "designationCode": "C", "categoryCode": "22", "address": "3003-8700 MCKIM WAY", "city": "RICHMOND", "province": "BC", "country": "CA", "postalCode": "V6X4A5", "twitter": "None", "instagram": "None", "facebook": "None", "youtube": "None", "website": "None", "summary": "None", "logo": "None", "latitude": 49.18353628479352, "longitude": -123.12694544556251}, "836305524RR0001": {"name": "CHUKUNI CHRISTMAS CHEER BOARD", "designationCode": "C", "categoryCode": "09", "address": "P.O. BOX 123", "city": "EAR FALLS", "province": "ON", "country": "CA", "postalCode": "P0V1T0", "twitter": "None", "instagram": "None", "facebook": "None", "youtube": "None", "website": "None", "summary": "None", "logo": "None", "latitude": 50.638600000000054, "longitude": -93.23440999999997}, "893416982RR0001": {"name": "CHUKUNI CHRISTMAS CHEER BOARD RED LAKE/GOLDEN DISTRICT", "designationCode": "C", "categoryCode": "59", "address": "BOX 9999", "city": "RED LAKE", "province": "ON", "country": "CA", "postalCode": "P0V2M0", "twitter": "None", "instagram": "None", "facebook": "None", "youtube": "None", "website": "None", "summary": "None", "logo": "None", "latitude": 51.017789973887886, "longitude": -93.82652994835257}, "118866771RR0001": {"name": "CHUKUNI UNITED CHURCH", "designationCode": "C", "categoryCode": "44", "address": "BOX 612", "city": "RED LAKE", "province": "ON", "country": "CA", "postalCode": "P0V2M0", "twitter": "None", "instagram": "None", "facebook": "None", "youtube": "None", "website": "None", "summary": "None", "logo": "None", "latitude": 51.017789973887886, "longitude": -93.82652994835257}, "118859057RR0001": {"name": "CHUM CHARITABLE FOUNDATION", "designationCode": "A", "categoryCode": "03", "address": "260 RICHMOND STREET WEST      3RD FLOOR", "city": "TORONTO", "province": "ON", "country": "CA", "postalCode": "M5V1W5", "twitter": "None", "instagram": "None", "facebook": "None", "youtube": "None", "website": "None", "summary": "None", "logo": "None", "latitude": 43.64943620511852, "longitude": -79.38956932015691}, "871464277RR0001": {"name": "CHUNG WAH TAO TAK (CHUN TAK) CORPORATION", "designationCode": "C", "categoryCode": "39", "address": "4 WINSTON ROAD", "city": "MARKHAM", "province": "ON", "country": "CA", "postalCode": "L3R7C9", "twitter": "None", "instagram": "None", "facebook": "None", "youtube": "None", "website": "None", "summary": "None", "logo": "None", "latitude": 43.83010299030514, "longitude": -79.28954403912523}, "135981454RR0001": {"name": "CHUNG WAH TAO TAK TONG (BRITISH COLUMBIA) SOCIETY", "designationCode": "C", "categoryCode": "39", "address": "620-5951 NO.3 RD", "city": "RICHMOND", "province": "BC", "country": "CA", "postalCode": "V6X2E3", "twitter": "None", "instagram": "None", "facebook": "None", "youtube": "None", "website": "None", "summary": "None", "logo": "None", "latitude": 49.17070799999999, "longitude": -123.13665603387378}, "133328096RR0001": {"name": "CHUNG WAH TAO TAK TONG (ONTARIO) CORPORATION", "designationCode": "C", "categoryCode": "39", "address": "4220 MIDLAND AVE", "city": "SCARBOROUGH", "province": "ON", "country": "CA", "postalCode": "M1V4S6", "twitter": "None", "instagram": "None", "facebook": "None", "youtube": "None", "website": "None", "summary": "None", "logo": "None", "latitude": 43.82501409463908, "longitude": -79.29691606330412}, "878046549RR0001": {"name": "CHUNG WAH TAO TEH BENEVOLENT ASSOCIATION", "designationCode": "C", "categoryCode": "39", "address": "5 PARTRIDGE LANE", "city": "SCARBOROUGH", "province": "ON", "country": "CA", "postalCode": "M1T3C5", "twitter": "None", "instagram": "None", "facebook": "None", "youtube": "None", "website": "None", "summary": "None", "logo": "None", "latitude": 43.798798918662484, "longitude": -79.29879467692889}, "853258937RR0001": {"name": "CHUNTOH EDUCATION SOCIETY", "designationCode": "C", "categoryCode": "21", "address": "25630 GERMANSEN TEZZERON ROAD PO BOX 2378", "city": "FORT ST JAMES", "province": "BC", "country": "CA", "postalCode": "V0J1P0", "twitter": "None", "instagram": "None", "facebook": "None", "youtube": "None", "website": "None", "summary": "None", "logo": "None", "latitude": 54.44583900000005, "longitude": -124.25097049999994}, "138662093RR0001": {"name": "CHURCH BROOK CEMETERY ASSOCIATION", "designationCode": "C", "categoryCode": "59", "address": "RR # 1                        164 BLACK POINT ROAD", "city": "TRENTON", "province": "NS", "country": "CA", "postalCode": "B0K1X0", "twitter": "None", "instagram": "None", "facebook": "None", "youtube": "None", "website": "None", "summary": "None", "logo": "None", "latitude": 45.66273602022645, "longitude": -62.574958821282095}, "887970572RR0001": {"name": "CHURCH COMMUNITY VOLUNTEERS INC.", "designationCode": "C", "categoryCode": "09", "address": "1700 MAZO CRESCENT", "city": "MISSISSAUGA", "province": "ON", "country": "CA", "postalCode": "L5J1Y8", "twitter": "None", "instagram": "None", "facebook": "None", "youtube": "None", "website": "None", "summary": "None", "logo": "None", "latitude": 43.52642757144111, "longitude": -79.63310352452561}, "132527565RR0001": {"name": "CHURCH COURT INC", "designationCode": "C", "categoryCode": "09", "address": "35 ATLANTIC BAPTIST AVE", "city": "MONCTON", "province": "NB", "country": "CA", "postalCode": "E1E4N3", "twitter": "None", "instagram": "None", "facebook": "None", "youtube": "None", "website": "None", "summary": "None", "logo": "None", "latitude": 46.05999327145241, "longitude": -64.85879860263182}, "856255740RR0001": {"name": "CHURCH EVANGELISM MINISTRIES", "designationCode": "C", "categoryCode": "47", "address": "34757 MILLSTONE WAY", "city": "ABBOTSFORD", "province": "BC", "country": "CA", "postalCode": "V2S7J8", "twitter": "None", "instagram": "None", "facebook": "None", "youtube": "None", "website": "None", "summary": "None", "logo": "None", "latitude": 49.0677354676841, "longitude": -122.26191252844941}, "888833043RR0001": {"name": "CHURCH EXTENSION INVESTORS FUND LTD", "designationCode": "C", "categoryCode": "49", "address": "505 - 4211 KINGSWAY", "city": "BURNABY", "province": "BC", "country": "CA", "postalCode": "V5H1Z6", "twitter": "None", "instagram": "None", "facebook": "None", "youtube": "None", "website": "None", "summary": "None", "logo": "None", "latitude": 49.23230381100505, "longitude": -123.0109238701624}, "886667088RR0001": {"name": "CHURCH GROVE CEMETERY COMPANY", "designationCode": "C", "categoryCode": "59", "address": "39 STRONACH MTN. RD.", "city": "WILMOT", "province": "NS", "country": "CA", "postalCode": "B0P1R0", "twitter": "None", "instagram": "None", "facebook": "None", "youtube": "None", "website": "None", "summary": "None", "logo": "None", "latitude": 44.975060162357934, "longitude": -64.97747931698292}, "132882820RR0001": {"name": "CHURCH IN THE CITY", "designationCode": "C", "categoryCode": "36", "address": "152 THE ESPLANADE", "city": "TORONTO", "province": "ON", "country": "CA", "postalCode": "M5A3T2", "twitter": "None", "instagram": "None", "facebook": "None", "youtube": "None", "website": "None", "summary": "None", "logo": "None", "latitude": 43.648656106872764, "longitude": -79.36905925757394}, "835060526RR0001": {"name": "CHURCH IN THE FIELDS MINISTRY", "designationCode": "C", "categoryCode": "39", "address": "19 LOTHERTON PATHWAY", "city": "TORONTO", "province": "ON", "country": "CA", "postalCode": "M6B2G6", "twitter": "None", "instagram": "None", "facebook": "None", "youtube": "None", "website": "None", "summary": "None", "logo": "None", "latitude": 43.7057867365977, "longitude": -79.46593956480467}, "867149346RR0001": {"name": "CHURCH IN THE HILLS", "designationCode": "C", "categoryCode": "39", "address": "PO BOX 51091                  RPO BEDDINGTON", "city": "CALGARY", "province": "AB", "country": "CA", "postalCode": "T3K3V9", "twitter": "None", "instagram": "None", "facebook": "None", "youtube": "None", "website": "None", "summary": "None", "logo": "None", "latitude": 51.128584718547586, "longitude": -114.06502043950208}, "863305686RR0001": {"name": "CHURCH IN THE MARKETPLACE", "designationCode": "C", "categoryCode": "39", "address": "253-3104-30TH AVE", "city": "VERNON", "province": "BC", "country": "CA", "postalCode": "V1T9M9", "twitter": "None", "instagram": "None", "facebook": "None", "youtube": "None", "website": "None", "summary": "None", "logo": "None", "latitude": 50.26375854674262, "longitude": -119.2727115}, "106923022RR0001": {"name": "CHURCH IN THE OAKS", "designationCode": "C", "categoryCode": "36", "address": "150 CONWAY DR", "city": "LONDON", "province": "ON", "country": "CA", "postalCode": "N6E3K6", "twitter": "None", "instagram": "None", "facebook": "None", "youtube": "None", "website": "None", "summary": "None", "logo": "None", "latitude": 42.931793081914456, "longitude": -81.24341952013953}, "898640719RR0001": {"name": "CHURCH IN THE VINE OF EDMONTON", "designationCode": "C", "categoryCode": "39", "address": "12345 149 ST NW", "city": "EDMONTON", "province": "AB", "country": "CA", "postalCode": "T5L2J5", "twitter": "None", "instagram": "None", "facebook": "None", "youtube": "None", "website": "None", "summary": "None", "logo": "None", "latitude": 53.57844866472388, "longitude": -113.57793525122689}, "894173178RR0001": {"name": "CHURCH JEHOVA NISSI INC.", "designationCode": "C", "categoryCode": "39", "address": "119 MINIKADA BAY", "city": "WINNIPEG", "province": "MB", "country": "CA", "postalCode": "R2C0G9", "twitter": "None", "instagram": "None", "facebook": "None", "youtube": "None", "website": "None", "summary": "None", "logo": "None", "latitude": 49.89521683236194, "longitude": -96.98444033164078}, "118859305RR0001": {"name": "CHURCH MEMORIAL PARK", "designationCode": "C", "categoryCode": "56", "address": "PO BOX 635", "city": "CHESTER", "province": "NS", "country": "CA", "postalCode": "B0J1J0", "twitter": "None", "instagram": "None", "facebook": "None", "youtube": "None", "website": "None", "summary": "None", "logo": "None", "latitude": 44.549654888646664, "longitude": -64.2288348174421}, "858840523RR0001": {"name": "CHURCH MUSIC MINISTRY OF CANADA", "designationCode": "C", "categoryCode": "39", "address": "514 RIVERVIEW CRES", "city": "COQUITLAM", "province": "BC", "country": "CA", "postalCode": "V3C5A1", "twitter": "None", "instagram": "None", "facebook": "None", "youtube": "None", "website": "None", "summary": "None", "logo": "None", "latitude": 49.25202227644406, "longitude": -122.80831350600127}, "106923188RR0001": {"name": "CHURCH OF CHRIST", "designationCode": "C", "categoryCode": "39", "address": "4900 JOHN ST", "city": "BEAMSVILLE", "province": "ON", "country": "CA", "postalCode": "L0R1B6", "twitter": "None", "instagram": "None", "facebook": "None", "youtube": "None", "website": "None", "summary": "None", "logo": "None", "latitude": 43.1713615128402, "longitude": -79.47102931112589}, "106923212RR0001": {"name": "CHURCH OF CHRIST", "designationCode": "C", "categoryCode": "39", "address": "439 ONTARIO STREET", "city": "ST CATHARINES", "province": "ON", "country": "CA", "postalCode": "L2N4M9", "twitter": "None", "instagram": "None", "facebook": "None", "youtube": "None", "website": "None", "summary": "None", "logo": "None", "latitude": 43.1855154363205, "longitude": -79.26495017658218}, "106923238RR0001": {"name": "CHURCH OF CHRIST", "designationCode": "C", "categoryCode": "39", "address": "700 STEELE ST", "city": "PORT COLBORNE", "province": "ON", "country": "CA", "postalCode": "L3K4Z2", "twitter": "None", "instagram": "None", "facebook": "None", "youtube": "None", "website": "None", "summary": "None", "logo": "None", "latitude": 42.897402, "longitude": -79.26017050822297}, "106923279RR0001": {"name": "CHURCH OF CHRIST", "designationCode": "C", "categoryCode": "39", "address": "47 HARDING AVENUE", "city": "WESTON", "province": "ON", "country": "CA", "postalCode": "M6M3A3", "twitter": "None", "instagram": "None", "facebook": "None", "youtube": "None", "website": "None", "summary": "None", "logo": "None", "latitude": 43.700057802094854, "longitude": -79.50043806327547}, "106923394RR0001": {"name": "CHURCH OF CHRIST", "designationCode": "C", "categoryCode": "39", "address": "BOX 927", "city": "SUNDRIDGE", "province": "ON", "country": "CA", "postalCode": "P0A1Z0", "twitter": "None", "instagram": "None", "facebook": "None", "youtube": "None", "website": "None", "summary": "None", "logo": "None", "latitude": 45.75507926133678, "longitude": -79.41022764524283}, "106923428RR0001": {"name": "CHURCH OF CHRIST", "designationCode": "C", "categoryCode": "39", "address": "2663 BANCROFT DRIVE", "city": "SUDBURY", "province": "ON", "country": "CA", "postalCode": "P3B1T7", "twitter": "None", "instagram": "None", "facebook": "None", "youtube": "None", "website": "None", "summary": "None", "logo": "None", "latitude": 46.487171632994624, "longitude": -80.91541908823677}, "106923576RR0001": {"name": "CHURCH OF CHRIST", "designationCode": "C", "categoryCode": "39", "address": "BOX 1103", "city": "SWIFT CURRENT", "province": "SK", "country": "CA", "postalCode": "S9H3X3", "twitter": "None", "instagram": "None", "facebook": "None", "youtube": "None", "website": "None", "summary": "None", "logo": "None", "latitude": 50.292744000000056, "longitude": -107.80056349999994}, "106923634RR0001": {"name": "CHURCH OF CHRIST", "designationCode": "C", "categoryCode": "39", "address": "68 DONLEVY AVE", "city": "RED DEER", "province": "AB", "country": "CA", "postalCode": "T4R2Y8", "twitter": "None", "instagram": "None", "facebook": "None", "youtube": "None", "website": "None", "summary": "None", "logo": "None", "latitude": 52.26569225783375, "longitude": -113.7502255987071}, "106923725RR0001": {"name": "CHURCH OF CHRIST", "designationCode": "C", "categoryCode": "39", "address": "267 NORTH PARK ST", "city": "BRANTFORD", "province": "ON", "country": "CA", "postalCode": "N3R4L2", "twitter": "None", "instagram": "None", "facebook": "None", "youtube": "None", "website": "None", "summary": "None", "logo": "None"}, "106923782RR0001": {"name": "CHURCH OF CHRIST", "designationCode": "C", "categoryCode": "39", "address": "321 EAST 27TH STREET", "city": "HAMILTON", "province": "ON", "country": "CA", "postalCode": "L8V3G8", "twitter": "None", "instagram": "None", "facebook": "None", "youtube": "None", "website": "None", "summary": "None", "logo": "None", "latitude": 43.23038441780465, "longitude": -79.85040569543561}, "118859404RR0001": {"name": "CHURCH OF CHRIST", "designationCode": "C", "categoryCode": "39", "address": "BOX 26", "city": "KENTVILLE", "province": "NS", "country": "CA", "postalCode": "B4N3V9", "twitter": "None", "instagram": "None", "facebook": "None", "youtube": "None", "website": "None", "summary": "None", "logo": "None", "latitude": 45.07663200000006, "longitude": -64.49369299999994}, "118859420RR0001": {"name": "CHURCH OF CHRIST", "designationCode": "C", "categoryCode": "39", "address": "227 ROUTE 772", "city": "LORDS COVE", "province": "NB", "country": "CA", "postalCode": "E5V1J1", "twitter": "None", "instagram": "None", "facebook": "None", "youtube": "None", "website": "None", "summary": "None", "logo": "None", "latitude": 45.00713455891863, "longitude": -66.94863875068661}, "118859453RR0001": {"name": "CHURCH OF CHRIST", "designationCode": "A", "categoryCode": "39", "address": "BOX 1552", "city": "BANCROFT", "province": "ON", "country": "CA", "postalCode": "K0L1C0", "twitter": "None", "instagram": "None", "facebook": "None", "youtube": "None", "website": "None", "summary": "None", "logo": "None", "latitude": 45.03567300000006, "longitude": -77.98000849999994}, "118859529RR0001": {"name": "CHURCH OF CHRIST", "designationCode": "C", "categoryCode": "39", "address": "POST OFFICE BOX 29", "city": "WAINFLEET", "province": "ON", "country": "CA", "postalCode": "L0S1V0", "twitter": "None", "instagram": "None", "facebook": "None", "youtube": "None", "website": "None", "summary": "None", "logo": "None", "latitude": 42.922780000000046, "longitude": -79.37501999999995}, "118859537RR0001": {"name": "CHURCH OF CHRIST", "designationCode": "C", "categoryCode": "39", "address": "3901 DORCHESTER ROAD", "city": "NIAGARA FALLS", "province": "ON", "country": "CA", "postalCode": "L2J3A8", "twitter": "None", "instagram": "None", "facebook": "None", "youtube": "None", "website": "None", "summary": "None", "logo": "None", "latitude": 43.11645248681402, "longitude": -79.11197134116182}, "118859826RR0001": {"name": "CHURCH OF CHRIST", "designationCode": "C", "categoryCode": "39", "address": "901 JAMES ST", "city": "MOOSE JAW", "province": "SK", "country": "CA", "postalCode": "S6H3H5", "twitter": "None", "instagram": "None", "facebook": "None", "youtube": "None", "website": "None", "summary": "None", "logo": "None", "latitude": 50.40498903048945, "longitude": -105.55769458536412}, "118859859RR0001": {"name": "CHURCH OF CHRIST", "designationCode": "C", "categoryCode": "39", "address": "BOX 88", "city": "LLOYDMINISTER", "province": "SK", "country": "CA", "postalCode": "S9V0X9", "twitter": "None", "instagram": "None", "facebook": "None", "youtube": "None", "website": "None", "summary": "None", "logo": "None", "latitude": 53.274840000000054, "longitude": -109.99074949999994}, "118859891RR0001": {"name": "CHURCH OF CHRIST", "designationCode": "B", "categoryCode": "39", "address": "PO BOX 324", "city": "PRINCE RUPERT", "province": "BC", "country": "CA", "postalCode": "V8J3P9", "twitter": "None", "instagram": "None", "facebook": "None", "youtube": "None", "website": "None", "summary": "None", "logo": "None", "latitude": 54.313233000000054, "longitude": -130.32604249999994}, "129907192RR0001": {"name": "CHURCH OF CHRIST", "designationCode": "C", "categoryCode": "39", "address": "113 NELSON STREET WEST", "city": "MEAFORD", "province": "ON", "country": "CA", "postalCode": "N4L1G3", "twitter": "None", "instagram": "None", "facebook": "None", "youtube": "None", "website": "None", "summary": "None", "logo": "None", "latitude": 44.6069322724306, "longitude": -80.5969731636009}, "129929725RR0001": {"name": "CHURCH OF CHRIST", "designationCode": "C", "categoryCode": "39", "address": "BOX 507", "city": "GRAVELBOURG", "province": "SK", "country": "CA", "postalCode": "S0H1X0", "twitter": "None", "instagram": "None", "facebook": "None", "youtube": "None", "website": "None", "summary": "None", "logo": "None", "latitude": 49.87668000000008, "longitude": -106.55736999999999}, "134400381RR0001": {"name": "CHURCH OF CHRIST", "designationCode": "C", "categoryCode": "39", "address": "65 GLENBURNIE DR", "city": "GUELPH", "province": "ON", "country": "CA", "postalCode": "N1E4C5", "twitter": "None", "instagram": "None", "facebook": "None", "youtube": "None", "website": "None", "summary": "None", "logo": "None", "latitude": 43.56897731530948, "longitude": -80.24604435356932}, "140650953RR0001": {"name": "CHURCH OF CHRIST", "designationCode": "C", "categoryCode": "39", "address": "750 CLARKE BLVD.", "city": "BRAMALEA", "province": "ON", "country": "CA", "postalCode": "L6T3Y2", "twitter": "None", "instagram": "None", "facebook": "None", "youtube": "None", "website": "None", "summary": "None", "logo": "None", "latitude": 43.72562267222569, "longitude": -79.70814315101829}, "140857731RR0001": {"name": "CHURCH OF CHRIST", "designationCode": "C", "categoryCode": "39", "address": "63 CASABLANCA BLVD", "city": "GRIMSBY", "province": "ON", "country": "CA", "postalCode": "L3M4G3", "twitter": "None", "instagram": "None", "facebook": "None", "youtube": "None", "website": "None", "summary": "None", "logo": "None", "latitude": 43.2022768842691, "longitude": -79.59508847022292}, "887360998RR0001": {"name": "CHURCH OF CHRIST", "designationCode": "C", "categoryCode": "39", "address": "LEONARDVILLE CHURCH OF CHRIST 1813 ROUTE 772", "city": "LEONARDVILL", "province": "NB", "country": "CA", "postalCode": "E5V1L5", "twitter": "None", "instagram": "None", "facebook": "None", "youtube": "None", "website": "None", "summary": "None", "logo": "None", "latitude": 44.975444733495856, "longitude": -66.95367256101794}, "890145394RR0001": {"name": "CHURCH OF CHRIST", "designationCode": "C", "categoryCode": "39", "address": "36 HILLTOP DRIVE", "city": "HUNTSVILLE", "province": "ON", "country": "CA", "postalCode": "P1H1C5", "twitter": "None", "instagram": "None", "facebook": "None", "youtube": "None", "website": "None", "summary": "None", "logo": "None", "latitude": 45.339723008627004, "longitude": -79.19981432763007}, "891262982RR0001": {"name": "CHURCH OF CHRIST", "designationCode": "C", "categoryCode": "39", "address": "PO BOX 451", "city": "SMITHVILLE", "province": "ON", "country": "CA", "postalCode": "L0R2A0", "twitter": "None", "instagram": "None", "facebook": "None", "youtube": "None", "website": "None", "summary": "None", "logo": "None", "latitude": 43.09114347619214, "longitude": -79.56149144437846}, "894230788RR0001": {"name": "CHURCH OF CHRIST", "designationCode": "C", "categoryCode": "39", "address": "PO BOX 1216", "city": "WESTPORT", "province": "NS", "country": "CA", "postalCode": "B0V1H0", "twitter": "None", "instagram": "None", "facebook": "None", "youtube": "None", "website": "None", "summary": "None", "logo": "None", "latitude": 44.26168000000007, "longitude": -66.35150999999996}, "894450063RR0001": {"name": "CHURCH OF CHRIST", "designationCode": "C", "categoryCode": "39", "address": "446 COLLEGE ST", "city": "KINGSTON", "province": "ON", "country": "CA", "postalCode": "K7L4M7", "twitter": "None", "instagram": "None", "facebook": "None", "youtube": "None", "website": "None", "summary": "None", "logo": "None", "latitude": 44.23686920260835, "longitude": -76.51051152166875}, "108076134RR0001": {"name": "CHURCH OF CHRIST (CENTRAL CONGREGATION) INC.", "designationCode": "C", "categoryCode": "39", "address": "170 ST MARYS RD", "city": "WINNIPEG", "province": "MB", "country": "CA", "postalCode": "R2H1H9", "twitter": "None", "instagram": "None", "facebook": "None", "youtube": "None", "website": "None", "summary": "None", "logo": "None", "latitude": 49.87676942157667, "longitude": -97.12178179491015}, "118859982RR0001": {"name": "CHURCH OF CHRIST (DISCIPLES)", "designationCode": "C", "categoryCode": "39", "address": "1000 HIGHWAY 202              RR 1", "city": "KENNETCOOK", "province": "NS", "country": "CA", "postalCode": "B0N1P0", "twitter": "None", "instagram": "None", "facebook": "None", "youtube": "None", "website": "None", "summary": "None", "logo": "None", "latitude": 45.0959929865084, "longitude": -63.77301739209298}, "118860097RR0001": {"name": "CHURCH OF CHRIST (SURREY)", "designationCode": "C", "categoryCode": "39", "address": "15042 92 AVE.", "city": "SURREY", "province": "BC", "country": "CA", "postalCode": "V3R5V7", "twitter": "None", "instagram": "None", "facebook": "None", "youtube": "None", "website": "None", "summary": "None", "logo": "None", "latitude": 49.16997700753829, "longitude": -122.80561323058068}, "865222830RR0001": {"name": "CHURCH OF CHRIST - BURKS FALLS", "designationCode": "C", "categoryCode": "39", "address": "1375 NORTH PICKEREL LAKE RD", "city": "BURK'S FALLS", "province": "ON", "country": "CA", "postalCode": "P0A1C0", "twitter": "None", "instagram": "None", "facebook": "None", "youtube": "None", "website": "None", "summary": "None", "logo": "None", "latitude": 45.67659901485982, "longitude": -79.33768399215064}, "890794597RR0001": {"name": "CHURCH OF CHRIST AT DOVER", "designationCode": "C", "categoryCode": "39", "address": "6718 GILMORE HILL ROAD", "city": "CORNWALL", "province": "ON", "country": "CA", "postalCode": "K6H7J3", "twitter": "None", "instagram": "None", "facebook": "None", "youtube": "None", "website": "None", "summary": "None", "logo": "None", "latitude": 45.035379471550584, "longitude": -74.65303696225975}, "118859438RR0001": {"name": "CHURCH OF CHRIST AT ST. GEORGE", "designationCode": "C", "categoryCode": "39", "address": "71 CARLETON STREET", "city": "ST. GEORGE", "province": "NB", "country": "CA", "postalCode": "E5C3B9", "twitter": "None", "instagram": "None", "facebook": "None", "youtube": "None", "website": "None", "summary": "None", "logo": "None", "latitude": 45.12923176409482, "longitude": -66.81453481375162}, "118859354RR0001": {"name": "CHURCH OF CHRIST BLAIR", "designationCode": "C", "categoryCode": "39", "address": "2743 KRESSLER ROAD", "city": "HEIDELBERG", "province": "ON", "country": "CA", "postalCode": "N0B2M1", "twitter": "None", "instagram": "None", "facebook": "None", "youtube": "None", "website": "None", "summary": "None", "logo": "None", "latitude": 43.52228883735359, "longitude": -80.61901558182846}, "118860006RR0001": {"name": "CHURCH OF CHRIST DISCIPLES", "designationCode": "C", "categoryCode": "39", "address": "604 WEIRS RD., RR #2", "city": "UXBRIDGE", "province": "ON", "country": "CA", "postalCode": "L9P1R2", "twitter": "None", "instagram": "None", "facebook": "None", "youtube": "None", "website": "None", "summary": "None", "logo": "None", "latitude": 44.181562971793014, "longitude": -79.17766162553586}, "859729774RR0001": {"name": "CHURCH OF CHRIST EL SHADDAI INC.", "designationCode": "C", "categoryCode": "39", "address": "576 WINDSOR AVE", "city": "WINNIPEG", "province": "MB", "country": "CA", "postalCode": "R2L1B3", "twitter": "None", "instagram": "None", "facebook": "None", "youtube": "None", "website": "None", "summary": "None", "logo": "None", "latitude": 49.90713970716731, "longitude": -97.09534672621032}, "890806573RR0001": {"name": "CHURCH OF CHRIST HALIFAX", "designationCode": "C", "categoryCode": "39", "address": "48 CONVOY AVE", "city": "HALIFAX", "province": "NS", "country": "CA", "postalCode": "B3N2P8", "twitter": "None", "instagram": "None", "facebook": "None", "youtube": "None", "website": "None", "summary": "None", "logo": "None", "latitude": 44.65469376406616, "longitude": -63.643301257545275}, "118860071RR0001": {"name": "CHURCH OF CHRIST MILL VILLAGE", "designationCode": "C", "categoryCode": "39", "address": "3410 INDIAN RD MILL VILLAGE", "city": "SHUBENACADIE", "province": "NS", "country": "CA", "postalCode": "B0N2H0", "twitter": "None", "instagram": "None", "facebook": "None", "youtube": "None", "website": "None", "summary": "None", "logo": "None", "latitude": 45.088324963114374, "longitude": -63.422133940815336}, "885852707RR0001": {"name": "CHURCH OF CHRIST MISSIONS", "designationCode": "C", "categoryCode": "47", "address": "931 WOODSIDE LANE", "city": "AIRDRIE", "province": "AB", "country": "CA", "postalCode": "T4B2K2", "twitter": "None", "instagram": "None", "facebook": "None", "youtube": "None", "website": "None", "summary": "None", "logo": "None", "latitude": 51.29650649235396, "longitude": -114.02736291618096}, "107876476RR0042": {"name": "CHURCH OF CHRIST THE KING", "designationCode": "C", "categoryCode": "38", "address": "BOX 787", "city": "SUDBURY", "province": "ON", "country": "CA", "postalCode": "P3E4S1", "twitter": "None", "instagram": "None", "facebook": "None", "youtube": "None", "website": "None", "summary": "None", "logo": "None", "latitude": 46.48958700000006, "longitude": -80.99011249999994}, "118860113RR0001": {"name": "CHURCH OF CHRIST THE KING", "designationCode": "C", "categoryCode": "30", "address": "475 RATHBURN ROAD", "city": "TORONTO", "province": "ON", "country": "CA", "postalCode": "M9C3S9", "twitter": "None", "instagram": "None", "facebook": "None", "youtube": "None", "website": "None", "summary": "None", "logo": "None", "latitude": 43.6523668859139, "longitude": -79.575257260171}, "119238210RR0019": {"name": "CHURCH OF CHRIST THE KING", "designationCode": "C", "categoryCode": "30", "address": "PO BOX 220", "city": "PORT EDWARD", "province": "BC", "country": "CA", "postalCode": "V0V1G0", "twitter": "None", "instagram": "None", "facebook": "None", "youtube": "None", "website": "None", "summary": "None", "logo": "None", "latitude": 54.223062000000056, "longitude": -130.29230149999995}, "887525798RR0001": {"name": "CHURCH OF CHRIST,", "designationCode": "C", "categoryCode": "39", "address": "BOX 2", "city": "MANSON", "province": "MB", "country": "CA", "postalCode": "R0M1J0", "twitter": "None", "instagram": "None", "facebook": "None", "youtube": "None", "website": "None", "summary": "None", "logo": "None", "latitude": 49.482784112303776, "longitude": -100.52524063944308}, "888200995RR0001": {"name": "CHURCH OF CHRIST,", "designationCode": "C", "categoryCode": "39", "address": "2861 REGIONAL RD 81", "city": "JORDAN", "province": "ON", "country": "CA", "postalCode": "L0R1S0", "twitter": "None", "instagram": "None", "facebook": "None", "youtube": "None", "website": "None", "summary": "None", "logo": "None", "latitude": 43.144915011945216, "longitude": -79.36750722508515}, "888740594RR0001": {"name": "CHURCH OF CHRIST,", "designationCode": "C", "categoryCode": "39", "address": "60 SOUTH EDGEWARE ROAD", "city": "ST THOMAS", "province": "ON", "country": "CA", "postalCode": "N5P2H6", "twitter": "None", "instagram": "None", "facebook": "None", "youtube": "None", "website": "None", "summary": "None", "logo": "None", "latitude": 42.793161239028706, "longitude": -81.17568050245596}, "889816591RR0001": {"name": "CHURCH OF CHRIST,", "designationCode": "C", "categoryCode": "39", "address": "7485 SALISBURY AVE", "city": "BURNABY", "province": "BC", "country": "CA", "postalCode": "V5E3A5", "twitter": "None", "instagram": "None", "facebook": "None", "youtube": "None", "website": "None", "summary": "None", "logo": "None", "latitude": 49.2153504210284, "longitude": -122.95707309080125}, "891148785RR0001": {"name": "CHURCH OF CHRIST,", "designationCode": "C", "categoryCode": "39", "address": "754 WELLAND RD                BOX 127", "city": "FENWICK", "province": "ON", "country": "CA", "postalCode": "L0S1C0", "twitter": "None", "instagram": "None", "facebook": "None", "youtube": "None", "website": "None", "summary": "None", "logo": "None", "latitude": 43.024345538375414, "longitude": -79.35763202983439}, "872945969RR0001": {"name": "CHURCH OF CHRIST, (TEMPLE LOT) - CANADA", "designationCode": "C", "categoryCode": "47", "address": "APT. 202, 9 BONHEUR COURT", "city": "BRANTFORD", "province": "ON", "country": "CA", "postalCode": "N3P1Z5", "twitter": "None", "instagram": "None", "facebook": "None", "youtube": "None", "website": "None", "summary": "None", "logo": "None", "latitude": 43.17664784283219, "longitude": -80.23143914751091}, "132734963RR0001": {"name": "CHURCH OF CHRIST, COLLINGWOOD", "designationCode": "C", "categoryCode": "39", "address": "93 MANNING AVE", "city": "COLLINGWOOD", "province": "ON", "country": "CA", "postalCode": "L9Y4G7", "twitter": "None", "instagram": "None", "facebook": "None", "youtube": "None", "website": "None", "summary": "None", "logo": "None", "latitude": 44.49275120639715, "longitude": -80.20839633787124}, "133115634RR0001": {"name": "CHURCH OF CHRIST, DELTA", "designationCode": "C", "categoryCode": "39", "address": "5513 - 6TH AVE", "city": "DELTA", "province": "BC", "country": "CA", "postalCode": "V4M1L9", "twitter": "None", "instagram": "None", "facebook": "None", "youtube": "None", "website": "None", "summary": "None", "logo": "None", "latitude": 49.01372646768412, "longitude": -123.07127399999999}, "106923527RR0001": {"name": "CHURCH OF CHRIST, ESTEVAN", "designationCode": "C", "categoryCode": "39", "address": "1302 8TH ST", "city": "ESTEVAN", "province": "SK", "country": "CA", "postalCode": "S4A1H6", "twitter": "None", "instagram": "None", "facebook": "None", "youtube": "None", "website": "None", "summary": "None", "logo": "None", "latitude": 49.14437248424874, "longitude": -102.99430575993784}, "889371993RR0001": {"name": "CHURCH OF CHRIST, GLENCOE ONT.", "designationCode": "C", "categoryCode": "39", "address": "115 VICTORIA ST", "city": "GLENCOE", "province": "ON", "country": "CA", "postalCode": "N0L1M0", "twitter": "None", "instagram": "None", "facebook": "None", "youtube": "None", "website": "None", "summary": "None", "logo": "None", "latitude": 42.742812812395286, "longitude": -81.70221176392191}, "132902941RR0001": {"name": "CHURCH OF CHRIST, TILLSONBURG", "designationCode": "C", "categoryCode": "39", "address": "P.O. BOX 331", "city": "TILLSONBURG", "province": "ON", "country": "CA", "postalCode": "N4G4H8", "twitter": "None", "instagram": "None", "facebook": "None", "youtube": "None", "website": "None", "summary": "None", "logo": "None", "latitude": 42.86066100000005, "longitude": -80.72789299999994}, "106924152RR0001": {"name": "CHURCH OF GOD", "designationCode": "C", "categoryCode": "39", "address": "PO BOX 30", "city": "PARADISE VALLEY", "province": "AB", "country": "CA", "postalCode": "T0B3R0", "twitter": "None", "instagram": "None", "facebook": "None", "youtube": "None", "website": "None", "summary": "None", "logo": "None", "latitude": 52.88554319679522, "longitude": -112.76808325302243}, "106924194RR0001": {"name": "CHURCH OF GOD", "designationCode": "C", "categoryCode": "39", "address": "4407 - 56 AVENUE", "city": "WETASKIWIN", "province": "AB", "country": "CA", "postalCode": "T9A3N8", "twitter": "None", "instagram": "None", "facebook": "None", "youtube": "None", "website": "None", "summary": "None", "logo": "None", "latitude": 52.97427751673535, "longitude": -113.358222}, "118860279RR0001": {"name": "CHURCH OF GOD", "designationCode": "C", "categoryCode": "39", "address": "BOX 348", "city": "ROSENORT", "province": "MB", "country": "CA", "postalCode": "R0G1W0", "twitter": "None", "instagram": "None", "facebook": "None", "youtube": "None", "website": "None", "summary": "None", "logo": "None", "latitude": 49.45817000000005, "longitude": -97.43545999999998}, "118860303RR0001": {"name": "CHURCH OF GOD", "designationCode": "C", "categoryCode": "39", "address": "BOX 910", "city": "BIGGAR", "province": "SK", "country": "CA", "postalCode": "S0K0M0", "twitter": "None", "instagram": "None", "facebook": "None", "youtube": "None", "website": "None", "summary": "None", "logo": "None", "latitude": 52.065150000000074, "longitude": -107.99375999999995}, "118860378RR0001": {"name": "CHURCH OF GOD", "designationCode": "C", "categoryCode": "39", "address": "BOX 151", "city": "ROLLING HILLS", "province": "AB", "country": "CA", "postalCode": "T0J2S0", "twitter": "None", "instagram": "None", "facebook": "None", "youtube": "None", "website": "None", "summary": "None", "logo": "None", "latitude": 33.72890644634037, "longitude": -117.76764005752123}, "130362858RR0001": {"name": "CHURCH OF GOD", "designationCode": "C", "categoryCode": "39", "address": "BOX 209", "city": "CHURCHBRIDGE", "province": "SK", "country": "CA", "postalCode": "S0A0M0", "twitter": "None", "instagram": "None", "facebook": "None", "youtube": "None", "website": "None", "summary": "None", "logo": "None", "latitude": 50.897380000000055, "longitude": -101.89767999999998}, "130919889RR0001": {"name": "CHURCH OF GOD", "designationCode": "C", "categoryCode": "39", "address": "401 TRINITY LANE", "city": "MOOSE JAW", "province": "SK", "country": "CA", "postalCode": "S6H0E3", "twitter": "None", "instagram": "None", "facebook": "None", "youtube": "None", "website": "None", "summary": "None", "logo": "None", "latitude": 50.38505432707176, "longitude": -105.52509645250873}, "887765063RR0001": {"name": "CHURCH OF GOD", "designationCode": "C", "categoryCode": "39", "address": "18 JAPONICA CRESCENT", "city": "BRANTFORD", "province": "ON", "country": "CA", "postalCode": "N3R1N6", "twitter": "None", "instagram": "None", "facebook": "None", "youtube": "None", "website": "None", "summary": "None", "logo": "None", "latitude": 43.16263027171219, "longitude": -80.28985155150313}, "893261164RR0001": {"name": "CHURCH OF GOD (SEVENTH-DAY) SCARBOROUGH", "designationCode": "C", "categoryCode": "39", "address": "36 CRANFIELD ROAD", "city": "TORONTO", "province": "ON", "country": "CA", "postalCode": "M4B3H3", "twitter": "None", "instagram": "None", "facebook": "None", "youtube": "None", "website": "None", "summary": "None", "logo": "None", "latitude": 43.71498444131216, "longitude": -79.30968747103098}, "887679421RR0001": {"name": "CHURCH OF GOD (7TH DAY)", "designationCode": "C", "categoryCode": "39", "address": "P.O. BOX 25061", "city": "GUELPH", "province": "ON", "country": "CA", "postalCode": "N1G4T4", "twitter": "None", "instagram": "None", "facebook": "None", "youtube": "None", "website": "None", "summary": "None", "logo": "None", "latitude": 43.54455300000005, "longitude": -80.24788249999993}}