{"106921034RR0001": {"name": "CHRIST LUTHERAN CHURCH", "designationCode": "C", "categoryCode": "32", "address": "6482 TELFER ROAD", "city": "SARNIA", "province": "ON", "country": "CA", "postalCode": "N7T7H4", "twitter": "None", "instagram": "None", "facebook": "None", "youtube": "None", "website": "None", "summary": "None", "logo": "None", "latitude": 43.02410380099835, "longitude": -82.29741398398674}, "106921075RR0001": {"name": "CHRIST LUTHERAN CHURCH", "designationCode": "C", "categoryCode": "32", "address": "155 GILMOUR ST", "city": "MORDEN", "province": "MB", "country": "CA", "postalCode": "R6M1N9", "twitter": "None", "instagram": "None", "facebook": "None", "youtube": "None", "website": "None", "summary": "None", "logo": "None", "latitude": 49.196576460470745, "longitude": -98.0969625}, "106921117RR0001": {"name": "CHRIST LUTHERAN CHURCH", "designationCode": "C", "categoryCode": "32", "address": "PO BOX 27", "city": "EARL GREY", "province": "SK", "country": "CA", "postalCode": "S0G1J0", "twitter": "None", "instagram": "None", "facebook": "None", "youtube": "None", "website": "None", "summary": "None", "logo": "None", "latitude": 50.93338000000006, "longitude": -104.71781999999996}, "106921125RR0001": {"name": "CHRIST LUTHERAN CHURCH", "designationCode": "C", "categoryCode": "32", "address": "BOX 60", "city": "KIPLING", "province": "SK", "country": "CA", "postalCode": "S0G2S0", "twitter": "None", "instagram": "None", "facebook": "None", "youtube": "None", "website": "None", "summary": "None", "logo": "None", "latitude": 50.94214200000001, "longitude": -104.50606274999998}, "106921133RR0001": {"name": "CHRIST LUTHERAN CHURCH", "designationCode": "C", "categoryCode": "32", "address": "4825 DEWDNEY AVE", "city": "REGINA", "province": "SK", "country": "CA", "postalCode": "S4T1B7", "twitter": "None", "instagram": "None", "facebook": "None", "youtube": "None", "website": "None", "summary": "None", "logo": "None", "latitude": 50.45508028855495, "longitude": -104.6499952405332}, "106921158RR0001": {"name": "CHRIST LUTHERAN CHURCH", "designationCode": "C", "categoryCode": "32", "address": "9909-90 STREET", "city": "FORT SASKATCHEWAN", "province": "AB", "country": "CA", "postalCode": "T8L3T1", "twitter": "None", "instagram": "None", "facebook": "None", "youtube": "None", "website": "None", "summary": "None", "logo": "None", "latitude": 53.70067832390782, "longitude": -113.23259945819171}, "106921190RR0001": {"name": "CHRIST LUTHERAN CHURCH", "designationCode": "C", "categoryCode": "32", "address": "BOX 156", "city": "RHEIN", "province": "SK", "country": "CA", "postalCode": "S0A3K0", "twitter": "None", "instagram": "None", "facebook": "None", "youtube": "None", "website": "None", "summary": "None", "logo": "None", "latitude": 51.353450000000066, "longitude": -102.19474999999994}, "118858190RR0001": {"name": "CHRIST LUTHERAN CHURCH", "designationCode": "C", "categoryCode": "32", "address": "140 RUSSELL AVE", "city": "ST CATHARINES", "province": "ON", "country": "CA", "postalCode": "L2R1W1", "twitter": "None", "instagram": "None", "facebook": "None", "youtube": "None", "website": "None", "summary": "None", "logo": "None", "latitude": 43.17019646371669, "longitude": -79.24453049363964}, "118858240RR0001": {"name": "CHRIST LUTHERAN CHURCH", "designationCode": "C", "categoryCode": "32", "address": "266 SPRUCE STREET NORTH", "city": "TIMMINS", "province": "ON", "country": "CA", "postalCode": "P4N6N5", "twitter": "None", "instagram": "None", "facebook": "None", "youtube": "None", "website": "None", "summary": "None", "logo": "None", "latitude": 48.48130742320267, "longitude": -81.32695404464124}, "118858265RR0001": {"name": "CHRIST LUTHERAN CHURCH", "designationCode": "C", "categoryCode": "32", "address": "PO BOX 1166", "city": "NEEPAWA", "province": "MB", "country": "CA", "postalCode": "R0J1H0", "twitter": "None", "instagram": "None", "facebook": "None", "youtube": "None", "website": "None", "summary": "None", "logo": "None", "latitude": 50.22581100000005, "longitude": -99.48963949999994}, "118858331RR0001": {"name": "CHRIST LUTHERAN CHURCH", "designationCode": "C", "categoryCode": "32", "address": "BOX 66", "city": "FRANCIS", "province": "SK", "country": "CA", "postalCode": "S0G1V0", "twitter": "None", "instagram": "None", "facebook": "None", "youtube": "None", "website": "None", "summary": "None", "logo": "None", "latitude": 50.033573981333554, "longitude": -103.7310423029114}, "118858356RR0001": {"name": "CHRIST LUTHERAN CHURCH", "designationCode": "C", "categoryCode": "32", "address": "BOX 59", "city": "YOUNG", "province": "SK", "country": "CA", "postalCode": "S0K4Y0", "twitter": "None", "instagram": "None", "facebook": "None", "youtube": "None", "website": "None", "summary": "None", "logo": "None", "latitude": 51.645185999999995, "longitude": -105.01297424999998}, "118858422RR0001": {"name": "CHRIST LUTHERAN CHURCH", "designationCode": "C", "categoryCode": "32", "address": "3203 TOWNSHIP ROAD 370", "city": "RED DEER", "province": "AB", "country": "CA", "postalCode": "T4G0N1", "twitter": "None", "instagram": "None", "facebook": "None", "youtube": "None", "website": "None", "summary": "None", "logo": "None", "latitude": 52.14445752452563, "longitude": -114.33588202553523}, "131893406RR0001": {"name": "CHRIST LUTHERAN CHURCH", "designationCode": "C", "categoryCode": "32", "address": "RR 1, SITE 18, BOX 6", "city": "BARRHEAD", "province": "AB", "country": "CA", "postalCode": "T7N1N2", "twitter": "None", "instagram": "None", "facebook": "None", "youtube": "None", "website": "None", "summary": "None", "logo": "None", "latitude": 54.12098400000005, "longitude": -114.40600999999992}, "891101545RR0001": {"name": "CHRIST LUTHERAN CHURCH", "designationCode": "C", "categoryCode": "39", "address": "BOX 28", "city": "SEXSMITH", "province": "AB", "country": "CA", "postalCode": "T0H3C0", "twitter": "None", "instagram": "None", "facebook": "None", "youtube": "None", "website": "None", "summary": "None", "logo": "None", "latitude": 55.348520000000065, "longitude": -118.78230999999994}, "106921174RR0002": {"name": "CHRIST LUTHERAN CHURCH CHILLIWACK", "designationCode": "C", "categoryCode": "32", "address": "BOX 67", "city": "CHILLIWACK", "province": "BC", "country": "CA", "postalCode": "V2P6H7", "twitter": "None", "instagram": "None", "facebook": "None", "youtube": "None", "website": "None", "summary": "None", "logo": "None", "latitude": 49.15747500000006, "longitude": -121.95172249999993}, "118858471RR0001": {"name": "CHRIST LUTHERAN CHURCH LANGENBURG", "designationCode": "C", "categoryCode": "32", "address": "BOX 505", "city": "LANGENBURG", "province": "SK", "country": "CA", "postalCode": "S0A2A0", "twitter": "None", "instagram": "None", "facebook": "None", "youtube": "None", "website": "None", "summary": "None", "logo": "None", "latitude": 50.84159000000005, "longitude": -101.69833999999997}, "890505589RR0001": {"name": "CHRIST LUTHERAN CHURCH OF GRAND FORKS BRITISH COLUMBIA, CANADA", "designationCode": "C", "categoryCode": "32", "address": "PO BOX 1689", "city": "GRAND FORKS", "province": "BC", "country": "CA", "postalCode": "V0H1H0", "twitter": "None", "instagram": "None", "facebook": "None", "youtube": "None", "website": "None", "summary": "None", "logo": "None", "latitude": 49.03245000000004, "longitude": -118.44297999999998}, "118858489RR0001": {"name": "CHRIST LUTHERAN CHURCH OF MARENGO, INC.", "designationCode": "C", "categoryCode": "32", "address": "BOX 84", "city": "MARENGO", "province": "SK", "country": "CA", "postalCode": "S0L2K0", "twitter": "None", "instagram": "None", "facebook": "None", "youtube": "None", "website": "None", "summary": "None", "logo": "None", "latitude": 51.48342000000008, "longitude": -109.78484999999995}, "129955258RR0001": {"name": "CHRIST LUTHERAN CHURCH OF NEUDORF, SASKATCHEWAN, INC", "designationCode": "C", "categoryCode": "32", "address": "BOX 10", "city": "NEUDORF", "province": "SK", "country": "CA", "postalCode": "S0A2T0", "twitter": "None", "instagram": "None", "facebook": "None", "youtube": "None", "website": "None", "summary": "None", "logo": "None", "latitude": 50.71330000000006, "longitude": -103.01216999999997}, "131627051RR0001": {"name": "CHRIST LUTHERAN CHURCH,", "designationCode": "C", "categoryCode": "32", "address": "P.O. BOX 86", "city": "GLENELLA", "province": "MB", "country": "CA", "postalCode": "R0J0V0", "twitter": "None", "instagram": "None", "facebook": "None", "youtube": "None", "website": "None", "summary": "None", "logo": "None", "latitude": 50.55860000000007, "longitude": -99.19291999999996}, "890363393RR0001": {"name": "CHRIST LUTHERAN CHURCH,", "designationCode": "C", "categoryCode": "32", "address": "BOX 324", "city": "LANGENBURG", "province": "SK", "country": "CA", "postalCode": "S0A2A0", "twitter": "None", "instagram": "None", "facebook": "None", "youtube": "None", "website": "None", "summary": "None", "logo": "None", "latitude": 50.84159000000005, "longitude": -101.69833999999997}, "130918907RR0001": {"name": "CHRIST MEMORIAL CHURCH,", "designationCode": "C", "categoryCode": "30", "address": "81 HILLCROFT ST", "city": "OSHAWA", "province": "ON", "country": "CA", "postalCode": "L1G2L3", "twitter": "None", "instagram": "None", "facebook": "None", "youtube": "None", "website": "None", "summary": "None", "logo": "None", "latitude": 43.911739856483514, "longitude": -78.86649363307181}, "849860887RR0001": {"name": "CHRIST MIRACLE MINISTRIES INTERNATIONAL SOCIETY", "designationCode": "C", "categoryCode": "39", "address": "5381 VICTORIA DR", "city": "VANCOUVER", "province": "BC", "country": "CA", "postalCode": "V5P3V6", "twitter": "None", "instagram": "None", "facebook": "None", "youtube": "None", "website": "None", "summary": "None", "logo": "None", "latitude": 49.23546591834279, "longitude": -123.06554878580025}, "118858562RR0001": {"name": "CHRIST MORAVIAN COMMUNITY CHURCH", "designationCode": "C", "categoryCode": "39", "address": "600 ACADIA DRIVE SE", "city": "CALGARY", "province": "AB", "country": "CA", "postalCode": "T2J0B8", "twitter": "None", "instagram": "None", "facebook": "None", "youtube": "None", "website": "None", "summary": "None", "logo": "None", "latitude": 50.963606999999996, "longitude": -114.04838735856099}, "866505720RR0001": {"name": "CHRIST OUR BANNER CHURCH", "designationCode": "C", "categoryCode": "39", "address": "406 - 1055 BROADWAY W", "city": "VANCOUVER", "province": "BC", "country": "CA", "postalCode": "V6H1E2", "twitter": "None", "instagram": "None", "facebook": "None", "youtube": "None", "website": "None", "summary": "None", "logo": "None", "latitude": 49.2634524532574, "longitude": -123.1278027485429}, "889385548RR0001": {"name": "CHRIST OUR HOPE LUTHERAN CHURCH", "designationCode": "C", "categoryCode": "32", "address": "9874 BEACHWOOD ROAD", "city": "COLLINGWOOD", "province": "ON", "country": "CA", "postalCode": "L9Y3Z1", "twitter": "None", "instagram": "None", "facebook": "None", "youtube": "None", "website": "None", "summary": "None", "logo": "None", "latitude": 44.49198183924893, "longitude": -80.17454146367793}, "118858604RR0001": {"name": "CHRIST OUR KING LUTHERAN CHURCH", "designationCode": "C", "categoryCode": "32", "address": "2150 DUNDAS ST W", "city": "MISSISSAUGA", "province": "ON", "country": "CA", "postalCode": "L5K1R5", "twitter": "None", "instagram": "None", "facebook": "None", "youtube": "None", "website": "None", "summary": "None", "logo": "None", "latitude": 43.534506061861826, "longitude": -79.66874164565219}, "129306676RR0001": {"name": "CHRIST OUR SAVIOUR CHURCH", "designationCode": "C", "categoryCode": "38", "address": "365 LOEWEN BLVD.", "city": "STEINBACH", "province": "MB", "country": "CA", "postalCode": "R5G0L1", "twitter": "None", "instagram": "None", "facebook": "None", "youtube": "None", "website": "None", "summary": "None", "logo": "None", "latitude": 49.5322680538048, "longitude": -96.67367641399522}, "119201523RR0001": {"name": "CHRIST OUR SAVIOUR LUTHERAN CHURCH", "designationCode": "C", "categoryCode": "32", "address": "21 BURGESS DR", "city": "GRIMSBY", "province": "ON", "country": "CA", "postalCode": "L3M2Z1", "twitter": "None", "instagram": "None", "facebook": "None", "youtube": "None", "website": "None", "summary": "None", "logo": "None", "latitude": 43.18505130336426, "longitude": -79.54733662528152}, "119122786RR0019": {"name": "CHRIST OUR SAVIOUR PARISH", "designationCode": "C", "categoryCode": "38", "address": "6500 SOUTHRIDGE AVE", "city": "PRINCE GEORGE", "province": "BC", "country": "CA", "postalCode": "V2N5P9", "twitter": "None", "instagram": "None", "facebook": "None", "youtube": "None", "website": "None", "summary": "None", "logo": "None", "latitude": 53.86420563941114, "longitude": -122.78374828519728}, "891162604RR0001": {"name": "CHRIST POWER MISSION", "designationCode": "C", "categoryCode": "47", "address": "3 BALLYHAISE CRESCENT", "city": "BRAMPTON", "province": "ON", "country": "CA", "postalCode": "L6X0Y2", "twitter": "None", "instagram": "None", "facebook": "None", "youtube": "None", "website": "None", "summary": "None", "logo": "None", "latitude": 43.67026892310589, "longitude": -79.82137818194921}, "871118782RR0001": {"name": "CHRIST REDEEMER CHURCH", "designationCode": "C", "categoryCode": "39", "address": "4 RACINE RD SUITE 9", "city": "ETOBICOKE", "province": "ON", "country": "CA", "postalCode": "M9W5N7", "twitter": "None", "instagram": "None", "facebook": "None", "youtube": "None", "website": "None", "summary": "None", "logo": "None", "latitude": 43.71552000588571, "longitude": -79.57028091038124}, "118858638RR0001": {"name": "CHRIST RISEN LUTHERAN CHURCH", "designationCode": "C", "categoryCode": "32", "address": "85 LEACOCK DRIVE", "city": "KANATA", "province": "ON", "country": "CA", "postalCode": "K2K1S5", "twitter": "None", "instagram": "None", "facebook": "None", "youtube": "None", "website": "None", "summary": "None", "logo": "None", "latitude": 45.32643660280474, "longitude": -75.89773157346033}, "140774449RR0001": {"name": "CHRIST THE ANSWER INTERNATIONAL MINISTRIES", "designationCode": "C", "categoryCode": "47", "address": "BOX 513", "city": "SASKATOON", "province": "SK", "country": "CA", "postalCode": "S7K3L6", "twitter": "None", "instagram": "None", "facebook": "None", "youtube": "None", "website": "None", "summary": "None", "logo": "None", "latitude": 52.13049000000005, "longitude": -106.65926449999994}, "861454668RR0001": {"name": "CHRIST THE GOOD SHEPHERD PARISH(UKRAINIAN CATHOLIC CHURCH)", "designationCode": "C", "categoryCode": "38", "address": "182 SIXTH STREET", "city": "TORONTO", "province": "ON", "country": "CA", "postalCode": "M8V3A5", "twitter": "None", "instagram": "None", "facebook": "None", "youtube": "None", "website": "None", "summary": "None", "logo": "None", "latitude": 43.60308386261153, "longitude": -79.50503157070845}, "880858162RR0001": {"name": "CHRIST THE KING APOSTOLIC COMMUNITY INC.", "designationCode": "C", "categoryCode": "39", "address": "BOX 13  GROUP 552             R.R. #5", "city": "WINNIPEG", "province": "MB", "country": "CA", "postalCode": "R2C2Z2", "twitter": "None", "instagram": "None", "facebook": "None", "youtube": "None", "website": "None", "summary": "None", "logo": "None", "latitude": 49.92420300000006, "longitude": -96.99564499999994}, "888864469RR0001": {"name": "CHRIST THE KING CHAPEL", "designationCode": "A", "categoryCode": "39", "address": "22 WING NORTH BAY", "city": "HORNELL HEIGHTS", "province": "ON", "country": "CA", "postalCode": "P0H1P0", "twitter": "None", "instagram": "None", "facebook": "None", "youtube": "None", "website": "None", "summary": "None", "logo": "None"}, "107909939RR0080": {"name": "CHRIST THE KING CHURCH", "designationCode": "C", "categoryCode": "38", "address": "BOX 1719", "city": "CLARESHOLM", "province": "AB", "country": "CA", "postalCode": "T0L0T0", "twitter": "None", "instagram": "None", "facebook": "None", "youtube": "None", "website": "None", "summary": "None", "logo": "None", "latitude": 50.026080000000036, "longitude": -113.58213999999998}, "108094392RR0027": {"name": "CHRIST THE KING CHURCH", "designationCode": "C", "categoryCode": "38", "address": "BOX 130", "city": "OLIVER", "province": "BC", "country": "CA", "postalCode": "V0H1T0", "twitter": "None", "instagram": "None", "facebook": "None", "youtube": "None", "website": "None", "summary": "None", "logo": "None", "latitude": 49.182600000000036, "longitude": -119.55045999999999}, "132409459RR0003": {"name": "CHRIST THE KING CHURCH", "designationCode": "C", "categoryCode": "38", "address": "PO BOX 1159", "city": "STONEWALL", "province": "MB", "country": "CA", "postalCode": "R0C2Z0", "twitter": "None", "instagram": "None", "facebook": "None", "youtube": "None", "website": "None", "summary": "None", "logo": "None", "latitude": 50.36947800000006, "longitude": -96.84479599999993}, "131067860RR0001": {"name": "CHRIST THE KING CHURCH,", "designationCode": "C", "categoryCode": "38", "address": "3239 GARNET ST", "city": "REGINA", "province": "SK", "country": "CA", "postalCode": "S4S1X8", "twitter": "None", "instagram": "None", "facebook": "None", "youtube": "None", "website": "None", "summary": "None", "logo": "None", "latitude": 50.427580934922446, "longitude": -104.62674898531836}, "888860392RR0001": {"name": "CHRIST THE KING CHURCH,", "designationCode": "C", "categoryCode": "38", "address": "707 NELSON ST", "city": "LONDON", "province": "ON", "country": "CA", "postalCode": "N5Z1J8", "twitter": "None", "instagram": "None", "facebook": "None", "youtube": "None", "website": "None", "summary": "None", "logo": "None", "latitude": 42.97875305355195, "longitude": -81.223292452392}, "877188615RR0001": {"name": "CHRIST THE KING COMMUNITY CHURCH OF GIBSONS", "designationCode": "C", "categoryCode": "39", "address": "BOX 203", "city": "GIBSONS", "province": "BC", "country": "CA", "postalCode": "V0N1V0", "twitter": "None", "instagram": "None", "facebook": "None", "youtube": "None", "website": "None", "summary": "None", "logo": "None", "latitude": 49.40659350000001, "longitude": -123.528087}, "106921943RR0001": {"name": "CHRIST THE KING EVANGELICAL LUTHERAN CHURCH OF 100 MILE HOUSE, BRITISH COLUMBIA", "designationCode": "C", "categoryCode": "32", "address": "440 HORSE LAKE RD", "city": "100 MILE HOUSE", "province": "BC", "country": "CA", "postalCode": "V0K2E1", "twitter": "None", "instagram": "None", "facebook": "None", "youtube": "None", "website": "None", "summary": "None", "logo": "None", "latitude": 51.636423284923936, "longitude": -121.28982702314782}, "106921950RR0001": {"name": "CHRIST THE KING LUTHERAN CHURCH", "designationCode": "C", "categoryCode": "32", "address": "13111-79 STREET", "city": "EDMONTON", "province": "AB", "country": "CA", "postalCode": "T5C1J4", "twitter": "None", "instagram": "None", "facebook": "None", "youtube": "None", "website": "None", "summary": "None", "logo": "None", "latitude": 53.5913994970858, "longitude": -113.46176575627587}, "106921968RR0001": {"name": "CHRIST THE KING LUTHERAN CHURCH", "designationCode": "C", "categoryCode": "32", "address": "PO BOX 6218", "city": "FORT MCMURRAY", "province": "AB", "country": "CA", "postalCode": "T9H4W1", "twitter": "None", "instagram": "None", "facebook": "None", "youtube": "None", "website": "None", "summary": "None", "logo": "None", "latitude": 56.72719500000005, "longitude": -111.38028199999994}, "106921976RR0001": {"name": "CHRIST THE KING LUTHERAN CHURCH", "designationCode": "C", "categoryCode": "39", "address": "13388 104 AVE", "city": "SURREY", "province": "BC", "country": "CA", "postalCode": "V3T1V6", "twitter": "None", "instagram": "None", "facebook": "None", "youtube": "None", "website": "None", "summary": "None", "logo": "None", "latitude": 49.19162151788916, "longitude": -122.85128233236193}, "887993640RR0001": {"name": "CHRIST THE KING LUTHERAN CHURCH", "designationCode": "C", "categoryCode": "32", "address": "1825 MANNING RD", "city": "WHITBY", "province": "ON", "country": "CA", "postalCode": "L1N3M4", "twitter": "None", "instagram": "None", "facebook": "None", "youtube": "None", "website": "None", "summary": "None", "logo": "None", "latitude": 43.89691789312725, "longitude": -78.90892456757463}, "118841055RR0007": {"name": "CHRIST THE KING MISSION", "designationCode": "C", "categoryCode": "38", "address": "5119 5TH AVE", "city": "WHITEHORSE", "province": "YT", "country": "CA", "postalCode": "Y1A1L5", "twitter": "None", "instagram": "None", "facebook": "None", "youtube": "None", "website": "None", "summary": "None", "logo": "None", "latitude": 60.7190449431637, "longitude": -135.0584880610393}, "107910176RR0009": {"name": "CHRIST THE KING PARISH", "designationCode": "C", "categoryCode": "38", "address": "PO BOX 1363", "city": "ST JOHN'S", "province": "NL", "country": "CA", "postalCode": "A1C5N5", "twitter": "None", "instagram": "None", "facebook": "None", "youtube": "None", "website": "None", "summary": "None", "logo": "None", "latitude": 47.56082100000006, "longitude": -52.71219349999993}, "119122786RR0016": {"name": "CHRIST THE KING PARISH", "designationCode": "C", "categoryCode": "38", "address": "6500 SOUTHRIDGE AVE", "city": "PRINCE GEORGE", "province": "BC", "country": "CA", "postalCode": "V2N5P9", "twitter": "None", "instagram": "None", "facebook": "None", "youtube": "None", "website": "None", "summary": "None", "logo": "None", "latitude": 53.86420563941114, "longitude": -122.78374828519728}, "129950804RR0016": {"name": "CHRIST THE KING PARISH", "designationCode": "C", "categoryCode": "38", "address": "1599 TUNNER DRIVE", "city": "COURTENAY", "province": "BC", "country": "CA", "postalCode": "V9N8N3", "twitter": "None", "instagram": "None", "facebook": "None", "youtube": "None", "website": "None", "summary": "None", "logo": "None", "latitude": 49.702811371400266, "longitude": -124.97845494111063}, "135045540RR0001": {"name": "CHRIST THE KING PARISH,", "designationCode": "C", "categoryCode": "38", "address": "4609 50 AVE", "city": "ST PAUL", "province": "AB", "country": "CA", "postalCode": "T0A3A3", "twitter": "None", "instagram": "None", "facebook": "None", "youtube": "None", "website": "None", "summary": "None", "logo": "None", "latitude": 53.99135148730496, "longitude": -111.28695202553523}, "106880107RR0016": {"name": "CHRIST THE KING PARISH, TRENTON", "designationCode": "C", "categoryCode": "38", "address": "PO BOX 308", "city": "TRENTON", "province": "NS", "country": "CA", "postalCode": "B0K1X0", "twitter": "None", "instagram": "None", "facebook": "None", "youtube": "None", "website": "None", "summary": "None", "logo": "None", "latitude": 45.62400273902701, "longitude": -62.64792410764862}, "118858869RR0001": {"name": "CHRIST THE KING ROMAN CATHOLIC CHURCH", "designationCode": "C", "categoryCode": "38", "address": "PO BOX 282", "city": "FOAM LAKE", "province": "SK", "country": "CA", "postalCode": "S0A1A0", "twitter": "None", "instagram": "None", "facebook": "None", "youtube": "None", "website": "None", "summary": "None", "logo": "None", "latitude": 51.63984000000005, "longitude": -103.53940999999998}, "118858877RR0002": {"name": "CHRIST THE KING ROMAN CATHOLIC PARICH", "designationCode": "C", "categoryCode": "38", "address": "BOX 316", "city": "ROSE VALLEY", "province": "SK", "country": "CA", "postalCode": "S0E1M0", "twitter": "None", "instagram": "None", "facebook": "None", "youtube": "None", "website": "None", "summary": "None", "logo": "None", "latitude": 52.59930444439391, "longitude": -103.257981}, "119110823RR0001": {"name": "CHRIST THE KING ROMAN CATHOLIC PARISH", "designationCode": "C", "categoryCode": "38", "address": "BOX 126", "city": "EDAM", "province": "SK", "country": "CA", "postalCode": "S0M0V0", "twitter": "None", "instagram": "None", "facebook": "None", "youtube": "None", "website": "None", "summary": "None", "logo": "None", "latitude": 53.18347000000006, "longitude": -108.76810999999998}, "106922099RR0001": {"name": "CHRIST THE KING SCHOOL INC.", "designationCode": "C", "categoryCode": "20", "address": "12 LENNOX AVE", "city": "WINNIPEG", "province": "MB", "country": "CA", "postalCode": "R2M1A6", "twitter": "None", "instagram": "None", "facebook": "None", "youtube": "None", "website": "None", "summary": "None", "logo": "None", "latitude": 49.84857625725682, "longitude": -97.11166179084212}, "106922131RR0001": {"name": "CHRIST THE KING UNITED CHURCH", "designationCode": "C", "categoryCode": "44", "address": "167 THALER AVE", "city": "KITCHENER", "province": "ON", "country": "CA", "postalCode": "N2A1R4", "twitter": "None", "instagram": "None", "facebook": "None", "youtube": "None", "website": "None", "summary": "None", "logo": "None", "latitude": 43.433999793467855, "longitude": -80.43105798617884}, "881317705RR0001": {"name": "CHRIST THE KING, GRACELAND-INDEPENDANT ANGLICAN CHURCH", "designationCode": "C", "categoryCode": "30", "address": "13 DUNHAM CRES", "city": "AURORA", "province": "ON", "country": "CA", "postalCode": "L4G2V3", "twitter": "None", "instagram": "None", "facebook": "None", "youtube": "None", "website": "None", "summary": "None", "logo": "None", "latitude": 44.00031565609689, "longitude": -79.4735280792314}, "853798379RR0001": {"name": "CHRIST THE LIVING STONE FELLOWSHIP MISSISSAUGA (CLSF MISSISSAUGA)", "designationCode": "C", "categoryCode": "39", "address": "UNIT 10                       5750 TIMBERLEA BOULEVARD", "city": "MISSISSAUGA", "province": "ON", "country": "CA", "postalCode": "L4W5N8", "twitter": "None", "instagram": "None", "facebook": "None", "youtube": "None", "website": "None", "summary": "None", "logo": "None", "latitude": 43.63864351682132, "longitude": -79.65011243507975}, "865712301RR0001": {"name": "CHRIST THE LIVING WORD MINISTRIES", "designationCode": "C", "categoryCode": "39", "address": "73 DELBURN DRIVE", "city": "SCARBOROUGH", "province": "ON", "country": "CA", "postalCode": "M1V1A8", "twitter": "None", "instagram": "None", "facebook": "None", "youtube": "None", "website": "None", "summary": "None", "logo": "None", "latitude": 43.81552413240799, "longitude": -79.27217603886541}, "854723509RR0001": {"name": "CHRIST THE REDEEMER ANGLICAN CHURCH, PENDER HARBOUR", "designationCode": "C", "categoryCode": "30", "address": "13625 SUNSHINE COAST HWY", "city": "MADEIRA PARK", "province": "BC", "country": "CA", "postalCode": "V0N2H1", "twitter": "None", "instagram": "None", "facebook": "None", "youtube": "None", "website": "None", "summary": "None", "logo": "None", "latitude": 49.6170411852322, "longitude": -124.02080754668359}, "118849470RR0015": {"name": "CHRIST THE REDEEMER PARISH", "designationCode": "C", "categoryCode": "38", "address": "599 KEITH RD", "city": "WEST VANCOUVER", "province": "BC", "country": "CA", "postalCode": "V7T1L8", "twitter": "None", "instagram": "None", "facebook": "None", "youtube": "None", "website": "None", "summary": "None", "logo": "None", "latitude": 49.33089121281, "longitude": -123.13228705380764}, "855315339RR0001": {"name": "CHRIST THE ROCK INTERNATIONAL CHRISTIAN MISSION INC.", "designationCode": "C", "categoryCode": "39", "address": "314 JOHNSON AVENUE WEST", "city": "WINNIPEG", "province": "MB", "country": "CA", "postalCode": "R2L0J1", "twitter": "None", "instagram": "None", "facebook": "None", "youtube": "None", "website": "None", "summary": "None", "logo": "None", "latitude": 49.91190711904913, "longitude": -97.10714277604004}, "856465380RR0001": {"name": "CHRIST THE SAVIOUR ANTIOCHIAN ORTHODOX CHURCH", "designationCode": "C", "categoryCode": "39", "address": "96 DUNBAR RD. S.", "city": "WATERLOO", "province": "ON", "country": "CA", "postalCode": "N2L2E5", "twitter": "None", "instagram": "None", "facebook": "None", "youtube": "None", "website": "None", "summary": "None", "logo": "None", "latitude": 43.45801118180498, "longitude": -80.52714008032792}, "874638307RR0001": {"name": "CHRIST THE SAVIOUR ORTHODOX CHURCH", "designationCode": "C", "categoryCode": "39", "address": "721 SOMERSET STREET WEST", "city": "OTTAWA", "province": "ON", "country": "CA", "postalCode": "K1R6P7", "twitter": "None", "instagram": "None", "facebook": "None", "youtube": "None", "website": "None", "summary": "None", "logo": "None", "latitude": 45.410564742743176, "longitude": -75.7079994692133}, "853031920RR0001": {"name": "CHRIST THE SERVANT CATHOLIC CHURCH", "designationCode": "C", "categoryCode": "38", "address": "661 JEFFREY CRESCENT", "city": "COBOURG", "province": "ON", "country": "CA", "postalCode": "K9A4V5", "twitter": "None", "instagram": "None", "facebook": "None", "youtube": "None", "website": "None", "summary": "None", "logo": "None", "latitude": 43.965477515379014, "longitude": -78.18800831366471}, "869331066RR0001": {"name": "CHRIST THE SOLID ROCK MINISTRIES INC", "designationCode": "C", "categoryCode": "09", "address": "PO BOX 44", "city": "WOOD MOUNTAIN", "province": "SK", "country": "CA", "postalCode": "S0H4L0", "twitter": "None", "instagram": "None", "facebook": "None", "youtube": "None", "website": "None", "summary": "None", "logo": "None", "latitude": 50.01070082895219, "longitude": -105.05671868365009}, "814740072RR0001": {"name": "CHRIST THE TEACHER ROMAN CATHOLIC SEPARATE SCHOOL DIVISION NO. 212", "designationCode": "C", "categoryCode": "20", "address": "45 A PALLISER WAY", "city": "YORKTON", "province": "SK", "country": "CA", "postalCode": "S3N4C5", "twitter": "None", "instagram": "None", "facebook": "None", "youtube": "None", "website": "None", "summary": "None", "logo": "None", "latitude": 51.20878697645534, "longitude": -102.44265906064973}, "131664260RR0001": {"name": "CHRIST THE WAY MINISTRIES", "designationCode": "C", "categoryCode": "31", "address": "3545 LAKE SHORE BLVD WEST     UNIT 402", "city": "ETOBICOKE", "province": "ON", "country": "CA", "postalCode": "M8W1P4", "twitter": "None", "instagram": "None", "facebook": "None", "youtube": "None", "website": "None", "summary": "None", "logo": "None", "latitude": 43.594536867592026, "longitude": -79.53312504203942}, "106799786RR0001": {"name": "CHRIST UNITED CHURCH", "designationCode": "C", "categoryCode": "44", "address": "P.O. BOX 113", "city": "LYN", "province": "ON", "country": "CA", "postalCode": "K0E1M0", "twitter": "None", "instagram": "None", "facebook": "None", "youtube": "None", "website": "None", "summary": "None", "logo": "None", "latitude": 44.42297100000006, "longitude": -75.88780099999994}, "889947578RR0001": {"name": "CHRIST VICTORIOUS EDMONTON,", "designationCode": "C", "categoryCode": "39", "address": "7824 JASPER AVE NW", "city": "EDMONTON", "province": "AB", "country": "CA", "postalCode": "T5H3R9", "twitter": "None", "instagram": "None", "facebook": "None", "youtube": "None", "website": "None", "summary": "None", "logo": "None", "latitude": 53.55757330394117, "longitude": -113.46266485097225}, "892748930RR0001": {"name": "CHRIST WORSHIP CENTRE", "designationCode": "C", "categoryCode": "39", "address": "17171 80 AVE", "city": "SURREY", "province": "BC", "country": "CA", "postalCode": "V4N6J6", "twitter": "None", "instagram": "None", "facebook": "None", "youtube": "None", "website": "None", "summary": "None", "logo": "None", "latitude": 49.14815751875455, "longitude": -122.74654041618098}, "869812768RR0001": {"name": "CHRIST-CENTERED CHRISTIAN CHURCH", "designationCode": "C", "categoryCode": "39", "address": "8151 BENNETT ROAD", "city": "RICHMOND", "province": "BC", "country": "CA", "postalCode": "V6Y1N4", "twitter": "None", "instagram": "None", "facebook": "None", "youtube": "None", "website": "None", "summary": "None", "logo": "None", "latitude": 49.160936479369525, "longitude": -123.13386063918864}, "118858901RR0001": {"name": "CHRIST-TRINITY LUTHERAN CHURCH", "designationCode": "C", "categoryCode": "32", "address": "416-12 ST. S.", "city": "LETHBRIDGE", "province": "AB", "country": "CA", "postalCode": "T1J2R4", "twitter": "None", "instagram": "None", "facebook": "None", "youtube": "None", "website": "None", "summary": "None", "logo": "None", "latitude": 49.69448846614358, "longitude": -112.82911861533543}, "865507479RR0001": {"name": "CHRIST'S ARMY", "designationCode": "C", "categoryCode": "39", "address": "2320 MCLENNAN AVE", "city": "RICHMOND", "province": "BC", "country": "CA", "postalCode": "V6X2N7", "twitter": "None", "instagram": "None", "facebook": "None", "youtube": "None", "website": "None", "summary": "None", "logo": "None", "latitude": 49.19421231655936, "longitude": -123.10781561219301}, "864738570RR0001": {"name": "CHRIST'S CHAPEL BIBLE CHURCH MINISTRIES", "designationCode": "C", "categoryCode": "39", "address": "2285 ST. LAURENT BLVD         BLOCK #A7", "city": "OTTAWA", "province": "ON", "country": "CA", "postalCode": "K1G4Z4", "twitter": "None", "instagram": "None", "facebook": "None", "youtube": "None", "website": "None", "summary": "None", "logo": "None", "latitude": 45.38612576654765, "longitude": -75.61598818007516}, "875434201RR0001": {"name": "CHRIST'S CHAPEL INTERNATIONAL (OVERCOMER HOUSE)", "designationCode": "B", "categoryCode": "39", "address": "1B - 18 AUTOMATIC RD", "city": "BRAMPTON", "province": "ON", "country": "CA", "postalCode": "L6S5N5", "twitter": "None", "instagram": "None", "facebook": "None", "youtube": "None", "website": "None", "summary": "None", "logo": "None", "latitude": 43.75799238273989, "longitude": -79.71120081894482}, "896247467RR0001": {"name": "CHRIST'S CHOSEN CHURCH OF GOD INTERNATIONAL, CANADA", "designationCode": "C", "categoryCode": "39", "address": "29 PEMICAN COURT", "city": "TORONTO", "province": "ON", "country": "CA", "postalCode": "M9M2Z3", "twitter": "None", "instagram": "None", "facebook": "None", "youtube": "None", "website": "None", "summary": "None", "logo": "None", "latitude": 43.74961906408352, "longitude": -79.53144406780578}, "108099771RR0055": {"name": "CHRIST'S CHURCH CATHEDRAL (HAMILTON)", "designationCode": "C", "categoryCode": "30", "address": "252 JAMES STREET NORTH", "city": "HAMILTON", "province": "ON", "country": "CA", "postalCode": "L8R2L3", "twitter": "None", "instagram": "None", "facebook": "None", "youtube": "None", "website": "None", "summary": "None", "logo": "None", "latitude": 43.26303055231121, "longitude": -79.866250127359}, "107994329RR0001": {"name": "CHRIST'S CHURCH MINISTRIES INC.", "designationCode": "C", "categoryCode": "36", "address": "PO BOX 933 STN MAIN", "city": "MONCTON", "province": "NB", "country": "CA", "postalCode": "E1C8N8", "twitter": "None", "instagram": "None", "facebook": "None", "youtube": "None", "website": "None", "summary": "None", "logo": "None", "latitude": 46.08872243840578, "longitude": -64.77642630797114}, "891892465RR0001": {"name": "CHRIST'S CHURCH OF THE MEADOWS", "designationCode": "C", "categoryCode": "39", "address": "6005-103A STREET", "city": "EDMONTON", "province": "AB", "country": "CA", "postalCode": "T6H2J7", "twitter": "None", "instagram": "None", "facebook": "None", "youtube": "None", "website": "None", "summary": "None", "logo": "None", "latitude": 53.49717000000001, "longitude": -113.49488677950342}, "119080588RR0001": {"name": "CHRIST'S CORRIDOR RED DEER", "designationCode": "C", "categoryCode": "39", "address": "5515 43 ST", "city": "RED DEER", "province": "AB", "country": "CA", "postalCode": "T4N1E1", "twitter": "None", "instagram": "None", "facebook": "None", "youtube": "None", "website": "None", "summary": "None", "logo": "None", "latitude": 52.262331539529264, "longitude": -113.8268205}, "838606127RR0001": {"name": "CHRIST'S HOPE INTERNATIONAL- CANADA", "designationCode": "C", "categoryCode": "01", "address": "1330 WHITE CEDAR TRAIL", "city": "BURLINGTON", "province": "ON", "country": "CA", "postalCode": "L7P4T2", "twitter": "None", "instagram": "None", "facebook": "None", "youtube": "None", "website": "None", "summary": "None", "logo": "None", "latitude": 43.342561521207394, "longitude": -79.8380505}, "857459671RR0001": {"name": "CHRIST'S HOUSE OF REFUGE MINISTRIES INC.", "designationCode": "C", "categoryCode": "39", "address": "812 - 4727 SHEPPARD AVE E", "city": "SCARBOROUGH", "province": "ON", "country": "CA", "postalCode": "M1S5B3", "twitter": "None", "instagram": "None", "facebook": "None", "youtube": "None", "website": "None", "summary": "None", "logo": "None", "latitude": 43.78850149296793, "longitude": -79.2641406862311}, "118858653RR0001": {"name": "CHRIST'S LUTHERAN CHURCH, CAMPERDOWN", "designationCode": "C", "categoryCode": "32", "address": "956 CAMPERDOWN RD", "city": "CAMPERDOWN", "province": "NS", "country": "CA", "postalCode": "B4V6S1", "twitter": "None", "instagram": "None", "facebook": "None", "youtube": "None", "website": "None", "summary": "None", "logo": "None", "latitude": 44.27316716406004, "longitude": -64.59666414285265}, "804560126RR0001": {"name": "CHRIST'S SERVANTS FULL GOSPEL CHURCH INCORPORATED", "designationCode": "C", "categoryCode": "39", "address": "1617-263 PHARMACY AVENUE,", "city": "TORONTO", "province": "ON", "country": "CA", "postalCode": "M1L3E8", "twitter": "None", "instagram": "None", "facebook": "None", "youtube": "None", "website": "None", "summary": "None", "logo": "None", "latitude": 43.69956152042799, "longitude": -79.286447473629}, "118853894RR0001": {"name": "CHRISTADELPHIAN ASSEMBLY (BRAMPTON)", "designationCode": "C", "categoryCode": "39", "address": "12 MADRAS PLACE", "city": "BRAMPTON", "province": "ON", "country": "CA", "postalCode": "L6S2Z2", "twitter": "None", "instagram": "None", "facebook": "None", "youtube": "None", "website": "None", "summary": "None", "logo": "None", "latitude": 43.72450700695355, "longitude": -79.7378647660567}, "832201750RR0001": {"name": "CHRISTADELPHIAN BIBLE CAMP, MANITOULIN ISLAND", "designationCode": "C", "categoryCode": "56", "address": "9 SIR RAYMOND DRIVE", "city": "SCARBOROUGH", "province": "ON", "country": "CA", "postalCode": "M1E1C1", "twitter": "None", "instagram": "None", "facebook": "None", "youtube": "None", "website": "None", "summary": "None", "logo": "None", "latitude": 43.74134683651689, "longitude": -79.20613992379836}, "140171521RR0001": {"name": "CHRISTADELPHIAN BIBLE MISSION (CANADA)", "designationCode": "C", "categoryCode": "39", "address": "UNIT 119 15280-101 AVENUE     PO BOX 55541", "city": "SURREY", "province": "BC", "country": "CA", "postalCode": "V3R0J7", "twitter": "None", "instagram": "None", "facebook": "None", "youtube": "None", "website": "None", "summary": "None", "logo": "None", "latitude": 49.18611546681874, "longitude": -122.79859102553522}, "887434066RR0001": {"name": "CHRISTADELPHIAN ECCLESIA", "designationCode": "C", "categoryCode": "39", "address": "975 COSBURN AVE", "city": "EAST YORK", "province": "ON", "country": "CA", "postalCode": "M4C2W8", "twitter": "None", "instagram": "None", "facebook": "None", "youtube": "None", "website": "None", "summary": "None", "logo": "None", "latitude": 43.69707986037867, "longitude": -79.31141611864508}, "888905262RR0001": {"name": "CHRISTADELPHIAN ECCLESIA,", "designationCode": "C", "categoryCode": "39", "address": "522 BOOK ROAD EAST", "city": "ANCASTER", "province": "ON", "country": "CA", "postalCode": "L9G3L1", "twitter": "None", "instagram": "None", "facebook": "None", "youtube": "None", "website": "None", "summary": "None", "logo": "None", "latitude": 43.188540685527244, "longitude": -79.95273784609617}, "892299140RR0001": {"name": "CHRISTADELPHIANS OF NIAGARA", "designationCode": "C", "categoryCode": "39", "address": "71 LEASIDE DR", "city": "WELLAND", "province": "ON", "country": "CA", "postalCode": "L3C6B3", "twitter": "None", "instagram": "None", "facebook": "None", "youtube": "None", "website": "None", "summary": "None", "logo": "None", "latitude": 43.01059064031383, "longitude": -79.27462624787907}, "118980861RR0001": {"name": "CHRISTCITY CHURCH LTD.", "designationCode": "C", "categoryCode": "36", "address": "14788 156 ST NW", "city": "EDMONTON", "province": "AB", "country": "CA", "postalCode": "T6V1J2", "twitter": "None", "instagram": "None", "facebook": "None", "youtube": "None", "website": "None", "summary": "None", "logo": "None", "latitude": 53.60978379101329, "longitude": -113.59135852864895}, "826360364RR0001": {"name": "CHRISTIAN ABORIGINAL INFRASTRUCTURE DEVELOPMENTS CORPORATION", "designationCode": "C", "categoryCode": "09", "address": "133 CRERAR CRT", "city": "FREDERICTON", "province": "NB", "country": "CA", "postalCode": "E3A2W5", "twitter": "None", "instagram": "None", "facebook": "None", "youtube": "None", "website": "None", "summary": "None", "logo": "None", "latitude": 45.96967681516526, "longitude": -66.63040459270583}, "887712065RR0001": {"name": "CHRISTIAN ACTION FEDERATION OF NEW BRUNSWICK INC", "designationCode": "C", "categoryCode": "57", "address": "P.O. BOX 3675                 STATION B", "city": "FREDERICTON", "province": "NB", "country": "CA", "postalCode": "E3A5L7", "twitter": "None", "instagram": "None", "facebook": "None", "youtube": "None", "website": "None", "summary": "None", "logo": "None", "latitude": 45.958638328435796, "longitude": -66.62155541090102}, "135152361RR0001": {"name": "CHRISTIAN ADOPTION SERVICES SOCIETY", "designationCode": "C", "categoryCode": "59", "address": "201B-9705 HORTON RD SW", "city": "CALGARY", "province": "AB", "country": "CA", "postalCode": "T2V2X5", "twitter": "None", "instagram": "None", "facebook": "None", "youtube": "None", "website": "None", "summary": "None", "logo": "None", "latitude": 50.97106102379403, "longitude": -114.07607055150791}, "136223971RR0001": {"name": "CHRISTIAN ADVOCACY SOCIETY OF GREATER VANCOUVER", "designationCode": "C", "categoryCode": "01", "address": "400-221 WEST ESPLANADE", "city": "NORTH VANCOUVER", "province": "BC", "country": "CA", "postalCode": "V7M3J3", "twitter": "None", "instagram": "None", "facebook": "None", "youtube": "None", "website": "None", "summary": "None", "logo": "None", "latitude": 49.312626508713905, "longitude": -123.08325259411949}}