{"106967060RR0001": {"name": "Mennonite Church Alberta", "designationCode": "C", "categoryCode": "34", "address": "BOX 1839", "city": "PINCHER CREEK", "province": "AB", "country": "CA", "postalCode": "T0K1W0", "twitter": "None", "instagram": "None", "facebook": "None", "youtube": "None", "website": "None", "summary": "None", "logo": "None", "latitude": 49.48739000000006, "longitude": -113.9366800732874}, "870744539RR0001": {"name": "Mennonite Community Services of Southern Ontario", "designationCode": "C", "categoryCode": "09", "address": "16 TALBOT STREET EAST", "city": "AYLMER", "province": "ON", "country": "CA", "postalCode": "N5H1H4", "twitter": "None", "instagram": "None", "facebook": "None", "youtube": "None", "website": "None", "summary": "None", "logo": "None", "latitude": 42.77291347493491, "longitude": -80.98263433553161}, "804333292RR0001": {"name": "Mennonite Faith and Learning Society", "designationCode": "A", "categoryCode": "23", "address": "9 - 31406 UPPER MACLURE RD", "city": "ABBOTSFORD", "province": "BC", "country": "CA", "postalCode": "V2T5L8", "twitter": "None", "instagram": "None", "facebook": "None", "youtube": "None", "website": "None", "summary": "None", "logo": "None", "latitude": 49.06026149956732, "longitude": -122.35469314071787}, "813978301RR0001": {"name": "Mennonite Gospel Church", "designationCode": "C", "categoryCode": "39", "address": "PO BOX 522                    230 SECOND AVENUE", "city": "VAUXHALL", "province": "AB", "country": "CA", "postalCode": "T0K2K0", "twitter": "None", "instagram": "None", "facebook": "None", "youtube": "None", "website": "None", "summary": "None", "logo": "None", "latitude": 50.0681914782157, "longitude": -112.10133052553522}, "838174910RR0001": {"name": "Mennonite Museum Society", "designationCode": "A", "categoryCode": "03", "address": "210 - 11590 CAMBIE RD", "city": "RICHMOND", "province": "BC", "country": "CA", "postalCode": "V6X3Z5", "twitter": "None", "instagram": "None", "facebook": "None", "youtube": "None", "website": "None", "summary": "None", "logo": "None", "latitude": 49.184479200963075, "longitude": -123.09378269676493}, "872075940RR0002": {"name": "Mental Health Association of Yukon", "designationCode": "C", "categoryCode": "11", "address": "1 - 1114 FRONT ST", "city": "WHITEHORSE", "province": "YT", "country": "CA", "postalCode": "Y1A1A3", "twitter": "None", "instagram": "None", "facebook": "None", "youtube": "None", "website": "None", "summary": "None", "logo": "None", "latitude": 60.7203924676331, "longitude": -135.05062199662726}, "821577673RR0001": {"name": "Mental Health Foundation", "designationCode": "A", "categoryCode": "13", "address": "9942 108 ST NW", "city": "EDMONTON", "province": "AB", "country": "CA", "postalCode": "T5K2J5", "twitter": "None", "instagram": "None", "facebook": "None", "youtube": "None", "website": "None", "summary": "None", "logo": "None", "latitude": 53.538399, "longitude": -113.50664672208404}, "807985742RR0001": {"name": "Mental Health Network of Chatham Kent", "designationCode": "C", "categoryCode": "11", "address": "71 RALEIGH STREET", "city": "CHATHAM", "province": "ON", "country": "CA", "postalCode": "N7M2M9", "twitter": "None", "instagram": "None", "facebook": "None", "youtube": "None", "website": "None", "summary": "None", "logo": "None", "latitude": 42.401801775751586, "longitude": -82.18711179335227}, "813172756RR0001": {"name": "Mental Health Partnerships of Canada / Partenariats en sant\u00e9 mentale du Canada", "designationCode": "A", "categoryCode": "13", "address": "5734 YONGE STREET, SUITE 300", "city": "NORTH YORK", "province": "ON", "country": "CA", "postalCode": "M5M4E7", "twitter": "None", "instagram": "None", "facebook": "None", "youtube": "None", "website": "None", "summary": "None", "logo": "None", "latitude": 43.782829491805686, "longitude": -79.41634871195649}, "702662529RR0001": {"name": "Mental Health Research Canada Recherche en Sant\u00e9 Mentale Canada", "designationCode": "A", "categoryCode": "13", "address": "UC101 - 180 BLOOR ST W", "city": "TORONTO", "province": "ON", "country": "CA", "postalCode": "M5S2V6", "twitter": "None", "instagram": "None", "facebook": "None", "youtube": "None", "website": "None", "summary": "None", "logo": "None", "latitude": 43.66858499999999, "longitude": -79.39474424999999}, "781973128RR0001": {"name": "Mental Health Support Network", "designationCode": "C", "categoryCode": "11", "address": "B - 1544 KING ST W", "city": "TORONTO", "province": "ON", "country": "CA", "postalCode": "M6K1J6", "twitter": "None", "instagram": "None", "facebook": "None", "youtube": "None", "website": "None", "summary": "None", "logo": "None", "latitude": 43.63742229421767, "longitude": -79.44297072771089}, "815033493RR0001": {"name": "Mental Illness Caregivers Association of Canada", "designationCode": "C", "categoryCode": "11", "address": "19 COLONADE ROAD              POST OFFICE BOX 5065", "city": "OTTAWA", "province": "ON", "country": "CA", "postalCode": "K2G4V3", "twitter": "None", "instagram": "None", "facebook": "None", "youtube": "None", "website": "None", "summary": "None", "logo": "None", "latitude": 45.34240224314722, "longitude": -75.7212029321369}, "867308389RR0001": {"name": "Mental Illness Family Support Centre Society", "designationCode": "C", "categoryCode": "11", "address": "301-2 3402 27TH AVE", "city": "VERNON", "province": "BC", "country": "CA", "postalCode": "V1T1S1", "twitter": "None", "instagram": "None", "facebook": "None", "youtube": "None", "website": "None", "summary": "None", "logo": "None", "latitude": 50.26130859781307, "longitude": -119.27748610949848}, "845494319RR0001": {"name": "Mentoring Juniors Kids Organization (MJKO)", "designationCode": "C", "categoryCode": "59", "address": "11 - 18 KENRAE RD", "city": "EAST YORK", "province": "ON", "country": "CA", "postalCode": "M4G1Y1", "twitter": "None", "instagram": "None", "facebook": "None", "youtube": "None", "website": "None", "summary": "None", "logo": "None", "latitude": 43.704726410785284, "longitude": -79.36198974894693}, "863376380RR0001": {"name": "Mercies of God Outreach Ministry", "designationCode": "C", "categoryCode": "39", "address": "88 BONISTEL CRESCENT", "city": "BRAMPTON", "province": "ON", "country": "CA", "postalCode": "L7A3G9", "twitter": "None", "instagram": "None", "facebook": "None", "youtube": "None", "website": "None", "summary": "None", "logo": "None", "latitude": 43.698019734952915, "longitude": -79.81066274617697}, "746993526RR0001": {"name": "Mercy Arena Ministries", "designationCode": "C", "categoryCode": "39", "address": "812 - 80 ORENDA CRT", "city": "BRAMPTON", "province": "ON", "country": "CA", "postalCode": "L6W3M9", "twitter": "None", "instagram": "None", "facebook": "None", "youtube": "None", "website": "None", "summary": "None", "logo": "None", "latitude": 43.69127400000002, "longitude": -79.7461543212136}, "872742309RR0001": {"name": "Mercy Multiplied Canada Society", "designationCode": "C", "categoryCode": "09", "address": "19465 16TH AVENUE", "city": "SURREY", "province": "BC", "country": "CA", "postalCode": "V3S9V2", "twitter": "None", "instagram": "None", "facebook": "None", "youtube": "None", "website": "None", "summary": "None", "logo": "None", "latitude": 49.031127533181284, "longitude": -122.68419219317329}, "814248068RR0001": {"name": "Mercy Seat Ministries and Valley of Berachah Church", "designationCode": "C", "categoryCode": "39", "address": "1339 LANGLEY CIRCLE,", "city": "OSHAWA", "province": "ON", "country": "CA", "postalCode": "L1K0E2", "twitter": "None", "instagram": "None", "facebook": "None", "youtube": "None", "website": "None", "summary": "None", "logo": "None", "latitude": 43.93654259755326, "longitude": -78.85199256621831}, "826932444RR0001": {"name": "Mercy Tech Mission", "designationCode": "C", "categoryCode": "09", "address": "POST OFFICE BOX 1153", "city": "SUMMERLAND", "province": "BC", "country": "CA", "postalCode": "V0H1Z0", "twitter": "None", "instagram": "None", "facebook": "None", "youtube": "None", "website": "None", "summary": "None", "logo": "None", "latitude": 49.60131900000006, "longitude": -119.67899299999993}, "842492613RR0001": {"name": "Mercyland-Convenant Parish Celestial Church of Christ", "designationCode": "C", "categoryCode": "39", "address": "2700 ST.CLAIR AVE WEST,UNIT #5", "city": "TORONTO", "province": "ON", "country": "CA", "postalCode": "M6N1M2", "twitter": "None", "instagram": "None", "facebook": "None", "youtube": "None", "website": "None", "summary": "None", "logo": "None", "latitude": 43.6663062489756, "longitude": -79.49806806578563}, "809683337RR0001": {"name": "Meridian Charitable Trust", "designationCode": "B", "categoryCode": "45", "address": "3425 2ND AVENUE SOUTH", "city": "LETHBRIDGE", "province": "AB", "country": "CA", "postalCode": "T1J4V1", "twitter": "None", "instagram": "None", "facebook": "None", "youtube": "None", "website": "None", "summary": "None", "logo": "None", "latitude": 49.696839530439966, "longitude": -112.78914308381903}, "814537882RR0001": {"name": "Merit Award Bursary Program Incorporated", "designationCode": "C", "categoryCode": "21", "address": "2400-333 BAY ST               PO BOX 20-BAY ADELAIDE CENTRE", "city": "TORONTO", "province": "ON", "country": "CA", "postalCode": "M5H2T6", "twitter": "None", "instagram": "None", "facebook": "None", "youtube": "None", "website": "None", "summary": "None", "logo": "None"}, "817871056RR0001": {"name": "Merkaz Hachinuch", "designationCode": "C", "categoryCode": "21", "address": "5437B JEANNE-MANCE", "city": "MONTR\u00c9AL", "province": "QC", "country": "CA", "postalCode": "H2V4K5", "twitter": "None", "instagram": "None", "facebook": "None", "youtube": "None", "website": "None", "summary": "None", "logo": "None", "latitude": 45.52260596287256, "longitude": -73.60068460089025}, "846035889RR0001": {"name": "Merlin and Area Kinsmen Park Foundation", "designationCode": "C", "categoryCode": "56", "address": "ERIE STREET NORTH             POST OFFICE BOX 81", "city": "MERLIN", "province": "ON", "country": "CA", "postalCode": "N0P1W0", "twitter": "None", "instagram": "None", "facebook": "None", "youtube": "None", "website": "None", "summary": "None", "logo": "None", "latitude": 42.243198047799154, "longitude": -82.23399415350907}, "107692022RR0001": {"name": "Merrickville-Wolford Public Library", "designationCode": "C", "categoryCode": "50", "address": "BOX 460                       446 MAIN STREET W", "city": "MERRICKVILLE", "province": "ON", "country": "CA", "postalCode": "K0G1N0", "twitter": "None", "instagram": "None", "facebook": "None", "youtube": "None", "website": "None", "summary": "None", "logo": "None", "latitude": 44.91555954925278, "longitude": -75.84199101930281}, "809346653RR0001": {"name": "Merritt & Nicola Valley Crime Stoppers Society", "designationCode": "C", "categoryCode": "59", "address": "2999 VOGHT STREET", "city": "MERRITT", "province": "BC", "country": "CA", "postalCode": "V1K1G9", "twitter": "None", "instagram": "None", "facebook": "None", "youtube": "None", "website": "None", "summary": "None", "logo": "None", "latitude": 50.118544976455354, "longitude": -120.78048228812949}, "801314816RR0001": {"name": "Merritt and District Hospice Society", "designationCode": "C", "categoryCode": "11", "address": "3451 VOGHT ST", "city": "MERRITT", "province": "BC", "country": "CA", "postalCode": "V1K1C6", "twitter": "None", "instagram": "None", "facebook": "None", "youtube": "None", "website": "None", "summary": "None", "logo": "None", "latitude": 50.120998971983276, "longitude": -120.77250182030114}, "836083816RR0001": {"name": "Merupuram Sri Phathirakali Amman Temple Toronto", "designationCode": "C", "categoryCode": "48", "address": "1510 BIRCHMOUNT RD,           UNIT 104", "city": "SCARBOROUGH", "province": "ON", "country": "CA", "postalCode": "M1P2G6", "twitter": "None", "instagram": "None", "facebook": "None", "youtube": "None", "website": "None", "summary": "None", "logo": "None", "latitude": 43.758444365774345, "longitude": -79.28933457980739}, "838080190RR0001": {"name": "Mesivta Birchas Shmuel", "designationCode": "C", "categoryCode": "42", "address": "465 PATRICIA AVE", "city": "NORTH YORK", "province": "ON", "country": "CA", "postalCode": "M2R2N1", "twitter": "None", "instagram": "None", "facebook": "None", "youtube": "None", "website": "None", "summary": "None", "logo": "None", "latitude": 43.78442490365884, "longitude": -79.44412538882808}, "806176319RR0001": {"name": "Mesivta Lubavitch Toronto", "designationCode": "C", "categoryCode": "20", "address": "3055 BATHURST STREET", "city": "TORONTO", "province": "ON", "country": "CA", "postalCode": "M6B3B7", "twitter": "None", "instagram": "None", "facebook": "None", "youtube": "None", "website": "None", "summary": "None", "logo": "None", "latitude": 43.718780032200314, "longitude": -79.42960710695966}, "821625563RR0001": {"name": "Mesivta Ohr Temimim Lubavitch", "designationCode": "C", "categoryCode": "20", "address": "78 THEODORE PLACE,", "city": "THORNHILL", "province": "ON", "country": "CA", "postalCode": "L4J8E4", "twitter": "None", "instagram": "None", "facebook": "None", "youtube": "None", "website": "None", "summary": "None", "logo": "None", "latitude": 43.80187260115996, "longitude": -79.43759049030514}, "817259922RR0001": {"name": "Mesorah Montessori School", "designationCode": "B", "categoryCode": "20", "address": "30 FELICIA CRT", "city": "THORNHILL", "province": "ON", "country": "CA", "postalCode": "L4J5K5", "twitter": "None", "instagram": "None", "facebook": "None", "youtube": "None", "website": "None", "summary": "None", "logo": "None", "latitude": 43.803762190691785, "longitude": -79.43355631724272}, "831282314RR0001": {"name": "Messiah's Mansion Inc.", "designationCode": "C", "categoryCode": "49", "address": "29295 MACLURE RD", "city": "ABBOTSFORD", "province": "BC", "country": "CA", "postalCode": "V4X1M7", "twitter": "None", "instagram": "None", "facebook": "None", "youtube": "None", "website": "None", "summary": "None", "logo": "None", "latitude": 49.06065229224025, "longitude": -122.41212835652593}, "118970714RR0001": {"name": "Messianic Jewish Alliance of Canada", "designationCode": "C", "categoryCode": "49", "address": "2635-32 STREET S.W.", "city": "CALGARY", "province": "AB", "country": "CA", "postalCode": "T3E2R8", "twitter": "None", "instagram": "None", "facebook": "None", "youtube": "None", "website": "None", "summary": "None", "logo": "None", "latitude": 51.03031642492354, "longitude": -114.13412412643537}, "118902717RR0001": {"name": "Meta Centre", "designationCode": "C", "categoryCode": "09", "address": "401 CHAMPAGNE DR", "city": "NORTH YORK", "province": "ON", "country": "CA", "postalCode": "M3J2C6", "twitter": "None", "instagram": "None", "facebook": "None", "youtube": "None", "website": "None", "summary": "None", "logo": "None", "latitude": 43.76475183758473, "longitude": -79.47438654827182}, "124187477RR0001": {"name": "Meta Foundation", "designationCode": "C", "categoryCode": "11", "address": "401 CHAMPAGNE DR", "city": "NORTH YORK", "province": "ON", "country": "CA", "postalCode": "M3J2C6", "twitter": "None", "instagram": "None", "facebook": "None", "youtube": "None", "website": "None", "summary": "None", "logo": "None", "latitude": 43.76475183758473, "longitude": -79.47438654827182}, "826806085RR0001": {"name": "Metabolic Syndrome Canada", "designationCode": "C", "categoryCode": "19", "address": "155 EDGEHILL DR", "city": "KITCHENER", "province": "ON", "country": "CA", "postalCode": "N2P2C6", "twitter": "None", "instagram": "None", "facebook": "None", "youtube": "None", "website": "None", "summary": "None", "logo": "None", "latitude": 43.40456910072726, "longitude": -80.39208801056024}, "846222750RR0001": {"name": "Metamorphosis Greek Orthodox Church of Toronto", "designationCode": "C", "categoryCode": "39", "address": "40 DONLANDS AVENUE", "city": "TORONTO", "province": "ON", "country": "CA", "postalCode": "M4J3N6", "twitter": "None", "instagram": "None", "facebook": "None", "youtube": "None", "website": "None", "summary": "None", "logo": "None", "latitude": 43.681365712735904, "longitude": -79.33772421123534}, "129612586RR0001": {"name": "Metchosin Preschool Society", "designationCode": "C", "categoryCode": "01", "address": "4354 METCHOSIN RD", "city": "VICTORIA", "province": "BC", "country": "CA", "postalCode": "V9C3Z4", "twitter": "None", "instagram": "None", "facebook": "None", "youtube": "None", "website": "None", "summary": "None", "logo": "None", "latitude": 48.380881923134545, "longitude": -123.53028389817624}, "811837848RR0001": {"name": "Meticulon Consulting", "designationCode": "C", "categoryCode": "59", "address": "3820 24 AVE NW                3RD FL", "city": "CALGARY", "province": "AB", "country": "CA", "postalCode": "T3B2X9", "twitter": "None", "instagram": "None", "facebook": "None", "youtube": "None", "website": "None", "summary": "None", "logo": "None", "latitude": 51.07445147100232, "longitude": -114.14194144463038}, "881718001RR0001": {"name": "Metis Child, Family and Community Services Agency Inc.", "designationCode": "C", "categoryCode": "01", "address": "100 SUTHERLAND AVENUE", "city": "WINNIPEG", "province": "MB", "country": "CA", "postalCode": "R2W3C7", "twitter": "None", "instagram": "None", "facebook": "None", "youtube": "None", "website": "None", "summary": "None", "logo": "None", "latitude": 49.90555670327219, "longitude": -97.12618935388645}, "846213718RR0001": {"name": "Metro Community", "designationCode": "C", "categoryCode": "39", "address": "200 - 1262 ST. PAUL ST", "city": "KELOWNA", "province": "BC", "country": "CA", "postalCode": "V1Y2C9", "twitter": "None", "instagram": "None", "facebook": "None", "youtube": "None", "website": "None", "summary": "None", "logo": "None", "latitude": 49.89237738902394, "longitude": -119.49199977926321}, "801879719RR0001": {"name": "Metro East Anglers Inc.", "designationCode": "C", "categoryCode": "52", "address": "33 REDMOND DRIVE", "city": "AJAX", "province": "ON", "country": "CA", "postalCode": "L1S5R8", "twitter": "None", "instagram": "None", "facebook": "None", "youtube": "None", "website": "None", "summary": "None", "logo": "None", "latitude": 43.85190069995396, "longitude": -79.03757793228114}, "861167120RR0001": {"name": "Metro Kids Society", "designationCode": "C", "categoryCode": "49", "address": "110-12332 PATTULLO PLACE", "city": "SURREY", "province": "BC", "country": "CA", "postalCode": "V3V8C3", "twitter": "None", "instagram": "None", "facebook": "None", "youtube": "None", "website": "None", "summary": "None", "logo": "None", "latitude": 49.20403345989382, "longitude": -122.88003440677457}, "822439154RR0001": {"name": "Metro Vancouver Dream Centre Society", "designationCode": "C", "categoryCode": "09", "address": "726 TWELFTH ST", "city": "NEW WESTMINSTER", "province": "BC", "country": "CA", "postalCode": "V3M4J9", "twitter": "None", "instagram": "None", "facebook": "None", "youtube": "None", "website": "None", "summary": "None", "logo": "None", "latitude": 49.209905925402296, "longitude": -122.93351720857225}, "870955630RR0001": {"name": "Metro World Child Society", "designationCode": "C", "categoryCode": "47", "address": "2203 - 315 5TH AVE N", "city": "SASKATOON", "province": "SK", "country": "CA", "postalCode": "S7K5Z8", "twitter": "None", "instagram": "None", "facebook": "None", "youtube": "None", "website": "None", "summary": "None", "logo": "None", "latitude": 52.144977924595416, "longitude": -106.65520994935275}, "894888155RR0001": {"name": "Metropolitan Community Church of Windsor", "designationCode": "C", "categoryCode": "39", "address": "1728 LINCOLN RD", "city": "WINDSOR", "province": "ON", "country": "CA", "postalCode": "N8W2P7", "twitter": "None", "instagram": "None", "facebook": "None", "youtube": "None", "website": "None", "summary": "None", "logo": "None", "latitude": 42.30308505052219, "longitude": -83.0039224161523}, "802365718RR0001": {"name": "Metropolitan Opera Foundation", "designationCode": "A", "categoryCode": "03", "address": "1800 - 510 GEORGIA ST W", "city": "VANCOUVER", "province": "BC", "country": "CA", "postalCode": "V6B0M3", "twitter": "None", "instagram": "None", "facebook": "None", "youtube": "None", "website": "None", "summary": "None", "logo": "None", "latitude": 49.281267759207665, "longitude": -123.11633309804196}, "826762783RR0001": {"name": "Metta-Yana Buddhist Center", "designationCode": "C", "categoryCode": "35", "address": "24177 125 AVE", "city": "MAPLE RIDGE", "province": "BC", "country": "CA", "postalCode": "V4R1L4", "twitter": "None", "instagram": "None", "facebook": "None", "youtube": "None", "website": "None", "summary": "None", "logo": "None", "latitude": 49.22951347215618, "longitude": -122.5521614701656}, "837752930RR0001": {"name": "Meubles et monde Parc-Extension", "designationCode": "C", "categoryCode": "09", "address": "7461 AVENUE QUERBES", "city": "MONTR\u00c9AL", "province": "QC", "country": "CA", "postalCode": "H3N2B7", "twitter": "None", "instagram": "None", "facebook": "None", "youtube": "None", "website": "None", "summary": "None", "logo": "None", "latitude": 45.52941692091283, "longitude": -73.62633336565878}, "836228296RR0001": {"name": "Miami and Area Foundation Inc.", "designationCode": "A", "categoryCode": "03", "address": "453 NORTON AVE                PO BOX 334", "city": "MIAMI", "province": "MB", "country": "CA", "postalCode": "R0G1H0", "twitter": "None", "instagram": "None", "facebook": "None", "youtube": "None", "website": "None", "summary": "None", "logo": "None", "latitude": 49.37028892178822, "longitude": -98.24297376811842}, "806071353RR0001": {"name": "Miami Charitable Trust", "designationCode": "B", "categoryCode": "45", "address": "780 SASKATCHEWAN AVE W", "city": "PORTAGE LA PRAIRIE", "province": "MB", "country": "CA", "postalCode": "R1N0M7", "twitter": "None", "instagram": "None", "facebook": "None", "youtube": "None", "website": "None", "summary": "None", "logo": "None", "latitude": 49.97373494820344, "longitude": -98.30132080652011}, "128621141RR0001": {"name": "Miami United Church", "designationCode": "C", "categoryCode": "44", "address": "PO BOX 164", "city": "MIAMI", "province": "MB", "country": "CA", "postalCode": "R0G1H0", "twitter": "None", "instagram": "None", "facebook": "None", "youtube": "None", "website": "None", "summary": "None", "logo": "None", "latitude": 49.37108000000006, "longitude": -98.24341999999996}, "821799707RR0001": {"name": "Miao Yih Holy House Canada Association", "designationCode": "C", "categoryCode": "35", "address": "708 - 6081 NO. 3 RD", "city": "RICHMOND", "province": "BC", "country": "CA", "postalCode": "V6Y2B2", "twitter": "None", "instagram": "None", "facebook": "None", "youtube": "None", "website": "None", "summary": "None", "logo": "None", "latitude": 49.16951428645726, "longitude": -123.13668028645726}, "828059857RR0001": {"name": "Micha\u00eblle Jean Foundation / Fondation Micha\u00eblle Jean", "designationCode": "C", "categoryCode": "22", "address": "143 RUE S\u00c9RAPHIN MARION", "city": "OTTAWA", "province": "ON", "country": "CA", "postalCode": "K1N6N5", "twitter": "None", "instagram": "None", "facebook": "None", "youtube": "None", "website": "None", "summary": "None", "logo": "None", "latitude": 45.425182524034675, "longitude": -75.68632350349111}, "817074891RR0001": {"name": "Michael and Karen Vukets Family Foundation", "designationCode": "B", "categoryCode": "03", "address": "12 MADISON AVENUE", "city": "TORONTO", "province": "ON", "country": "CA", "postalCode": "M5R2S1", "twitter": "None", "instagram": "None", "facebook": "None", "youtube": "None", "website": "None", "summary": "None", "logo": "None", "latitude": 43.667774685815694, "longitude": -79.40310698003336}, "846049591RR0001": {"name": "Michael and Libby Goldgrub Foundation", "designationCode": "B", "categoryCode": "03", "address": "50 DUFFLAW ROAD", "city": "TORONTO", "province": "ON", "country": "CA", "postalCode": "M6A2W1", "twitter": "None", "instagram": "None", "facebook": "None", "youtube": "None", "website": "None", "summary": "None", "logo": "None", "latitude": 43.71725276850957, "longitude": -79.46281254573208}, "820086908RR0001": {"name": "Michael's Way Foundation", "designationCode": "B", "categoryCode": "01", "address": "895 BRIARWOOD DRIVE", "city": "OSHAWA", "province": "ON", "country": "CA", "postalCode": "L1K2A7", "twitter": "None", "instagram": "None", "facebook": "None", "youtube": "None", "website": "None", "summary": "None", "logo": "None", "latitude": 43.93496074712926, "longitude": -78.84520752233257}, "817994866RR0001": {"name": "Michelle McGowan Memorial Foundation", "designationCode": "B", "categoryCode": "03", "address": "282 HURST DRIVE               UNIT G1", "city": "BARRIE", "province": "ON", "country": "CA", "postalCode": "L4N0Z3", "twitter": "None", "instagram": "None", "facebook": "None", "youtube": "None", "website": "None", "summary": "None", "logo": "None", "latitude": 44.36902551623607, "longitude": -79.6569006797239}, "823081195RR0001": {"name": "Michelle O'Reilly Foundation", "designationCode": "B", "categoryCode": "03", "address": "1017 13 AVE SW", "city": "CALGARY", "province": "AB", "country": "CA", "postalCode": "T2R0L5", "twitter": "None", "instagram": "None", "facebook": "None", "youtube": "None", "website": "None", "summary": "None", "logo": "None", "latitude": 51.04106552842076, "longitude": -114.08512380544174}, "829040112RR0001": {"name": "Michif Child & Family Services Inc.", "designationCode": "C", "categoryCode": "09", "address": "204-150 HENRY AVE", "city": "WINNIPEG", "province": "MB", "country": "CA", "postalCode": "R3B0J7", "twitter": "None", "instagram": "None", "facebook": "None", "youtube": "None", "website": "None", "summary": "None", "logo": "None", "latitude": 49.902867159011066, "longitude": -97.13277061131616}, "806830550RR0001": {"name": "Micro-cr\u00e9dit Chaudi\u00e8re-Appalaches", "designationCode": "C", "categoryCode": "09", "address": "100-153 BOUL. LAURIER", "city": "LAURIER-STATION", "province": "QC", "country": "CA", "postalCode": "G0S1N0", "twitter": "None", "instagram": "None", "facebook": "None", "youtube": "None", "website": "None", "summary": "None", "logo": "None", "latitude": 46.5421896594151, "longitude": -71.63209636635128}, "803093210RR0001": {"name": "Micronutrient Initiative Canada", "designationCode": "A", "categoryCode": "03", "address": "180 ELGIN STREET              SUITE 1000", "city": "OTTAWA", "province": "ON", "country": "CA", "postalCode": "K2P2K3", "twitter": "None", "instagram": "None", "facebook": "None", "youtube": "None", "website": "None", "summary": "None", "logo": "None", "latitude": 45.41983740934297, "longitude": -75.69207909813018}, "107759227RR0001": {"name": "Mid Island Abilities and Independent Living Society", "designationCode": "C", "categoryCode": "09", "address": "3999 VICTORIA AVE", "city": "NANAIMO", "province": "BC", "country": "CA", "postalCode": "V9T2A3", "twitter": "None", "instagram": "None", "facebook": "None", "youtube": "None", "website": "None", "summary": "None", "logo": "None", "latitude": 49.207930691355614, "longitude": -124.01550230365272}, "842089880RR0001": {"name": "Mid-Island Air Search and Rescue Society", "designationCode": "C", "categoryCode": "59", "address": "5489 CLIPPER DRIVE", "city": "NANAIMO", "province": "BC", "country": "CA", "postalCode": "V9T5M7", "twitter": "None", "instagram": "None", "facebook": "None", "youtube": "None", "website": "None", "summary": "None", "logo": "None", "latitude": 49.23118937246812, "longitude": -124.02436192567333}, "841597057RR0001": {"name": "Middle Eastern Friendship Centre Society", "designationCode": "C", "categoryCode": "59", "address": "14119 114A AVE", "city": "SURREY", "province": "BC", "country": "CA", "postalCode": "V3R2N6", "twitter": "None", "instagram": "None", "facebook": "None", "youtube": "None", "website": "None", "summary": "None", "logo": "None", "latitude": 49.210720500432686, "longitude": -122.8307117529863}, "831891916RR0001": {"name": "Middle Path Buddhist Temple of Calgary", "designationCode": "C", "categoryCode": "35", "address": "107 EDGEHILL CRT NW", "city": "CALGARY", "province": "AB", "country": "CA", "postalCode": "T3A2X3", "twitter": "None", "instagram": "None", "facebook": "None", "youtube": "None", "website": "None", "summary": "None", "logo": "None", "latitude": 51.12223124508047, "longitude": -114.15964459172488}, "788592293RR0001": {"name": "Middlesex Centre Archives", "designationCode": "C", "categoryCode": "50", "address": "2652 GIDEON DRIVE             POST OFFICE BOX 47", "city": "DELAWARE", "province": "ON", "country": "CA", "postalCode": "N0L1E0", "twitter": "None", "instagram": "None", "facebook": "None", "youtube": "None", "website": "None", "summary": "None", "logo": "None", "latitude": 42.91067100337554, "longitude": -81.42241794722746}, "826433906RR0001": {"name": "Middlesex Community Cemetery Inc.", "designationCode": "C", "categoryCode": "59", "address": "202 MIDDLESEX RD", "city": "COLPITTS SETTLEMENT", "province": "NB", "country": "CA", "postalCode": "E4J1H3", "twitter": "None", "instagram": "None", "facebook": "None", "youtube": "None", "website": "None", "summary": "None", "logo": "None", "latitude": 45.96453531620353, "longitude": -65.0249845123779}, "819947029RR0001": {"name": "Middleton Rotary Club Community Services Association", "designationCode": "C", "categoryCode": "63", "address": "PO BOX 551", "city": "MIDDLETON", "province": "NS", "country": "CA", "postalCode": "B0S1P0", "twitter": "None", "instagram": "None", "facebook": "None", "youtube": "None", "website": "None", "summary": "None", "logo": "None", "latitude": 45.01449600000005, "longitude": -65.06449099999993}, "119288918RR1559": {"name": "Midpark Tagalog Congregation of Jehovah's Witnesses", "designationCode": "C", "categoryCode": "61", "address": "270 MIDPARK WAY SOUTHEAST", "city": "CALGARY", "province": "AB", "country": "CA", "postalCode": "T2X1J6", "twitter": "None", "instagram": "None", "facebook": "None", "youtube": "None", "website": "None", "summary": "None", "logo": "None", "latitude": 50.911105065497175, "longitude": -114.06420055886072}, "804072726RR0001": {"name": "Midwest Charitable Trust", "designationCode": "B", "categoryCode": "45", "address": "3425 2 AVE S", "city": "LETHBRIDGE", "province": "AB", "country": "CA", "postalCode": "T1J4V1", "twitter": "None", "instagram": "None", "facebook": "None", "youtube": "None", "website": "None", "summary": "None", "logo": "None", "latitude": 49.696839530439966, "longitude": -112.78914308381903}, "819297227RR0001": {"name": "Mien Baptist Church", "designationCode": "C", "categoryCode": "31", "address": "EVERGREEN PO 73099            8928-152 ST", "city": "SURREY", "province": "BC", "country": "CA", "postalCode": "V3R0J2", "twitter": "None", "instagram": "None", "facebook": "None", "youtube": "None", "website": "None", "summary": "None", "logo": "None", "latitude": 49.16498341326678, "longitude": -122.80132951661977}, "838457281RR0001": {"name": "Mieux-Na\u00eetre \u00e0 Laval", "designationCode": "C", "categoryCode": "11", "address": "3534, BOUL. DE LA CONCORDE E", "city": "LAVAL", "province": "QC", "country": "CA", "postalCode": "H7E2C5", "twitter": "None", "instagram": "None", "facebook": "None", "youtube": "None", "website": "None", "summary": "None", "logo": "None", "latitude": 45.59464222895164, "longitude": -73.66176488533696}, "854949864RR0001": {"name": "Mifalei Chaim Bechesed (MCB)", "designationCode": "C", "categoryCode": "09", "address": "1363 LAJOIE", "city": "MONTREAL", "province": "QC", "country": "CA", "postalCode": "H2V1P6", "twitter": "None", "instagram": "None", "facebook": "None", "youtube": "None", "website": "None", "summary": "None", "logo": "None", "latitude": 45.51941882237862, "longitude": -73.61198541453618}, "801479387RR0001": {"name": "Mifalot Education and Society Enterprises Canada/Entreprises \u00c9ducation et Soci\u00e9t\u00e9 Mifalot Canada", "designationCode": "C", "categoryCode": "56", "address": "504 - 400 WALMER RD", "city": "YORK", "province": "ON", "country": "CA", "postalCode": "M5P2X7", "twitter": "None", "instagram": "None", "facebook": "None", "youtube": "None", "website": "None", "summary": "None", "logo": "None", "latitude": 43.68535652677598, "longitude": -79.41272566795517}, "848864575RR0001": {"name": "Mighty Man of Valour International", "designationCode": "C", "categoryCode": "49", "address": "22 - 90 SIGNET DR", "city": "NORTH YORK", "province": "ON", "country": "CA", "postalCode": "M9L1T5", "twitter": "None", "instagram": "None", "facebook": "None", "youtube": "None", "website": "None", "summary": "None", "logo": "None", "latitude": 43.76140929335228, "longitude": -79.53989857449861}, "894299999RR0001": {"name": "Mighty Oaks Global Initiatives", "designationCode": "C", "categoryCode": "22", "address": "321 GOVERNORS ROAD EAST       RR#21", "city": "PARIS", "province": "ON", "country": "CA", "postalCode": "N3L3E1", "twitter": "None", "instagram": "None", "facebook": "None", "youtube": "None", "website": "None", "summary": "None", "logo": "None", "latitude": 43.20564228287802, "longitude": -80.27692550848276}, "892276767RR0001": {"name": "Migisi Alcohol and Drug Treatment Centre", "designationCode": "C", "categoryCode": "57", "address": "PO BOX 1340", "city": "KENORA", "province": "ON", "country": "CA", "postalCode": "P9N3X7", "twitter": "None", "instagram": "None", "facebook": "None", "youtube": "None", "website": "None", "summary": "None", "logo": "None", "latitude": 49.77125700000006, "longitude": -94.48912249999994}, "802255562RR0001": {"name": "Mika Charitable Foundation", "designationCode": "B", "categoryCode": "03", "address": "41 NORCLIFFE DRIVE", "city": "KING CITY", "province": "ON", "country": "CA", "postalCode": "L7B1L9", "twitter": "None", "instagram": "None", "facebook": "None", "youtube": "None", "website": "None", "summary": "None", "logo": "None", "latitude": 43.97057839552183, "longitude": -79.50830592140377}, "822751756RR0001": {"name": "Mikai'sto Foundation", "designationCode": "C", "categoryCode": "21", "address": "BOX 1258", "city": "CARDSTON", "province": "AB", "country": "CA", "postalCode": "T0K0K0", "twitter": "None", "instagram": "None", "facebook": "None", "youtube": "None", "website": "None", "summary": "None", "logo": "None", "latitude": 49.198480000000075, "longitude": -113.30176999999998}, "888584877RR0001": {"name": "Mike & Valeria Rosenbloom Foundation/Fondation Mike & Valeria Rosenbloom", "designationCode": "B", "categoryCode": "03", "address": "1350 SHERBROOKE ST W 7TH FL", "city": "MONTREAL", "province": "QC", "country": "CA", "postalCode": "H3G2T4", "twitter": "None", "instagram": "None", "facebook": "None", "youtube": "None", "website": "None", "summary": "None", "logo": "None", "latitude": 45.49907079848817, "longitude": -73.57924886147518}, "830943262RR0001": {"name": "Mikelberg Family Foundation / Foundation de la famille Mikelberg", "designationCode": "B", "categoryCode": "21", "address": "1455 SHERBROOKE WEST          SUITE 200", "city": "MONTREAL", "province": "QC", "country": "CA", "postalCode": "H3G1L2", "twitter": "None", "instagram": "None", "facebook": "None", "youtube": "None", "website": "None", "summary": "None", "logo": "None", "latitude": 45.498149132090866, "longitude": -73.58086317848677}, "845825835RR0001": {"name": "Mikinakoos Children's Fund", "designationCode": "C", "categoryCode": "09", "address": "PO BOX 1300 STN MAIN", "city": "SIOUX LOOKOUT", "province": "ON", "country": "CA", "postalCode": "P8T1B8", "twitter": "None", "instagram": "None", "facebook": "None", "youtube": "None", "website": "None", "summary": "None", "logo": "None", "latitude": 50.09808300000006, "longitude": -91.91503249999994}, "859352155RR0001": {"name": "Milden Charitable Trust", "designationCode": "B", "categoryCode": "39", "address": "3425 - 2 AVENUE SOUTH", "city": "LETHBRIDGE", "province": "AB", "country": "CA", "postalCode": "T1J4V1", "twitter": "None", "instagram": "None", "facebook": "None", "youtube": "None", "website": "None", "summary": "None", "logo": "None", "latitude": 49.696839530439966, "longitude": -112.78914308381903}, "830756821RR0001": {"name": "Mildmay Community Health Foundation", "designationCode": "C", "categoryCode": "11", "address": "12 ABSALOM STREET EAST        PO BOX 427", "city": "MILDMAY", "province": "ON", "country": "CA", "postalCode": "N0G2J0", "twitter": "None", "instagram": "None", "facebook": "None", "youtube": "None", "website": "None", "summary": "None", "logo": "None", "latitude": 44.043648481063975, "longitude": -81.11761049317693}, "851162495RR0001": {"name": "Mildred B. and Edward J.Gilbert Bursary and Research Fund.", "designationCode": "A", "categoryCode": "25", "address": "499 - 700 WEST GEORGIA STREET P.O. BOX 10085", "city": "VANCOUVER", "province": "BC", "country": "CA", "postalCode": "V7Y1B6", "twitter": "None", "instagram": "None", "facebook": "None", "youtube": "None", "website": "None", "summary": "None", "logo": "None", "latitude": 49.28278674158102, "longitude": -123.11863379447699}, "845127844RR0001": {"name": "Miles of Smiles Organization", "designationCode": "C", "categoryCode": "09", "address": "603 ANJANA CIR", "city": "NEPEAN", "province": "ON", "country": "CA", "postalCode": "K2J0E1", "twitter": "None", "instagram": "None", "facebook": "None", "youtube": "None", "website": "None", "summary": "None", "logo": "None", "latitude": 45.26190428449414, "longitude": -75.77305794491885}, "801121005RR0001": {"name": "Milestone Christian Church Kensington", "designationCode": "C", "categoryCode": "39", "address": "1603 80A ST.", "city": "EDMONTON", "province": "AB", "country": "CA", "postalCode": "T6K4E2", "twitter": "None", "instagram": "None", "facebook": "None", "youtube": "None", "website": "None", "summary": "None", "logo": "None", "latitude": 53.447596219805035, "longitude": -113.45404582956331}, "821182391RR0001": {"name": "Milestone Foundation Inc.", "designationCode": "B", "categoryCode": "03", "address": "55 BLUE WILLOW DR", "city": "WOODBRIDGE", "province": "ON", "country": "CA", "postalCode": "L4L9E8", "twitter": "None", "instagram": "None", "facebook": "None", "youtube": "None", "website": "None", "summary": "None", "logo": "None", "latitude": 43.79513170716731, "longitude": -79.55114663030184}, "899984397RR0001": {"name": "Milestones Early Learning Centre Inc.", "designationCode": "C", "categoryCode": "20", "address": "1100 11TH AVE NE", "city": "SWIFT CURRENT", "province": "SK", "country": "CA", "postalCode": "S9H2V6", "twitter": "None", "instagram": "None", "facebook": "None", "youtube": "None", "website": "None", "summary": "None", "logo": "None", "latitude": 50.29790860072031, "longitude": -107.78490643705119}, "107471583RR0001": {"name": "Milford Haven Corporation - Home for Special Care", "designationCode": "C", "categoryCode": "59", "address": "P.O. BOX 300", "city": "GUYSBOROUGH", "province": "NS", "country": "CA", "postalCode": "B0H1N0", "twitter": "None", "instagram": "None", "facebook": "None", "youtube": "None", "website": "None", "summary": "None", "logo": "None", "latitude": 45.37026600000006, "longitude": -61.50474349999993}, "805530110RR0001": {"name": "Milieu de vie TCC", "designationCode": "C", "categoryCode": "09", "address": "216 - 9775 BOUL DE L'ORMIERE", "city": "QUEBEC", "province": "QC", "country": "CA", "postalCode": "G2B0P8", "twitter": "None", "instagram": "None", "facebook": "None", "youtube": "None", "website": "None", "summary": "None", "logo": "None", "latitude": 46.8386315209476, "longitude": -71.35983234583637}, "118989458RR0001": {"name": "Milieux de vie pour personnes en r\u00e9adaptation Inc.", "designationCode": "C", "categoryCode": "01", "address": "400 BOUL CHAMPLAIN S", "city": "ALMA", "province": "QC", "country": "CA", "postalCode": "G8B3N8", "twitter": "None", "instagram": "None", "facebook": "None", "youtube": "None", "website": "None", "summary": "None", "logo": "None", "latitude": 48.547644348058064, "longitude": -71.66453693222287}, "812861979RR0001": {"name": "Militia of the Immaculata: M. I. Canada", "designationCode": "C", "categoryCode": "38", "address": "21 BAYLY ST E", "city": "AJAX", "province": "ON", "country": "CA", "postalCode": "L1S1P2", "twitter": "None", "instagram": "None", "facebook": "None", "youtube": "None", "website": "None", "summary": "None", "logo": "None", "latitude": 43.844266086545396, "longitude": -79.01685628495082}, "803245943RR0001": {"name": "Milk River Watershed Council Canada", "designationCode": "C", "categoryCode": "59", "address": "PO BOX 313", "city": "MILK RIVER", "province": "AB", "country": "CA", "postalCode": "T0K1M0", "twitter": "None", "instagram": "None", "facebook": "None", "youtube": "None", "website": "None", "summary": "None", "logo": "None", "latitude": 49.14831000000004, "longitude": -112.08642999999995}, "850950106RR0001": {"name": "Mill Bay Baptist Fellowship", "designationCode": "C", "categoryCode": "31", "address": "3045 DOGWOOD RD", "city": "DUNCAN", "province": "BC", "country": "CA", "postalCode": "V9L6Y3", "twitter": "None", "instagram": "None", "facebook": "None", "youtube": "None", "website": "None", "summary": "None", "logo": "None", "latitude": 48.764142093260844, "longitude": -123.70688119001362}, "812212827RR0001": {"name": "Mill Bay/Malahat Historical Society", "designationCode": "C", "categoryCode": "50", "address": "POST OFFICE 263", "city": "MILL BAY", "province": "BC", "country": "CA", "postalCode": "V0R2P0", "twitter": "None", "instagram": "None", "facebook": "None", "youtube": "None", "website": "None", "summary": "None", "logo": "None", "latitude": 48.609163794015636, "longitude": -123.53100709390172}, "119288918RR1588": {"name": "Mill Bay, British Columbia Congregation of Jehovah's Witnesses", "designationCode": "C", "categoryCode": "61", "address": "BOX 521", "city": "SHAWINGAN LAKE", "province": "BC", "country": "CA", "postalCode": "V0R2W0", "twitter": "None", "instagram": "None", "facebook": "None", "youtube": "None", "website": "None", "summary": "None", "logo": "None", "latitude": 48.614505759762736, "longitude": -123.62673621698342}, "803482694RR0001": {"name": "Mill Cove Nursing Home Foundation Inc.", "designationCode": "B", "categoryCode": "03", "address": "2 - 12 LAKEVIEW LANE", "city": "MILL COVE", "province": "NB", "country": "CA", "postalCode": "E4C3E3", "twitter": "None", "instagram": "None", "facebook": "None", "youtube": "None", "website": "None", "summary": "None", "logo": "None", "latitude": 45.879666940228255, "longitude": -66.0127873524283}}