{"107883571RR0003": {"name": "REGROUPEMENT DES AVEUGLES ET AMBLYOPES DU QUEBEC (RAAQ)", "designationCode": "C", "categoryCode": "59", "address": "2 - 3958 RUE DANDURAND", "city": "MONTREAL", "province": "QC", "country": "CA", "postalCode": "H1X1P7", "twitter": "None", "instagram": "None", "facebook": "None", "youtube": "None", "website": "None", "summary": "None", "logo": "None", "latitude": 45.558357684978986, "longitude": -73.57218453661507}, "123120370RR0001": {"name": "REGROUPEMENT DES BENEVOLES DE BIERMANS", "designationCode": "C", "categoryCode": "01", "address": "7905 RUE SHERBROOKE E", "city": "MONTREAL", "province": "QC", "country": "CA", "postalCode": "H1L1A4", "twitter": "None", "instagram": "None", "facebook": "None", "youtube": "None", "website": "None", "summary": "None", "logo": "None", "latitude": 45.59595783821898, "longitude": -73.53550157017077}, "119114643RR0001": {"name": "REGROUPEMENT DES CAMARADES DU VALLON", "designationCode": "C", "categoryCode": "56", "address": "CP.60547 STATION ST-CLEMENT", "city": "MONTREAL", "province": "QC", "country": "CA", "postalCode": "H1V3T8", "twitter": "None", "instagram": "None", "facebook": "None", "youtube": "None", "website": "None", "summary": "None", "logo": "None", "latitude": 45.55908600000005, "longitude": -73.54210849999993}, "107883589RR0001": {"name": "REGROUPEMENT DES CENTRES D'AMITIE AUTOCHTONES DU QUEBEC INC.", "designationCode": "C", "categoryCode": "09", "address": "85A BOUL MAURICE-BASTIEN      SUITE 100", "city": "WENDAKE", "province": "QC", "country": "CA", "postalCode": "G0A4V0", "twitter": "None", "instagram": "None", "facebook": "None", "youtube": "None", "website": "None", "summary": "None", "logo": "None", "latitude": 46.86975600000005, "longitude": -71.35813699999993}, "140729328RR0001": {"name": "REGROUPEMENT DES CHOMEURS ET CHOMEUSES DE LA REGION SOREL-TRACY INC", "designationCode": "C", "categoryCode": "09", "address": "324, BOUL. FISET", "city": "SOREL-TRACY", "province": "QC", "country": "CA", "postalCode": "J3P3R2", "twitter": "None", "instagram": "None", "facebook": "None", "youtube": "None", "website": "None", "summary": "None", "logo": "None", "latitude": 46.03683742602008, "longitude": -73.0947988795659}, "104454939RR0001": {"name": "REGROUPEMENT DES COMITES LOGEMENT ET ASSOCIATIONS DE LOCATAIRES DU QUEBEC", "designationCode": "C", "categoryCode": "59", "address": "302 - 6839 RUE DROLET", "city": "MONTREAL", "province": "QC", "country": "CA", "postalCode": "H2S2T1", "twitter": "None", "instagram": "None", "facebook": "None", "youtube": "None", "website": "None", "summary": "None", "logo": "None", "latitude": 45.5360400827225, "longitude": -73.6117596891339}, "885148569RR0001": {"name": "REGROUPEMENT DES CUISINES COLLECTIVES DE FRANCHEVILLE", "designationCode": "C", "categoryCode": "09", "address": "1060 RUE SAINT-FRANCOIS-XAVIERLOCAL 145-B", "city": "TROIS-RIVIERES", "province": "QC", "country": "CA", "postalCode": "G9A1R8", "twitter": "None", "instagram": "None", "facebook": "None", "youtube": "None", "website": "None", "summary": "None", "logo": "None", "latitude": 46.35088687067911, "longitude": -72.54580268148787}, "135634517RR0001": {"name": "REGROUPEMENT DES CUISINES COLLECTIVES DU QUEBEC", "designationCode": "C", "categoryCode": "09", "address": "1605 RUE DE CHAMPLAIN", "city": "MONTREAL", "province": "QC", "country": "CA", "postalCode": "H2L2S5", "twitter": "None", "instagram": "None", "facebook": "None", "youtube": "None", "website": "None", "summary": "None", "logo": "None", "latitude": 45.522861243147204, "longitude": -73.55517117762138}, "120587720RR0001": {"name": "REGROUPEMENT DES DYNAMIQUES DE RIMOUSKI", "designationCode": "C", "categoryCode": "09", "address": "378 BOUL.JESSOP", "city": "RIMOUSKI", "province": "QC", "country": "CA", "postalCode": "G5L1M8", "twitter": "None", "instagram": "None", "facebook": "None", "youtube": "None", "website": "None", "summary": "None", "logo": "None", "latitude": 48.46439457951987, "longitude": -68.51684975869912}, "107601064RR0001": {"name": "REGROUPEMENT DES FAMILLES MONOPARENTALES ET RECOMPOSEES DE LAVAL", "designationCode": "C", "categoryCode": "09", "address": "140, RUE NADON", "city": "LAVAL", "province": "QC", "country": "CA", "postalCode": "H7L1T5", "twitter": "None", "instagram": "None", "facebook": "None", "youtube": "None", "website": "None", "summary": "None", "logo": "None", "latitude": 45.61517062277138, "longitude": -73.78131945308449}, "131651754RR0001": {"name": "REGROUPEMENT DES FEMMES DE LA R\u00c9GION DE MATANE", "designationCode": "C", "categoryCode": "09", "address": "67, RUE D'AMOURS", "city": "MATANE", "province": "QC", "country": "CA", "postalCode": "G4W2X5", "twitter": "None", "instagram": "None", "facebook": "None", "youtube": "None", "website": "None", "summary": "None", "logo": "None", "latitude": 48.84500118567148, "longitude": -67.52720596390452}, "119114668RR0001": {"name": "REGROUPEMENT DES FEMMES SANS EMPLOI DU NORD DE QUEBEC", "designationCode": "C", "categoryCode": "09", "address": "177, 71E RUE EST", "city": "CHARLESBOURG", "province": "QC", "country": "CA", "postalCode": "G1H1L4", "twitter": "None", "instagram": "None", "facebook": "None", "youtube": "None", "website": "None", "summary": "None", "logo": "None", "latitude": 46.85749534139296, "longitude": -71.26295256370815}, "886848233RR0001": {"name": "REGROUPEMENT DES HANDICAPES PHYSIQUES INTER-COMTES INC.", "designationCode": "C", "categoryCode": "09", "address": "1476 10E RANG O", "city": "GRANBY", "province": "QC", "country": "CA", "postalCode": "J2J0P7", "twitter": "None", "instagram": "None", "facebook": "None", "youtube": "None", "website": "None", "summary": "None", "logo": "None", "latitude": 45.44531486756815, "longitude": -72.79657288172864}, "141406272RR0001": {"name": "REGROUPEMENT DES JEUNES DE LOTBINI\u00c8RE", "designationCode": "C", "categoryCode": "09", "address": "1 RUE VIGER", "city": "DOSQUET", "province": "QC", "country": "CA", "postalCode": "G0S1H0", "twitter": "None", "instagram": "None", "facebook": "None", "youtube": "None", "website": "None", "summary": "None", "logo": "None", "latitude": 46.46788209463907, "longitude": -71.5315488259853}, "890225444RR0001": {"name": "REGROUPEMENT DES JEUNES DE ST-CAMILLE", "designationCode": "C", "categoryCode": "09", "address": "400 MGR L'HEUREUX", "city": "WOTTON", "province": "QC", "country": "CA", "postalCode": "J0A1N0", "twitter": "None", "instagram": "None", "facebook": "None", "youtube": "None", "website": "None", "summary": "None", "logo": "None", "latitude": 45.73592634867702, "longitude": -71.81052690684935}, "886713551RR0001": {"name": "REGROUPEMENT DES LOISIRS CULTURELS ET SCIENTIFIQUES DU TEMISCAMINGUE", "designationCode": "C", "categoryCode": "50", "address": "5, RUE PRINCIPALE SUD", "city": "NOTRE-DAME-DU-NORD", "province": "QC", "country": "CA", "postalCode": "J0Z3B0", "twitter": "None", "instagram": "None", "facebook": "None", "youtube": "None", "website": "None", "summary": "None", "logo": "None", "latitude": 47.592684396906826, "longitude": -79.48397127482794}, "876578022RR0001": {"name": "REGROUPEMENT DES MAGASINS-PARTAGE DE L'ILE DE MONTREAL", "designationCode": "C", "categoryCode": "59", "address": "5789, RUE D'IBERVILLE", "city": "MONTREAL", "province": "QC", "country": "CA", "postalCode": "H2G2B8", "twitter": "None", "instagram": "None", "facebook": "None", "youtube": "None", "website": "None", "summary": "None", "logo": "None", "latitude": 45.54561535971484, "longitude": -73.58413086260035}, "130715774RR0001": {"name": "REGROUPEMENT DES MAISONS POUR FEMMES VICTIMES DE VIOLENCE CONJUGALE", "designationCode": "C", "categoryCode": "09", "address": "310 - 469 RUE JEAN-TALON O", "city": "MONTREAL", "province": "QC", "country": "CA", "postalCode": "H3N1R4", "twitter": "None", "instagram": "None", "facebook": "None", "youtube": "None", "website": "None", "summary": "None", "logo": "None", "latitude": 45.52880036291907, "longitude": -73.62317347366287}, "137392841RR0001": {"name": "REGROUPEMENT DES ORGANISMES DE BASE EN SANTE MENTALE REGION 04-17", "designationCode": "C", "categoryCode": "19", "address": "991, RUE CHAMPFLOUR", "city": "TROIS-RIVI\u00c8RES", "province": "QC", "country": "CA", "postalCode": "G9A1Z8", "twitter": "None", "instagram": "None", "facebook": "None", "youtube": "None", "website": "None", "summary": "None", "logo": "None", "latitude": 46.34795511489417, "longitude": -72.54874117251416}, "107883662RR0001": {"name": "REGROUPEMENT DES ORGANISMES DE PERSONNES HANDICAPEES DU BAS-DU-FLEUVE (ROPHBF)", "designationCode": "C", "categoryCode": "09", "address": "125, BOUL REN\u00c9-LEPAGE EST     SUITE 313", "city": "RIMOUSKI", "province": "QC", "country": "CA", "postalCode": "G5L1N9", "twitter": "None", "instagram": "None", "facebook": "None", "youtube": "None", "website": "None", "summary": "None", "logo": "None", "latitude": 48.45540027391913, "longitude": -68.52425624013081}, "133328484RR0001": {"name": "REGROUPEMENT DES ORGANISMES DU MONTR\u00c9AL ETHNIQUE POUR LE LOGEMENT", "designationCode": "C", "categoryCode": "09", "address": "400-6555 CH. COTE DES NEIGES", "city": "MONTREAL", "province": "QC", "country": "CA", "postalCode": "H3S2A6", "twitter": "None", "instagram": "None", "facebook": "None", "youtube": "None", "website": "None", "summary": "None", "logo": "None", "latitude": 45.50235426536422, "longitude": -73.63542183746917}, "123450827RR0001": {"name": "REGROUPEMENT DES ORGANISMES ESPACE DU QU\u00c9BEC", "designationCode": "C", "categoryCode": "09", "address": "218-157 RUE DES CH\u00caNES OUEST", "city": "QU\u00c9BEC", "province": "QC", "country": "CA", "postalCode": "G1L1K6", "twitter": "None", "instagram": "None", "facebook": "None", "youtube": "None", "website": "None", "summary": "None", "logo": "None", "latitude": 46.8335744794454, "longitude": -71.2515373530116}, "898148200RR0001": {"name": "REGROUPEMENT DES ORGANISMES POUR AINES ET AINEES DU SUD-OUEST DE MONTREAL (ROPASOM)", "designationCode": "C", "categoryCode": "09", "address": "103-5335 RUE NOTRE-DAME O", "city": "MONTREAL", "province": "QC", "country": "CA", "postalCode": "H4C3L3", "twitter": "None", "instagram": "None", "facebook": "None", "youtube": "None", "website": "None", "summary": "None", "logo": "None", "latitude": 45.46894145043267, "longitude": -73.59455761052435}, "891384737RR0001": {"name": "REGROUPEMENT DES PERSONNES AIDANTES DE LOTBINIERE", "designationCode": "C", "categoryCode": "09", "address": "1000 ST-JOSEPH", "city": "ST-FLAVIEN", "province": "QC", "country": "CA", "postalCode": "G0S2M0", "twitter": "None", "instagram": "None", "facebook": "None", "youtube": "None", "website": "None", "summary": "None", "logo": "None", "latitude": 46.5336715553058, "longitude": -71.62454462307821}, "106728439RR0001": {"name": "REGROUPEMENT DES PERSONNES HANDICAP\u00c9ES PHYSIQUES DE LA R\u00c9GION DE THETFORD", "designationCode": "C", "categoryCode": "09", "address": "219 RUE BEDARD O", "city": "THETFORD MINES", "province": "QC", "country": "CA", "postalCode": "G6G1P9", "twitter": "None", "instagram": "None", "facebook": "None", "youtube": "None", "website": "None", "summary": "None", "logo": "None", "latitude": 46.09742527728079, "longitude": -71.31187907259495}, "106685506RR0001": {"name": "REGROUPEMENT DES PERSONNES HANDICAPEES DE LA REGION DE MONT-LAURIER", "designationCode": "C", "categoryCode": "09", "address": "294 RUE DU PONT", "city": "MONT-LAURIER", "province": "QC", "country": "CA", "postalCode": "J9L2R2", "twitter": "None", "instagram": "None", "facebook": "None", "youtube": "None", "website": "None", "summary": "None", "logo": "None", "latitude": 46.548731367476464, "longitude": -75.49735125088017}, "125487918RR0001": {"name": "REGROUPEMENT DES PERSONNES HANDICAPEES REGION DU HAUT-RICHELIEU INC", "designationCode": "C", "categoryCode": "09", "address": "245, 6E AVENUE, BUREAU 1", "city": "SAINT-JEAN-SUR-RICHELIEU", "province": "QC", "country": "CA", "postalCode": "J2X0C6", "twitter": "None", "instagram": "None", "facebook": "None", "youtube": "None", "website": "None", "summary": "None", "logo": "None", "latitude": 45.3078548198398, "longitude": -73.23872586620705}, "888365731RR0001": {"name": "REGROUPEMENT DES PERSONNES HANDICAPEES VISUELLES (REGIONS 03-12)", "designationCode": "C", "categoryCode": "59", "address": "503, RUE PRINCE EDOUARD       PORTE 100", "city": "QUEBEC", "province": "QC", "country": "CA", "postalCode": "G1K2M8", "twitter": "None", "instagram": "None", "facebook": "None", "youtube": "None", "website": "None", "summary": "None", "logo": "None", "latitude": 46.81696196526087, "longitude": -71.22480294460172}, "869423962RR0001": {"name": "REGROUPEMENT DES PERSONNES SOURDES DE LA MAURICIE", "designationCode": "C", "categoryCode": "09", "address": "204 - 109 RUE BRUNELLE", "city": "TROIS-RIVIERES", "province": "QC", "country": "CA", "postalCode": "G8T6A3", "twitter": "None", "instagram": "None", "facebook": "None", "youtube": "None", "website": "None", "summary": "None", "logo": "None", "latitude": 46.363435334987685, "longitude": -72.5121406608574}, "140871021RR0001": {"name": "REGROUPEMENT DES POPOTES ROULANTES ET AUTRES SERVICES ALIMENTAIRES BENEVOLES (P R A S A B )", "designationCode": "C", "categoryCode": "21", "address": "1474 RUE FLEURY EST", "city": "MONTREAL", "province": "QC", "country": "CA", "postalCode": "H2C1S1", "twitter": "None", "instagram": "None", "facebook": "None", "youtube": "None", "website": "None", "summary": "None", "logo": "None", "latitude": 45.562346780454774, "longitude": -73.65663291990322}, "876069311RR0001": {"name": "REGROUPEMENT DES PROCHES AIDANTS DE BELLECHASSE", "designationCode": "C", "categoryCode": "09", "address": "110-B, RUE PRINCIPALE", "city": "ST-LAZARE", "province": "QC", "country": "CA", "postalCode": "G0R3J0", "twitter": "None", "instagram": "None", "facebook": "None", "youtube": "None", "website": "None", "summary": "None", "logo": "None", "latitude": 46.65416504527074, "longitude": -70.80589077451081}, "107883712RR0001": {"name": "REGROUPEMENT DES SANS-EMPLOIS DE VICTORIAVILLE", "designationCode": "C", "categoryCode": "01", "address": "59 RUE MONFETTE               LOCAL 210", "city": "VICTORIAVILLE", "province": "QC", "country": "CA", "postalCode": "G6P1J8", "twitter": "None", "instagram": "None", "facebook": "None", "youtube": "None", "website": "None", "summary": "None", "logo": "None", "latitude": 46.06164779188039, "longitude": -71.9668892342031}, "119114734RR0001": {"name": "REGROUPEMENT DES USAGERS DU TRANSPORT ADAPTE DE LA CUM INC.", "designationCode": "C", "categoryCode": "09", "address": "3800 RADISSON STE 111", "city": "MONTREAL", "province": "QC", "country": "CA", "postalCode": "H1M1X6", "twitter": "None", "instagram": "None", "facebook": "None", "youtube": "None", "website": "None", "summary": "None", "logo": "None", "latitude": 45.589036925875824, "longitude": -73.54056992812619}, "891291742RR0001": {"name": "REGROUPEMENT EN TOXICOMANIE PRISME", "designationCode": "C", "categoryCode": "59", "address": "147 ST-LAURENT", "city": "ST-EUSTACHE", "province": "QC", "country": "CA", "postalCode": "J7P5H6", "twitter": "None", "instagram": "None", "facebook": "None", "youtube": "None", "website": "None", "summary": "None", "logo": "None", "latitude": 45.56900122621034, "longitude": -73.88459966362736}, "129124517RR0001": {"name": "REGROUPEMENT INFORMATION-LOGEMENT DE POINTE-ST-CHARLES", "designationCode": "C", "categoryCode": "59", "address": "110-1945 RUE MULLINS", "city": "MONTREAL", "province": "QC", "country": "CA", "postalCode": "H3K1N9", "twitter": "None", "instagram": "None", "facebook": "None", "youtube": "None", "website": "None", "summary": "None", "logo": "None", "latitude": 45.48090306523738, "longitude": -73.56151176897089}, "140340787RR0001": {"name": "REGROUPEMENT JEUNESSE EN MARCHE DU QU\u00c9BEC", "designationCode": "C", "categoryCode": "09", "address": "CP 207 SUCC SAINT-MICHEL      ST-MICHEL", "city": "MONTREAL", "province": "QC", "country": "CA", "postalCode": "H2A3M1", "twitter": "None", "instagram": "None", "facebook": "None", "youtube": "None", "website": "None", "summary": "None", "logo": "None", "latitude": 45.557373744886085, "longitude": -73.59418775487934}, "889687455RR0001": {"name": "REGROUPEMENT POUR L'INTEGRATION SOCIALE DE CHARLEVOIX", "designationCode": "C", "categoryCode": "09", "address": "367, RUE SAINT-ETIENNE        BUREAU 301", "city": "LA MALBAIE", "province": "QC", "country": "CA", "postalCode": "G5A1M3", "twitter": "None", "instagram": "None", "facebook": "None", "youtube": "None", "website": "None", "summary": "None", "logo": "None", "latitude": 47.65423718847008, "longitude": -70.14977797108924}, "893473462RR0001": {"name": "REGROUPEMENT POUR LA DEFENSE DES DROITS SOCIAUX (R.D.D.S.) DE LA REGION DE NICOLET INC.", "designationCode": "C", "categoryCode": "09", "address": "133, RUE DE MONSEIGNEUR-SIGNAY", "city": "NICOLET", "province": "QC", "country": "CA", "postalCode": "J3T1E7", "twitter": "None", "instagram": "None", "facebook": "None", "youtube": "None", "website": "None", "summary": "None", "logo": "None", "latitude": 46.22478763609408, "longitude": -72.61470791943448}, "120411145RR0001": {"name": "REGROUPEMENT POUR LA PRESERVATION DE L'ILE ET DU MARAIS DE KATEVALE (L'ILE DU MARAIS) INC", "designationCode": "C", "categoryCode": "54", "address": "CP 121", "city": "STE-CATHERINE-DE-HATLEY", "province": "QC", "country": "CA", "postalCode": "J0B1W0", "twitter": "None", "instagram": "None", "facebook": "None", "youtube": "None", "website": "None", "summary": "None", "logo": "None", "latitude": 45.25108005107051, "longitude": -72.04712004385702}, "882461577RR0001": {"name": "REGROUPEMENT POUR PERSONNES AVECACOUPHENES SAGUENAY LAC ST- JEAN", "designationCode": "C", "categoryCode": "11", "address": "356 RUE LEMIEUX", "city": "CHICOUTIMI", "province": "QC", "country": "CA", "postalCode": "G7H4Z3", "twitter": "None", "instagram": "None", "facebook": "None", "youtube": "None", "website": "None", "summary": "None", "logo": "None", "latitude": 48.42625022231519, "longitude": -71.06687119276926}, "132219635RR0001": {"name": "REGROUPEMENT QUEBECOIS DES CENTRES D'AIDE ET DE LUTTE CONTRE LES AGRESSIONS A CARACTERE SEXUEL", "designationCode": "C", "categoryCode": "09", "address": "301 - 1160 BOUL SAINT-JOSEPH E", "city": "MONTREAL", "province": "QC", "country": "CA", "postalCode": "H2J1L4", "twitter": "None", "instagram": "None", "facebook": "None", "youtube": "None", "website": "None", "summary": "None", "logo": "None", "latitude": 45.526282642066725, "longitude": -73.58778261242684}, "889704946RR0001": {"name": "REGROUPEMENT SOUTIEN AUX AIDANTS DE BROME-MISSISQUOI", "designationCode": "C", "categoryCode": "09", "address": "614 BOULEVARD J-ANDR\u00c9 D\u00c9RAGON", "city": "COWANSVILLE", "province": "QC", "country": "CA", "postalCode": "J2K0H7", "twitter": "None", "instagram": "None", "facebook": "None", "youtube": "None", "website": "None", "summary": "None", "logo": "None", "latitude": 45.21230281320336, "longitude": -72.71684599209414}, "132118407RR0001": {"name": "REGROUPEMENT: \"ENTRE MAMANS\" INC", "designationCode": "C", "categoryCode": "09", "address": "3363 RUE DE ROUEN # 1", "city": "MONTREAL", "province": "QC", "country": "CA", "postalCode": "H1W1L4", "twitter": "None", "instagram": "None", "facebook": "None", "youtube": "None", "website": "None", "summary": "None", "logo": "None", "latitude": 45.543746922846076, "longitude": -73.54979273801132}, "873262521RR0001": {"name": "REH'MA COMMUNITY SERVICES", "designationCode": "C", "categoryCode": "56", "address": "203 - 7481 WOODBINE AVE", "city": "MARKHAM", "province": "ON", "country": "CA", "postalCode": "L3R2W1", "twitter": "None", "instagram": "None", "facebook": "None", "youtube": "None", "website": "None", "summary": "None", "logo": "None", "latitude": 43.82562458479999, "longitude": -79.35169627303985}, "119244846RR0001": {"name": "REHABILITATION AND EMPLOYMENT FOR DEVELOPING INDEPENDENCE (REDI) ENTERPRISES SOCIETY", "designationCode": "C", "categoryCode": "11", "address": "860 ALLOWANCE AVENUE SE", "city": "MEDICINE HAT", "province": "AB", "country": "CA", "postalCode": "T1A7S6", "twitter": "None", "instagram": "None", "facebook": "None", "youtube": "None", "website": "None", "summary": "None", "logo": "None", "latitude": 50.03055983819033, "longitude": -110.66438621885274}, "889639241RR0001": {"name": "REHABILITATION CENTRE FOR CHILDREN", "designationCode": "C", "categoryCode": "11", "address": "633 WELLINGTON CRESCENT", "city": "WINNIPEG", "province": "MB", "country": "CA", "postalCode": "R3M0A8", "twitter": "None", "instagram": "None", "facebook": "None", "youtube": "None", "website": "None", "summary": "None", "logo": "None", "latitude": 49.87699586320593, "longitude": -97.16498244327406}, "137077137RR0001": {"name": "REHABILITATION CENTRE VOLUNTEER ASSOCIATION", "designationCode": "C", "categoryCode": "19", "address": "505 SMYTH ROAD", "city": "OTTAWA", "province": "ON", "country": "CA", "postalCode": "K1H8M2", "twitter": "None", "instagram": "None", "facebook": "None", "youtube": "None", "website": "None", "summary": "None", "logo": "None", "latitude": 45.39948874096807, "longitude": -75.64736863423326}, "107883910RR0001": {"name": "REHABILITATION DE BEAUCE INC.", "designationCode": "C", "categoryCode": "57", "address": "294 RUE BISSON", "city": "VALLEE JONCTION", "province": "QC", "country": "CA", "postalCode": "G0S3J0", "twitter": "None", "instagram": "None", "facebook": "None", "youtube": "None", "website": "None", "summary": "None", "logo": "None", "latitude": 46.37608756506449, "longitude": -70.92159475451551}, "107883969RR0001": {"name": "REHABILITATION SOCIETY OF CALGARY FOR THE HANDICAPPED", "designationCode": "C", "categoryCode": "11", "address": "7 11 ST NE", "city": "CALGARY", "province": "AB", "country": "CA", "postalCode": "T2E4Z2", "twitter": "None", "instagram": "None", "facebook": "None", "youtube": "None", "website": "None", "summary": "None", "logo": "None", "latitude": 51.04877274271453, "longitude": -114.03671561200865}, "107883985RR0001": {"name": "REHABILITATION SOCIETY OF SOUTHWESTERN ALBERTA", "designationCode": "C", "categoryCode": "11", "address": "1610 29 STREET NORTH", "city": "LETHBRIDGE", "province": "AB", "country": "CA", "postalCode": "T1H5L3", "twitter": "None", "instagram": "None", "facebook": "None", "youtube": "None", "website": "None", "summary": "None", "logo": "None", "latitude": 49.72096816763806, "longitude": -112.79896245469968}, "127946242RR0001": {"name": "REHABITAT INC.", "designationCode": "C", "categoryCode": "09", "address": "75 ADELAIDE STREET", "city": "SAINT JOHN", "province": "NB", "country": "CA", "postalCode": "E2K1W4", "twitter": "None", "instagram": "None", "facebook": "None", "youtube": "None", "website": "None", "summary": "None", "logo": "None", "latitude": 45.276755532056086, "longitude": -66.080461546223}, "119114809RR0001": {"name": "REHOBOTH A CHRISTIAN ASSOCIATION FOR THE MENTALLY HANDICAPPED OF ALBERTA", "designationCode": "C", "categoryCode": "59", "address": "3920  49 AVE", "city": "STONY PLAIN", "province": "AB", "country": "CA", "postalCode": "T7Z2J7", "twitter": "None", "instagram": "None", "facebook": "None", "youtube": "None", "website": "None", "summary": "None", "logo": "None", "latitude": 53.532524520053556, "longitude": -113.98827811252825}, "890939945RR0001": {"name": "REHOBOTH APOSTOLIC ARK CHURCH OF JESUS CHRIST", "designationCode": "C", "categoryCode": "39", "address": "74 JAIMIE ROAD", "city": "THORNHILL", "province": "ON", "country": "CA", "postalCode": "L4J6A7", "twitter": "None", "instagram": "None", "facebook": "None", "youtube": "None", "website": "None", "summary": "None", "logo": "None", "latitude": 43.80020487676729, "longitude": -79.47228691468042}, "107884025RR0001": {"name": "REHOBOTH CHRISTIAN REFORMED CHURCH OF BOWMANVILLE", "designationCode": "C", "categoryCode": "39", "address": "130 SCUGOG STREET", "city": "BOWMANVILLE", "province": "ON", "country": "CA", "postalCode": "L1C3J6", "twitter": "None", "instagram": "None", "facebook": "None", "youtube": "None", "website": "None", "summary": "None", "logo": "None", "latitude": 43.921015251168654, "longitude": -78.69536622430576}, "815268875RR0001": {"name": "REHOBOTH EVANGELICAL CHURCH", "designationCode": "C", "categoryCode": "39", "address": "1891 GERRARD STREET EAST", "city": "TORONTO", "province": "ON", "country": "CA", "postalCode": "M4L2B9", "twitter": "None", "instagram": "None", "facebook": "None", "youtube": "None", "website": "None", "summary": "None", "logo": "None", "latitude": 43.68011283790187, "longitude": -79.31217232901506}, "133652552RR0001": {"name": "REHOBOTH FELLOWSHIP CHRISTIAN REFORMED CHURCH OF TORONTO", "designationCode": "C", "categoryCode": "39", "address": "800 BURNHAMTHORPE ROAD        PO BOX 338, STN A", "city": "ETOBICOKE", "province": "ON", "country": "CA", "postalCode": "M9C4V3", "twitter": "None", "instagram": "None", "facebook": "None", "youtube": "None", "website": "None", "summary": "None", "logo": "None", "latitude": 43.640735344971, "longitude": -79.58158234150854}, "119114825RR0001": {"name": "REHOBOTH FREE REFORMED CHRISTIAN SCHOOL SOCIETY OF COPETOWN", "designationCode": "C", "categoryCode": "20", "address": "P. O. BOX 70", "city": "COPETOWN", "province": "ON", "country": "CA", "postalCode": "L0R1J0", "twitter": "None", "instagram": "None", "facebook": "None", "youtube": "None", "website": "None", "summary": "None", "logo": "None", "latitude": 43.24383000000006, "longitude": -80.05627999999996}, "119114841RR0001": {"name": "REHOBOTH MINISTRIES", "designationCode": "C", "categoryCode": "39", "address": "222 ADVANCE BLVD. UNIT 1", "city": "BRAMPTON", "province": "ON", "country": "CA", "postalCode": "L6T4Y7", "twitter": "None", "instagram": "None", "facebook": "None", "youtube": "None", "website": "None", "summary": "None", "logo": "None", "latitude": 43.68938290870782, "longitude": -79.69734504694416}, "119114866RR0001": {"name": "REHOBOTH REFORMED SCHOOL SOCIETY", "designationCode": "C", "categoryCode": "20", "address": "43 MAIN ST E                  BOX 220", "city": "NORWICH", "province": "ON", "country": "CA", "postalCode": "N0J1P0", "twitter": "None", "instagram": "None", "facebook": "None", "youtube": "None", "website": "None", "summary": "None", "logo": "None", "latitude": 42.9886706295897, "longitude": -80.59104502975869}, "890782550RR0001": {"name": "REHOBOTH UNITED PENTECOSTAL ASSEMBLY", "designationCode": "C", "categoryCode": "36", "address": "840 VICKI DRIVE", "city": "PICKERING", "province": "ON", "country": "CA", "postalCode": "L1W2J3", "twitter": "None", "instagram": "None", "facebook": "None", "youtube": "None", "website": "None", "summary": "None", "logo": "None", "latitude": 43.81431415072984, "longitude": -79.10630570358929}, "847204013RR0001": {"name": "REHOBOTH UNITED REFORMED CHURCH OF HAMILTON", "designationCode": "C", "categoryCode": "39", "address": "77 GLANCASTER ROAD            RR #1", "city": "ANCASTER", "province": "ON", "country": "CA", "postalCode": "L9G3K9", "twitter": "None", "instagram": "None", "facebook": "None", "youtube": "None", "website": "None", "summary": "None", "logo": "None", "latitude": 43.208135999999996, "longitude": -79.92852631346409}, "815755475RR0001": {"name": "REID CHARITABLE FOUNDATION", "designationCode": "B", "categoryCode": "03", "address": "23548 TOWNSHIP ROAD 495", "city": "LEDUC COUNTY", "province": "AB", "country": "CA", "postalCode": "T4X0Y6", "twitter": "None", "instagram": "None", "facebook": "None", "youtube": "None", "website": "None", "summary": "None", "logo": "None", "latitude": 53.265225478215704, "longitude": -113.36628133236194}, "841715725RR0001": {"name": "REID COTTICK LITTLE HEROES MEMORIAL FUND", "designationCode": "B", "categoryCode": "15", "address": "15 NORCROSS CR.", "city": "WINNIPEG", "province": "MB", "country": "CA", "postalCode": "R3X1H8", "twitter": "None", "instagram": "None", "facebook": "None", "youtube": "None", "website": "None", "summary": "None", "logo": "None", "latitude": 49.83857066362736, "longitude": -97.07964778117591}, "119114882RR0001": {"name": "REID LAKE COMMUNITY ASSOCIATION", "designationCode": "C", "categoryCode": "56", "address": "23505 ISLE PIERRE/REID LAKE RD", "city": "PRINCE GEORGE", "province": "BC", "country": "CA", "postalCode": "V2K5P1", "twitter": "None", "instagram": "None", "facebook": "None", "youtube": "None", "website": "None", "summary": "None", "logo": "None", "latitude": 53.9676665323159, "longitude": -123.10161202553522}, "119114908RR0001": {"name": "REID'S MILLS UNITED CHURCH CEMETERY", "designationCode": "C", "categoryCode": "59", "address": "6062 BELMEADE RD              RR4", "city": "OSGOODE", "province": "ON", "country": "CA", "postalCode": "K0A2W0", "twitter": "None", "instagram": "None", "facebook": "None", "youtube": "None", "website": "None", "summary": "None", "logo": "None", "latitude": 45.103510676928906, "longitude": -75.55199178988983}, "891891673RR0001": {"name": "REIGN MINISTRIES CANADA INC", "designationCode": "C", "categoryCode": "47", "address": "#51-45640 STOREY AVENUE", "city": "CHILLIWACK", "province": "BC", "country": "CA", "postalCode": "V2R4E6", "twitter": "None", "instagram": "None", "facebook": "None", "youtube": "None", "website": "None", "summary": "None", "logo": "None", "latitude": 49.13628452394869, "longitude": -121.96120122300768}, "119114916RR0001": {"name": "REIMER EXPRESS FOUNDATION INC.", "designationCode": "B", "categoryCode": "43", "address": "201 PORTAGE AVE               SUITE 2900", "city": "WINNIPEG", "province": "MB", "country": "CA", "postalCode": "R3B3K6", "twitter": "None", "instagram": "None", "facebook": "None", "youtube": "None", "website": "None", "summary": "None", "logo": "None", "latitude": 49.895359615067065, "longitude": -97.13919299627776}, "877755769RR0001": {"name": "REIMER FOUNDATION", "designationCode": "B", "categoryCode": "43", "address": "15775-112TH AVE.", "city": "SURREY", "province": "BC", "country": "CA", "postalCode": "V4N1R8", "twitter": "None", "instagram": "None", "facebook": "None", "youtube": "None", "website": "None", "summary": "None", "logo": "None", "latitude": 49.20612245325739, "longitude": -122.78468152553523}, "119114940RR0001": {"name": "REINLAND MENNONITEN GEMEINDE OF MANITOBA", "designationCode": "C", "categoryCode": "34", "address": "200 REDHAWK TRAIL", "city": "WINKLER", "province": "MB", "country": "CA", "postalCode": "R6W0C5", "twitter": "None", "instagram": "None", "facebook": "None", "youtube": "None", "website": "None", "summary": "None", "logo": "None", "latitude": 49.19846658292008, "longitude": -97.93360991707992}, "134315605RR0001": {"name": "REINSERTION SOCIALE DU SOLEIL LEVANT INC.", "designationCode": "C", "categoryCode": "01", "address": "25, BOULEVARD DESJARDINS OUEST", "city": "STE-THERESE", "province": "QC", "country": "CA", "postalCode": "J7E1C9", "twitter": "None", "instagram": "None", "facebook": "None", "youtube": "None", "website": "None", "summary": "None", "logo": "None", "latitude": 45.63136967747716, "longitude": -73.83511223408752}, "852963941RR0001": {"name": "REKAI CHARITABLE FOUNDATION", "designationCode": "A", "categoryCode": "03", "address": "160 WELLESLEY STREET EAST", "city": "TORONTO", "province": "ON", "country": "CA", "postalCode": "M4Y1J2", "twitter": "None", "instagram": "None", "facebook": "None", "youtube": "None", "website": "None", "summary": "None", "logo": "None", "latitude": 43.66677725564069, "longitude": -79.37518741315121}, "886068808RR0001": {"name": "RELAIS COTE-DES-NEIGES", "designationCode": "C", "categoryCode": "09", "address": "100 - 6600 AV VICTORIA", "city": "MONTREAL", "province": "QC", "country": "CA", "postalCode": "H3W3G8", "twitter": "None", "instagram": "None", "facebook": "None", "youtube": "None", "website": "None", "summary": "None", "logo": "None", "latitude": 45.49601415001001, "longitude": -73.64153299387684}, "122068133RR0001": {"name": "RELAIS D'ESPERANCE", "designationCode": "C", "categoryCode": "09", "address": "1001 4E AVENUE", "city": "QUEBEC", "province": "QC", "country": "CA", "postalCode": "G1J3B1", "twitter": "None", "instagram": "None", "facebook": "None", "youtube": "None", "website": "None", "summary": "None", "logo": "None", "latitude": 46.827485875093856, "longitude": -71.22815390010946}, "873612410RR0001": {"name": "RELAIS FAMILLE", "designationCode": "C", "categoryCode": "59", "address": "660 RUE VILLERAY", "city": "MONTREAL", "province": "QC", "country": "CA", "postalCode": "H2R1J1", "twitter": "None", "instagram": "None", "facebook": "None", "youtube": "None", "website": "None", "summary": "None", "logo": "None", "latitude": 45.54332852316931, "longitude": -73.62167189589721}, "869379206RR0001": {"name": "RELAIS HUMANITAIRE RAWDON", "designationCode": "C", "categoryCode": "09", "address": "4939 PROMENADE DU LAC", "city": "RAWDON", "province": "QC", "country": "CA", "postalCode": "J0K1S0", "twitter": "None", "instagram": "None", "facebook": "None", "youtube": "None", "website": "None", "summary": "None", "logo": "None", "latitude": 46.04597886816895, "longitude": -73.74351850998332}, "104461066RR0001": {"name": "RELAIS LA CHAUMINE INC.", "designationCode": "C", "categoryCode": "09", "address": "850 3E AVENUE", "city": "QUEBEC", "province": "QC", "country": "CA", "postalCode": "G1L2W9", "twitter": "None", "instagram": "None", "facebook": "None", "youtube": "None", "website": "None", "summary": "None", "logo": "None", "latitude": 46.82561484791385, "longitude": -71.22900858976298}, "865297246RR0001": {"name": "RELAIS PLEIN AIR DU PARC DE LA GATINEAU", "designationCode": "C", "categoryCode": "56", "address": "397 BOUL CITE DES JEUNES", "city": "GATINEAU", "province": "QC", "country": "CA", "postalCode": "J8Z3P9", "twitter": "None", "instagram": "None", "facebook": "None", "youtube": "None", "website": "None", "summary": "None", "logo": "None", "latitude": 45.46276925253214, "longitude": -75.77027114444532}, "119285609RR0001": {"name": "RELATE CHRISTIAN CHURCH", "designationCode": "C", "categoryCode": "39", "address": "6788 152 ST", "city": "SURREY", "province": "BC", "country": "CA", "postalCode": "V3S3L4", "twitter": "None", "instagram": "None", "facebook": "None", "youtube": "None", "website": "None", "summary": "None", "logo": "None", "latitude": 49.125788360811356, "longitude": -122.80094805326348}, "868376807RR0001": {"name": "RELATIONSHIPS SUPPORT MINISTRIES", "designationCode": "C", "categoryCode": "09", "address": "1008 HIGHBROOK COURT", "city": "OSHAWA", "province": "ON", "country": "CA", "postalCode": "L1K2K6", "twitter": "None", "instagram": "None", "facebook": "None", "youtube": "None", "website": "None", "summary": "None", "logo": "None", "latitude": 43.93284253926945, "longitude": -78.83980252236124}, "124983909RR0001": {"name": "RELAX ACTION MONTREAL", "designationCode": "C", "categoryCode": "11", "address": "10780 RUE LAVERDURE", "city": "MONTREAL", "province": "QC", "country": "CA", "postalCode": "H3L2G9", "twitter": "None", "instagram": "None", "facebook": "None", "youtube": "None", "website": "None", "summary": "None", "logo": "None", "latitude": 45.55253309351391, "longitude": -73.67173931738695}, "134237064RR0001": {"name": "RELEVANT SCHOOLS SOCIETY", "designationCode": "C", "categoryCode": "20", "address": "18620 56 AVE.", "city": "SURREY", "province": "BC", "country": "CA", "postalCode": "V3S1G1", "twitter": "None", "instagram": "None", "facebook": "None", "youtube": "None", "website": "None", "summary": "None", "logo": "None", "latitude": 49.10403874890413, "longitude": -122.70666871274513}, "887568061RR0001": {"name": "RELIEF AND SUPPORT SERVICES", "designationCode": "C", "categoryCode": "02", "address": "935 MABEL LAKE ROAD", "city": "ENDERBY", "province": "BC", "country": "CA", "postalCode": "V0E1V5", "twitter": "None", "instagram": "None", "facebook": "None", "youtube": "None", "website": "None", "summary": "None", "logo": "None", "latitude": 50.55027246383535, "longitude": -119.13642689480793}, "119115061RR0001": {"name": "RELIEF AND WELFARE FUND OF THE GERMAN SOCIETY OF MONTREAL INC.", "designationCode": "C", "categoryCode": "05", "address": "3917 RUE DROLET", "city": "MONTREAL", "province": "QC", "country": "CA", "postalCode": "H2W2L3", "twitter": "None", "instagram": "None", "facebook": "None", "youtube": "None", "website": "None", "summary": "None", "logo": "None", "latitude": 45.519442155433055, "longitude": -73.57472156105376}, "888032661RR0001": {"name": "RELIEF FOUNDATION FOR POLAND", "designationCode": "C", "categoryCode": "09", "address": "59 CEDARGROVE PL SW", "city": "CALGARY", "province": "AB", "country": "CA", "postalCode": "T2W4T8", "twitter": "None", "instagram": "None", "facebook": "None", "youtube": "None", "website": "None", "summary": "None", "logo": "None", "latitude": 50.952222000000006, "longitude": -114.12482935524277}, "840936967RR0001": {"name": "RELIEF RESOURCES CANADA", "designationCode": "C", "categoryCode": "11", "address": "201 BRIDGELAND AVENUE", "city": "TORONTO", "province": "ON", "country": "CA", "postalCode": "M6A1Y7", "twitter": "None", "instagram": "None", "facebook": "None", "youtube": "None", "website": "None", "summary": "None", "logo": "None", "latitude": 43.724679896445465, "longitude": -79.46720435899367}, "131935579RR0001": {"name": "RELIGIEUSES ADORATRICES DU PR\u00c9CIEUX SANG, DE SAINT-HYACINTHE", "designationCode": "C", "categoryCode": "46", "address": "800 DESAULNIERS", "city": "SAINT-HYACINTHE", "province": "QC", "country": "CA", "postalCode": "J2S8P5", "twitter": "None", "instagram": "None", "facebook": "None", "youtube": "None", "website": "None", "summary": "None", "logo": "None", "latitude": 45.62119837691153, "longitude": -72.95527341672923}, "119115129RR0001": {"name": "RELIGIEUSES DE NOTRE DAME DU SACRE COEUR", "designationCode": "C", "categoryCode": "46", "address": "1002, RUE AMIRAULT", "city": "DIEPPE", "province": "NB", "country": "CA", "postalCode": "E1A1C9", "twitter": "None", "instagram": "None", "facebook": "None", "youtube": "None", "website": "None", "summary": "None", "logo": "None", "latitude": 46.07054472747974, "longitude": -64.72115484794342}, "132994245RR0001": {"name": "RELIGIEUSES DES SACRES-COEURS ET DE L'ADORATION LES", "designationCode": "C", "categoryCode": "46", "address": "650 RUE GIROUARD OUEST", "city": "SAINT-HYACINTHE", "province": "QC", "country": "CA", "postalCode": "J2S2Y4", "twitter": "None", "instagram": "None", "facebook": "None", "youtube": "None", "website": "None", "summary": "None", "logo": "None", "latitude": 45.630491289811914, "longitude": -72.94335984063032}, "119115160RR0001": {"name": "RELIGIEUSES HOSPITALI\u00c8RES DE SAINT-JOSEPH / RELIGIOUS HOSPITALLERS OF SAINT-JOSEPH", "designationCode": "C", "categoryCode": "46", "address": "245, AVENUE DES PINS OUEST", "city": "MONTR\u00c9AL", "province": "QC", "country": "CA", "postalCode": "H2W1R5", "twitter": "None", "instagram": "None", "facebook": "None", "youtube": "None", "website": "None", "summary": "None", "logo": "None", "latitude": 45.51266668413551, "longitude": -73.57730306977341}, "892616467RR0001": {"name": "RELIGIEUSES HOSPITALIERES DE SAINT-JOSEPH DE L'HOTEL-DIEU", "designationCode": "B", "categoryCode": "13", "address": "245,AVENUE DES PINS OUEST", "city": "MONTREAL", "province": "QC", "country": "CA", "postalCode": "H2W1R5", "twitter": "None", "instagram": "None", "facebook": "None", "youtube": "None", "website": "None", "summary": "None", "logo": "None", "latitude": 45.51266668413551, "longitude": -73.57730306977341}, "142210384RR0001": {"name": "RELIGIEUX DU TRES-SAINT-SACREMENT", "designationCode": "C", "categoryCode": "46", "address": "12, BOULEVARD DES \u00c9TUDIANTS", "city": "QU\u00c9BEC", "province": "QC", "country": "CA", "postalCode": "G2A1N5", "twitter": "None", "instagram": "None", "facebook": "None", "youtube": "None", "website": "None", "summary": "None", "logo": "None", "latitude": 46.85535429421766, "longitude": -71.35689560035189}, "869839175RR0001": {"name": "RELIGIOUS HOSPITALLERS OF ST JOSEPH HEALTH CENTRE OF CORNWALL FUND", "designationCode": "A", "categoryCode": "03", "address": "14 YORK STREET", "city": "CORNWALL", "province": "ON", "country": "CA", "postalCode": "K6J5T2", "twitter": "None", "instagram": "None", "facebook": "None", "youtube": "None", "website": "None", "summary": "None", "logo": "None", "latitude": 45.01518517011958, "longitude": -74.73180129606399}, "899676043RR0001": {"name": "RELIGIOUS HOSPITALLERS OF ST. JOSEPH HEAlTH SYSTEM", "designationCode": "C", "categoryCode": "11", "address": "166 BROCK STREET              S3-003-0", "city": "KINGSTON", "province": "ON", "country": "CA", "postalCode": "K7L5G2", "twitter": "None", "instagram": "None", "facebook": "None", "youtube": "None", "website": "None", "summary": "None", "logo": "None", "latitude": 44.23110572548917, "longitude": -76.48614734416293}, "119115228RR0001": {"name": "RELIGIOUS HOSPITALLERS OF ST-JOSEPH, AMHERSTVIEW, ONTARIO", "designationCode": "C", "categoryCode": "46", "address": "245 AVENUE DES PINS OUEST", "city": "MONTR\u00c9AL", "province": "QC", "country": "CA", "postalCode": "H2W1R5", "twitter": "None", "instagram": "None", "facebook": "None", "youtube": "None", "website": "None", "summary": "None", "logo": "None", "latitude": 45.51266668413551, "longitude": -73.57730306977341}, "122110059RR0001": {"name": "RELIGIOUS SOCIETY OF DOUKHOBORS (CANORA)", "designationCode": "C", "categoryCode": "39", "address": "PO BOX 360", "city": "CANORA", "province": "SK", "country": "CA", "postalCode": "S0A0L0", "twitter": "None", "instagram": "None", "facebook": "None", "youtube": "None", "website": "None", "summary": "None", "logo": "None", "latitude": 51.62535661313478, "longitude": -102.4443087080291}, "892605163RR0001": {"name": "RELIGIOUS SOCIETY OF FRIENDS (QUAKERS) MONTREAL MONTHLY MEETING,", "designationCode": "C", "categoryCode": "39", "address": "1812 BAILE", "city": "MONTREAL", "province": "QC", "country": "CA", "postalCode": "H3H1P4", "twitter": "None", "instagram": "None", "facebook": "None", "youtube": "None", "website": "None", "summary": "None", "logo": "None", "latitude": 45.492602417421715, "longitude": -73.5780408173583}, "119115293RR0001": {"name": "RELIGIOUS SOCIETY OF FRIENDS (QUAKERS), EDMONTON MONTHLY MEETING", "designationCode": "C", "categoryCode": "39", "address": "# 1201 10028 119 STREET", "city": "EDMONTON", "province": "AB", "country": "CA", "postalCode": "T5K1Y8", "twitter": "None", "instagram": "None", "facebook": "None", "youtube": "None", "website": "None", "summary": "None", "logo": "None", "latitude": 53.540586618096825, "longitude": -113.52685966380024}, "889237848RR0001": {"name": "RELIGIOUS SOCIETY OF FRIENDS (QUAKERS), KITCHENER MONTHLY MEETING,", "designationCode": "C", "categoryCode": "39", "address": "298 FREDERICK STREET", "city": "KITCHENER", "province": "ON", "country": "CA", "postalCode": "N2H2N5", "twitter": "None", "instagram": "None", "facebook": "None", "youtube": "None", "website": "None", "summary": "None", "logo": "None", "latitude": 43.45599867084073, "longitude": -80.4775071519706}, "892169848RR0001": {"name": "RELIGIOUS SOCIETY OF FRIENDS, CALGARY MONTHLY MEETING,", "designationCode": "C", "categoryCode": "39", "address": "3821 1A ST. SW", "city": "CALGARY", "province": "AB", "country": "CA", "postalCode": "T2S1R4", "twitter": "None", "instagram": "None", "facebook": "None", "youtube": "None", "website": "None", "summary": "None", "logo": "None", "latitude": 51.021053664723865, "longitude": -114.06735613364873}, "833175011RR0001": {"name": "RELLING FAMILY FOUNDATION", "designationCode": "B", "categoryCode": "03", "address": "7TH FL - 200 BURRARD ST", "city": "VANCOUVER", "province": "BC", "country": "CA", "postalCode": "V6C3L6", "twitter": "None", "instagram": "None", "facebook": "None", "youtube": "None", "website": "None", "summary": "None", "logo": "None", "latitude": 49.28624850975417, "longitude": -123.11832098374305}}