{"832203954RR0001": {"name": "The McBurney Family Foundation", "designationCode": "B", "categoryCode": "03", "address": "500 - 2005 SHEPPARD AVE E", "city": "NORTH YORK", "province": "ON", "country": "CA", "postalCode": "M2J5B4", "twitter": "None", "instagram": "None", "facebook": "None", "youtube": "None", "website": "None", "summary": "None", "logo": "None", "latitude": 43.77572210359478, "longitude": -79.34397475891957}, "828971440RR0001": {"name": "The McCarney Family Foundation", "designationCode": "B", "categoryCode": "05", "address": "5811 LONGHEARTH WAY", "city": "MANOTICK", "province": "ON", "country": "CA", "postalCode": "K4M1M2", "twitter": "None", "instagram": "None", "facebook": "None", "youtube": "None", "website": "None", "summary": "None", "logo": "None", "latitude": 45.24718838193182, "longitude": -75.63733205026237}, "702336694RR0001": {"name": "The McCutcheon Foundation", "designationCode": "B", "categoryCode": "03", "address": "1 DONINO COURT", "city": "TORONTO", "province": "ON", "country": "CA", "postalCode": "M4N2H6", "twitter": "None", "instagram": "None", "facebook": "None", "youtube": "None", "website": "None", "summary": "None", "logo": "None", "latitude": 43.73956760364146, "longitude": -79.40153162127082}, "885294223RR0001": {"name": "The McIntyre Family Foundation", "designationCode": "B", "categoryCode": "02", "address": "PO BOX  58", "city": "GULL LAKE", "province": "SK", "country": "CA", "postalCode": "S0N1A0", "twitter": "None", "instagram": "None", "facebook": "None", "youtube": "None", "website": "None", "summary": "None", "logo": "None", "latitude": 50.09796000000006, "longitude": -108.48363999999998}, "804998011RR0001": {"name": "The McLean Rush Foundation Inc.", "designationCode": "B", "categoryCode": "23", "address": "PO BOX 68101                  RPO OSBORNE VILLAGE", "city": "WINNIPEG", "province": "MB", "country": "CA", "postalCode": "R3L2V9", "twitter": "None", "instagram": "None", "facebook": "None", "youtube": "None", "website": "None", "summary": "None", "logo": "None", "latitude": 49.86055516311027, "longitude": -97.1307242548598}, "842352205RR0001": {"name": "The McMullen Charitable Trust", "designationCode": "B", "categoryCode": "05", "address": "19 BOYD COURT", "city": "MARKHAM", "province": "ON", "country": "CA", "postalCode": "L6C1A6", "twitter": "None", "instagram": "None", "facebook": "None", "youtube": "None", "website": "None", "summary": "None", "logo": "None", "latitude": 43.90288734277795, "longitude": -79.36853929361209}, "873301501RR0001": {"name": "The Meadows Auxiliary", "designationCode": "C", "categoryCode": "19", "address": "491 CURRY CRESCENT", "city": "SWIFT CURRENT", "province": "SK", "country": "CA", "postalCode": "S9H4S3", "twitter": "None", "instagram": "None", "facebook": "None", "youtube": "None", "website": "None", "summary": "None", "logo": "None", "latitude": 50.29464068748915, "longitude": -107.81351599428719}, "811286574RR0001": {"name": "The Meadows Baptist Church", "designationCode": "C", "categoryCode": "31", "address": "P.O. BOX 37", "city": "MISSISSAUGA", "province": "ON", "country": "CA", "postalCode": "L5M2B7", "twitter": "None", "instagram": "None", "facebook": "None", "youtube": "None", "website": "None", "summary": "None", "logo": "None", "latitude": 43.56015000000005, "longitude": -79.72056799999993}, "853886687RR0001": {"name": "The Medavie Health Foundation Inc.", "designationCode": "A", "categoryCode": "03", "address": "P.O. BOX 220                  644 MAIN STREET", "city": "MONCTON", "province": "NB", "country": "CA", "postalCode": "E1C8L3", "twitter": "None", "instagram": "None", "facebook": "None", "youtube": "None", "website": "None", "summary": "None", "logo": "None", "latitude": 46.089183187864506, "longitude": -64.7747542056381}, "815422340RR0001": {"name": "The Medicine Hat Musical Theatre", "designationCode": "C", "categoryCode": "22", "address": "1221 10TH AVENUE SOUTHWEST", "city": "MEDICINE HAT", "province": "AB", "country": "CA", "postalCode": "T1A1G3", "twitter": "None", "instagram": "None", "facebook": "None", "youtube": "None", "website": "None", "summary": "None", "logo": "None", "latitude": 50.02751700000002, "longitude": -110.7097112628254}, "832162994RR0001": {"name": "The Meeting Place Tobermory", "designationCode": "C", "categoryCode": "56", "address": "PO BOX 147", "city": "TOBERMORY", "province": "ON", "country": "CA", "postalCode": "N0H2R0", "twitter": "None", "instagram": "None", "facebook": "None", "youtube": "None", "website": "None", "summary": "None", "logo": "None", "latitude": 45.253840000000025, "longitude": -81.66510999999997}, "843380189RR0001": {"name": "The Mel Hoppenheim Family Foundation/La fondation familiale Mel Hoppenheim", "designationCode": "B", "categoryCode": "03", "address": "3637 THE BOULEVARD", "city": "MONTREAL", "province": "QC", "country": "CA", "postalCode": "H3Y1S6", "twitter": "None", "instagram": "None", "facebook": "None", "youtube": "None", "website": "None", "summary": "None", "logo": "None", "latitude": 45.48931463078681, "longitude": -73.60283802082806}, "842159998RR0001": {"name": "The Melinda Green Memorial Foundation", "designationCode": "B", "categoryCode": "03", "address": "14405-127 STR. NW             BOX 1067", "city": "EDMONTON", "province": "AB", "country": "CA", "postalCode": "T6V1M2", "twitter": "None", "instagram": "None", "facebook": "None", "youtube": "None", "website": "None", "summary": "None", "logo": "None", "latitude": 53.60595548740245, "longitude": -113.54127206336405}, "830585709RR0001": {"name": "The Melita Early Learning Centre Inc.", "designationCode": "C", "categoryCode": "01", "address": "125 NORTH STREET              BOX 995", "city": "MELITA", "province": "MB", "country": "CA", "postalCode": "R0M1L0", "twitter": "None", "instagram": "None", "facebook": "None", "youtube": "None", "website": "None", "summary": "None", "logo": "None", "latitude": 49.27679226218956, "longitude": -100.98694362802834}, "837774595RR0001": {"name": "The Melmira Foundation", "designationCode": "B", "categoryCode": "03", "address": "3319 YONGE STREET", "city": "TORONTO", "province": "ON", "country": "CA", "postalCode": "M4N2L9", "twitter": "None", "instagram": "None", "facebook": "None", "youtube": "None", "website": "None", "summary": "None", "logo": "None", "latitude": 43.73070840605342, "longitude": -79.40363630694227}, "831958715RR0001": {"name": "The Mennonite Story Inc.", "designationCode": "C", "categoryCode": "50", "address": "1406 KING STREET", "city": "ST. JACOBS", "province": "ON", "country": "CA", "postalCode": "N0B2N0", "twitter": "None", "instagram": "None", "facebook": "None", "youtube": "None", "website": "None", "summary": "None", "logo": "None", "latitude": 43.539150496220394, "longitude": -80.55356062005139}, "844514406RR0001": {"name": "The Mental Wellness Network", "designationCode": "B", "categoryCode": "05", "address": "2655 BRISTOL CIRCLE", "city": "OAKVILLE", "province": "ON", "country": "CA", "postalCode": "L6H7W1", "twitter": "None", "instagram": "None", "facebook": "None", "youtube": "None", "website": "None", "summary": "None", "logo": "None", "latitude": 43.512266473483834, "longitude": -79.6883767099946}, "813417771RR0001": {"name": "The Meril Rivard Family Foundation Inc.", "designationCode": "B", "categoryCode": "03", "address": "301-394 GERTRUDE AVENUE", "city": "WINNIPEG", "province": "MB", "country": "CA", "postalCode": "R3L0M6", "twitter": "None", "instagram": "None", "facebook": "None", "youtube": "None", "website": "None", "summary": "None", "logo": "None", "latitude": 49.87679617011956, "longitude": -97.14130076490287}, "851337659RR0001": {"name": "The Merrifield Family Foundation", "designationCode": "B", "categoryCode": "03", "address": "9-3151 LAKESHORE RD           SUITE 406", "city": "KELOWNA", "province": "BC", "country": "CA", "postalCode": "V1W3S9", "twitter": "None", "instagram": "None", "facebook": "None", "youtube": "None", "website": "None", "summary": "None", "logo": "None", "latitude": 49.86092555214848, "longitude": -119.49116409717426}, "848919635RR0001": {"name": "The Mesora Charitable Foundation", "designationCode": "B", "categoryCode": "03", "address": "10 WANLESS AVENUE             SUITE 201", "city": "TORONTO", "province": "ON", "country": "CA", "postalCode": "M4N1V6", "twitter": "None", "instagram": "None", "facebook": "None", "youtube": "None", "website": "None", "summary": "None", "logo": "None", "latitude": 43.72663541799863, "longitude": -79.40179313116722}, "803330968RR0001": {"name": "The Mess Open Arts Studio", "designationCode": "C", "categoryCode": "09", "address": "130 CLERGY ST E", "city": "KINGSTON", "province": "ON", "country": "CA", "postalCode": "K7K3S3", "twitter": "None", "instagram": "None", "facebook": "None", "youtube": "None", "website": "None", "summary": "None", "logo": "None", "latitude": 44.232977231201986, "longitude": -76.48896616380024}, "824997175RR0001": {"name": "The Message Christian Church", "designationCode": "C", "categoryCode": "45", "address": "489 BROADWAY AVE PO BOX 40051 STATION SPRINGBROOK", "city": "ORANGEVILLE", "province": "ON", "country": "CA", "postalCode": "L9W0A7", "twitter": "None", "instagram": "None", "facebook": "None", "youtube": "None", "website": "None", "summary": "None", "logo": "None", "latitude": 48.35422828219112, "longitude": -89.30824815609893}, "815761556RR0001": {"name": "The Metchosin Foundation", "designationCode": "C", "categoryCode": "52", "address": "2227 SOOKE ROAD", "city": "VICTORIA", "province": "BC", "country": "CA", "postalCode": "V9B1W8", "twitter": "None", "instagram": "None", "facebook": "None", "youtube": "None", "website": "None", "summary": "None", "logo": "None", "latitude": 48.434960359397714, "longitude": -123.49092068968218}, "803345321RR0001": {"name": "The Methodist Church Ghana (Edmonton Society)", "designationCode": "C", "categoryCode": "39", "address": "10672 62 AVE NW", "city": "EDMONTON", "province": "AB", "country": "CA", "postalCode": "T6H1M8", "twitter": "None", "instagram": "None", "facebook": "None", "youtube": "None", "website": "None", "summary": "None", "logo": "None", "latitude": 53.49918651154118, "longitude": -113.508783}, "860175553RR0001": {"name": "The Micah Foundation", "designationCode": "B", "categoryCode": "05", "address": "130 KING STREET WEST, 20TH FLR", "city": "TORONTO", "province": "ON", "country": "CA", "postalCode": "M5X1K1", "twitter": "None", "instagram": "None", "facebook": "None", "youtube": "None", "website": "None", "summary": "None", "logo": "None", "latitude": 43.64798216515656, "longitude": -79.38336717805407}, "838057636RR0001": {"name": "The Micha Life Foundation / La Fondation de vie Micha", "designationCode": "B", "categoryCode": "21", "address": "7077 DU PARC AVENUE           SUITE 600", "city": "MONTREAL", "province": "QC", "country": "CA", "postalCode": "H3N1X7", "twitter": "None", "instagram": "None", "facebook": "None", "youtube": "None", "website": "None", "summary": "None", "logo": "None", "latitude": 45.529784285619314, "longitude": -73.62013924395526}, "808274823RR0001": {"name": "The Michael and Carol Mueller Family Foundation", "designationCode": "B", "categoryCode": "03", "address": "SUITE 200                     4100 YONGE STREET", "city": "TORONTO", "province": "ON", "country": "CA", "postalCode": "M2P2H3", "twitter": "None", "instagram": "None", "facebook": "None", "youtube": "None", "website": "None", "summary": "None", "logo": "None", "latitude": 43.746120335824386, "longitude": -79.40722757236381}, "832309892RR0001": {"name": "The Michael J. Fox Foundation for Parkinson's Research", "designationCode": "C", "categoryCode": "13", "address": "800-365 BAY STREET", "city": "TORONTO", "province": "ON", "country": "CA", "postalCode": "M5H2V1", "twitter": "None", "instagram": "None", "facebook": "None", "youtube": "None", "website": "None", "summary": "None", "logo": "None", "latitude": 43.650934930896156, "longitude": -79.38116002772827}, "863607156RR0001": {"name": "The Michael J. Halbert Foundation", "designationCode": "B", "categoryCode": "03", "address": "2788 BATHURST STREET          SUITE 305", "city": "TORONTO", "province": "ON", "country": "CA", "postalCode": "M6B3A3", "twitter": "None", "instagram": "None", "facebook": "None", "youtube": "None", "website": "None", "summary": "None", "logo": "None", "latitude": 43.71180723313524, "longitude": -79.42801656927674}, "810037986RR0001": {"name": "The Michael Kastner Charitable Foundation / Fondation Charitable Michael Kastner", "designationCode": "B", "categoryCode": "03", "address": "1010 RUE DE LA GAUCHETIERE O  900", "city": "MONTREAL", "province": "QC", "country": "CA", "postalCode": "H3B2P8", "twitter": "None", "instagram": "None", "facebook": "None", "youtube": "None", "website": "None", "summary": "None", "logo": "None", "latitude": 45.49809638239411, "longitude": -73.56739927456907}, "847922770RR0001": {"name": "The Michael Nozick Family Foundation Inc.", "designationCode": "B", "categoryCode": "03", "address": "130 - 1600 NESS AVE", "city": "WINNIPEG", "province": "MB", "country": "CA", "postalCode": "R3J3W7", "twitter": "None", "instagram": "None", "facebook": "None", "youtube": "None", "website": "None", "summary": "None", "logo": "None", "latitude": 49.88341887118866, "longitude": -97.20352083998009}, "817223282RR0001": {"name": "The Michale Cerswell Memorial Charitable Foundation", "designationCode": "B", "categoryCode": "05", "address": "4657 7TH LINE                 RURAL ROUTE 1", "city": "BEETON", "province": "ON", "country": "CA", "postalCode": "L0G1A0", "twitter": "None", "instagram": "None", "facebook": "None", "youtube": "None", "website": "None", "summary": "None", "logo": "None", "latitude": 44.08581984624228, "longitude": -79.69375703485565}, "823457569RR0001": {"name": "The Michelle Koerner Family Foundation", "designationCode": "B", "categoryCode": "03", "address": "2910-200 BAY STREET", "city": "TORONTO", "province": "ON", "country": "CA", "postalCode": "M5J2J2", "twitter": "None", "instagram": "None", "facebook": "None", "youtube": "None", "website": "None", "summary": "None", "logo": "None", "latitude": 43.64635885622373, "longitude": -79.37932458843532}, "108122540RR0001": {"name": "The Michener Institute of Education at UHN", "designationCode": "C", "categoryCode": "20", "address": "644-222 SAINT PATRICK ST.", "city": "TORONTO", "province": "ON", "country": "CA", "postalCode": "M5T1V4", "twitter": "None", "instagram": "None", "facebook": "None", "youtube": "None", "website": "None", "summary": "None", "logo": "None", "latitude": 43.6557614357436, "longitude": -79.39091659466773}, "836907048RR0001": {"name": "The Micki Moore Foundation", "designationCode": "B", "categoryCode": "05", "address": "901-175 BLOOR ST.E.           NORTH TOWER", "city": "TORONTO", "province": "ON", "country": "CA", "postalCode": "M4W3R8", "twitter": "None", "instagram": "None", "facebook": "None", "youtube": "None", "website": "None", "summary": "None", "logo": "None", "latitude": 43.66995960097385, "longitude": -79.38816384326431}, "838398246RR0001": {"name": "The Midas Touch Foundation", "designationCode": "B", "categoryCode": "05", "address": "25 SUNNYDENE CRESCENT", "city": "TORONTO", "province": "ON", "country": "CA", "postalCode": "M4N3J5", "twitter": "None", "instagram": "None", "facebook": "None", "youtube": "None", "website": "None", "summary": "None", "logo": "None", "latitude": 43.71842323951188, "longitude": -79.38080094699632}, "845179621RR0001": {"name": "The Middlefield Charitable Foundation", "designationCode": "A", "categoryCode": "03", "address": "PO BOX 192 - 58TH FLOOR       FIRST CANADIAN PLACE", "city": "TORONTO", "province": "ON", "country": "CA", "postalCode": "M5X1A6", "twitter": "None", "instagram": "None", "facebook": "None", "youtube": "None", "website": "None", "summary": "None", "logo": "None", "latitude": 43.64826932503962, "longitude": -79.38190945606182}, "857478622RR0001": {"name": "The Mileen Foundation", "designationCode": "B", "categoryCode": "03", "address": "104 - 3989 HENNING DR", "city": "BURNABY", "province": "BC", "country": "CA", "postalCode": "V5C6P8", "twitter": "None", "instagram": "None", "facebook": "None", "youtube": "None", "website": "None", "summary": "None", "logo": "None", "latitude": 49.26407609264605, "longitude": -123.01667304291942}, "846808780RR0001": {"name": "The Military Casualty Support Foundation", "designationCode": "C", "categoryCode": "09", "address": "999 BLAIR ROAD", "city": "CAMBRIDGE", "province": "ON", "country": "CA", "postalCode": "N3H4R8", "twitter": "None", "instagram": "None", "facebook": "None", "youtube": "None", "website": "None", "summary": "None", "logo": "None", "latitude": 43.38292675071006, "longitude": -80.37077188012208}, "852927912RR0001": {"name": "The Military Families Support Society", "designationCode": "C", "categoryCode": "09", "address": "P.O. BOX 4430", "city": "COLD LAKE", "province": "AB", "country": "CA", "postalCode": "T9M1G8", "twitter": "None", "instagram": "None", "facebook": "None", "youtube": "None", "website": "None", "summary": "None", "logo": "None", "latitude": 54.48946200000006, "longitude": -110.20592599999993}, "708719521RR0001": {"name": "The Milne Charitable Foundation", "designationCode": "B", "categoryCode": "03", "address": "72 SPRINGBLUFF LANE SW", "city": "CALGARY", "province": "AB", "country": "CA", "postalCode": "T3H5R5", "twitter": "None", "instagram": "None", "facebook": "None", "youtube": "None", "website": "None", "summary": "None", "logo": "None", "latitude": 51.02251152899767, "longitude": -114.20007646739565}, "824271886RR0001": {"name": "The Milos Raonic Foundation", "designationCode": "B", "categoryCode": "03", "address": "6502 YOUNGE STREET            P.O. 37088 CENTREPOINT", "city": "NORTH YORK", "province": "ON", "country": "CA", "postalCode": "M4K3B3", "twitter": "None", "instagram": "None", "facebook": "None", "youtube": "None", "website": "None", "summary": "None", "logo": "None", "latitude": 43.66820400000006, "longitude": -79.34557849999993}, "852168574RR0001": {"name": "The Mimico Station Community Organization", "designationCode": "C", "categoryCode": "52", "address": "2408 LAKESHORE BLVD. W        P.O. BOX 14086", "city": "ETOBICOKE", "province": "ON", "country": "CA", "postalCode": "M8V4A2", "twitter": "None", "instagram": "None", "facebook": "None", "youtube": "None", "website": "None", "summary": "None", "logo": "None", "latitude": 43.61473827200065, "longitude": -79.48883161284536}, "853120665RR0001": {"name": "The Minhas Mohamed Foundation", "designationCode": "B", "categoryCode": "15", "address": "604-370 KING STREET WEST", "city": "TORONTO", "province": "ON", "country": "CA", "postalCode": "M5V1J9", "twitter": "None", "instagram": "None", "facebook": "None", "youtube": "None", "website": "None", "summary": "None", "logo": "None", "latitude": 43.64621920180031, "longitude": -79.391589364014}, "777936899RR0001": {"name": "The Miracle Working Church Inc.", "designationCode": "C", "categoryCode": "39", "address": "465 MCNICOLL AVE,", "city": "NORTH YORK", "province": "ON", "country": "CA", "postalCode": "M2H2C9", "twitter": "None", "instagram": "None", "facebook": "None", "youtube": "None", "website": "None", "summary": "None", "logo": "None", "latitude": 43.80371783152521, "longitude": -79.34015422370017}, "140876467RR0001": {"name": "The Mission to Seafarers - Southern Ontario", "designationCode": "C", "categoryCode": "30", "address": "8 UNWIN AVE                   PIER 51", "city": "TORONTO", "province": "ON", "country": "CA", "postalCode": "M5A1A1", "twitter": "None", "instagram": "None", "facebook": "None", "youtube": "None", "website": "None", "summary": "None", "logo": "None", "latitude": 43.63757447766742, "longitude": -79.34923835527142}, "844468918RR0001": {"name": "The Mississauga Furniture Bank", "designationCode": "C", "categoryCode": "09", "address": "1599 HURONTARIO STREET        SUITE 302", "city": "MISSISSAUGA", "province": "ON", "country": "CA", "postalCode": "L5G4S1", "twitter": "None", "instagram": "None", "facebook": "None", "youtube": "None", "website": "None", "summary": "None", "logo": "None", "latitude": 43.567768333574044, "longitude": -79.59800006500716}, "777313917RR0001": {"name": "The Mitchell Family Foundation", "designationCode": "B", "categoryCode": "05", "address": "117 PARKWOOD CRT", "city": "OAKVILLE", "province": "ON", "country": "CA", "postalCode": "L6J7W6", "twitter": "None", "instagram": "None", "facebook": "None", "youtube": "None", "website": "None", "summary": "None", "logo": "None", "latitude": 43.47038700000002, "longitude": -79.64280460600737}, "835794918RR0001": {"name": "The Momentum Centre Inc.", "designationCode": "C", "categoryCode": "59", "address": "204-865 MAIN STREET", "city": "WINNIPEG", "province": "MB", "country": "CA", "postalCode": "R2W3N9", "twitter": "None", "instagram": "None", "facebook": "None", "youtube": "None", "website": "None", "summary": "None", "logo": "None", "latitude": 49.90892700721336, "longitude": -97.13325218870122}, "802174516RR0001": {"name": "The Monarca Canada Foundation", "designationCode": "B", "categoryCode": "09", "address": "MS C. GREYELL                 2130 GISBY STREET", "city": "WEST VANCOUVER", "province": "BC", "country": "CA", "postalCode": "V7V4N4", "twitter": "None", "instagram": "None", "facebook": "None", "youtube": "None", "website": "None", "summary": "None", "logo": "None", "latitude": 49.34486741909515, "longitude": -123.19616082012826}, "825260276RR0001": {"name": "The Moncton Regional Learning Council Inc.", "designationCode": "C", "categoryCode": "21", "address": "208 - 96 NORWOOD AVE", "city": "MONCTON", "province": "NB", "country": "CA", "postalCode": "E1C6L9", "twitter": "None", "instagram": "None", "facebook": "None", "youtube": "None", "website": "None", "summary": "None", "logo": "None", "latitude": 46.096253455450416, "longitude": -64.79594613754387}, "844887406RR0001": {"name": "The Monk Foundation", "designationCode": "B", "categoryCode": "03", "address": "46 STRATH AVE", "city": "ETOBICOKE", "province": "ON", "country": "CA", "postalCode": "M8X1R3", "twitter": "None", "instagram": "None", "facebook": "None", "youtube": "None", "website": "None", "summary": "None", "logo": "None", "latitude": 43.65368613240797, "longitude": -79.50934615139366}, "761765528RR0001": {"name": "The Monsma Charitable Foundation", "designationCode": "B", "categoryCode": "03", "address": "15604 STONY PLAIN RD NW", "city": "EDMONTON", "province": "AB", "country": "CA", "postalCode": "T5P3Z4", "twitter": "None", "instagram": "None", "facebook": "None", "youtube": "None", "website": "None", "summary": "None", "logo": "None", "latitude": 53.54132546436589, "longitude": -113.5906814701656}, "873850440RR0001": {"name": "The Montreal Central Lions Scholarship Fund/Fonds de bourse d'etude du club lion de Montreal", "designationCode": "B", "categoryCode": "65", "address": "4630 RUE RICHARD-HEWTON", "city": "LACHINE", "province": "QC", "country": "CA", "postalCode": "H8T1P3", "twitter": "None", "instagram": "None", "facebook": "None", "youtube": "None", "website": "None", "summary": "None", "logo": "None", "latitude": 45.43786546104767, "longitude": -73.7078041619539}, "816833685RR0001": {"name": "The Montreal Community Cares Foundation/La fondation communaute de Montr\u00e9al \u00e0 coeur", "designationCode": "C", "categoryCode": "09", "address": "7767 RUE SERGE", "city": "MONTREAL", "province": "QC", "country": "CA", "postalCode": "H8N2C1", "twitter": "None", "instagram": "None", "facebook": "None", "youtube": "None", "website": "None", "summary": "None", "logo": "None", "latitude": 45.43690701110852, "longitude": -73.62130687373751}, "131158784RR0001": {"name": "The Moose Jaw Non-Profit Housing Corporation", "designationCode": "C", "categoryCode": "09", "address": "255 CARIBOU ST W", "city": "MOOSE JAW", "province": "SK", "country": "CA", "postalCode": "S6H7W3", "twitter": "None", "instagram": "None", "facebook": "None", "youtube": "None", "website": "None", "summary": "None", "logo": "None", "latitude": 50.39677839863515, "longitude": -105.54112783858558}, "801705781RR0001": {"name": "The Moosonee Foundation", "designationCode": "A", "categoryCode": "03", "address": "113 THIRD STREET              BOX 735", "city": "COCHRANE", "province": "ON", "country": "CA", "postalCode": "P0L1C0", "twitter": "None", "instagram": "None", "facebook": "None", "youtube": "None", "website": "None", "summary": "None", "logo": "None", "latitude": 49.0619844676841, "longitude": -81.0270908068267}, "707023925RR0001": {"name": "The Morris A. Hunter Charitable Trust", "designationCode": "B", "categoryCode": "03", "address": "130 KING STREET WEST          20TH FLOOR", "city": "TORONTO", "province": "ON", "country": "CA", "postalCode": "M5X1K1", "twitter": "None", "instagram": "None", "facebook": "None", "youtube": "None", "website": "None", "summary": "None", "logo": "None"}, "880296413RR0001": {"name": "The Morris Area Foundation Inc.", "designationCode": "A", "categoryCode": "03", "address": "BOX 282", "city": "MORRIS", "province": "MB", "country": "CA", "postalCode": "R0G1K0", "twitter": "None", "instagram": "None", "facebook": "None", "youtube": "None", "website": "None", "summary": "None", "logo": "None", "latitude": 49.35468000000003, "longitude": -97.36605999999995}, "850722158RR0001": {"name": "The Morris Foundation", "designationCode": "B", "categoryCode": "03", "address": "200-157 2ND AVENUE NORTH", "city": "SASKATOON", "province": "SK", "country": "CA", "postalCode": "S7K2A9", "twitter": "None", "instagram": "None", "facebook": "None", "youtube": "None", "website": "None", "summary": "None", "logo": "None", "latitude": 52.1295255, "longitude": -106.663464}, "826922403RR0001": {"name": "The Morrison Centre", "designationCode": "B", "categoryCode": "21", "address": "8 SWANSDOWN DR", "city": "NORTH YORK", "province": "ON", "country": "CA", "postalCode": "M2L2N1", "twitter": "None", "instagram": "None", "facebook": "None", "youtube": "None", "website": "None", "summary": "None", "logo": "None", "latitude": 43.75984225193239, "longitude": -79.37203371182255}, "856279617RR0001": {"name": "The Mosaic Institute for Harnessing Diversity", "designationCode": "C", "categoryCode": "21", "address": "2 BLOOR ST WEST               STE 3400", "city": "TORONTO", "province": "ON", "country": "CA", "postalCode": "M4W3E2", "twitter": "None", "instagram": "None", "facebook": "None", "youtube": "None", "website": "None", "summary": "None", "logo": "None", "latitude": 43.67045982930351, "longitude": -79.38693486444669}, "829602002RR0001": {"name": "The Mosque of Aylmer / La Mosqu\u00e9e d'Aylmer", "designationCode": "C", "categoryCode": "60", "address": "21, RUE PARK", "city": "GATINEAU", "province": "QC", "country": "CA", "postalCode": "J9H4J6", "twitter": "None", "instagram": "None", "facebook": "None", "youtube": "None", "website": "None", "summary": "None", "logo": "None", "latitude": 45.39567350706914, "longitude": -75.84462396407743}, "119246015RR0001": {"name": "The Most Holy Mother of God Keeper of the Portal Orthodox Church", "designationCode": "C", "categoryCode": "39", "address": "639-9TH AVE. N.E.", "city": "CALGARY", "province": "AB", "country": "CA", "postalCode": "T2E0W4", "twitter": "None", "instagram": "None", "facebook": "None", "youtube": "None", "website": "None", "summary": "None", "logo": "None", "latitude": 51.060534539529264, "longitude": -114.04856224854291}, "878530195RR0001": {"name": "The Mottershead Foundation", "designationCode": "B", "categoryCode": "03", "address": "4016 BAYRIDGE CRES", "city": "WEST VANCOUVER", "province": "BC", "country": "CA", "postalCode": "V7V3K4", "twitter": "None", "instagram": "None", "facebook": "None", "youtube": "None", "website": "None", "summary": "None", "logo": "None", "latitude": 49.344410560592436, "longitude": -123.23010850998331}, "823033188RR0001": {"name": "The Mount Cheam Lions Charitable Society", "designationCode": "C", "categoryCode": "63", "address": "PO BOX 249 MAIN STN           PO BOX 249 MAIN STN", "city": "CHILLIWACK", "province": "BC", "country": "CA", "postalCode": "V2P6J1", "twitter": "None", "instagram": "None", "facebook": "None", "youtube": "None", "website": "None", "summary": "None", "logo": "None", "latitude": 49.169860930294725, "longitude": -121.95627179555584}, "809457443RR0001": {"name": "The Mount Community Centre", "designationCode": "C", "categoryCode": "09", "address": "1545 MONAGHAN RD", "city": "PETERBOROUGH", "province": "ON", "country": "CA", "postalCode": "K9J5N3", "twitter": "None", "instagram": "None", "facebook": "None", "youtube": "None", "website": "None", "summary": "None", "logo": "None", "latitude": 44.30747875655651, "longitude": -78.3391533793236}, "733763098RR0001": {"name": "The Mountain Treasure Institute of Tibetan B\u00f6n L'Institut du Tr\u00e9sor de Montagne du B\u00f6n Tib\u00e9tain", "designationCode": "C", "categoryCode": "35", "address": "462 FIFTH STREET              LOWER UNIT", "city": "COLLINGWOOD", "province": "ON", "country": "CA", "postalCode": "L9Y1Y6", "twitter": "None", "instagram": "None", "facebook": "None", "youtube": "None", "website": "None", "summary": "None", "logo": "None", "latitude": 44.493274626666505, "longitude": -80.23144994587112}, "841397334RR0001": {"name": "The Movement World Wide", "designationCode": "C", "categoryCode": "39", "address": "545 GRAND MARAIS AVENUE WEST", "city": "WONDSOR", "province": "ON", "country": "CA", "postalCode": "N9E1B8", "twitter": "None", "instagram": "None", "facebook": "None", "youtube": "None", "website": "None", "summary": "None", "logo": "None", "latitude": 42.273349555081154, "longitude": -83.0173589800047}, "862192291RR0001": {"name": "The Multicultural Theatre Space (The MT Space) Inc.", "designationCode": "C", "categoryCode": "22", "address": "256 KING ST E", "city": "KITCHENER", "province": "ON", "country": "CA", "postalCode": "N2G2L1", "twitter": "None", "instagram": "None", "facebook": "None", "youtube": "None", "website": "None", "summary": "None", "logo": "None", "latitude": 43.4480182065035, "longitude": -80.4848520128975}, "852087956RR0001": {"name": "The Murphy Family Foundation", "designationCode": "B", "categoryCode": "05", "address": "2000-130 KING STREET WEST", "city": "TORONTO", "province": "ON", "country": "CA", "postalCode": "M5X1K1", "twitter": "None", "instagram": "None", "facebook": "None", "youtube": "None", "website": "None", "summary": "None", "logo": "None", "latitude": 43.64798216515656, "longitude": -79.38336717805407}, "836748483RR0001": {"name": "The Murray and Audrey Neufeld Charitable Foundation Inc.", "designationCode": "B", "categoryCode": "03", "address": "138 COCHIN TERRACE", "city": "SASKATOON", "province": "SK", "country": "CA", "postalCode": "S7K4S9", "twitter": "None", "instagram": "None", "facebook": "None", "youtube": "None", "website": "None", "summary": "None", "logo": "None", "latitude": 52.17175482679336, "longitude": -106.62931384225834}, "891445975RR0001": {"name": "The Murray Frum Foundation", "designationCode": "B", "categoryCode": "03", "address": "25 OXBOW ROAD", "city": "TORONTO", "province": "ON", "country": "CA", "postalCode": "M3B1Z9", "twitter": "None", "instagram": "None", "facebook": "None", "youtube": "None", "website": "None", "summary": "None", "logo": "None", "latitude": 43.74920952539101, "longitude": -79.37992442953983}, "119245728RR0001": {"name": "The Murray L. Lippman Foundation/La fondation Murray L. Lippman", "designationCode": "B", "categoryCode": "03", "address": "312-4350 RUE SHERBROOKE O.", "city": "WESTMOUNT", "province": "QC", "country": "CA", "postalCode": "H3Z1E3", "twitter": "None", "instagram": "None", "facebook": "None", "youtube": "None", "website": "None", "summary": "None", "logo": "None", "latitude": 45.48499055562941, "longitude": -73.59651047429189}, "858097959RR0001": {"name": "The Murray R. O'Neil Charitable Foundation", "designationCode": "B", "categoryCode": "03", "address": "72 BROOKLYN AVE", "city": "TORONTO", "province": "ON", "country": "CA", "postalCode": "M4M2X5", "twitter": "None", "instagram": "None", "facebook": "None", "youtube": "None", "website": "None", "summary": "None", "logo": "None", "latitude": 43.664141745484486, "longitude": -79.33678325509243}, "812257731RR0001": {"name": "The Museum of Jewish Montreal - Le mus\u00e9e du Montr\u00e9al juif", "designationCode": "C", "categoryCode": "50", "address": "301 - 4055 AV LAVAL", "city": "MONTREAL", "province": "QC", "country": "CA", "postalCode": "H2W2J4", "twitter": "None", "instagram": "None", "facebook": "None", "youtube": "None", "website": "None", "summary": "None", "logo": "None", "latitude": 45.51934023203871, "longitude": -73.57742931972423}, "862044146RR0001": {"name": "The Musical Stage Company", "designationCode": "C", "categoryCode": "22", "address": "476 PARLIAMENT STREET         2ND FLOOR", "city": "TORONTO", "province": "ON", "country": "CA", "postalCode": "M4X1P2", "twitter": "None", "instagram": "None", "facebook": "None", "youtube": "None", "website": "None", "summary": "None", "logo": "None", "latitude": 43.66447262891686, "longitude": -79.3680932184487}, "827909524RR0001": {"name": "The Muslim Society of North Bay", "designationCode": "C", "categoryCode": "60", "address": "59 TAILLEFER ROAD", "city": "CORBEIL", "province": "ON", "country": "CA", "postalCode": "P0H1K0", "twitter": "None", "instagram": "None", "facebook": "None", "youtube": "None", "website": "None", "summary": "None", "logo": "None", "latitude": 46.26284315577881, "longitude": -79.28728880200795}, "881168322RR0001": {"name": "The Muslim Youth Centre", "designationCode": "C", "categoryCode": "60", "address": "209-7750 128TH STREET", "city": "SURREY", "province": "BC", "country": "CA", "postalCode": "V3W0R6", "twitter": "None", "instagram": "None", "facebook": "None", "youtube": "None", "website": "None", "summary": "None", "logo": "None", "latitude": 49.14357191035259, "longitude": -122.86790152051489}, "843545955RR0001": {"name": "The Myron and Catherine Tetreault Foundation", "designationCode": "B", "categoryCode": "03", "address": "609 - 304 8 AVE SW", "city": "CALGARY", "province": "AB", "country": "CA", "postalCode": "T2P1C2", "twitter": "None", "instagram": "None", "facebook": "None", "youtube": "None", "website": "None", "summary": "None", "logo": "None", "latitude": 51.04571646047075, "longitude": -114.06826902692019}, "890758543RR0001": {"name": "The N. Eldon Tanner Management Society Scholarship Foundation", "designationCode": "C", "categoryCode": "21", "address": "14 STRATHRIDGE GROVE SW", "city": "CALGARY", "province": "AB", "country": "CA", "postalCode": "T3H4M1", "twitter": "None", "instagram": "None", "facebook": "None", "youtube": "None", "website": "None", "summary": "None", "logo": "None", "latitude": 51.05045789064576, "longitude": -114.19533211656761}, "851526012RR0001": {"name": "The N.R. Harris Family Foundation", "designationCode": "B", "categoryCode": "03", "address": "4211 YONGE STREET, SUITE 225", "city": "TORONTO", "province": "ON", "country": "CA", "postalCode": "M2P2A9", "twitter": "None", "instagram": "None", "facebook": "None", "youtube": "None", "website": "None", "summary": "None", "logo": "None", "latitude": 43.74807628948581, "longitude": -79.40760466426252}, "119246262RR0001": {"name": "The N'AMERIND, (London) Friendship Centre Inc.", "designationCode": "C", "categoryCode": "56", "address": "260 COLBORNE ST", "city": "LONDON", "province": "ON", "country": "CA", "postalCode": "N6B2S6", "twitter": "None", "instagram": "None", "facebook": "None", "youtube": "None", "website": "None", "summary": "None", "logo": "None", "latitude": 42.98189887122738, "longitude": -81.23737080665381}, "842572976RR0001": {"name": "The Nancy Petry Foundation/La Fondation Nancy Petry", "designationCode": "B", "categoryCode": "33", "address": "3944 RUE SAINT-DENIS", "city": "MONTREAL", "province": "QC", "country": "CA", "postalCode": "H2W2M2", "twitter": "None", "instagram": "None", "facebook": "None", "youtube": "None", "website": "None", "summary": "None", "logo": "None", "latitude": 45.52012679681473, "longitude": -73.57455346116323}, "805959939RR0001": {"name": "The Nasanju Foundation", "designationCode": "B", "categoryCode": "05", "address": "290 WILTSHIRE PLACE", "city": "WATERLOO", "province": "ON", "country": "CA", "postalCode": "N2T1R4", "twitter": "None", "instagram": "None", "facebook": "None", "youtube": "None", "website": "None", "summary": "None", "logo": "None", "latitude": 43.46288720480139, "longitude": -80.56452244310117}, "763369493RR0001": {"name": "The Nate Black Foundation", "designationCode": "C", "categoryCode": "21", "address": "1005 - 105 GEORGE ST", "city": "TORONTO", "province": "ON", "country": "CA", "postalCode": "M5A0L4", "twitter": "None", "instagram": "None", "facebook": "None", "youtube": "None", "website": "None", "summary": "None", "logo": "None", "latitude": 43.65209913656293, "longitude": -79.3712708677076}, "805817715RR0001": {"name": "The National Congress of Black Canadians - NCBC", "designationCode": "C", "categoryCode": "59", "address": "91129-2901 BAYVIEW AVE", "city": "TORONTO", "province": "ON", "country": "CA", "postalCode": "M2K2Y6", "twitter": "None", "instagram": "None", "facebook": "None", "youtube": "None", "website": "None", "summary": "None", "logo": "None", "latitude": 43.76825700000006, "longitude": -79.41263299999993}, "841673536RR0001": {"name": "The National Trust for Land and Culture (B.C.) Society", "designationCode": "C", "categoryCode": "52", "address": "2190 HARBOUR VIEW ROAD", "city": "SOOKE", "province": "BC", "country": "CA", "postalCode": "V9Z0G5", "twitter": "None", "instagram": "None", "facebook": "None", "youtube": "None", "website": "None", "summary": "None", "logo": "None", "latitude": 48.39818431124333, "longitude": -123.66536116601925}, "808353809RR0001": {"name": "The Navy League of Canada (Halifax Branch)", "designationCode": "C", "categoryCode": "29", "address": "21 PALMER DRIVE RR#2", "city": "CHESTER", "province": "NS", "country": "CA", "postalCode": "B0J1J0", "twitter": "None", "instagram": "None", "facebook": "None", "youtube": "None", "website": "None", "summary": "None", "logo": "None", "latitude": 44.61010827615559, "longitude": -64.27366045715252}, "119246635RR0014": {"name": "The Navy League of Canada (Manitoba Division)", "designationCode": "C", "categoryCode": "29", "address": "1 NAVY WAY", "city": "WINNIPEG", "province": "MB", "country": "CA", "postalCode": "R3C4J7", "twitter": "None", "instagram": "None", "facebook": "None", "youtube": "None", "website": "None", "summary": "None", "logo": "None", "latitude": 49.88594685988772, "longitude": -97.13774032638932}, "119246635RR0083": {"name": "The Navy League of Canada - Gatineau-Metropolitan Branch", "designationCode": "C", "categoryCode": "29", "address": "231, BOULEVARD MALONEY        C.P. 84098", "city": "GATINEAU", "province": "QC", "country": "CA", "postalCode": "J8P7R8", "twitter": "None", "instagram": "None", "facebook": "None", "youtube": "None", "website": "None", "summary": "None", "logo": "None", "latitude": 45.48350549769139, "longitude": -75.65529141049682}, "119246635RR0037": {"name": "The Navy League of Canada - Manitoba Division - Brandon Branch", "designationCode": "C", "categoryCode": "29", "address": "1116 VICTORIA AVE", "city": "BRANDON", "province": "MB", "country": "CA", "postalCode": "R7A1B2", "twitter": "None", "instagram": "None", "facebook": "None", "youtube": "None", "website": "None", "summary": "None", "logo": "None", "latitude": 49.842125469560024, "longitude": -99.953181}, "119246635RR0022": {"name": "The Navy League of Canada - Oceanside Branch", "designationCode": "C", "categoryCode": "29", "address": "OCEANSIDE BRANCH 116          425 STANFORD AVENUE", "city": "PARKSVILLE", "province": "BC", "country": "CA", "postalCode": "V9P2N4", "twitter": "None", "instagram": "None", "facebook": "None", "youtube": "None", "website": "None", "summary": "None", "logo": "None", "latitude": 49.31577876201683, "longitude": -124.30115073905078}, "119246635RR0095": {"name": "The Navy League of Canada -Pocomo Branch", "designationCode": "C", "categoryCode": "29", "address": "2929 ST. JOHN'S ST            P.O BOX 31057", "city": "PORT MOODY", "province": "BC", "country": "CA", "postalCode": "V3H2C2", "twitter": "None", "instagram": "None", "facebook": "None", "youtube": "None", "website": "None", "summary": "None", "logo": "None", "latitude": 49.276567631968746, "longitude": -122.84710527602515}, "119246635RR0091": {"name": "The Navy League of Canada Barrington Branch", "designationCode": "C", "categoryCode": "29", "address": "27 PARK LANE                  POST OFFICE BOX 549", "city": "BARRINGTON PASSAGE", "province": "NS", "country": "CA", "postalCode": "B0W1G0", "twitter": "None", "instagram": "None", "facebook": "None", "youtube": "None", "website": "None", "summary": "None", "logo": "None", "latitude": 43.5365368642738, "longitude": -65.59852659789904}, "119246635RR0064": {"name": "The Navy League of Canada, Ste. Anne Branch", "designationCode": "C", "categoryCode": "29", "address": "PO BOX 240", "city": "LORETTE", "province": "MB", "country": "CA", "postalCode": "R0A0Y0", "twitter": "None", "instagram": "None", "facebook": "None", "youtube": "None", "website": "None", "summary": "None", "logo": "None", "latitude": 49.739720000000034, "longitude": -96.87469999999996}, "851227447RR0001": {"name": "The Nazanin Foundation / La Fondation Nazanin", "designationCode": "B", "categoryCode": "03", "address": "199 BAY STREET                SUITE 4000 COMMERCE COURT WEST", "city": "TORONTO", "province": "ON", "country": "CA", "postalCode": "M5L1A9", "twitter": "None", "instagram": "None", "facebook": "None", "youtube": "None", "website": "None", "summary": "None", "logo": "None", "latitude": 43.64868300000006, "longitude": -79.38544399999994}, "748352325RR0001": {"name": "The Neder Rijn League", "designationCode": "C", "categoryCode": "21", "address": "147 MOREUIL WOOD BLVD", "city": "PETAWAWA", "province": "ON", "country": "CA", "postalCode": "K8H1A7", "twitter": "None", "instagram": "None", "facebook": "None", "youtube": "None", "website": "None", "summary": "None", "logo": "None", "latitude": 45.90883901594117, "longitude": -77.26559150478774}, "891323164RR0001": {"name": "The Neighbourhood Group Foundation", "designationCode": "A", "categoryCode": "03", "address": "3036 DANFORTH AVE", "city": "TORONTO", "province": "ON", "country": "CA", "postalCode": "M4C1N2", "twitter": "None", "instagram": "None", "facebook": "None", "youtube": "None", "website": "None", "summary": "None", "logo": "None", "latitude": 43.69094217236994, "longitude": -79.28967709423505}, "802720235RR0001": {"name": "The Neighbourhood Land Trust", "designationCode": "C", "categoryCode": "03", "address": "204-1499 QUEEN STREET WEST", "city": "TORONTO", "province": "ON", "country": "CA", "postalCode": "M6R1A3", "twitter": "None", "instagram": "None", "facebook": "None", "youtube": "None", "website": "None", "summary": "None", "logo": "None", "latitude": 43.639521969137334, "longitude": -79.44203699279045}}