{"869009027RR0001": {"name": "REB MAYER BAAL HANES - CHIBAS JERUSALEM", "designationCode": "C", "categoryCode": "21", "address": "210 - 5655 AV DU PARC", "city": "MONTREAL", "province": "QC", "country": "CA", "postalCode": "H2V4H2", "twitter": "None", "instagram": "None", "facebook": "None", "youtube": "None", "website": "None", "summary": "None", "logo": "None", "latitude": 45.52295926868244, "longitude": -73.60387142518334}, "846195949RR0001": {"name": "REBOUND CHILD & YOUTH SERVICES INC.", "designationCode": "C", "categoryCode": "09", "address": "700 D'ARCY STREET NORTH       UNIT 20", "city": "COBOURG", "province": "ON", "country": "CA", "postalCode": "K9A5T3", "twitter": "None", "instagram": "None", "facebook": "None", "youtube": "None", "website": "None", "summary": "None", "logo": "None", "latitude": 43.9738548900679, "longitude": -78.16089434584264}, "863643888RR0001": {"name": "REBOUNDERS CANADA", "designationCode": "C", "categoryCode": "11", "address": "150 KING STREET WEST          PO BOX 76", "city": "TORONTO", "province": "ON", "country": "CA", "postalCode": "M5H1J9", "twitter": "None", "instagram": "None", "facebook": "None", "youtube": "None", "website": "None", "summary": "None", "logo": "None", "latitude": 43.64784614741163, "longitude": -79.38401990787108}, "137097077RR0001": {"name": "REBUILT RESOURCES SKILLS DEVELOPMENT INC", "designationCode": "C", "categoryCode": "20", "address": "1356 REGINA STREET", "city": "NORTH BAY", "province": "ON", "country": "CA", "postalCode": "P1B2L3", "twitter": "None", "instagram": "None", "facebook": "None", "youtube": "None", "website": "None", "summary": "None", "logo": "None", "latitude": 46.31113329421767, "longitude": -79.44437201653285}, "840337653RR0001": {"name": "RECEPTION HOUSE - WATERLOO REGION INC.", "designationCode": "C", "categoryCode": "09", "address": "101 DAVID STREET,", "city": "KITCHENER", "province": "ON", "country": "CA", "postalCode": "N2G1Y1", "twitter": "None", "instagram": "None", "facebook": "None", "youtube": "None", "website": "None", "summary": "None", "logo": "None", "latitude": 43.44592102969016, "longitude": -80.49527161405744}, "863369922RR0001": {"name": "RECHERCHE ET SAUVETAGE QUEBEC-METRO (RSQM)", "designationCode": "C", "categoryCode": "59", "address": "1137 PAUL-\u00c9MILE DUB\u00c9", "city": "ST-ROMUALD", "province": "QC", "country": "CA", "postalCode": "G6W6Y3", "twitter": "None", "instagram": "None", "facebook": "None", "youtube": "None", "website": "None", "summary": "None", "logo": "None", "latitude": 46.73606421899697, "longitude": -71.27096798277465}, "123611246RR0001": {"name": "RECHERCHES AMERINDIENNES AU QUEBEC", "designationCode": "C", "categoryCode": "21", "address": "6742 RUE SAINT-DENIS", "city": "MONTREAL", "province": "QC", "country": "CA", "postalCode": "H2S2S2", "twitter": "None", "instagram": "None", "facebook": "None", "youtube": "None", "website": "None", "summary": "None", "logo": "None", "latitude": 45.53585879681474, "longitude": -73.60920223524136}, "890094394RR0001": {"name": "RECLAIM OUTREACH CENTRE, INC", "designationCode": "C", "categoryCode": "49", "address": "A - 10917 SCOTT DR", "city": "NORTH BATTLEFORD", "province": "SK", "country": "CA", "postalCode": "S9A3N2", "twitter": "None", "instagram": "None", "facebook": "None", "youtube": "None", "website": "None", "summary": "None", "logo": "None", "latitude": 52.7898462536788, "longitude": -108.28591477924269}, "857149512RR0001": {"name": "RECONSTRUCT'ART MULTI M\u00c9DIUM MONTR\u00c9AL!", "designationCode": "C", "categoryCode": "22", "address": "CP 305 SUCC ST-MARTIN", "city": "LAVAL", "province": "QC", "country": "CA", "postalCode": "H7V3P6", "twitter": "None", "instagram": "None", "facebook": "None", "youtube": "None", "website": "None", "summary": "None", "logo": "None", "latitude": 45.546459000000056, "longitude": -73.73737699999994}, "119111953RR0001": {"name": "RECONSTRUCTIONIST SYNAGOGUE OF MONTREAL", "designationCode": "C", "categoryCode": "42", "address": "18 CLEVE ROAD", "city": "MONTREAL", "province": "QC", "country": "CA", "postalCode": "H3X1A6", "twitter": "None", "instagram": "None", "facebook": "None", "youtube": "None", "website": "None", "summary": "None", "logo": "None", "latitude": 45.48654047265926, "longitude": -73.6526955415604}, "889907069RR0001": {"name": "RECOURS DES SANS ABRI/HOMELESS RECOURSE", "designationCode": "A", "categoryCode": "03", "address": "130 AVE DE L'EPEE", "city": "OUTREMONT", "province": "QC", "country": "CA", "postalCode": "H2V3T2", "twitter": "None", "instagram": "None", "facebook": "None", "youtube": "None", "website": "None", "summary": "None", "logo": "None"}, "119111961RR0001": {"name": "RECOVERY ACRES (CALGARY) SOCIETY", "designationCode": "C", "categoryCode": "57", "address": "1835 - 27 AVENUE S.W.", "city": "CALGARY", "province": "AB", "country": "CA", "postalCode": "T2T1H2", "twitter": "None", "instagram": "None", "facebook": "None", "youtube": "None", "website": "None", "summary": "None", "logo": "None", "latitude": 51.02948551399405, "longitude": -114.10405208381903}, "107878183RR0001": {"name": "RECOVERY ACRES SOCIETY", "designationCode": "C", "categoryCode": "57", "address": "6329-118 AVENUE", "city": "EDMONTON", "province": "AB", "country": "CA", "postalCode": "T5W1G2", "twitter": "None", "instagram": "None", "facebook": "None", "youtube": "None", "website": "None", "summary": "None", "logo": "None", "latitude": 53.57034548124545, "longitude": -113.43934269317329}, "849842927RR0001": {"name": "RECOVERY CANADA", "designationCode": "C", "categoryCode": "11", "address": "16 - 20 KITTY MURRAY LANE", "city": "ANCASTER", "province": "ON", "country": "CA", "postalCode": "L9K1L7", "twitter": "None", "instagram": "None", "facebook": "None", "youtube": "None", "website": "None", "summary": "None", "logo": "None", "latitude": 43.224657119337586, "longitude": -79.95241652446737}, "892473604RR0001": {"name": "RECOVERY OF HOPE INC.", "designationCode": "C", "categoryCode": "09", "address": "PO BOX 129", "city": "WINKLER", "province": "MB", "country": "CA", "postalCode": "R6W4A4", "twitter": "None", "instagram": "None", "facebook": "None", "youtube": "None", "website": "None", "summary": "None", "logo": "None", "latitude": 49.17773400000006, "longitude": -97.93841299999994}, "119111987RR0001": {"name": "RECREAPLEX INC.", "designationCode": "C", "categoryCode": "56", "address": "122 INCH ARRAN AVE UNIT 1", "city": "DALHOUSIE", "province": "NB", "country": "CA", "postalCode": "E8C1Y6", "twitter": "None", "instagram": "None", "facebook": "None", "youtube": "None", "website": "None", "summary": "None", "logo": "None", "latitude": 48.06054497890024, "longitude": -66.35358779755143}, "119112019RR0001": {"name": "RECREATION ASSOCIATION OF THE VILLAGE OF KENNEDY", "designationCode": "C", "categoryCode": "56", "address": "BOX 268", "city": "KENNEDY", "province": "SK", "country": "CA", "postalCode": "S0G2R0", "twitter": "None", "instagram": "None", "facebook": "None", "youtube": "None", "website": "None", "summary": "None", "logo": "None", "latitude": 50.013730000000066, "longitude": -102.35028999999997}, "119112035RR0001": {"name": "RECREATION BOARD OF THE TOWN OF NORQUAY", "designationCode": "C", "categoryCode": "56", "address": "PO BOX 145", "city": "NORQUAY", "province": "SK", "country": "CA", "postalCode": "S0A2V0", "twitter": "None", "instagram": "None", "facebook": "None", "youtube": "None", "website": "None", "summary": "None", "logo": "None", "latitude": 51.88199000000003, "longitude": -102.08761999999996}, "897229100RR0001": {"name": "RECREATION FOR LIFE FOUNDATION", "designationCode": "A", "categoryCode": "03", "address": "11759 GROAT ROAD", "city": "EDMONTON", "province": "AB", "country": "CA", "postalCode": "T5M3K6", "twitter": "None", "instagram": "None", "facebook": "None", "youtube": "None", "website": "None", "summary": "None", "logo": "None", "latitude": 53.56974075240938, "longitude": -113.54923837596016}, "875918815RR0001": {"name": "RECREATION OUTREACH CENTRE", "designationCode": "C", "categoryCode": "56", "address": "299 MAIN STREET", "city": "PICTON", "province": "ON", "country": "CA", "postalCode": "K0K2T0", "twitter": "None", "instagram": "None", "facebook": "None", "youtube": "None", "website": "None", "summary": "None", "logo": "None", "latitude": 44.19432834765125, "longitude": -77.05002202606126}, "139725147RR0001": {"name": "RECUPEX (SHERBROOKE) INC", "designationCode": "C", "categoryCode": "59", "address": "2345 RUE HERTEL", "city": "SHERBROOKE", "province": "QC", "country": "CA", "postalCode": "J1J2J1", "twitter": "None", "instagram": "None", "facebook": "None", "youtube": "None", "website": "None", "summary": "None", "logo": "None", "latitude": 45.39675115794319, "longitude": -71.93049812268445}, "119112118RR0001": {"name": "RECYCLING CONGRESS OF ONTARIO", "designationCode": "C", "categoryCode": "59", "address": "PO BOX 83 STN A", "city": "ORANGEVILLE", "province": "ON", "country": "CA", "postalCode": "L9W2Z5", "twitter": "None", "instagram": "None", "facebook": "None", "youtube": "None", "website": "None", "summary": "None", "logo": "None", "latitude": 43.892658732251896, "longitude": -80.27525271500956}, "137345070RR0001": {"name": "RECYCLING COUNCIL OF ALBERTA", "designationCode": "C", "categoryCode": "59", "address": "BOX 23", "city": "BLUFFTON", "province": "AB", "country": "CA", "postalCode": "T0C0M0", "twitter": "None", "instagram": "None", "facebook": "None", "youtube": "None", "website": "None", "summary": "None", "logo": "None", "latitude": 52.75067000000007, "longitude": -114.29174999999998}, "119112126RR0001": {"name": "RECYCLING COUNCIL OF BRITISH COLUMBIA", "designationCode": "C", "categoryCode": "59", "address": "10-119 WEST PENDER STREET", "city": "VANCOUVER", "province": "BC", "country": "CA", "postalCode": "V6B1S5", "twitter": "None", "instagram": "None", "facebook": "None", "youtube": "None", "website": "None", "summary": "None", "logo": "None", "latitude": 49.28123126729745, "longitude": -123.10816513168683}, "134768662RR0001": {"name": "RECYCLO-CENTRE INC.", "designationCode": "C", "categoryCode": "09", "address": "165 HOTEL DIEU                CASE POSTALE 1065", "city": "SOREL-TRACY", "province": "QC", "country": "CA", "postalCode": "J3P7L4", "twitter": "None", "instagram": "None", "facebook": "None", "youtube": "None", "website": "None", "summary": "None", "logo": "None", "latitude": 46.04346523512579, "longitude": -73.10741664920063}, "119112134RR0001": {"name": "RED APPLE DAY CARE (OVERLEA)", "designationCode": "C", "categoryCode": "01", "address": "135 OVERLEA BLVD", "city": "DON MILLS", "province": "ON", "country": "CA", "postalCode": "M3C1B3", "twitter": "None", "instagram": "None", "facebook": "None", "youtube": "None", "website": "None", "summary": "None", "logo": "None", "latitude": 43.70952073405887, "longitude": -79.33555125209226}, "131864571RR0001": {"name": "RED BAY COMMUNITY CHURCH", "designationCode": "C", "categoryCode": "39", "address": "65 CHELSEA AVENUE", "city": "TORONTO", "province": "ON", "country": "CA", "postalCode": "M6P1B9", "twitter": "None", "instagram": "None", "facebook": "None", "youtube": "None", "website": "None", "summary": "None", "logo": "None", "latitude": 43.65788185316529, "longitude": -79.45410564418032}, "868328063RR0001": {"name": "RED BAY PASTORAL CHARGE", "designationCode": "C", "categoryCode": "44", "address": "PO BOX 70", "city": "RED BAY", "province": "NL", "country": "CA", "postalCode": "A0K4K0", "twitter": "None", "instagram": "None", "facebook": "None", "youtube": "None", "website": "None", "summary": "None", "logo": "None", "latitude": 51.73341000000005, "longitude": -56.41473999999994}, "891953143RR0001": {"name": "RED DEER & DISTRICT COMMUNITY FOUNDATION", "designationCode": "A", "categoryCode": "53", "address": "203 MIDCITY PLAZA             4805 48TH STREET", "city": "RED DEER", "province": "AB", "country": "CA", "postalCode": "T4N1S6", "twitter": "None", "instagram": "None", "facebook": "None", "youtube": "None", "website": "None", "summary": "None", "logo": "None", "latitude": 52.26708047013694, "longitude": -113.80941}, "129867826RR0001": {"name": "RED DEER & DISTRICT S.P.C.A.(SOCIETY FOR THE PREVENTION OF CRUELTY TO ANIMALS)", "designationCode": "C", "categoryCode": "54", "address": "4505 77TH STREET", "city": "RED DEER", "province": "AB", "country": "CA", "postalCode": "T4P2J1", "twitter": "None", "instagram": "None", "facebook": "None", "youtube": "None", "website": "None", "summary": "None", "logo": "None", "latitude": 52.3036599802645, "longitude": -113.80299125869912}, "887280485RR0001": {"name": "RED DEER ACTION GROUP SOCIETY", "designationCode": "C", "categoryCode": "09", "address": "202 - 4805 48 ST", "city": "RED DEER", "province": "AB", "country": "CA", "postalCode": "T4N1S6", "twitter": "None", "instagram": "None", "facebook": "None", "youtube": "None", "website": "None", "summary": "None", "logo": "None", "latitude": 52.26708047013694, "longitude": -113.80941}, "119112241RR0001": {"name": "RED DEER AND DISTRICT MUSEUM SOCIETY", "designationCode": "C", "categoryCode": "50", "address": "4525 47A AVE", "city": "RED DEER", "province": "AB", "country": "CA", "postalCode": "T4N6Z6", "twitter": "None", "instagram": "None", "facebook": "None", "youtube": "None", "website": "None", "summary": "None", "logo": "None", "latitude": 52.26495345045876, "longitude": -113.8074256811994}, "107878761RR0001": {"name": "RED DEER ARTS COUNCIL", "designationCode": "C", "categoryCode": "22", "address": "110-4818-50 AVE", "city": "RED DEER", "province": "AB", "country": "CA", "postalCode": "T4N4A3", "twitter": "None", "instagram": "None", "facebook": "None", "youtube": "None", "website": "None", "summary": "None", "logo": "None", "latitude": 52.26773445045876, "longitude": -113.81415781548236}, "888717196RR0001": {"name": "RED DEER CENTRAL LIONS CHARITIES TRUST", "designationCode": "C", "categoryCode": "05", "address": "BOX 292", "city": "RED DEER", "province": "AB", "country": "CA", "postalCode": "T4N5E8", "twitter": "None", "instagram": "None", "facebook": "None", "youtube": "None", "website": "None", "summary": "None", "logo": "None", "latitude": 52.26852300000006, "longitude": -113.80901299999994}, "119388973RR0001": {"name": "RED DEER CHILD CARE SOCIETY", "designationCode": "C", "categoryCode": "01", "address": "2 5571 45TH STREET", "city": "RED DEER", "province": "AB", "country": "CA", "postalCode": "T4N1L2", "twitter": "None", "instagram": "None", "facebook": "None", "youtube": "None", "website": "None", "summary": "None", "logo": "None", "latitude": 52.264988016908234, "longitude": -113.82753224759061}, "131164519RR0001": {"name": "RED DEER CHRISTIAN SCHOOL SOCIETY", "designationCode": "C", "categoryCode": "20", "address": "4210 59 ST", "city": "RED DEER", "province": "AB", "country": "CA", "postalCode": "T4N2M9", "twitter": "None", "instagram": "None", "facebook": "None", "youtube": "None", "website": "None", "summary": "None", "logo": "None", "latitude": 52.27871150432784, "longitude": -113.79899313918864}, "886250216RR0001": {"name": "RED DEER CITY CITIZEN'S ON PATROL", "designationCode": "C", "categoryCode": "59", "address": "108-4711-51 AVENUE", "city": "RED DEER", "province": "AB", "country": "CA", "postalCode": "T4N6H8", "twitter": "None", "instagram": "None", "facebook": "None", "youtube": "None", "website": "None", "summary": "None", "logo": "None", "latitude": 52.266339000000016, "longitude": -113.81594907516337}, "107878704RR0001": {"name": "RED DEER COLLEGE", "designationCode": "C", "categoryCode": "20", "address": "100 COLLEGE BLVD", "city": "RED DEER", "province": "AB", "country": "CA", "postalCode": "T4N5H5", "twitter": "None", "instagram": "None", "facebook": "None", "youtube": "None", "website": "None", "summary": "None", "logo": "None", "latitude": 52.24659952392004, "longitude": -113.82752705629323}, "107878738RR0001": {"name": "RED DEER COMMUNITY BAND SOCIETY", "designationCode": "C", "categoryCode": "22", "address": "PO BOX 84 STN POSTAL BOX CTR", "city": "RED DEER", "province": "AB", "country": "CA", "postalCode": "T4N5E7", "twitter": "None", "instagram": "None", "facebook": "None", "youtube": "None", "website": "None", "summary": "None", "logo": "None", "latitude": 52.26852300000006, "longitude": -113.80901299999994}, "108079435RR0001": {"name": "RED DEER CULTURAL HERITAGE SOCIETY", "designationCode": "C", "categoryCode": "59", "address": "PO BOX 24001", "city": "RED DEER", "province": "AB", "country": "CA", "postalCode": "T4N6X6", "twitter": "None", "instagram": "None", "facebook": "None", "youtube": "None", "website": "None", "summary": "None", "logo": "None", "latitude": 52.26852300000006, "longitude": -113.80901299999994}, "133531681RR0001": {"name": "RED DEER FAMILY SERVICE BUREAU", "designationCode": "C", "categoryCode": "09", "address": "5409 50 AVE", "city": "RED DEER", "province": "AB", "country": "CA", "postalCode": "T4N4B7", "twitter": "None", "instagram": "None", "facebook": "None", "youtube": "None", "website": "None", "summary": "None", "logo": "None", "latitude": 52.273206000000016, "longitude": -113.81400760459373}, "120579198RR0001": {"name": "RED DEER FESTIVAL OF THE PERFORMING ARTS SOCIETY", "designationCode": "C", "categoryCode": "22", "address": "200 - 4327 54 AVE", "city": "RED DEER", "province": "AB", "country": "CA", "postalCode": "T4N4L9", "twitter": "None", "instagram": "None", "facebook": "None", "youtube": "None", "website": "None", "summary": "None", "logo": "None", "latitude": 52.26433050152922, "longitude": -113.82226029773837}, "107878811RR0001": {"name": "RED DEER FOOD BANK SOCIETY", "designationCode": "C", "categoryCode": "09", "address": "12 7429 49 AVENUE", "city": "RED DEER", "province": "AB", "country": "CA", "postalCode": "T4P1N2", "twitter": "None", "instagram": "None", "facebook": "None", "youtube": "None", "website": "None", "summary": "None", "logo": "None", "latitude": 52.30021374271453, "longitude": -113.81054758237673}, "130364433RR0001": {"name": "RED DEER GAETZ MEMORIAL UNITED CHURCH,", "designationCode": "C", "categoryCode": "44", "address": "4758 ROSS ST", "city": "RED DEER", "province": "AB", "country": "CA", "postalCode": "T4N1X2", "twitter": "None", "instagram": "None", "facebook": "None", "youtube": "None", "website": "None", "summary": "None", "logo": "None", "latitude": 52.26901947879261, "longitude": -113.8081725}, "866450547RR0001": {"name": "RED DEER HOSPICE SOCIETY", "designationCode": "C", "categoryCode": "01", "address": "99 ARNOT AVE", "city": "RED DEER", "province": "AB", "country": "CA", "postalCode": "T4R3S6", "twitter": "None", "instagram": "None", "facebook": "None", "youtube": "None", "website": "None", "summary": "None", "logo": "None", "latitude": 52.24069800000001, "longitude": -113.78101538040262}, "805032471RR0001": {"name": "RED DEER KOREAN COMMUNITY CHURCH", "designationCode": "C", "categoryCode": "39", "address": "12 STANTON ST", "city": "RED DEER", "province": "AB", "country": "CA", "postalCode": "T4N0B8", "twitter": "None", "instagram": "None", "facebook": "None", "youtube": "None", "website": "None", "summary": "None", "logo": "None", "latitude": 52.25091427508774, "longitude": -113.79571758800262}, "119112431RR0001": {"name": "RED DEER LAKE UNITED CHURCH", "designationCode": "C", "categoryCode": "44", "address": "96187 HW 22X", "city": "FOOTHILLS", "province": "AB", "country": "CA", "postalCode": "T1S2R9", "twitter": "None", "instagram": "None", "facebook": "None", "youtube": "None", "website": "None", "summary": "None", "logo": "None", "latitude": 50.892246, "longitude": -114.20951260775387}, "870187846RR0001": {"name": "RED DEER LIBERTY CHRISTIAN ASSEMBLY", "designationCode": "C", "categoryCode": "39", "address": "1B-6315 HORN ST", "city": "RED DEER", "province": "AB", "country": "CA", "postalCode": "T4N6H5", "twitter": "None", "instagram": "None", "facebook": "None", "youtube": "None", "website": "None", "summary": "None", "logo": "None", "latitude": 52.283987493941424, "longitude": -113.83658116763806}, "119112456RR0001": {"name": "RED DEER MEALS ON WHEELS", "designationCode": "C", "categoryCode": "09", "address": "27 MANNING STREET", "city": "RED DEER", "province": "AB", "country": "CA", "postalCode": "T4R1N5", "twitter": "None", "instagram": "None", "facebook": "None", "youtube": "None", "website": "None", "summary": "None", "logo": "None", "latitude": 52.25874686759202, "longitude": -113.77516094936225}, "119112472RR0001": {"name": "RED DEER NATIVE FRIENDSHIP SOCIETY", "designationCode": "C", "categoryCode": "59", "address": "4808 51ST AVE", "city": "RED DEER", "province": "AB", "country": "CA", "postalCode": "T4N4H3", "twitter": "None", "instagram": "None", "facebook": "None", "youtube": "None", "website": "None", "summary": "None", "logo": "None", "latitude": 52.26757057507646, "longitude": -113.81603680437387}, "140931239RR0001": {"name": "RED DEER NEIGHBOURHOOD WATCH ASSOCIATION", "designationCode": "C", "categoryCode": "59", "address": "3 - 5015 48 ST", "city": "RED DEER", "province": "AB", "country": "CA", "postalCode": "T4N1S9", "twitter": "None", "instagram": "None", "facebook": "None", "youtube": "None", "website": "None", "summary": "None", "logo": "None", "latitude": 52.267099506780674, "longitude": -113.81539058381902}, "119112522RR0001": {"name": "RED DEER PUBLIC SCHOOL DISTRICT FOUNDATION", "designationCode": "C", "categoryCode": "21", "address": "4747 53 ST", "city": "RED DEER", "province": "AB", "country": "CA", "postalCode": "T4N2E6", "twitter": "None", "instagram": "None", "facebook": "None", "youtube": "None", "website": "None", "summary": "None", "logo": "None", "latitude": 52.27180449567218, "longitude": -113.80766408381903}, "119112555RR0001": {"name": "RED DEER RIVER NATURALISTS", "designationCode": "C", "categoryCode": "52", "address": "PO BOX 785", "city": "RED DEER", "province": "AB", "country": "CA", "postalCode": "T4N5H2", "twitter": "None", "instagram": "None", "facebook": "None", "youtube": "None", "website": "None", "summary": "None", "logo": "None", "latitude": 52.26852300000006, "longitude": -113.80901299999994}, "890214778RR0001": {"name": "RED DEER SAFETY CITY SOCIETY", "designationCode": "C", "categoryCode": "59", "address": "3030-55 ST", "city": "RED DEER", "province": "AB", "country": "CA", "postalCode": "T4P3S6", "twitter": "None", "instagram": "None", "facebook": "None", "youtube": "None", "website": "None", "summary": "None", "logo": "None", "latitude": 52.274006453257385, "longitude": -113.76772357660568}, "889635546RR0001": {"name": "RED DEER SEARCH AND RESCUE ASSOCIATION", "designationCode": "C", "categoryCode": "59", "address": "38106 RANGE ROAD 275", "city": "RED DEER COUNTY", "province": "AB", "country": "CA", "postalCode": "T4S2L9", "twitter": "None", "instagram": "None", "facebook": "None", "youtube": "None", "website": "None", "summary": "None", "logo": "None", "latitude": 52.24547226614362, "longitude": -113.84793720240586}, "119112563RR0001": {"name": "RED DEER SEVENTH-DAY ADVENTIST CHURCH", "designationCode": "C", "categoryCode": "41", "address": "5816 HIGHWAY 2A", "city": "LACOMBE", "province": "AB", "country": "CA", "postalCode": "T4L2G5", "twitter": "None", "instagram": "None", "facebook": "None", "youtube": "None", "website": "None", "summary": "None", "logo": "None", "latitude": 52.474063600197404, "longitude": -113.71692568401835}, "131950503RR0001": {"name": "RED DEER SPIRITUAL ENRICHMENT CENTRE", "designationCode": "C", "categoryCode": "49", "address": "PO BOX 28075                  HIGHLAND GREEN", "city": "RED DEER", "province": "AB", "country": "CA", "postalCode": "T4N7C2", "twitter": "None", "instagram": "None", "facebook": "None", "youtube": "None", "website": "None", "summary": "None", "logo": "None", "latitude": 52.28793000000002, "longitude": -113.82364839307816}, "119112506RR0001": {"name": "RED DEER SYMPHONY ORCHESTRA ASSOCIATION", "designationCode": "C", "categoryCode": "22", "address": "PO BOX 1116", "city": "RED DEER", "province": "AB", "country": "CA", "postalCode": "T4N6S5", "twitter": "None", "instagram": "None", "facebook": "None", "youtube": "None", "website": "None", "summary": "None", "logo": "None", "latitude": 52.26852300000006, "longitude": -113.80901299999994}, "887348191RR0001": {"name": "RED DEER TWILIGHT HOMES FOUNDATION", "designationCode": "C", "categoryCode": "01", "address": "P.O. BOX 21029", "city": "RED DEER", "province": "AB", "country": "CA", "postalCode": "T4R2M1", "twitter": "None", "instagram": "None", "facebook": "None", "youtube": "None", "website": "None", "summary": "None", "logo": "None", "latitude": 52.26852300000006, "longitude": -113.80901299999994}, "835894924RR0001": {"name": "RED DEER VALLEY MENNONITE CHURCH", "designationCode": "C", "categoryCode": "34", "address": "3139 HWY 54                   BOX 1779", "city": "SPRUCE VIEW", "province": "AB", "country": "CA", "postalCode": "T0M1V0", "twitter": "None", "instagram": "None", "facebook": "None", "youtube": "None", "website": "None", "summary": "None", "logo": "None", "latitude": 52.08622199999999, "longitude": -114.31253475}, "108051632RR0001": {"name": "RED DEER, SUNNYBROOK UNITED CHURCH", "designationCode": "C", "categoryCode": "44", "address": "12 STANTON STREET", "city": "RED DEER", "province": "AB", "country": "CA", "postalCode": "T4N0B8", "twitter": "None", "instagram": "None", "facebook": "None", "youtube": "None", "website": "None", "summary": "None", "logo": "None", "latitude": 52.25091427508774, "longitude": -113.79571758800262}, "128735081RR0001": {"name": "RED DOOR HOUSING SOCIETY", "designationCode": "C", "categoryCode": "09", "address": "33-2688 BLANCHE ST", "city": "VANCOUVER", "province": "BC", "country": "CA", "postalCode": "V5S4R4", "twitter": "None", "instagram": "None", "facebook": "None", "youtube": "None", "website": "None", "summary": "None", "logo": "None", "latitude": 49.20624936285575, "longitude": -123.05246368912093}, "141022772RR0001": {"name": "RED LAKE AREA EMERGENCY SHELTER", "designationCode": "C", "categoryCode": "01", "address": "BOX 946", "city": "RED LAKE", "province": "ON", "country": "CA", "postalCode": "P0V2M0", "twitter": "None", "instagram": "None", "facebook": "None", "youtube": "None", "website": "None", "summary": "None", "logo": "None", "latitude": 51.017789973887886, "longitude": -93.82652994835257}, "889534970RR0001": {"name": "RED LAKE COMMUNITY CLUB INC.", "designationCode": "C", "categoryCode": "56", "address": "112-1315 WOLFE AVENUE", "city": "MOOSE JAW", "province": "SK", "country": "CA", "postalCode": "S6H7H7", "twitter": "None", "instagram": "None", "facebook": "None", "youtube": "None", "website": "None", "summary": "None", "logo": "None", "latitude": 50.40445270203353, "longitude": -105.52315787447841}, "107879827RR0001": {"name": "RED LAKE INDIAN FRIENDSHIP CENTRE", "designationCode": "C", "categoryCode": "56", "address": "BOX 244", "city": "RED LAKE", "province": "ON", "country": "CA", "postalCode": "P0V2M0", "twitter": "None", "instagram": "None", "facebook": "None", "youtube": "None", "website": "None", "summary": "None", "logo": "None", "latitude": 51.017789973887886, "longitude": -93.82652994835257}, "889828992RR0001": {"name": "RED LAKE MARGARET COCHENOUR HOSPITAL FOUNDATION", "designationCode": "A", "categoryCode": "13", "address": "BOX 1453", "city": "RED LAKE", "province": "ON", "country": "CA", "postalCode": "P0V2M0", "twitter": "None", "instagram": "None", "facebook": "None", "youtube": "None", "website": "None", "summary": "None", "logo": "None", "latitude": 51.017789973887886, "longitude": -93.82652994835257}, "873152714RR0001": {"name": "RED LAKE REGIONAL HERITAGE CENTRE", "designationCode": "C", "categoryCode": "50", "address": "BOX 64                        51A HWY 105", "city": "RED LAKE", "province": "ON", "country": "CA", "postalCode": "P0V2M0", "twitter": "None", "instagram": "None", "facebook": "None", "youtube": "None", "website": "None", "summary": "None", "logo": "None", "latitude": 51.01547973184973, "longitude": -93.82080026815028}, "119288918RR0024": {"name": "RED LAKE, ONTARIO, CONGREGATION OF JEHOVAH'S WITNESSES,", "designationCode": "C", "categoryCode": "61", "address": "P.O. BOX 1245", "city": "RED LAKE", "province": "ON", "country": "CA", "postalCode": "P0V2M0", "twitter": "None", "instagram": "None", "facebook": "None", "youtube": "None", "website": "None", "summary": "None", "logo": "None", "latitude": 51.01933000000008, "longitude": -93.82311999999996}, "119113140RR0001": {"name": "RED MAPLE FOUNDATION", "designationCode": "C", "categoryCode": "29", "address": "401 RICHMOND STREET WEST      SUITE 417", "city": "TORONTO", "province": "ON", "country": "CA", "postalCode": "M5V3A8", "twitter": "None", "instagram": "None", "facebook": "None", "youtube": "None", "website": "None", "summary": "None", "logo": "None", "latitude": 43.64803297305114, "longitude": -79.39483379779568}, "132569344RR0001": {"name": "RED RIVER BASIN COMMISSION INC.", "designationCode": "C", "categoryCode": "29", "address": "205-1100 CONCORDIA AVE", "city": "WINNIPEG", "province": "MB", "country": "CA", "postalCode": "R2K4B8", "twitter": "None", "instagram": "None", "facebook": "None", "youtube": "None", "website": "None", "summary": "None", "logo": "None", "latitude": 49.911976176756, "longitude": -97.06400190331212}, "858919764RR0001": {"name": "RED RIVER CHURCH OF GOD IN CHRIST MENNONITE INC.", "designationCode": "C", "categoryCode": "34", "address": "BOX 7", "city": "ROSENORT", "province": "MB", "country": "CA", "postalCode": "R0G1W0", "twitter": "None", "instagram": "None", "facebook": "None", "youtube": "None", "website": "None", "summary": "None", "logo": "None", "latitude": 49.45817000000005, "longitude": -97.43545999999998}, "878798727RR0001": {"name": "RED RIVER NORTH TRAIL ASSOCIATION INC", "designationCode": "C", "categoryCode": "56", "address": "18 MAIN STREET, 2ND FLOOR", "city": "SELKIRK", "province": "MB", "country": "CA", "postalCode": "R1A1P5", "twitter": "None", "instagram": "None", "facebook": "None", "youtube": "None", "website": "None", "summary": "None", "logo": "None", "latitude": 50.12861340261069, "longitude": -96.89306941440084}, "118784644RR0001": {"name": "RED RIVER VALLEY FESTIVAL OF THE ARTS", "designationCode": "C", "categoryCode": "22", "address": "PO BOX 2035", "city": "ALTONA", "province": "MB", "country": "CA", "postalCode": "R0G0B0", "twitter": "None", "instagram": "None", "facebook": "None", "youtube": "None", "website": "None", "summary": "None", "logo": "None", "latitude": 49.10353800000006, "longitude": -97.55120149999993}, "119030666RR0034": {"name": "RED RIVER VALLEY JUNIOR ACADEMY", "designationCode": "C", "categoryCode": "41", "address": "56 GREY STREET                TREASURER", "city": "WINNIPEG", "province": "MB", "country": "CA", "postalCode": "R2L1V3", "twitter": "None", "instagram": "None", "facebook": "None", "youtube": "None", "website": "None", "summary": "None", "logo": "None", "latitude": 49.90364083126541, "longitude": -97.09544635991638}, "864402615RR0001": {"name": "RED RIVER VALLEY PARENT-CHILD CENTRE INC.", "designationCode": "C", "categoryCode": "20", "address": "BOX 1005", "city": "MORRIS", "province": "MB", "country": "CA", "postalCode": "R0G1K0", "twitter": "None", "instagram": "None", "facebook": "None", "youtube": "None", "website": "None", "summary": "None", "logo": "None", "latitude": 49.35468000000003, "longitude": -97.36605999999995}, "119113181RR0001": {"name": "RED ROCK BIBLE CAMP INC.", "designationCode": "C", "categoryCode": "56", "address": "4 - 10 BRANDT ST", "city": "STEINBACH", "province": "MB", "country": "CA", "postalCode": "R5G1Y2", "twitter": "None", "instagram": "None", "facebook": "None", "youtube": "None", "website": "None", "summary": "None", "logo": "None", "latitude": 49.531702074432246, "longitude": -96.68915346219838}, "863621066RR0001": {"name": "RED ROCK COUNCIL NO. 4247 CHARITABLE WELFARE TRUST", "designationCode": "A", "categoryCode": "65", "address": "127 SIXTH ST                  PO BOX 746", "city": "NIPIGON", "province": "ON", "country": "CA", "postalCode": "P0T2J0", "twitter": "None", "instagram": "None", "facebook": "None", "youtube": "None", "website": "None", "summary": "None", "logo": "None", "latitude": 49.01639232252284, "longitude": -88.26495190740974}, "863739314RR0001": {"name": "RED ROCK HISTORICAL SOCIETY INC.", "designationCode": "C", "categoryCode": "50", "address": "20 FROST ST PO BOX 420", "city": "RED ROCK", "province": "ON", "country": "CA", "postalCode": "P0T2P0", "twitter": "None", "instagram": "None", "facebook": "None", "youtube": "None", "website": "None", "summary": "None", "logo": "None", "latitude": 48.937927798776634, "longitude": -88.25901653067112}, "887592285RR0001": {"name": "RED ROOF RETREAT", "designationCode": "C", "categoryCode": "11", "address": "1594 CONCESSION #6            RR2", "city": "NIAGARA ON THE LAKE", "province": "ON", "country": "CA", "postalCode": "L0S1J0", "twitter": "None", "instagram": "None", "facebook": "None", "youtube": "None", "website": "None", "summary": "None", "logo": "None", "latitude": 43.22336394096565, "longitude": -79.13598107925365}, "840619571RR0001": {"name": "RED SHAWL WOMEN'S COMMUNITY ORGANIZATION", "designationCode": "C", "categoryCode": "09", "address": "251 QUEEN STREET SOUTH, 573", "city": "MISSISSAUGA", "province": "ON", "country": "CA", "postalCode": "L5M1L7", "twitter": "None", "instagram": "None", "facebook": "None", "youtube": "None", "website": "None", "summary": "None", "logo": "None", "latitude": 43.58011933694957, "longitude": -79.7115449085349}, "893132100RR0001": {"name": "RED SKY PERFORMANCE", "designationCode": "C", "categoryCode": "22", "address": "420-401 RICHMOND ST W", "city": "TORONTO", "province": "ON", "country": "CA", "postalCode": "M5V3A8", "twitter": "None", "instagram": "None", "facebook": "None", "youtube": "None", "website": "None", "summary": "None", "logo": "None", "latitude": 43.64792255983254, "longitude": -79.39538964100468}, "140768094RR0001": {"name": "RED WILLOW CHARITABLE TRUST", "designationCode": "B", "categoryCode": "39", "address": "3425-2ND AVENUE SOUTH", "city": "LETHBRIDGE", "province": "AB", "country": "CA", "postalCode": "T1J4V1", "twitter": "None", "instagram": "None", "facebook": "None", "youtube": "None", "website": "None", "summary": "None", "logo": "None"}, "106693047RR0012": {"name": "RED WILLOW COMMUNITY CHURCH", "designationCode": "C", "categoryCode": "41", "address": "5816 HIGHWAY, 2A", "city": "LACOMBE", "province": "AB", "country": "CA", "postalCode": "T4L2G5", "twitter": "None", "instagram": "None", "facebook": "None", "youtube": "None", "website": "None", "summary": "None", "logo": "None", "latitude": 52.474063600197404, "longitude": -113.71692568401835}, "107878498RR0001": {"name": "REDBERRY BIBLE CAMP", "designationCode": "C", "categoryCode": "56", "address": "PO BOX 25128 RPO RIVER HEIGHTS", "city": "SASKATOON", "province": "SK", "country": "CA", "postalCode": "S7K8B7", "twitter": "None", "instagram": "None", "facebook": "None", "youtube": "None", "website": "None", "summary": "None", "logo": "None", "latitude": 52.15933000000007, "longitude": -106.63383999999996}, "119112175RR0001": {"name": "REDBERRY CEMETERY ASSOCIATION INC.", "designationCode": "C", "categoryCode": "59", "address": "4750 CLARENCE AVENUE SOUTH", "city": "GRASSWOOD", "province": "SK", "country": "CA", "postalCode": "S7T1A7", "twitter": "None", "instagram": "None", "facebook": "None", "youtube": "None", "website": "None", "summary": "None", "logo": "None", "latitude": 52.05656201505634, "longitude": -106.64651125793168}, "890667546RR0001": {"name": "REDCLIFF HISTORICAL AND MUSEUM SOCIETY", "designationCode": "C", "categoryCode": "50", "address": "BOX 758", "city": "REDCLIFF", "province": "AB", "country": "CA", "postalCode": "T0J2P0", "twitter": "None", "instagram": "None", "facebook": "None", "youtube": "None", "website": "None", "summary": "None", "logo": "None", "latitude": 50.06256300000001, "longitude": -110.79354470271593}, "862235637RR0001": {"name": "REDDEKOPP MINISTRIES", "designationCode": "C", "categoryCode": "39", "address": "BOX 262                       REDDEKOPP MINISTRIES", "city": "AYLMER", "province": "ON", "country": "CA", "postalCode": "N5H2R9", "twitter": "None", "instagram": "None", "facebook": "None", "youtube": "None", "website": "None", "summary": "None", "logo": "None", "latitude": 42.773010000000056, "longitude": -80.98362349999994}, "863259834RR0001": {"name": "REDEEMED CHRISTIAN CHURCH OF GOD MONTREAL INCORPORATED", "designationCode": "C", "categoryCode": "39", "address": "6 RONALD DRIVE                SUITE 100", "city": "MONTREAL", "province": "QC", "country": "CA", "postalCode": "H4X1M8", "twitter": "None", "instagram": "None", "facebook": "None", "youtube": "None", "website": "None", "summary": "None", "logo": "None", "latitude": 45.45057209536556, "longitude": -73.63637032047872}, "859733602RR0001": {"name": "REDEEMED CHRISTIAN CHURCH OF GOD SASKATOON INC.", "designationCode": "C", "categoryCode": "39", "address": "601 EASTLAKE AVENUE", "city": "SASKATOON", "province": "SK", "country": "CA", "postalCode": "S7N1A1", "twitter": "None", "instagram": "None", "facebook": "None", "youtube": "None", "website": "None", "summary": "None", "logo": "None", "latitude": 52.11953916180968, "longitude": -106.6594867833403}, "894945633RR0050": {"name": "REDEEMER ALLIANCE CHURCH", "designationCode": "C", "categoryCode": "39", "address": "4825 INNES ROAD", "city": "ORLEANS", "province": "ON", "country": "CA", "postalCode": "K4A4J3", "twitter": "None", "instagram": "None", "facebook": "None", "youtube": "None", "website": "None", "summary": "None", "logo": "None", "latitude": 45.46581989205938, "longitude": -75.47204167098494}, "853903979RR0001": {"name": "REDEEMER BAPTIST CHURCH", "designationCode": "C", "categoryCode": "39", "address": "2822 KEELE ST", "city": "TORONTO", "province": "ON", "country": "CA", "postalCode": "M3N2G4", "twitter": "None", "instagram": "None", "facebook": "None", "youtube": "None", "website": "None", "summary": "None", "logo": "None", "latitude": 43.73013296197131, "longitude": -79.48288747784031}, "119112647RR0001": {"name": "REDEEMER BIBLE CHURCH", "designationCode": "C", "categoryCode": "39", "address": "P.O. BOX 756                  3017 MONTROSE ROAD", "city": "NIAGARA FALLS", "province": "ON", "country": "CA", "postalCode": "L2E6V6", "twitter": "None", "instagram": "None", "facebook": "None", "youtube": "None", "website": "None", "summary": "None", "logo": "None", "latitude": 43.12952990221653, "longitude": -79.12698647532922}, "889996625RR0001": {"name": "REDEEMER CANADIAN REFORMED CHURCH AT WINNIPEG", "designationCode": "C", "categoryCode": "39", "address": "15 BATES AVENUE", "city": "WINNIPEG", "province": "MB", "country": "CA", "postalCode": "R2C3G8", "twitter": "None", "instagram": "None", "facebook": "None", "youtube": "None", "website": "None", "summary": "None", "logo": "None", "latitude": 49.884803109354266, "longitude": -97.01550887434402}, "895543064RR0001": {"name": "REDEEMER CHINESE EVANGELICAL FREE CHURCH", "designationCode": "C", "categoryCode": "39", "address": "3838 MIDLAND AVE UNIT 109", "city": "SCARBOROUGH", "province": "ON", "country": "CA", "postalCode": "M1V5K5", "twitter": "None", "instagram": "None", "facebook": "None", "youtube": "None", "website": "None", "summary": "None", "logo": "None", "latitude": 43.81944384901037, "longitude": -79.29442514282398}, "872626460RR0001": {"name": "REDEEMER CHRISTIAN FELLOWSHIP OF SUDBURY", "designationCode": "C", "categoryCode": "39", "address": "PO BOX 731 STN B", "city": "SUDBURY", "province": "ON", "country": "CA", "postalCode": "P3E4R6", "twitter": "None", "instagram": "None", "facebook": "None", "youtube": "None", "website": "None", "summary": "None", "logo": "None", "latitude": 46.48958700000006, "longitude": -80.99011249999994}, "130672991RR0001": {"name": "REDEEMER CHRISTIAN HIGH SCHOOL", "designationCode": "C", "categoryCode": "20", "address": "82 COLONNADE ROAD NORTH", "city": "NEPEAN", "province": "ON", "country": "CA", "postalCode": "K2E7L2", "twitter": "None", "instagram": "None", "facebook": "None", "youtube": "None", "website": "None", "summary": "None", "logo": "None", "latitude": 45.34726763249489, "longitude": -75.70981276377768}, "107879215RR0001": {"name": "REDEEMER CHRISTIAN REFORMED CHURCH OF SARNIA", "designationCode": "C", "categoryCode": "39", "address": "5834 BLACKWELL SD.RD.", "city": "SARNIA", "province": "ON", "country": "CA", "postalCode": "N7W1A1", "twitter": "None", "instagram": "None", "facebook": "None", "youtube": "None", "website": "None", "summary": "None", "logo": "None", "latitude": 42.98111551065213, "longitude": -82.32155780435204}, "107879249RR0001": {"name": "REDEEMER EVANGELICAL LUTHERAN CHURCH", "designationCode": "C", "categoryCode": "32", "address": "1691 BLOOR ST W", "city": "TORONTO", "province": "ON", "country": "CA", "postalCode": "M6P1B1", "twitter": "None", "instagram": "None", "facebook": "None", "youtube": "None", "website": "None", "summary": "None", "logo": "None", "latitude": 43.655225838161655, "longitude": -79.45741549679735}, "107879462RR0001": {"name": "REDEEMER EVANGELICAL LUTHERAN CHURCH", "designationCode": "C", "categoryCode": "32", "address": "BOX 910", "city": "COALDALE", "province": "AB", "country": "CA", "postalCode": "T1M1M8", "twitter": "None", "instagram": "None", "facebook": "None", "youtube": "None", "website": "None", "summary": "None", "logo": "None", "latitude": 49.73194500000005, "longitude": -112.60066399999994}, "119112670RR0001": {"name": "REDEEMER EVANGELICAL LUTHERAN CHURCH", "designationCode": "C", "categoryCode": "32", "address": "BOX 238", "city": "DAVIDSON", "province": "SK", "country": "CA", "postalCode": "S0G1A0", "twitter": "None", "instagram": "None", "facebook": "None", "youtube": "None", "website": "None", "summary": "None", "logo": "None", "latitude": 51.26742000000007, "longitude": -105.99597999999997}}