{"119095032RR0001": {"name": "PLUMAS UNITED CHURCH", "designationCode": "C", "categoryCode": "44", "address": "PO BOX 67", "city": "PLUMAS", "province": "MB", "country": "CA", "postalCode": "R0J1P0", "twitter": "None", "instagram": "None", "facebook": "None", "youtube": "None", "website": "None", "summary": "None", "logo": "None", "latitude": 50.381487082446405, "longitude": -99.0863749508334}, "119095081RR0002": {"name": "PLURA HILLS UNITED CHURCH", "designationCode": "C", "categoryCode": "44", "address": "2090 PACIFIC WAY", "city": "KAMLOOPS", "province": "BC", "country": "CA", "postalCode": "V1S1K7", "twitter": "None", "instagram": "None", "facebook": "None", "youtube": "None", "website": "None", "summary": "None", "logo": "None", "latitude": 50.64409758830388, "longitude": -120.36792266722463}, "104248513RR0001": {"name": "PLURI-ELLES (MANITOBA) INC.", "designationCode": "C", "categoryCode": "21", "address": "114 - 420 RUE DES MEURONS", "city": "WINNIPEG", "province": "MB", "country": "CA", "postalCode": "R2H2N9", "twitter": "None", "instagram": "None", "facebook": "None", "youtube": "None", "website": "None", "summary": "None", "logo": "None", "latitude": 49.88601115237463, "longitude": -97.1114386113744}, "119095099RR0001": {"name": "PLUS INDUSTRIES INC.", "designationCode": "C", "categoryCode": "09", "address": "BOX 2557", "city": "MELFORT", "province": "SK", "country": "CA", "postalCode": "S0E1A0", "twitter": "None", "instagram": "None", "facebook": "None", "youtube": "None", "website": "None", "summary": "None", "logo": "None", "latitude": 52.85637, "longitude": -104.63436225000001}, "138334040RR0001": {"name": "PLUS QUE VAINQUEURS \u00c9VANG\u00c9LISATION", "designationCode": "C", "categoryCode": "47", "address": "106-5425 BOUL LAURIER OUEST", "city": "SAINT-HYACINTHE", "province": "QC", "country": "CA", "postalCode": "J2S3V6", "twitter": "None", "instagram": "None", "facebook": "None", "youtube": "None", "website": "None", "summary": "None", "logo": "None", "latitude": 45.60485870852365, "longitude": -72.97947886242747}, "801745274RR0001": {"name": "PLUSEC-PLURALISM, HUMAN SECURITY AND SUSTAINABILITY CENTRE/PLUSEC-CENTRE DU PLURALISME, DE LA SECURITE HUMAINE ET DU DEVELOPPEMENT DURABLE", "designationCode": "C", "categoryCode": "20", "address": "201 BRIDGELAND AVE", "city": "TORONTO", "province": "ON", "country": "CA", "postalCode": "M6A1Y7", "twitter": "None", "instagram": "None", "facebook": "None", "youtube": "None", "website": "None", "summary": "None", "logo": "None", "latitude": 43.724679896445465, "longitude": -79.46720435899367}, "119095115RR0001": {"name": "PLYMOUTH TRINITY UNITED CHURCH", "designationCode": "C", "categoryCode": "44", "address": "380 DUFFERIN AVENUE", "city": "SHERBROOKE", "province": "QC", "country": "CA", "postalCode": "J1H4M7", "twitter": "None", "instagram": "None", "facebook": "None", "youtube": "None", "website": "None", "summary": "None", "logo": "None", "latitude": 45.40673601416694, "longitude": -71.89581897235864}, "119095131RR0001": {"name": "PLYMPTON BAPTIST CHURCH", "designationCode": "C", "categoryCode": "31", "address": "61 FRENCH RD                  RR 1", "city": "PLYMPTON", "province": "NS", "country": "CA", "postalCode": "B0W2R0", "twitter": "None", "instagram": "None", "facebook": "None", "youtube": "None", "website": "None", "summary": "None", "logo": "None", "latitude": 44.5024899414564, "longitude": -65.91453280373963}, "845551605RR0001": {"name": "PMHF Partners for Mental Health/FPSM partenaires pour la sant\u00e9 mentale", "designationCode": "C", "categoryCode": "11", "address": "151 SLATER ST", "city": "OTTAWA", "province": "ON", "country": "CA", "postalCode": "K1P5H3", "twitter": "None", "instagram": "None", "facebook": "None", "youtube": "None", "website": "None", "summary": "None", "logo": "None", "latitude": 45.42039844353388, "longitude": -75.69735141147775}, "881288328RR0001": {"name": "PNG ENTERPRISE FOUNDATION", "designationCode": "B", "categoryCode": "03", "address": "1188 WEST GEORGIA ST, STE 1440", "city": "VANCOUVER", "province": "BC", "country": "CA", "postalCode": "V6E4A2", "twitter": "None", "instagram": "None", "facebook": "None", "youtube": "None", "website": "None", "summary": "None", "logo": "None", "latitude": 49.28645243049213, "longitude": -123.1255544533443}, "808636088RR0001": {"name": "PNPC Animal Rescue", "designationCode": "C", "categoryCode": "54", "address": "6306 SPRINGHILL RD.", "city": "OTTAWA", "province": "ON", "country": "CA", "postalCode": "K0A2W0", "twitter": "None", "instagram": "None", "facebook": "None", "youtube": "None", "website": "None", "summary": "None", "logo": "None", "latitude": 45.15551048202486, "longitude": -75.56008253199877}, "865952055RR0001": {"name": "PO CHI BUDDHIST CENTRE INC.", "designationCode": "C", "categoryCode": "49", "address": "31 BOW VALLEY DRIVE", "city": "SCARBOROUGH", "province": "ON", "country": "CA", "postalCode": "M1G3J4", "twitter": "None", "instagram": "None", "facebook": "None", "youtube": "None", "website": "None", "summary": "None", "logo": "None", "latitude": 43.77129237217966, "longitude": -79.204683728028}, "892771767RR0001": {"name": "PO LAM BUDDHIST ASSOCIATION", "designationCode": "C", "categoryCode": "49", "address": "777 DUNSMUIR STREET           PO BOX 10426", "city": "VANCOUVER", "province": "BC", "country": "CA", "postalCode": "V7Y1K3", "twitter": "None", "instagram": "None", "facebook": "None", "youtube": "None", "website": "None", "summary": "None", "logo": "None", "latitude": 49.283979252322474, "longitude": -123.11691534049893}, "884236324RR0001": {"name": "PO SHIN TAO TEH CHARITABLE ASSOCIATION (BRITISH COLUMBIA) OFCANADA", "designationCode": "C", "categoryCode": "35", "address": "160 - 11760 VOYAGEUR WAY", "city": "RICHMOND", "province": "BC", "country": "CA", "postalCode": "V6X3G9", "twitter": "None", "instagram": "None", "facebook": "None", "youtube": "None", "website": "None", "summary": "None", "logo": "None", "latitude": 49.1911837457443, "longitude": -123.09405383250616}, "895438240RR0001": {"name": "PO SHIN TAO TEH CHARITABLE CORPORATION OF CANADA", "designationCode": "C", "categoryCode": "49", "address": "202 - 640 BROADWAY W", "city": "VANCOUVER", "province": "BC", "country": "CA", "postalCode": "V5Z1G4", "twitter": "None", "instagram": "None", "facebook": "None", "youtube": "None", "website": "None", "summary": "None", "logo": "None", "latitude": 49.263196109523165, "longitude": -123.11874531075742}, "891570442RR0001": {"name": "PO YUEN TAOIST CENTRE SOCIETY", "designationCode": "C", "categoryCode": "49", "address": "453 POWELL STREET", "city": "VANCOUVER", "province": "BC", "country": "CA", "postalCode": "V6A1G7", "twitter": "None", "instagram": "None", "facebook": "None", "youtube": "None", "website": "None", "summary": "None", "logo": "None", "latitude": 49.28312151875455, "longitude": -123.09407002553522}, "891750978RR0001": {"name": "POCO A POCO SERVICE SOCIETY", "designationCode": "C", "categoryCode": "09", "address": "275 JUDGES ROW", "city": "QUALICUM BEACH", "province": "BC", "country": "CA", "postalCode": "V9K1G7", "twitter": "None", "instagram": "None", "facebook": "None", "youtube": "None", "website": "None", "summary": "None", "logo": "None", "latitude": 49.35671221290878, "longitude": -124.43459999169012}, "898065982RR0001": {"name": "POCO DOTS DAY CARE SOCIETY", "designationCode": "C", "categoryCode": "01", "address": "1019 FERNWOOD AVENUE", "city": "PORT COQUITLAM", "province": "BC", "country": "CA", "postalCode": "V3B5A8", "twitter": "None", "instagram": "None", "facebook": "None", "youtube": "None", "website": "None", "summary": "None", "logo": "None", "latitude": 49.2799295606658, "longitude": -122.74351011580035}, "119095198RR0001": {"name": "POCO HAPPY TIMES PRESCHOOL (COUNCIL OF PARENT PARTICIPATION PRESCHOOLS IN BRITISH COLUMBIA)", "designationCode": "C", "categoryCode": "01", "address": "P.O. BOX 123, STATION MAIN    1761 WESTMINSTER AVENUE", "city": "PORT COQUITLAM", "province": "BC", "country": "CA", "postalCode": "V3C3V5", "twitter": "None", "instagram": "None", "facebook": "None", "youtube": "None", "website": "None", "summary": "None", "logo": "None", "latitude": 49.26508348326468, "longitude": -122.76326258381903}, "119095206RR0001": {"name": "POCOLOGAN UNITED BAPTIST CHURCH", "designationCode": "C", "categoryCode": "31", "address": "1359 ROUTE 175", "city": "POCOLOGAN", "province": "NB", "country": "CA", "postalCode": "E5J0B1", "twitter": "None", "instagram": "None", "facebook": "None", "youtube": "None", "website": "None", "summary": "None", "logo": "None", "latitude": 45.12239566078529, "longitude": -66.58371020379386}, "119095214RR0001": {"name": "POCULI LUDIQUE SOCIETAS", "designationCode": "C", "categoryCode": "22", "address": "B06C - 125 QUEEN'S PK", "city": "TORONTO", "province": "ON", "country": "CA", "postalCode": "M5S2C7", "twitter": "None", "instagram": "None", "facebook": "None", "youtube": "None", "website": "None", "summary": "None", "logo": "None", "latitude": 43.66833984124874, "longitude": -79.39392709850556}, "888754397RR0001": {"name": "POELVOORDE-MERRILL SCHOLARSHIPFUND", "designationCode": "C", "categoryCode": "21", "address": "PO BAG 1002", "city": "FRASER LAKE", "province": "BC", "country": "CA", "postalCode": "V0J1S0", "twitter": "None", "instagram": "None", "facebook": "None", "youtube": "None", "website": "None", "summary": "None", "logo": "None", "latitude": 54.05537000000004, "longitude": -124.84213999999997}, "825337140RR0001": {"name": "POETRY GABRIOLA SOCIETY", "designationCode": "C", "categoryCode": "22", "address": "3250 COAST RD", "city": "GABRIOLA ISLAND", "province": "BC", "country": "CA", "postalCode": "V0R1X7", "twitter": "None", "instagram": "None", "facebook": "None", "youtube": "None", "website": "None", "summary": "None", "logo": "None", "latitude": 49.144585209667504, "longitude": -123.70180120713997}, "856191788RR0001": {"name": "POINT ABINO LIGHTSTATION PRESERVATION SOCIETY (PALPS)", "designationCode": "C", "categoryCode": "52", "address": "794 CEDAR BAY RD.", "city": "PORT COLBORNE", "province": "ON", "country": "CA", "postalCode": "L3K5V3", "twitter": "None", "instagram": "None", "facebook": "None", "youtube": "None", "website": "None", "summary": "None", "logo": "None", "latitude": 42.884468497085805, "longitude": -79.1746299649428}, "894225721RR0001": {"name": "POINT ALEXANDER LIBRARY FRIENDS", "designationCode": "C", "categoryCode": "50", "address": "34465 HWY 17 WEST             R.R. 1", "city": "DEEP RIVER", "province": "ON", "country": "CA", "postalCode": "K0J1P0", "twitter": "None", "instagram": "None", "facebook": "None", "youtube": "None", "website": "None", "summary": "None", "logo": "None", "latitude": 46.13430957112141, "longitude": -77.5538789808778}, "119095248RR0001": {"name": "POINT D'APPUI (CENTRE D'AIDE ET DE PREVENTION DES AGRESSIONS A CARACTERE SEXUEL DE ROUYN-NORANDA)", "designationCode": "C", "categoryCode": "09", "address": "CP 1274", "city": "ROUYN-NORANDA", "province": "QC", "country": "CA", "postalCode": "J9X6E4", "twitter": "None", "instagram": "None", "facebook": "None", "youtube": "None", "website": "None", "summary": "None", "logo": "None", "latitude": 48.237252000000055, "longitude": -79.01455399999993}, "887229599RR0001": {"name": "POINT DE BUTE JOLICURE PASTORAL CHARGE", "designationCode": "C", "categoryCode": "44", "address": "500 ROUTE 16", "city": "POINT DE BUTE", "province": "NB", "country": "CA", "postalCode": "E4L2N1", "twitter": "None", "instagram": "None", "facebook": "None", "youtube": "None", "website": "None", "summary": "None", "logo": "None", "latitude": 45.90560852054556, "longitude": -64.23734261869087}, "129804829RR0001": {"name": "POINT DE COUTURE T L H INC", "designationCode": "C", "categoryCode": "09", "address": "1130 RUE CHARLEVOIX", "city": "MONTREAL", "province": "QC", "country": "CA", "postalCode": "H3K2Z3", "twitter": "None", "instagram": "None", "facebook": "None", "youtube": "None", "website": "None", "summary": "None", "logo": "None", "latitude": 45.47787333637266, "longitude": -73.56835764767142}, "119095271RR0001": {"name": "POINT DE RENCONTRE INC.", "designationCode": "C", "categoryCode": "09", "address": "619, RUE DES HOSPITALIERES", "city": "BAIE-COMEAU", "province": "QC", "country": "CA", "postalCode": "G5C3H2", "twitter": "None", "instagram": "None", "facebook": "None", "youtube": "None", "website": "None", "summary": "None", "logo": "None", "latitude": 48.42004072583437, "longitude": -71.0450430564044}, "129139135RR0001": {"name": "POINT DE REP\u00c8RES (1990)", "designationCode": "C", "categoryCode": "19", "address": "225 RUE DORCHESTER", "city": "QU\u00c9BEC", "province": "QC", "country": "CA", "postalCode": "G1K5Z4", "twitter": "None", "instagram": "None", "facebook": "None", "youtube": "None", "website": "None", "summary": "None", "logo": "None", "latitude": 46.81590868887411, "longitude": -71.22903347264712}, "889103156RR0001": {"name": "POINT DE RUE", "designationCode": "C", "categoryCode": "09", "address": "C.P. 51 SUCC BUREAU-CHEF", "city": "TROIS-RIVIERES", "province": "QC", "country": "CA", "postalCode": "G9A5E3", "twitter": "None", "instagram": "None", "facebook": "None", "youtube": "None", "website": "None", "summary": "None", "logo": "None", "latitude": 46.33998574371075, "longitude": -72.5474644505592}, "119095289RR0001": {"name": "POINT DU CHENE SUMMER CHURCH", "designationCode": "C", "categoryCode": "39", "address": "39 OULTON STREET", "city": "MONCTON", "province": "NB", "country": "CA", "postalCode": "E1A4M5", "twitter": "None", "instagram": "None", "facebook": "None", "youtube": "None", "website": "None", "summary": "None", "logo": "None", "latitude": 46.109388144584344, "longitude": -64.74912189549318}, "107850364RR0001": {"name": "POINT EDWARD EARLY LEARNING CENTRE", "designationCode": "C", "categoryCode": "01", "address": "213 MICHIGAN AVE.", "city": "POINT EDWARD", "province": "ON", "country": "CA", "postalCode": "N7V1E7", "twitter": "None", "instagram": "None", "facebook": "None", "youtube": "None", "website": "None", "summary": "None", "logo": "None", "latitude": 42.9978137400613, "longitude": -82.41486059510711}, "119095305RR0001": {"name": "POINT EDWARD PRESBYTERIAN CHURCH", "designationCode": "C", "categoryCode": "37", "address": "C/O 109 VICTORIA AVE", "city": "POINT EDWARD", "province": "ON", "country": "CA", "postalCode": "N7V1H4", "twitter": "None", "instagram": "None", "facebook": "None", "youtube": "None", "website": "None", "summary": "None", "logo": "None", "latitude": 42.9989626201057, "longitude": -82.41738181269854}, "869149526RR0001": {"name": "POINT GREY INTER-MENNONITE FELLOWSHIP", "designationCode": "C", "categoryCode": "34", "address": "4000 WEST 11 AVENUE", "city": "VANCOUVER", "province": "BC", "country": "CA", "postalCode": "V6R2L3", "twitter": "None", "instagram": "None", "facebook": "None", "youtube": "None", "website": "None", "summary": "None", "logo": "None", "latitude": 49.262641513994026, "longitude": -123.19442405398465}, "889670733RR0001": {"name": "POINT GREY LOW COST STUDENT HOUSING ASSOCIATION", "designationCode": "C", "categoryCode": "23", "address": "LEWIS & COMPANY               1610-1055 WEST HASTINGS ST", "city": "VANCOUVER", "province": "BC", "country": "CA", "postalCode": "V6E2E9", "twitter": "None", "instagram": "None", "facebook": "None", "youtube": "None", "website": "None", "summary": "None", "logo": "None", "latitude": 49.2875699392347, "longitude": -123.11848196099034}, "893231563RR0001": {"name": "POINT GREY MUSIC SUPPORTERS SOCIETY", "designationCode": "C", "categoryCode": "22", "address": "5350 EAST BOULEVARD", "city": "VANCOUVER", "province": "BC", "country": "CA", "postalCode": "V6M3V2", "twitter": "None", "instagram": "None", "facebook": "None", "youtube": "None", "website": "None", "summary": "None", "logo": "None", "latitude": 49.23729922009349, "longitude": -123.15482843381128}, "891395246RR0001": {"name": "POINT HOLMES RECREATION ASSOCIATION", "designationCode": "C", "categoryCode": "52", "address": "4635A MADRONA PL.", "city": "COURTENAY", "province": "BC", "country": "CA", "postalCode": "V9N9E7", "twitter": "None", "instagram": "None", "facebook": "None", "youtube": "None", "website": "None", "summary": "None", "logo": "None", "latitude": 49.715251680225286, "longitude": -124.96956691503901}, "897641742RR0001": {"name": "POINT IN TIME CENTRE FOR CHILDREN, YOUTH AND PARENTS", "designationCode": "C", "categoryCode": "09", "address": "P. O. BOX 1306", "city": "HALIBURTON", "province": "ON", "country": "CA", "postalCode": "K0M1S0", "twitter": "None", "instagram": "None", "facebook": "None", "youtube": "None", "website": "None", "summary": "None", "logo": "None", "latitude": 45.24560095765924, "longitude": -78.57868961447684}, "892451766RR0001": {"name": "POINT LEAMINGTON ACADEMY TRUST", "designationCode": "C", "categoryCode": "21", "address": "POST OFFICE BOX 100", "city": "POINT LEAMINGTON", "province": "NL", "country": "CA", "postalCode": "A0H1Z0", "twitter": "None", "instagram": "None", "facebook": "None", "youtube": "None", "website": "None", "summary": "None", "logo": "None", "latitude": 49.34083430999183, "longitude": -55.40383605273618}, "873607840RR0001": {"name": "POINT MAY R C CHURCH BUILDING COMMITTEE", "designationCode": "C", "categoryCode": "43", "address": "281-ROUTE 220                 BOX 110", "city": "POINT MAY", "province": "NL", "country": "CA", "postalCode": "A0E2C0", "twitter": "None", "instagram": "None", "facebook": "None", "youtube": "None", "website": "None", "summary": "None", "logo": "None", "latitude": 46.93194333438494, "longitude": -55.95627773262185}, "119095370RR0001": {"name": "POINT PLEASANT CHILD CARE CENTRE", "designationCode": "C", "categoryCode": "01", "address": "5651 OGILVIE ST", "city": "HALIFAX", "province": "NS", "country": "CA", "postalCode": "B3H1B9", "twitter": "None", "instagram": "None", "facebook": "None", "youtube": "None", "website": "None", "summary": "None", "logo": "None", "latitude": 44.62843995552793, "longitude": -63.570917370732374}, "893498261RR0001": {"name": "POINT PRIM AND AREA ENVIRONMENTAL DEVELOPMENT COMMITTEE", "designationCode": "C", "categoryCode": "59", "address": "1178 POINT PRIM RD", "city": "BELFAST", "province": "PE", "country": "CA", "postalCode": "C0A1A0", "twitter": "None", "instagram": "None", "facebook": "None", "youtube": "None", "website": "None", "summary": "None", "logo": "None", "latitude": 46.06417019401, "longitude": -62.97958016264641}, "862306834RR0001": {"name": "POINT ROBERTS BIBLE CAMP", "designationCode": "C", "categoryCode": "56", "address": "4440 VICTORIA DR", "city": "VANCOUVER", "province": "BC", "country": "CA", "postalCode": "V5N4N6", "twitter": "None", "instagram": "None", "facebook": "None", "youtube": "None", "website": "None", "summary": "None", "logo": "None", "latitude": 49.24566745989384, "longitude": -123.06510910765215}, "119095321RR0001": {"name": "POINTE ST. CHARLES COMMUNITY CLINIC CLINIQUE COMMUNAUTAIRE DE POINTE ST-CHARLES", "designationCode": "C", "categoryCode": "11", "address": "500 RUE ASH", "city": "MONTREAL", "province": "QC", "country": "CA", "postalCode": "H3K2R4", "twitter": "None", "instagram": "None", "facebook": "None", "youtube": "None", "website": "None", "summary": "None", "logo": "None", "latitude": 45.47852249956732, "longitude": -73.55689225145709}, "132508334RR0001": {"name": "POINTE-DU-BUISSON, MUS\u00c9E QU\u00c9B\u00c9COIS D'ARCH\u00c9OLOGIE", "designationCode": "C", "categoryCode": "52", "address": "333 RUE EMOND", "city": "BEAUHARNOIS", "province": "QC", "country": "CA", "postalCode": "J6N0E3", "twitter": "None", "instagram": "None", "facebook": "None", "youtube": "None", "website": "None", "summary": "None", "logo": "None", "latitude": 45.315100780413594, "longitude": -73.9648831566244}, "101024560RR0001": {"name": "POINTS JEUNESSE DU GRANIT", "designationCode": "C", "categoryCode": "09", "address": "4927 RUE LAVAL", "city": "LAC MEGANTIC", "province": "QC", "country": "CA", "postalCode": "G6B1E2", "twitter": "None", "instagram": "None", "facebook": "None", "youtube": "None", "website": "None", "summary": "None", "logo": "None", "latitude": 45.57826327477062, "longitude": -70.88625526464307}, "839380144RR0001": {"name": "POKROVA UKRAINIAN ARTS NETWORK", "designationCode": "C", "categoryCode": "22", "address": "14 NORTHVIEW RD", "city": "OTTAWA", "province": "ON", "country": "CA", "postalCode": "K2E6A7", "twitter": "None", "instagram": "None", "facebook": "None", "youtube": "None", "website": "None", "summary": "None", "logo": "None", "latitude": 45.36316532696624, "longitude": -75.7264739654624}, "862722279RR0001": {"name": "POLAR BEARS INTERNATIONAL (CANADA) INC.", "designationCode": "C", "categoryCode": "54", "address": "PO BOX 4052 STN B", "city": "WINNIPEG", "province": "MB", "country": "CA", "postalCode": "R2W5K8", "twitter": "None", "instagram": "None", "facebook": "None", "youtube": "None", "website": "None", "summary": "None", "logo": "None", "latitude": 49.899525000000054, "longitude": -97.14112999999993}, "824766745RR0001": {"name": "POLICE ATHLETIC LEAGUE (PAL)", "designationCode": "C", "categoryCode": "59", "address": "3585 GRAVELEY ST.", "city": "VANCOUVER", "province": "BC", "country": "CA", "postalCode": "V5K5J5", "twitter": "None", "instagram": "None", "facebook": "None", "youtube": "None", "website": "None", "summary": "None", "logo": "None", "latitude": 49.2702894838416, "longitude": -123.02619372300768}, "889091369RR0001": {"name": "POLICE COMMUNITY PARTNERSHIP - 12 DIVISION", "designationCode": "C", "categoryCode": "59", "address": "1884 DAVENPORT ROAD UNIT 2", "city": "TORONTO", "province": "ON", "country": "CA", "postalCode": "M6N4Y2", "twitter": "None", "instagram": "None", "facebook": "None", "youtube": "None", "website": "None", "summary": "None", "logo": "None", "latitude": 43.6706293183679, "longitude": -79.45381808840666}, "896946969RR0001": {"name": "POLIO REGINA INC.", "designationCode": "C", "categoryCode": "11", "address": "825 MCDONALD STREET", "city": "REGINA", "province": "SK", "country": "CA", "postalCode": "S4N2X5", "twitter": "None", "instagram": "None", "facebook": "None", "youtube": "None", "website": "None", "summary": "None", "logo": "None", "latitude": 50.46528633527612, "longitude": -104.5835768092509}, "870794443RR0001": {"name": "POLISH CANADIAN HUMANITARIAN SOCIETY", "designationCode": "C", "categoryCode": "09", "address": "4507 - 109 STREET", "city": "EDMONTON", "province": "AB", "country": "CA", "postalCode": "T6M2S9", "twitter": "None", "instagram": "None", "facebook": "None", "youtube": "None", "website": "None", "summary": "None", "logo": "None", "latitude": 53.64259284715544, "longitude": -113.51292292893723}, "124138447RR0001": {"name": "POLISH CANADIAN SOCIETY OF MUSIC-SOCIETE POLONAISE CANADIENNE DE MUSIQUE", "designationCode": "C", "categoryCode": "22", "address": "2625 MISENER CRESCENT", "city": "MISSISSAUGA", "province": "ON", "country": "CA", "postalCode": "L5K1M9", "twitter": "None", "instagram": "None", "facebook": "None", "youtube": "None", "website": "None", "summary": "None", "logo": "None", "latitude": 43.531748014166936, "longitude": -79.66918427327008}, "889640140RR0001": {"name": "POLISH CHRISTIAN BAPTIST CHURCH", "designationCode": "C", "categoryCode": "31", "address": "627 BURNHAMTHORPE RD, WEST", "city": "TORONTO", "province": "ON", "country": "CA", "postalCode": "M9C2Y9", "twitter": "None", "instagram": "None", "facebook": "None", "youtube": "None", "website": "None", "summary": "None", "logo": "None", "latitude": 43.64324308191444, "longitude": -79.57296896185572}, "887508398RR0001": {"name": "POLISH COMBATANTS ASSOCIATION IN CANADA INC BRANCH NO 20 CULTURAL CENTRE TRUST", "designationCode": "C", "categoryCode": "56", "address": "206 BEVERLEY STREET", "city": "TORONTO", "province": "ON", "country": "CA", "postalCode": "M5T1Z3", "twitter": "None", "instagram": "None", "facebook": "None", "youtube": "None", "website": "None", "summary": "None", "logo": "None", "latitude": 43.657139158751264, "longitude": -79.39527638706772}, "891266397RR0001": {"name": "POLISH FULL GOSPEL CHURCH", "designationCode": "C", "categoryCode": "36", "address": "85 THIRTY FIRST STREET", "city": "TORONTO", "province": "ON", "country": "CA", "postalCode": "M8W3G1", "twitter": "None", "instagram": "None", "facebook": "None", "youtube": "None", "website": "None", "summary": "None", "logo": "None", "latitude": 43.59409069290874, "longitude": -79.52974143888083}, "893457929RR0001": {"name": "POLISH FULL GOSPEL CHURCH", "designationCode": "C", "categoryCode": "36", "address": "54 COUGAR RIDGE BAY SW", "city": "CALGARY", "province": "AB", "country": "CA", "postalCode": "T3H5C4", "twitter": "None", "instagram": "None", "facebook": "None", "youtube": "None", "website": "None", "summary": "None", "logo": "None", "latitude": 51.06903243435861, "longitude": -114.20018044113928}, "890976673RR0001": {"name": "POLISH HERITAGE FOUNDATION OF CANADA INC.", "designationCode": "A", "categoryCode": "23", "address": "2857 DUNROBIN ROAD", "city": "DUNROBIN", "province": "ON", "country": "CA", "postalCode": "K0A1T0", "twitter": "None", "instagram": "None", "facebook": "None", "youtube": "None", "website": "None", "summary": "None", "logo": "None", "latitude": 45.424500655260154, "longitude": -76.02359018267036}, "887534295RR0001": {"name": "POLISH HERITAGE SOCIETY OF EDMONTON", "designationCode": "C", "categoryCode": "09", "address": "8735 STRATHEARN CRES NW", "city": "EDMONTON", "province": "AB", "country": "CA", "postalCode": "T6C4C5", "twitter": "None", "instagram": "None", "facebook": "None", "youtube": "None", "website": "None", "summary": "None", "logo": "None", "latitude": 53.53728151399403, "longitude": -113.46100385942637}, "119095479RR0001": {"name": "POLISH NATIONAL CATHOLIC CHURCH OF CANADA", "designationCode": "C", "categoryCode": "39", "address": "FATHER SYLVESTER BIGAJ        880 BARTON STREET EAST", "city": "HAMILTON", "province": "ON", "country": "CA", "postalCode": "L8L3B7", "twitter": "None", "instagram": "None", "facebook": "None", "youtube": "None", "website": "None", "summary": "None", "logo": "None", "latitude": 43.25398700969486, "longitude": -79.82661725618895}, "884935818RR0001": {"name": "POLISH ORPHANS CHARITY", "designationCode": "C", "categoryCode": "01", "address": "50 CUMBERLAND STR", "city": "TORONTO", "province": "ON", "country": "CA", "postalCode": "M4W1J5", "twitter": "None", "instagram": "None", "facebook": "None", "youtube": "None", "website": "None", "summary": "None", "logo": "None", "latitude": 43.670737275087745, "longitude": -79.38904735097225}, "892371840RR0001": {"name": "POLISH SATURDAY SCHOOL OF ST ANDREW BOBOLA PARISH INC", "designationCode": "C", "categoryCode": "20", "address": "541 MARION STREET", "city": "WINNIPEG", "province": "MB", "country": "CA", "postalCode": "R2J0J9", "twitter": "None", "instagram": "None", "facebook": "None", "youtube": "None", "website": "None", "summary": "None", "logo": "None", "latitude": 49.8820334643659, "longitude": -97.10100272439267}, "884863218RR0002": {"name": "POLISH SCOUTING ASSOCIATION IN CANADA (ONTARIO) INC.", "designationCode": "C", "categoryCode": "56", "address": "1342 MEREDITH AVE", "city": "MISSISSAUGA", "province": "ON", "country": "CA", "postalCode": "L5E2E7", "twitter": "None", "instagram": "None", "facebook": "None", "youtube": "None", "website": "None", "summary": "None", "logo": "None", "latitude": 43.582405243955286, "longitude": -79.56901910395857}, "888835246RR0001": {"name": "POLISH-CANADIAN PUBLISHING FUND", "designationCode": "C", "categoryCode": "22", "address": "PO BOX 29562                  377 BURNHAMTHORPE ROAD EAST", "city": "MISSISSAUGA", "province": "ON", "country": "CA", "postalCode": "L5A4H2", "twitter": "None", "instagram": "None", "facebook": "None", "youtube": "None", "website": "None", "summary": "None", "logo": "None", "latitude": 43.60135418504066, "longitude": -79.62605815272647}, "829438811RR0001": {"name": "POLISUK FAMILY FOUNDATION", "designationCode": "B", "categoryCode": "03", "address": "1 - 858 COLONEL BY DR", "city": "OTTAWA", "province": "ON", "country": "CA", "postalCode": "K1S5C5", "twitter": "None", "instagram": "None", "facebook": "None", "youtube": "None", "website": "None", "summary": "None", "logo": "None", "latitude": 45.39509211293229, "longitude": -75.68866877471329}, "837120526RR0001": {"name": "POLLAK FAMILY Trust", "designationCode": "B", "categoryCode": "03", "address": "5654 HUTCHISON", "city": "MONTREAL", "province": "QC", "country": "CA", "postalCode": "H2V4B6", "twitter": "None", "instagram": "None", "facebook": "None", "youtube": "None", "website": "None", "summary": "None", "logo": "None", "latitude": 45.522160712995706, "longitude": -73.60429451653285}, "889091971RR0001": {"name": "POLLY CEMETERY COMPANY", "designationCode": "C", "categoryCode": "59", "address": "RR 1 BELFAST PO", "city": "POINT PRIM", "province": "PE", "country": "CA", "postalCode": "C0A1A0", "twitter": "None", "instagram": "None", "facebook": "None", "youtube": "None", "website": "None", "summary": "None", "logo": "None", "latitude": 46.050320000000056, "longitude": -63.03926999999999}, "119095545RR0001": {"name": "POLONEZ POLISH FOLK ARTS ENSEMBLE, AN ALBERTA SOCIETY", "designationCode": "C", "categoryCode": "22", "address": "PO BOX 4458  STN SOUTH", "city": "EDMONTON", "province": "AB", "country": "CA", "postalCode": "T6E4T5", "twitter": "None", "instagram": "None", "facebook": "None", "youtube": "None", "website": "None", "summary": "None", "logo": "None", "latitude": 53.499354000000054, "longitude": -113.46577549999994}, "119095552RR0001": {"name": "POLONIA CENTRE (WINDSOR) INC.", "designationCode": "C", "categoryCode": "56", "address": "5101 SOUTH NATIONAL ST", "city": "WINDSOR", "province": "ON", "country": "CA", "postalCode": "N8Y4Z5", "twitter": "None", "instagram": "None", "facebook": "None", "youtube": "None", "website": "None", "summary": "None", "logo": "None", "latitude": 42.32091864167016, "longitude": -82.97166545490215}, "899779441RR0001": {"name": "POLONIA FOUNDATION IN ALBERTA", "designationCode": "A", "categoryCode": "23", "address": "415, 10115-100A STREET", "city": "EDMONTON", "province": "AB", "country": "CA", "postalCode": "T5J2W2", "twitter": "None", "instagram": "None", "facebook": "None", "youtube": "None", "website": "None", "summary": "None", "logo": "None", "latitude": 53.54137442714526, "longitude": -113.49199747709051}, "891276941RR0001": {"name": "POLONIA NORTH", "designationCode": "C", "categoryCode": "22", "address": "94 LOUISA STREET", "city": "BOLTON", "province": "ON", "country": "CA", "postalCode": "L7E3G5", "twitter": "None", "instagram": "None", "facebook": "None", "youtube": "None", "website": "None", "summary": "None", "logo": "None", "latitude": 43.880529049397, "longitude": -79.73407320231989}, "107406316RR0009": {"name": "POLSON PARK FREE METHODIST CHURCH", "designationCode": "C", "categoryCode": "39", "address": "5 MILES AVE.", "city": "KINGSTON", "province": "ON", "country": "CA", "postalCode": "K7M7G7", "twitter": "None", "instagram": "None", "facebook": "None", "youtube": "None", "website": "None", "summary": "None", "logo": "None", "latitude": 44.23472725287075, "longitude": -76.527795949218}, "119095586RR0001": {"name": "POLYDON", "designationCode": "C", "categoryCode": "20", "address": "919 RTE SAINT-MARTIN", "city": "SAINTE-MARIE", "province": "QC", "country": "CA", "postalCode": "G6E1E6", "twitter": "None", "instagram": "None", "facebook": "None", "youtube": "None", "website": "None", "summary": "None", "logo": "None", "latitude": 46.45430005949496, "longitude": -71.0266041432576}, "107851438RR0001": {"name": "POLYSAR GLEE CLUB", "designationCode": "C", "categoryCode": "22", "address": "939 WESTMINSTER DR.", "city": "SARNIA", "province": "ON", "country": "CA", "postalCode": "N7S3B6", "twitter": "None", "instagram": "None", "facebook": "None", "youtube": "None", "website": "None", "summary": "None", "logo": "None", "latitude": 42.990148910108886, "longitude": -82.37238456996613}, "889508909RR0001": {"name": "POMERANIAN AND SMALL BREED RESCUE", "designationCode": "C", "categoryCode": "54", "address": "4190 YORK DRIVE", "city": "NIAGARA FALLS", "province": "ON", "country": "CA", "postalCode": "L2E6Y4", "twitter": "None", "instagram": "None", "facebook": "None", "youtube": "None", "website": "None", "summary": "None", "logo": "None", "latitude": 43.112341707744235, "longitude": -79.11301652120738}, "119095610RR0001": {"name": "POMORZE POLISH DANCE ASSOCIATION", "designationCode": "C", "categoryCode": "22", "address": "41 OLD BIRCH RD", "city": "DARTMOUTH", "province": "NS", "country": "CA", "postalCode": "B2W6B4", "twitter": "None", "instagram": "None", "facebook": "None", "youtube": "None", "website": "None", "summary": "None", "logo": "None", "latitude": 44.66073094004274, "longitude": -63.51423020664772}, "119095628RR0001": {"name": "POMPIERS AUXILIAIRES DE MONTREAL", "designationCode": "C", "categoryCode": "59", "address": "5100 BOUL SAINT-LAURENT", "city": "MONTREAL", "province": "QC", "country": "CA", "postalCode": "H2T1R8", "twitter": "None", "instagram": "None", "facebook": "None", "youtube": "None", "website": "None", "summary": "None", "logo": "None", "latitude": 45.52319081903175, "longitude": -73.59317299001668}, "119095644RR0001": {"name": "POND MILLS CEMETERY", "designationCode": "C", "categoryCode": "59", "address": "2285 GLANWORTHDR", "city": "LONDON", "province": "ON", "country": "CA", "postalCode": "N6N1H4", "twitter": "None", "instagram": "None", "facebook": "None", "youtube": "None", "website": "None", "summary": "None", "logo": "None", "latitude": 42.868741552802135, "longitude": -81.17031112363675}, "891446346RR0001": {"name": "PONDEROSA CHARITABLE TRUST", "designationCode": "B", "categoryCode": "39", "address": "3425 2 AVE S", "city": "LETHBRIDGE", "province": "AB", "country": "CA", "postalCode": "T1J4V1", "twitter": "None", "instagram": "None", "facebook": "None", "youtube": "None", "website": "None", "summary": "None", "logo": "None", "latitude": 49.696839530439966, "longitude": -112.78914308381903}, "877952549RR0001": {"name": "PONOKA & RIMBEY PALLIATIVE CARE COUNCIL", "designationCode": "C", "categoryCode": "11", "address": "5900 - HWY 2A", "city": "PONOKA", "province": "AB", "country": "CA", "postalCode": "T4J1P5", "twitter": "None", "instagram": "None", "facebook": "None", "youtube": "None", "website": "None", "summary": "None", "logo": "None", "latitude": 52.685102760055244, "longitude": -113.57941754166599}, "134917392RR0001": {"name": "PONOKA AIR CADET SOCIETY", "designationCode": "C", "categoryCode": "29", "address": "PO BOX 4234", "city": "PONOKA", "province": "AB", "country": "CA", "postalCode": "T4J1R6", "twitter": "None", "instagram": "None", "facebook": "None", "youtube": "None", "website": "None", "summary": "None", "logo": "None", "latitude": 52.67526900000006, "longitude": -113.58076399999993}, "107851636RR0001": {"name": "PONOKA ALLIANCE CHURCH", "designationCode": "C", "categoryCode": "39", "address": "333 - 30 SPRINGBOROUGH BLVD SW", "city": "CALGARY", "province": "AB", "country": "CA", "postalCode": "T3H0N9", "twitter": "None", "instagram": "None", "facebook": "None", "youtube": "None", "website": "None", "summary": "None", "logo": "None", "latitude": 51.03440060144841, "longitude": -114.19115789676258}, "107851776RR0001": {"name": "PONOKA AND RECREATION DISTRICT BIG BROTHERS AND BIG SISTERS SOCIETY", "designationCode": "C", "categoryCode": "09", "address": "PO BOX 4115 STN MAIN", "city": "PONOKA", "province": "AB", "country": "CA", "postalCode": "T4J1R5", "twitter": "None", "instagram": "None", "facebook": "None", "youtube": "None", "website": "None", "summary": "None", "logo": "None", "latitude": 52.67526900000006, "longitude": -113.58076399999993}, "134979699RR0001": {"name": "PONOKA CHRISTIAN SCHOOL SOCIETY", "designationCode": "C", "categoryCode": "20", "address": "6300 50 TH STREET", "city": "PONOKA", "province": "AB", "country": "CA", "postalCode": "T4J1V3", "twitter": "None", "instagram": "None", "facebook": "None", "youtube": "None", "website": "None", "summary": "None", "logo": "None", "latitude": 52.69002089997461, "longitude": -113.56681116633646}, "130638414RR0001": {"name": "PONOKA COVERED WAGON HANDICAPPED TRANSPORT SOCIETY", "designationCode": "C", "categoryCode": "09", "address": "PO BOX 4004                   5006-52 AVENUE", "city": "PONOKA", "province": "AB", "country": "CA", "postalCode": "T4J1R5", "twitter": "None", "instagram": "None", "facebook": "None", "youtube": "None", "website": "None", "summary": "None", "logo": "None", "latitude": 52.677885853633136, "longitude": -113.57523924410202}, "131637506RR0001": {"name": "PONOKA DROP IN CENTRE", "designationCode": "C", "categoryCode": "56", "address": "5015-46 AVE", "city": "PONOKA", "province": "AB", "country": "CA", "postalCode": "T4J1J5", "twitter": "None", "instagram": "None", "facebook": "None", "youtube": "None", "website": "None", "summary": "None", "logo": "None", "latitude": 52.67321482705316, "longitude": -113.58029922442132}, "132152778RR0001": {"name": "PONOKA FAMILY AND COMMUNITY SUPPORT SERVICES ASSOCIATION", "designationCode": "C", "categoryCode": "09", "address": "BOX 4004", "city": "PONOKA", "province": "AB", "country": "CA", "postalCode": "T4J1R5", "twitter": "None", "instagram": "None", "facebook": "None", "youtube": "None", "website": "None", "summary": "None", "logo": "None", "latitude": 52.67526900000006, "longitude": -113.58076399999993}, "132824475RR0001": {"name": "PONOKA FOOD BANK ASSOCIATION", "designationCode": "C", "categoryCode": "09", "address": "BAY 6B 4612 50TH ST", "city": "PONOKA", "province": "AB", "country": "CA", "postalCode": "T4J1S7", "twitter": "None", "instagram": "None", "facebook": "None", "youtube": "None", "website": "None", "summary": "None", "logo": "None", "latitude": 52.67321292728947, "longitude": -113.57802117072514}, "135381432RR0001": {"name": "PONOKA HOSPITAL AND CARE CENTRE AUXILIARY", "designationCode": "A", "categoryCode": "15", "address": "5008 56 AVE", "city": "PONOKA", "province": "AB", "country": "CA", "postalCode": "T4J1G7", "twitter": "None", "instagram": "None", "facebook": "None", "youtube": "None", "website": "None", "summary": "None", "logo": "None", "latitude": 52.68133663670715, "longitude": -113.57377978599469}, "867349177RR0001": {"name": "PONOKA NEIGHBORHOOD PLACE ASSOCIATION", "designationCode": "C", "categoryCode": "59", "address": "3701 45 ST", "city": "PONOKA", "province": "AB", "country": "CA", "postalCode": "T4J1A6", "twitter": "None", "instagram": "None", "facebook": "None", "youtube": "None", "website": "None", "summary": "None", "logo": "None", "latitude": 52.66486695215959, "longitude": -113.5702824043192}, "119095743RR0001": {"name": "PONOKA SEVENTH-DAY ADVENTIST CHURCH", "designationCode": "C", "categoryCode": "41", "address": "5816 HIGHWAY 2A", "city": "LACOMBE", "province": "AB", "country": "CA", "postalCode": "T4L2G5", "twitter": "None", "instagram": "None", "facebook": "None", "youtube": "None", "website": "None", "summary": "None", "logo": "None", "latitude": 52.474063600197404, "longitude": -113.71692568401835}, "119095750RR0001": {"name": "PONOKA UNITED CHURCH", "designationCode": "C", "categoryCode": "44", "address": "5020-52 AVE.", "city": "PONOKA", "province": "AB", "country": "CA", "postalCode": "T4J1H5", "twitter": "None", "instagram": "None", "facebook": "None", "youtube": "None", "website": "None", "summary": "None", "logo": "None", "latitude": 52.67826318347844, "longitude": -113.57715558200135}, "895339224RR0001": {"name": "PONOKA VICTIMS SERVICES ASSOCIATION", "designationCode": "C", "categoryCode": "59", "address": "BOX 4068", "city": "PONOKA", "province": "AB", "country": "CA", "postalCode": "T4J1R3", "twitter": "None", "instagram": "None", "facebook": "None", "youtube": "None", "website": "None", "summary": "None", "logo": "None", "latitude": 52.67526900000006, "longitude": -113.58076399999993}, "879767515RR0001": {"name": "PONOKA YOUTH CENTRE ASSOCIATION", "designationCode": "C", "categoryCode": "09", "address": "BOX 4115", "city": "PONOKA", "province": "AB", "country": "CA", "postalCode": "T4J1R5", "twitter": "None", "instagram": "None", "facebook": "None", "youtube": "None", "website": "None", "summary": "None", "logo": "None", "latitude": 52.67526900000006, "longitude": -113.58076399999993}, "895596153RR0001": {"name": "PONTEIX & DISTRICT ROAD AMBULANCE NON-PROFIT CORPORATION", "designationCode": "C", "categoryCode": "19", "address": "BOX 150", "city": "PONTEIX", "province": "SK", "country": "CA", "postalCode": "S0N1Z0", "twitter": "None", "instagram": "None", "facebook": "None", "youtube": "None", "website": "None", "summary": "None", "logo": "None", "latitude": 49.746290000000045, "longitude": -107.49463999999995}, "119095768RR0001": {"name": "PONTEIX AND DISTRICT DONOR'S CHOICE", "designationCode": "A", "categoryCode": "05", "address": "BOX 473", "city": "PONTEIX", "province": "SK", "country": "CA", "postalCode": "S0N1Z0", "twitter": "None", "instagram": "None", "facebook": "None", "youtube": "None", "website": "None", "summary": "None", "logo": "None", "latitude": 49.746290000000045, "longitude": -107.49463999999995}, "119095818RR0001": {"name": "PONTIFICIAL ASSOCIATION OF THE HOLY CHILDHOOD OF CANADA", "designationCode": "C", "categoryCode": "47", "address": "2219 KENNEDY RD", "city": "SCARBOROUGH", "province": "ON", "country": "CA", "postalCode": "M1T3G5", "twitter": "None", "instagram": "None", "facebook": "None", "youtube": "None", "website": "None", "summary": "None", "logo": "None", "latitude": 43.78121555704306, "longitude": -79.28717990143713}, "865197420RR0001": {"name": "PONTS D'AMOUR AUX NATIONS / BRIDGES OF LOVE TO THE NATIONS", "designationCode": "C", "categoryCode": "47", "address": "C.P. 79137", "city": "GATINEAU", "province": "QC", "country": "CA", "postalCode": "J8Y6V2", "twitter": "None", "instagram": "None", "facebook": "None", "youtube": "None", "website": "None", "summary": "None", "logo": "None", "latitude": 45.428298000000055, "longitude": -75.71037049999994}, "843275090RR0001": {"name": "POO-REUN-NA-MOO CHARITY FOUNDATION", "designationCode": "C", "categoryCode": "09", "address": "140 - 10091 156 ST", "city": "SURREY", "province": "BC", "country": "CA", "postalCode": "V3R0C1", "twitter": "None", "instagram": "None", "facebook": "None", "youtube": "None", "website": "None", "summary": "None", "logo": "None", "latitude": 49.18599995337297, "longitude": -122.78981496505837}}