{"863998639RR0001": {"name": "DEMEURES SAINTE-CROIX, PHASE III INC.", "designationCode": "C", "categoryCode": "09", "address": "1165, AVENUE SAINTE-CROIX", "city": "SAINT-LAURENT", "province": "QC", "country": "CA", "postalCode": "H4L3Z2", "twitter": "None", "instagram": "None", "facebook": "None", "youtube": "None", "website": "None", "summary": "None", "logo": "None", "latitude": 45.51767901197387, "longitude": -73.68219479234267}, "891729840RR0001": {"name": "DEMI-LUNE", "designationCode": "C", "categoryCode": "09", "address": "390 8E RUE", "city": "QUEBEC", "province": "QC", "country": "CA", "postalCode": "G1L2P1", "twitter": "None", "instagram": "None", "facebook": "None", "youtube": "None", "website": "None", "summary": "None", "logo": "None", "latitude": 46.8256956186451, "longitude": -71.22746003843272}, "886044999RR0001": {"name": "DEMOCRACY EDUCATION NETWORK 1 LE RESEAU D'EDUCATION DE LA DEMOCRATIE", "designationCode": "C", "categoryCode": "21", "address": "P.O. BOX 1084 STN B", "city": "OTTAWA", "province": "ON", "country": "CA", "postalCode": "K1P5R1", "twitter": "None", "instagram": "None", "facebook": "None", "youtube": "None", "website": "None", "summary": "None", "logo": "None", "latitude": 45.42177300000006, "longitude": -75.69115999999994}, "877601583RR0001": {"name": "DEMSA DRYLAND EMERGENCY MEDICAL SERVICES ASSOCIATION", "designationCode": "C", "categoryCode": "59", "address": "BOX 960", "city": "HANNA", "province": "AB", "country": "CA", "postalCode": "T0J1P0", "twitter": "None", "instagram": "None", "facebook": "None", "youtube": "None", "website": "None", "summary": "None", "logo": "None", "latitude": 51.64780345530559, "longitude": -111.93814762829588}, "118975952RR0001": {"name": "DEN 205 INC.", "designationCode": "C", "categoryCode": "31", "address": "212 HENDERSON HWY             UNIT 3, SUITE 309", "city": "WINNIPEG", "province": "MB", "country": "CA", "postalCode": "R2L1L8", "twitter": "None", "instagram": "None", "facebook": "None", "youtube": "None", "website": "None", "summary": "None", "logo": "None", "latitude": 49.91385804247211, "longitude": -97.11529850432784}, "131453409RR0001": {"name": "DENARE BEACH NEW HORIZON'S CLUB INC.", "designationCode": "C", "categoryCode": "56", "address": "PO BOX 141", "city": "DENARE BEACH", "province": "SK", "country": "CA", "postalCode": "S0P0B0", "twitter": "None", "instagram": "None", "facebook": "None", "youtube": "None", "website": "None", "summary": "None", "logo": "None", "latitude": 54.65890500000006, "longitude": -102.07980349999994}, "137698700RR0001": {"name": "DENMAN CONSERVANCY ASSOCIATION", "designationCode": "C", "categoryCode": "52", "address": "PO BOX 60", "city": "DENMAN ISLAND", "province": "BC", "country": "CA", "postalCode": "V0R1T0", "twitter": "None", "instagram": "None", "facebook": "None", "youtube": "None", "website": "None", "summary": "None", "logo": "None", "latitude": 49.53449844732606, "longitude": -124.78075159664684}, "882381767RR0001": {"name": "DENMAN ISLAND COMMUNITY EDUCATION SOCIETY", "designationCode": "C", "categoryCode": "21", "address": "1100 NORTHWEST RD             PO BOX 45", "city": "DENMAN ISLAND", "province": "BC", "country": "CA", "postalCode": "V0R1T0", "twitter": "None", "instagram": "None", "facebook": "None", "youtube": "None", "website": "None", "summary": "None", "logo": "None", "latitude": 49.535425190211406, "longitude": -124.81684174514157}, "118884303RR0001": {"name": "DENMAN ISLAND UNITED CHURCH", "designationCode": "C", "categoryCode": "44", "address": "4575 DENMAN ROAD", "city": "DENMAN ISLAND", "province": "BC", "country": "CA", "postalCode": "V0R1T0", "twitter": "None", "instagram": "None", "facebook": "None", "youtube": "None", "website": "None", "summary": "None", "logo": "None", "latitude": 49.534952744408294, "longitude": -124.80282154015839}, "118884311RR0001": {"name": "DENMAN SENIORS AND MUSEUM SOCIETY", "designationCode": "C", "categoryCode": "50", "address": "BOX 28", "city": "DENMAN ISLAND", "province": "BC", "country": "CA", "postalCode": "V0R1T0", "twitter": "None", "instagram": "None", "facebook": "None", "youtube": "None", "website": "None", "summary": "None", "logo": "None", "latitude": 49.53449844732606, "longitude": -124.78075159664684}, "898240882RR0001": {"name": "DENNIS KNIBB SCHOLARSHIP TRUST FUND", "designationCode": "C", "categoryCode": "21", "address": "121 PARK DRIVE", "city": "ROTHESAY", "province": "NB", "country": "CA", "postalCode": "E2H1A9", "twitter": "None", "instagram": "None", "facebook": "None", "youtube": "None", "website": "None", "summary": "None", "logo": "None", "latitude": 45.357071565064494, "longitude": -66.03009222453689}, "891061624RR0001": {"name": "DENNIS O'BRIEN JOHN IVERSON MEMORIAL SCHOLARSHIP FUND INC", "designationCode": "C", "categoryCode": "21", "address": "227 BALL CRESCENT", "city": "SASKATOON", "province": "SK", "country": "CA", "postalCode": "S7K6E1", "twitter": "None", "instagram": "None", "facebook": "None", "youtube": "None", "website": "None", "summary": "None", "logo": "None", "latitude": 52.18252163336027, "longitude": -106.6155657250565}, "877160564RR0001": {"name": "DENTAL TREATMENT ASSISTANCE FUND OF THE KINGSTON, FRONTENAC AND LENNOX AND ADDINGTON HEALTH UNIT", "designationCode": "C", "categoryCode": "09", "address": "221 PORTSMOUTH AVE", "city": "KINGSTON", "province": "ON", "country": "CA", "postalCode": "K7M1V5", "twitter": "None", "instagram": "None", "facebook": "None", "youtube": "None", "website": "None", "summary": "None", "logo": "None", "latitude": 44.22782746073056, "longitude": -76.52583568867256}, "107014300RR0001": {"name": "DENTONIA PARK UNITED CHURCH", "designationCode": "C", "categoryCode": "44", "address": "2550 DANFORTH AVENUE", "city": "TORONTO", "province": "ON", "country": "CA", "postalCode": "M4C1L2", "twitter": "None", "instagram": "None", "facebook": "None", "youtube": "None", "website": "None", "summary": "None", "logo": "None", "latitude": 43.68811617236994, "longitude": -79.30208940397594}, "892763368RR0001": {"name": "DEOHAEKO SUPPORT NETWORK (DURHAM REGION)", "designationCode": "C", "categoryCode": "09", "address": "1750 ADA COURT", "city": "PICKERING", "province": "ON", "country": "CA", "postalCode": "L1V2Z1", "twitter": "None", "instagram": "None", "facebook": "None", "youtube": "None", "website": "None", "summary": "None", "logo": "None", "latitude": 43.82667932226304, "longitude": -79.11240538802001}, "897665964RR0001": {"name": "DEOXYRIBONUCLEIC ACID THEATRE", "designationCode": "C", "categoryCode": "22", "address": "133 BATHURST ST", "city": "TORONTO", "province": "ON", "country": "CA", "postalCode": "M5V2R2", "twitter": "None", "instagram": "None", "facebook": "None", "youtube": "None", "website": "None", "summary": "None", "logo": "None", "latitude": 43.64563161532688, "longitude": -79.40334897804279}, "120514294RR0001": {"name": "DEPANNAGE DE L'ANSE", "designationCode": "C", "categoryCode": "01", "address": "858 RUE DE PUYJALON #206", "city": "BAIE-COMEAU", "province": "QC", "country": "CA", "postalCode": "G5C1N1", "twitter": "None", "instagram": "None", "facebook": "None", "youtube": "None", "website": "None", "summary": "None", "logo": "None", "latitude": 49.1918574532574, "longitude": -68.25789422176693}, "869845875RR0001": {"name": "DEPANNAGE ST AGAPIT", "designationCode": "C", "categoryCode": "09", "address": "419, 3IEME AVENUE", "city": "DEUX-MONTAGNES", "province": "QC", "country": "CA", "postalCode": "J7R3A5", "twitter": "None", "instagram": "None", "facebook": "None", "youtube": "None", "website": "None", "summary": "None", "logo": "None", "latitude": 45.55138349016092, "longitude": -73.89857509489887}, "891480998RR0001": {"name": "DEPANNAGE STE-MADELEINE INC", "designationCode": "C", "categoryCode": "09", "address": "35 RUE TOUPIN", "city": "TROIS-RIVIERES", "province": "QC", "country": "CA", "postalCode": "G8T3Y4", "twitter": "None", "instagram": "None", "facebook": "None", "youtube": "None", "website": "None", "summary": "None", "logo": "None", "latitude": 46.36146677162529, "longitude": -72.50867731230838}, "118884402RR0001": {"name": "DEPARTURE BAY BAPTIST CHURCH", "designationCode": "C", "categoryCode": "31", "address": "3510 DEPARTURE BAY RD", "city": "NANAIMO", "province": "BC", "country": "CA", "postalCode": "V9T1C1", "twitter": "None", "instagram": "None", "facebook": "None", "youtube": "None", "website": "None", "summary": "None", "logo": "None", "latitude": 49.21014549653755, "longitude": -123.98653294463038}, "119288918RR1042": {"name": "DEPARTURE BAY CONGREGATION OF JEHOVAH'S WITNESSES", "designationCode": "C", "categoryCode": "61", "address": "202 - 2117 MEREDITH RD", "city": "NANAIMO", "province": "BC", "country": "CA", "postalCode": "V9S2N2", "twitter": "None", "instagram": "None", "facebook": "None", "youtube": "None", "website": "None", "summary": "None", "logo": "None", "latitude": 49.18823214183047, "longitude": -123.9886157442755}, "891328007RR0001": {"name": "DEPOT ALIMENTAIRE NDG", "designationCode": "C", "categoryCode": "09", "address": "2146, AV. MARLOWE", "city": "MONTREAL", "province": "QC", "country": "CA", "postalCode": "H4A3L5", "twitter": "None", "instagram": "None", "facebook": "None", "youtube": "None", "website": "None", "summary": "None", "logo": "None", "latitude": 45.474778760747924, "longitude": -73.60664229684339}, "872767736RR0001": {"name": "DEPRESSIVE AND MANIC DEPRESSIVE SUPPORT GROUP OF NIAGARA REGION", "designationCode": "C", "categoryCode": "09", "address": "75 LIVINGSTON AVE", "city": "GRIMSBY", "province": "ON", "country": "CA", "postalCode": "L3M1L4", "twitter": "None", "instagram": "None", "facebook": "None", "youtube": "None", "website": "None", "summary": "None", "logo": "None", "latitude": 43.19671279098636, "longitude": -79.57222564530548}, "761670694RR0001": {"name": "DERBY MANOR CHARITABLE HOLDINGS SOCIETY", "designationCode": "C", "categoryCode": "01", "address": "7550 CUMBERLAND ST", "city": "BURNABY", "province": "BC", "country": "CA", "postalCode": "V3N3X5", "twitter": "None", "instagram": "None", "facebook": "None", "youtube": "None", "website": "None", "summary": "None", "logo": "None", "latitude": 49.23191908194142, "longitude": -122.91775126252735}, "760943126RR0001": {"name": "DERBY MANOR HOUSING SOCIETY", "designationCode": "C", "categoryCode": "09", "address": "7550 CUMBERLAND ST", "city": "BURNABY", "province": "BC", "country": "CA", "postalCode": "V3N3X5", "twitter": "None", "instagram": "None", "facebook": "None", "youtube": "None", "website": "None", "summary": "None", "logo": "None", "latitude": 49.23191908194142, "longitude": -122.91775126252735}, "893719484RR0001": {"name": "DEREK PRINCE MINISTRIES ASSOCIATION", "designationCode": "C", "categoryCode": "47", "address": "203-264 BEDFORD HWY           P O BOX 8354", "city": "HALIFAX", "province": "NS", "country": "CA", "postalCode": "B3K5M1", "twitter": "None", "instagram": "None", "facebook": "None", "youtube": "None", "website": "None", "summary": "None", "logo": "None", "latitude": 44.677625784609724, "longitude": -63.64946621097555}, "856798178RR0001": {"name": "DEROCHE CHRISTIAN RETREAT SOCIETY", "designationCode": "C", "categoryCode": "56", "address": "10943 BROOKS RD.              PO BOX 122", "city": "DEROCHE", "province": "BC", "country": "CA", "postalCode": "V0M1G0", "twitter": "None", "instagram": "None", "facebook": "None", "youtube": "None", "website": "None", "summary": "None", "logo": "None", "latitude": 49.202228400156926, "longitude": -122.05755583219927}, "134827484RR0001": {"name": "DERWENT HOLY SPIRIT UKRAINIAN CATHOLIC PARISH", "designationCode": "C", "categoryCode": "38", "address": "4513 STEWART CRESC.", "city": "VERMILION", "province": "AB", "country": "CA", "postalCode": "T9X1R3", "twitter": "None", "instagram": "None", "facebook": "None", "youtube": "None", "website": "None", "summary": "None", "logo": "None", "latitude": 53.359425140112286, "longitude": -110.83923017312067}, "890680747RR0001": {"name": "DES PANIERS DE NOEL BLITZ LIONS / LIONS CHRISTMAS BASKETS BLITZ", "designationCode": "C", "categoryCode": "65", "address": "CASE POSTALE 2714", "city": "GATINEAU", "province": "QC", "country": "CA", "postalCode": "J8L2X1", "twitter": "None", "instagram": "None", "facebook": "None", "youtube": "None", "website": "None", "summary": "None", "logo": "None", "latitude": 45.70998900000005, "longitude": -75.38733349999994}, "107910259RR0212": {"name": "DESALES CHAPLAINCY", "designationCode": "C", "categoryCode": "38", "address": "501 - 360 BAY ST", "city": "TORONTO", "province": "ON", "country": "CA", "postalCode": "M5H2V6", "twitter": "None", "instagram": "None", "facebook": "None", "youtube": "None", "website": "None", "summary": "None", "logo": "None", "latitude": 43.65076509463908, "longitude": -79.38116595394987}, "852543586RR0001": {"name": "DESARROLLO - LA R\u00c9ADAPTATION POUR LE D\u00c9VELOPPEMENT", "designationCode": "C", "categoryCode": "09", "address": "143 - 4951 RUE ONTARIO E", "city": "MONTREAL", "province": "QC", "country": "CA", "postalCode": "H1V1M3", "twitter": "None", "instagram": "None", "facebook": "None", "youtube": "None", "website": "None", "summary": "None", "logo": "None", "latitude": 45.55956600000001, "longitude": -73.5352785}, "118884485RR0001": {"name": "DESBARATS UNITED CHURCH", "designationCode": "C", "categoryCode": "44", "address": "BOX 105", "city": "DESBARATS", "province": "ON", "country": "CA", "postalCode": "P0R1E0", "twitter": "None", "instagram": "None", "facebook": "None", "youtube": "None", "website": "None", "summary": "None", "logo": "None", "latitude": 46.302099084085796, "longitude": -83.79029912888505}, "864229117RR0001": {"name": "DESCENDANTS OF THE BRUDENELL PIONEERS INC.", "designationCode": "C", "categoryCode": "50", "address": "8 - 58 GREEN ST", "city": "CHARLOTTETOWN", "province": "PE", "country": "CA", "postalCode": "C1A2E9", "twitter": "None", "instagram": "None", "facebook": "None", "youtube": "None", "website": "None", "summary": "None", "logo": "None", "latitude": 46.236689141266126, "longitude": -63.137753932136896}, "131892622RR0001": {"name": "DESCENT OF THE HOLY GHOST CANADIAN ROMANIAN ORTHODOX CHURCH", "designationCode": "C", "categoryCode": "39", "address": "2895 SEMINOLE ST", "city": "WINDSOR", "province": "ON", "country": "CA", "postalCode": "N8Y1Y1", "twitter": "None", "instagram": "None", "facebook": "None", "youtube": "None", "website": "None", "summary": "None", "logo": "None", "latitude": 42.31239149235396, "longitude": -82.99339999417161}, "866292493RR0001": {"name": "DESCENT OF THE HOLY SPIRIT LADIES ORGANIZATION", "designationCode": "C", "categoryCode": "49", "address": "BOX 1252", "city": "WADENA", "province": "SK", "country": "CA", "postalCode": "S0A4J0", "twitter": "None", "instagram": "None", "facebook": "None", "youtube": "None", "website": "None", "summary": "None", "logo": "None", "latitude": 51.94407000000007, "longitude": -103.79973999999999}, "107016495RR0001": {"name": "DESCENT OF THE HOLY SPIRIT UKRAINIAN CATHOLIC PARISH", "designationCode": "C", "categoryCode": "38", "address": "BOX 1144", "city": "WADENA", "province": "SK", "country": "CA", "postalCode": "S0A4J0", "twitter": "None", "instagram": "None", "facebook": "None", "youtube": "None", "website": "None", "summary": "None", "logo": "None", "latitude": 51.94407000000007, "longitude": -103.79973999999999}, "888367265RR0001": {"name": "DESCENT OF THE HOLY SPIRIT UKRAINIAN CATHOLIC PARISH", "designationCode": "C", "categoryCode": "39", "address": "5207 LAKESHORE DRIVE", "city": "BONNYVILLE", "province": "AB", "country": "CA", "postalCode": "T9N1Y1", "twitter": "None", "instagram": "None", "facebook": "None", "youtube": "None", "website": "None", "summary": "None", "logo": "None", "latitude": 54.26588636943836, "longitude": -110.74783543909047}, "832957419RR0001": {"name": "DESCENT OF THE HOLY SPIRIT UKRAINIAN CATHOLIC PARISH WASKATENAU", "designationCode": "C", "categoryCode": "38", "address": "RR1", "city": "WASKATENEAU", "province": "AB", "country": "CA", "postalCode": "T0A3P0", "twitter": "None", "instagram": "None", "facebook": "None", "youtube": "None", "website": "None", "summary": "None", "logo": "None", "latitude": 54.09378000000004, "longitude": -112.78504001226229}, "812877959RR0001": {"name": "DESCHAMPS FOUNDATION", "designationCode": "A", "categoryCode": "03", "address": "821 SILVERTIP HTS", "city": "CANMORE", "province": "AB", "country": "CA", "postalCode": "T1W3K9", "twitter": "None", "instagram": "None", "facebook": "None", "youtube": "None", "website": "None", "summary": "None", "logo": "None", "latitude": 51.099604615022635, "longitude": -115.33977312784313}, "713729127RR0001": {"name": "DESERONTO AND DISTRICT HISTORICAL SOCIETY", "designationCode": "C", "categoryCode": "50", "address": "358 MAIN STREET", "city": "DESERONTO", "province": "ON", "country": "CA", "postalCode": "K0K1X0", "twitter": "None", "instagram": "None", "facebook": "None", "youtube": "None", "website": "None", "summary": "None", "logo": "None", "latitude": 44.19540186620706, "longitude": -77.04742821758333}, "118884535RR0001": {"name": "DESERONTO PENTECOSTAL CHURCH", "designationCode": "C", "categoryCode": "36", "address": "BOX 410", "city": "DESERONTO", "province": "ON", "country": "CA", "postalCode": "K0K1X0", "twitter": "None", "instagram": "None", "facebook": "None", "youtube": "None", "website": "None", "summary": "None", "logo": "None", "latitude": 44.24640750000001, "longitude": -77.06454975}, "867022568RR0001": {"name": "DESERT SPRINGS CHRISTIAN MINISTRIES", "designationCode": "C", "categoryCode": "39", "address": "4315 57 AVE", "city": "INNISFAIL", "province": "AB", "country": "CA", "postalCode": "T4G1K7", "twitter": "None", "instagram": "None", "facebook": "None", "youtube": "None", "website": "None", "summary": "None", "logo": "None", "latitude": 52.02135799417161, "longitude": -113.9677155262277}, "832389878RR0001": {"name": "DESERT STREAMS HEALING MINISTRIES", "designationCode": "C", "categoryCode": "49", "address": "#4-9829-44 AVENUE NW", "city": "EDMONTON", "province": "AB", "country": "CA", "postalCode": "T6E5E3", "twitter": "None", "instagram": "None", "facebook": "None", "youtube": "None", "website": "None", "summary": "None", "logo": "None", "latitude": 53.48183399999999, "longitude": -113.48547074999999}, "843948563RR0001": {"name": "DESERT VALLEY HOSPICE SOCIETY", "designationCode": "C", "categoryCode": "13", "address": "P.O. BOX 1261", "city": "OLIVER", "province": "BC", "country": "CA", "postalCode": "V0H1T0", "twitter": "None", "instagram": "None", "facebook": "None", "youtube": "None", "website": "None", "summary": "None", "logo": "None", "latitude": 49.182600000000036, "longitude": -119.55045999999999}, "890525371RR0001": {"name": "DESHANTARI - OF OTTAWA-CARLETON IN TRUST", "designationCode": "C", "categoryCode": "39", "address": "549 OSMOND DALEY DR", "city": "CARP", "province": "ON", "country": "CA", "postalCode": "K0A1L0", "twitter": "None", "instagram": "None", "facebook": "None", "youtube": "None", "website": "None", "summary": "None", "logo": "None", "latitude": 45.30486134393179, "longitude": -75.99710806362124}, "119236214RR0001": {"name": "DESIGN EXCHANGE", "designationCode": "C", "categoryCode": "50", "address": "234 BAY ST., PO BOX 18        TD CENTRE", "city": "TORONTO", "province": "ON", "country": "CA", "postalCode": "M5K1B2", "twitter": "None", "instagram": "None", "facebook": "None", "youtube": "None", "website": "None", "summary": "None", "logo": "None", "latitude": 43.64868300000006, "longitude": -79.38544399999994}, "130626393RR0001": {"name": "DESIGN FOR A NEW TOMORROW: COUNSELLING FOR ADULTS IN ABUSIVE RELATIONSHIPS, INC", "designationCode": "C", "categoryCode": "59", "address": "60 JAMES STREET SUITE 502", "city": "ST CATHARINES", "province": "ON", "country": "CA", "postalCode": "L2R7E7", "twitter": "None", "instagram": "None", "facebook": "None", "youtube": "None", "website": "None", "summary": "None", "logo": "None", "latitude": 43.15890739191514, "longitude": -79.24547516331022}, "848967568RR0001": {"name": "DESIGN FOR DEVELOPMENT SOCIETY", "designationCode": "C", "categoryCode": "59", "address": "3107 SADDLE LANE", "city": "VANCOUVER", "province": "BC", "country": "CA", "postalCode": "V5S4L4", "twitter": "None", "instagram": "None", "facebook": "None", "youtube": "None", "website": "None", "summary": "None", "logo": "None", "latitude": 49.21800945123242, "longitude": -123.03962499024647}, "862517695RR0001": {"name": "DESIGNING ROUTES TO EDUCATION AND MENTORSHIP", "designationCode": "B", "categoryCode": "21", "address": "305 HELENA STREET", "city": "DUNNVILLE", "province": "ON", "country": "CA", "postalCode": "N1A2S9", "twitter": "None", "instagram": "None", "facebook": "None", "youtube": "None", "website": "None", "summary": "None", "logo": "None", "latitude": 42.90691816661363, "longitude": -79.62656851633942}, "119260073RR0001": {"name": "DESNA FOUNDATION", "designationCode": "C", "categoryCode": "23", "address": "9 PLASTICS AVENUE", "city": "TORONTO", "province": "ON", "country": "CA", "postalCode": "M8Z4B6", "twitter": "None", "instagram": "None", "facebook": "None", "youtube": "None", "website": "None", "summary": "None", "logo": "None", "latitude": 43.62329980711517, "longitude": -79.50931150551126}, "820011955RR0001": {"name": "DESPERATE HOUSE CATS RESCUE SOCIETY", "designationCode": "C", "categoryCode": "54", "address": "100 CITY CENTRE DR            P.O. BOX 2274", "city": "MISSISSAUGA", "province": "ON", "country": "CA", "postalCode": "L5B3C8", "twitter": "None", "instagram": "None", "facebook": "None", "youtube": "None", "website": "None", "summary": "None", "logo": "None", "latitude": 43.5949848353917, "longitude": -79.64038587610345}, "118884584RR0001": {"name": "DESPINS CHARITIES INC.-CHARITES DESPINS INC.", "designationCode": "C", "categoryCode": "10", "address": "151 DESPINS ST", "city": "WINNIPEG", "province": "MB", "country": "CA", "postalCode": "R2H0L7", "twitter": "None", "instagram": "None", "facebook": "None", "youtube": "None", "website": "None", "summary": "None", "logo": "None", "latitude": 49.88715546047076, "longitude": -97.12240419470248}, "120832514RR0001": {"name": "DESSERCOM INC", "designationCode": "C", "categoryCode": "11", "address": "5600 RUE J.-B.-MICHAUD", "city": "LEVIS", "province": "QC", "country": "CA", "postalCode": "G6V0N9", "twitter": "None", "instagram": "None", "facebook": "None", "youtube": "None", "website": "None", "summary": "None", "logo": "None", "latitude": 46.78871122011098, "longitude": -71.16447505714365}, "118884600RR0001": {"name": "DESSERTE DE NOTRE-DAME DU FLEUVE ST-LAURENT", "designationCode": "C", "categoryCode": "38", "address": "1012 DE DIJON", "city": "QU\u00c9BEC", "province": "QC", "country": "CA", "postalCode": "G1W2M8", "twitter": "None", "instagram": "None", "facebook": "None", "youtube": "None", "website": "None", "summary": "None", "logo": "None", "latitude": 46.75960707689412, "longitude": -71.31748751292618}, "118884683RR0001": {"name": "DESSERTE LAC TROIS SAUMONS", "designationCode": "C", "categoryCode": "38", "address": "100-4E AVENUE", "city": "LA POCATIERE", "province": "QC", "country": "CA", "postalCode": "G0R1Z0", "twitter": "None", "instagram": "None", "facebook": "None", "youtube": "None", "website": "None", "summary": "None", "logo": "None", "latitude": 47.36699289757065, "longitude": -70.03980789130864}, "118884717RR0001": {"name": "DESSERTE QUAI DE RIVIERE OUELLE", "designationCode": "C", "categoryCode": "38", "address": "102 DE L'EGLISE", "city": "RIVIERE-OUELLE", "province": "QC", "country": "CA", "postalCode": "G0L2C0", "twitter": "None", "instagram": "None", "facebook": "None", "youtube": "None", "website": "None", "summary": "None", "logo": "None", "latitude": 47.43296212101103, "longitude": -70.01523251402268}, "132503574RR0002": {"name": "DESSERTE STE-MONIQUE,", "designationCode": "C", "categoryCode": "38", "address": "1320 BIBEAU", "city": "ST-HYACINTHE", "province": "QC", "country": "CA", "postalCode": "J2S3R4", "twitter": "None", "instagram": "None", "facebook": "None", "youtube": "None", "website": "None", "summary": "None", "logo": "None", "latitude": 45.62301501471519, "longitude": -72.9415277647873}, "140414913RR0001": {"name": "DESSERTE STE-ROSE-DE-LIMA", "designationCode": "C", "categoryCode": "38", "address": "C.P. 100 - 4 RUE MACESK", "city": "WEMOTACI", "province": "QC", "country": "CA", "postalCode": "G0X3R0", "twitter": "None", "instagram": "None", "facebook": "None", "youtube": "None", "website": "None", "summary": "None", "logo": "None", "latitude": 47.90405903165208, "longitude": -73.78077595158393}, "856369905RR0001": {"name": "DESTINATION DISCOVERY MINISTRIES OF TORONTO INC.", "designationCode": "C", "categoryCode": "49", "address": "PO BOX 91081                  2901 BAYVIEW AVE", "city": "TORONTO", "province": "ON", "country": "CA", "postalCode": "M2K2Y6", "twitter": "None", "instagram": "None", "facebook": "None", "youtube": "None", "website": "None", "summary": "None", "logo": "None", "latitude": 43.76919245850885, "longitude": -79.38857782956332}, "141285759RR0001": {"name": "DESTINATION TRAVAIL DU SUD-OUEST DE L'ILE DE MONTREAL INC", "designationCode": "C", "categoryCode": "09", "address": "1191 90 AVE BUREAU 200", "city": "LASALLE", "province": "QC", "country": "CA", "postalCode": "H8R3A6", "twitter": "None", "instagram": "None", "facebook": "None", "youtube": "None", "website": "None", "summary": "None", "logo": "None", "latitude": 45.42866871409056, "longitude": -73.63879845646234}, "875846917RR0001": {"name": "DESTINY & DOMINION WORD MINISTRIES", "designationCode": "C", "categoryCode": "47", "address": "PO BOX 46532, RPO AGINCOURT", "city": "TORONTO", "province": "ON", "country": "CA", "postalCode": "M1T3V8", "twitter": "None", "instagram": "None", "facebook": "None", "youtube": "None", "website": "None", "summary": "None", "logo": "None", "latitude": 43.78598000000005, "longitude": -79.28019999999998}, "130721145RR0001": {"name": "DESTINY CHRISTIAN SCHOOL SOCIETY", "designationCode": "C", "categoryCode": "20", "address": "37557 HIGHWAY 2A", "city": "RED DEER COUNTY", "province": "AB", "country": "CA", "postalCode": "T4E1S2", "twitter": "None", "instagram": "None", "facebook": "None", "youtube": "None", "website": "None", "summary": "None", "logo": "None", "latitude": 52.22974494678577, "longitude": -113.81390447218878}, "857742803RR0001": {"name": "DESTINY INTERNATIONAL CHURCH", "designationCode": "C", "categoryCode": "39", "address": "1621 VALLEY VIEW RD", "city": "VAL CARON", "province": "ON", "country": "CA", "postalCode": "P3N1K7", "twitter": "None", "instagram": "None", "facebook": "None", "youtube": "None", "website": "None", "summary": "None", "logo": "None", "latitude": 46.594452470136936, "longitude": -81.00780202553523}, "802762856RR0001": {"name": "DESTINY PAVILION CHURCH", "designationCode": "C", "categoryCode": "39", "address": "11-1179 FINCH AVE W", "city": "TORONTO", "province": "ON", "country": "CA", "postalCode": "M3J2G1", "twitter": "None", "instagram": "None", "facebook": "None", "youtube": "None", "website": "None", "summary": "None", "logo": "None", "latitude": 43.765418814790834, "longitude": -79.48208677751192}, "729357723RR0001": {"name": "DESTINY VOCATIONAL TRAINING CENTRE", "designationCode": "B", "categoryCode": "20", "address": "19 KENVIEW BOULEVARD,         UNIT 47", "city": "BRAMPTON", "province": "ON", "country": "CA", "postalCode": "L6T5G6", "twitter": "None", "instagram": "None", "facebook": "None", "youtube": "None", "website": "None", "summary": "None", "logo": "None", "latitude": 43.73752335717601, "longitude": -79.65025936964084}, "892873183RR0001": {"name": "DETLOR UNITED CHURCH CEMETERY BOARD", "designationCode": "C", "categoryCode": "59", "address": "RR 1", "city": "L'AMABLE", "province": "ON", "country": "CA", "postalCode": "K0L2L0", "twitter": "None", "instagram": "None", "facebook": "None", "youtube": "None", "website": "None", "summary": "None", "logo": "None", "latitude": 45.02553033213847, "longitude": -77.80318895288183}, "889496667RR0001": {"name": "DETWEILER MEETINGHOUSE INC", "designationCode": "C", "categoryCode": "34", "address": "29 POND VIEW DR", "city": "WELLESLEY", "province": "ON", "country": "CA", "postalCode": "N0B2T0", "twitter": "None", "instagram": "None", "facebook": "None", "youtube": "None", "website": "None", "summary": "None", "logo": "None", "latitude": 43.47637678256874, "longitude": -80.76941481677589}, "107016941RR0001": {"name": "DEUTSCHE EVANGELIUMS KIRCHE (GERMAN UNITED CHURCH)", "designationCode": "C", "categoryCode": "44", "address": "20 GLEBE ROAD EAST", "city": "TORONTO", "province": "ON", "country": "CA", "postalCode": "M4S1N6", "twitter": "None", "instagram": "None", "facebook": "None", "youtube": "None", "website": "None", "summary": "None", "logo": "None", "latitude": 43.701367241762235, "longitude": -79.39615609423504}, "894173210RR0001": {"name": "DEUTSCHE SCHULE TORONTO", "designationCode": "C", "categoryCode": "20", "address": "980 DUFFERIN ST", "city": "TORONTO", "province": "ON", "country": "CA", "postalCode": "M6H4B4", "twitter": "None", "instagram": "None", "facebook": "None", "youtube": "None", "website": "None", "summary": "None", "logo": "None", "latitude": 43.65871198972821, "longitude": -79.43493595158394}, "107016966RR0001": {"name": "DEUTSCHE SPRACHSCHULEN (METRO TORONTO) INC.", "designationCode": "C", "categoryCode": "20", "address": "23 MCCARTY CRES.", "city": "MARKHAM", "province": "ON", "country": "CA", "postalCode": "L3P4R4", "twitter": "None", "instagram": "None", "facebook": "None", "youtube": "None", "website": "None", "summary": "None", "logo": "None", "latitude": 43.89120783516057, "longitude": -79.25354854022174}, "860811595RR0001": {"name": "DEUX MILLE FOUNDATION", "designationCode": "B", "categoryCode": "03", "address": "900-400 BURRARD STREET", "city": "VANCOUVER", "province": "BC", "country": "CA", "postalCode": "V6C3B7", "twitter": "None", "instagram": "None", "facebook": "None", "youtube": "None", "website": "None", "summary": "None", "logo": "None", "latitude": 49.28681362779169, "longitude": -123.11738784399004}, "893447417RR0001": {"name": "DEUXI\u00c8ME CHANCE CAF\u00c9", "designationCode": "C", "categoryCode": "09", "address": "5850 JEAN-TALON EST", "city": "ST-LEONARD", "province": "QC", "country": "CA", "postalCode": "H1S1M2", "twitter": "None", "instagram": "None", "facebook": "None", "youtube": "None", "website": "None", "summary": "None", "logo": "None", "latitude": 45.585280415200025, "longitude": -73.58016436799605}, "889722179RR0001": {"name": "DEUXIEME EGLISE DU CHRIST, SCIENTISTE", "designationCode": "C", "categoryCode": "39", "address": "1657 LAURIER EST", "city": "MONTREAL", "province": "QC", "country": "CA", "postalCode": "H2J1J3", "twitter": "None", "instagram": "None", "facebook": "None", "youtube": "None", "website": "None", "summary": "None", "logo": "None", "latitude": 45.53547376409481, "longitude": -73.58191799114185}, "827850728RR0001": {"name": "DEVELOPING NATIONS SOCIAL HELP CHARITABLE CORPORATION", "designationCode": "C", "categoryCode": "03", "address": "188 VICTORIA AVE.", "city": "BELLEVILLE", "province": "ON", "country": "CA", "postalCode": "K8N2B8", "twitter": "None", "instagram": "None", "facebook": "None", "youtube": "None", "website": "None", "summary": "None", "logo": "None", "latitude": 44.16952029194631, "longitude": -77.37269924555595}, "849497078RR0001": {"name": "DEVELOPING WORLD CONNECTIONS SOCIETY", "designationCode": "C", "categoryCode": "09", "address": "220-141 VICTORIA S", "city": "KAMLOOPS", "province": "BC", "country": "CA", "postalCode": "V2C1Z5", "twitter": "None", "instagram": "None", "facebook": "None", "youtube": "None", "website": "None", "summary": "None", "logo": "None", "latitude": 50.67582139183305, "longitude": -120.32542638920374}, "108167701RR0001": {"name": "DEVELOPMENTAL DISABILITIES ASSOCIATION OF VANCOUVER-RICHMOND", "designationCode": "C", "categoryCode": "11", "address": "3851 SHELL ROAD, SUITE 100", "city": "RICHMOND", "province": "BC", "country": "CA", "postalCode": "V6X2W2", "twitter": "None", "instagram": "None", "facebook": "None", "youtube": "None", "website": "None", "summary": "None", "logo": "None", "latitude": 49.18576536663974, "longitude": -123.10283202002397}, "137268785RR0001": {"name": "DEVELOPMENTAL DISABILITIES FOUNDATION OF VANCOUVER-RICHMOND", "designationCode": "A", "categoryCode": "05", "address": "100-3851 SHELL RD", "city": "RICHMOND", "province": "BC", "country": "CA", "postalCode": "V6X2W2", "twitter": "None", "instagram": "None", "facebook": "None", "youtube": "None", "website": "None", "summary": "None", "logo": "None", "latitude": 49.18576536663974, "longitude": -123.10283202002397}, "893605048RR0001": {"name": "DEVELOPMENTAL DISABILITIES RESOURCE FOUNDATION (DDRF)", "designationCode": "A", "categoryCode": "11", "address": "4631 RICHARDSON WAY SW", "city": "CALGARY", "province": "AB", "country": "CA", "postalCode": "T3E7B7", "twitter": "None", "instagram": "None", "facebook": "None", "youtube": "None", "website": "None", "summary": "None", "logo": "None", "latitude": 51.01370446747259, "longitude": -114.13618471976287}, "133590349RR0001": {"name": "DEVELOPPEMENT COMMUNAUTAIRE UN\u00ceLE INC", "designationCode": "C", "categoryCode": "20", "address": "1241 CH. DU BASSIN", "city": "BASSIN", "province": "QC", "country": "CA", "postalCode": "G4T0E7", "twitter": "None", "instagram": "None", "facebook": "None", "youtube": "None", "website": "None", "summary": "None", "logo": "None", "latitude": 47.21974218065116, "longitude": -61.98196146199996}, "892216656RR0001": {"name": "DEVIL'S COULEE COOPERATING SOCIETY", "designationCode": "C", "categoryCode": "50", "address": "BOX 156", "city": "WARNER", "province": "AB", "country": "CA", "postalCode": "T0K2L0", "twitter": "None", "instagram": "None", "facebook": "None", "youtube": "None", "website": "None", "summary": "None", "logo": "None", "latitude": 49.283300000000054, "longitude": -112.20177999999999}, "107017154RR0001": {"name": "DEVINE STREET GOSPEL CHAPEL", "designationCode": "C", "categoryCode": "39", "address": "1044 FAIRLANE AVENUE", "city": "SARNIA", "province": "ON", "country": "CA", "postalCode": "N7S3J8", "twitter": "None", "instagram": "None", "facebook": "None", "youtube": "None", "website": "None", "summary": "None", "logo": "None", "latitude": 42.99403167627352, "longitude": -82.3673243051147}, "888654662RR0001": {"name": "DEVITT'S CEMETERY", "designationCode": "C", "categoryCode": "59", "address": "1449 ONEIDA CT", "city": "OSHAWA", "province": "ON", "country": "CA", "postalCode": "L1G4M7", "twitter": "None", "instagram": "None", "facebook": "None", "youtube": "None", "website": "None", "summary": "None", "logo": "None", "latitude": 43.93494653733622, "longitude": -78.88381811584647}, "118884865RR0001": {"name": "DEVLIN GOSPEL LIGHTHOUSE INC.", "designationCode": "C", "categoryCode": "39", "address": "RR41", "city": "DEVLIN", "province": "ON", "country": "CA", "postalCode": "P0W1C0", "twitter": "None", "instagram": "None", "facebook": "None", "youtube": "None", "website": "None", "summary": "None", "logo": "None", "latitude": 48.76641600000005, "longitude": -93.66987049999993}, "130748692RR0001": {"name": "DEVON CHRISTIAN SCHOOL SOCIETY", "designationCode": "C", "categoryCode": "20", "address": "205 MIQUELON AVE W", "city": "DEVON", "province": "AB", "country": "CA", "postalCode": "T9G0L8", "twitter": "None", "instagram": "None", "facebook": "None", "youtube": "None", "website": "None", "summary": "None", "logo": "None", "latitude": 53.35215632430552, "longitude": -113.72993620599594}, "861977965RR0001": {"name": "DEVON COMMUNITY CHURCH", "designationCode": "C", "categoryCode": "36", "address": "42 ATHABASKA AVE", "city": "DEVON", "province": "AB", "country": "CA", "postalCode": "T9G1G6", "twitter": "None", "instagram": "None", "facebook": "None", "youtube": "None", "website": "None", "summary": "None", "logo": "None", "latitude": 53.36585366295503, "longitude": -113.72810450000844}, "890609449RR0001": {"name": "DEVON GENERAL HOSPITAL FOUNDATION", "designationCode": "A", "categoryCode": "15", "address": "101 ERIE ST  SUITE B", "city": "DEVON", "province": "AB", "country": "CA", "postalCode": "T9G1A6", "twitter": "None", "instagram": "None", "facebook": "None", "youtube": "None", "website": "None", "summary": "None", "logo": "None"}, "118884915RR0001": {"name": "DEVON PARK BAPTIST CHURCH", "designationCode": "C", "categoryCode": "31", "address": "PO BOX 3510 STN B", "city": "FREDERICTON", "province": "NB", "country": "CA", "postalCode": "E3A5J8", "twitter": "None", "instagram": "None", "facebook": "None", "youtube": "None", "website": "None", "summary": "None", "logo": "None", "latitude": 45.958638328435796, "longitude": -66.62155541090102}, "890614571RR0001": {"name": "DEVON PIONEER 73 CLUB", "designationCode": "C", "categoryCode": "56", "address": "29 ST LAWRENCE AVE", "city": "DEVON", "province": "AB", "country": "CA", "postalCode": "T9G1L4", "twitter": "None", "instagram": "None", "facebook": "None", "youtube": "None", "website": "None", "summary": "None", "logo": "None", "latitude": 53.36004947013695, "longitude": -113.72796963918864}, "108079724RR0001": {"name": "DEVONSHIRE SCHOOL AGE PROGRAM OF OTTAWA-CARLETON", "designationCode": "C", "categoryCode": "20", "address": "100 BREEZEHILL AVENUE NORTH", "city": "OTTAWA", "province": "ON", "country": "CA", "postalCode": "K1Y2H5", "twitter": "None", "instagram": "None", "facebook": "None", "youtube": "None", "website": "None", "summary": "None", "logo": "None", "latitude": 45.405124386894826, "longitude": -75.71840163546639}, "897305025RR0001": {"name": "DEVONWOOD COMMUNITY CHURCH OF THE NAZARENE", "designationCode": "C", "categoryCode": "39", "address": "3407 WOODWARD BLVD", "city": "WINDSOR", "province": "ON", "country": "CA", "postalCode": "N8W2Y8", "twitter": "None", "instagram": "None", "facebook": "None", "youtube": "None", "website": "None", "summary": "None", "logo": "None", "latitude": 42.274372360234445, "longitude": -82.98139700727069}, "129972105RR0001": {"name": "DEVOTIONAL ASSOCIATES OF YOGESHWAR", "designationCode": "C", "categoryCode": "39", "address": "29, COLONNADE ROAD", "city": "TORONTO", "province": "ON", "country": "CA", "postalCode": "M2K2L6", "twitter": "None", "instagram": "None", "facebook": "None", "youtube": "None", "website": "None", "summary": "None", "logo": "None", "latitude": 43.793508867592024, "longitude": -79.38456509602405}, "846885523RR0001": {"name": "DEVXCHANGE INTERNATIONAL PROGRAMS", "designationCode": "C", "categoryCode": "09", "address": "P.O. BOX 224", "city": "BARRIE", "province": "ON", "country": "CA", "postalCode": "L4M4T2", "twitter": "None", "instagram": "None", "facebook": "None", "youtube": "None", "website": "None", "summary": "None", "logo": "None", "latitude": 44.38929300000005, "longitude": -79.68626449999994}, "140171406RR0001": {"name": "DEWAR & KENNEDY CEMETERY", "designationCode": "C", "categoryCode": "59", "address": "2159 7TH LINE", "city": "CARLETON PLACE", "province": "ON", "country": "CA", "postalCode": "K7C3P2", "twitter": "None", "instagram": "None", "facebook": "None", "youtube": "None", "website": "None", "summary": "None", "logo": "None", "latitude": 45.05530083741278, "longitude": -76.13444432944962}, "129820023RR0001": {"name": "DEWBERRY & DISTRICT AGRICULTURAL SOCIETY", "designationCode": "C", "categoryCode": "56", "address": "PO BOX 35", "city": "DEWBERRY", "province": "AB", "country": "CA", "postalCode": "T0B1G0", "twitter": "None", "instagram": "None", "facebook": "None", "youtube": "None", "website": "None", "summary": "None", "logo": "None", "latitude": 53.583470000000034, "longitude": -110.53492999999997}, "893949065RR0001": {"name": "DEWBERRY COMMUNITY CEMETERY ASSOCIATION", "designationCode": "C", "categoryCode": "59", "address": "PO BOX 234", "city": "DEWBERRY", "province": "AB", "country": "CA", "postalCode": "T0B1G0", "twitter": "None", "instagram": "None", "facebook": "None", "youtube": "None", "website": "None", "summary": "None", "logo": "None", "latitude": 53.583470000000034, "longitude": -110.53492999999997}, "107017428RR0001": {"name": "DEWBERRY COMMUNITY CHURCH", "designationCode": "C", "categoryCode": "39", "address": "PO BOX 1252", "city": "DEWBERRY", "province": "AB", "country": "CA", "postalCode": "T0B1G0", "twitter": "None", "instagram": "None", "facebook": "None", "youtube": "None", "website": "None", "summary": "None", "logo": "None", "latitude": 53.583470000000034, "longitude": -110.53492999999997}, "889135513RR0001": {"name": "DEWBERRY FIRST RESPONDERS", "designationCode": "C", "categoryCode": "59", "address": "BOX 1284", "city": "DEWBERRY", "province": "AB", "country": "CA", "postalCode": "T0B1G0", "twitter": "None", "instagram": "None", "facebook": "None", "youtube": "None", "website": "None", "summary": "None", "logo": "None", "latitude": 53.583470000000034, "longitude": -110.53492999999997}, "889844593RR0001": {"name": "DEWDNEY FAMILY CHARITABLE FOUNDATION", "designationCode": "B", "categoryCode": "03", "address": "57 QUEEN STREET SOUTH", "city": "MISSISSAUGA", "province": "ON", "country": "CA", "postalCode": "L5M1K5", "twitter": "None", "instagram": "None", "facebook": "None", "youtube": "None", "website": "None", "summary": "None", "logo": "None", "latitude": 43.58556124591718, "longitude": -79.71894549665312}, "118884972RR0001": {"name": "DEWI SANT WELSH UNITED CHURCH", "designationCode": "C", "categoryCode": "44", "address": "33 MELROSE AVE", "city": "TORONTO", "province": "ON", "country": "CA", "postalCode": "M5M1Y6", "twitter": "None", "instagram": "None", "facebook": "None", "youtube": "None", "website": "None", "summary": "None", "logo": "None", "latitude": 43.73261575823778, "longitude": -79.4053150151192}, "890229198RR0001": {"name": "DEZAAIER FOUNDATION INC", "designationCode": "C", "categoryCode": "21", "address": "180 KINGSWAY", "city": "WINNIPEG", "province": "MB", "country": "CA", "postalCode": "R3M0H2", "twitter": "None", "instagram": "None", "facebook": "None", "youtube": "None", "website": "None", "summary": "None", "logo": "None", "latitude": 49.87202307908718, "longitude": -97.16789317678466}}