{"869428920RR0002": {"name": "CALVARY CHURCH OF GOD (TORONTO)", "designationCode": "C", "categoryCode": "39", "address": "14 HIBBARD DR", "city": "AJAX", "province": "ON", "country": "CA", "postalCode": "L1Z1J7", "twitter": "None", "instagram": "None", "facebook": "None", "youtube": "None", "website": "None", "summary": "None", "logo": "None", "latitude": 43.87384587480539, "longitude": -79.02537793559935}, "891181489RR0001": {"name": "CALVARY CHURCH TORONTO", "designationCode": "C", "categoryCode": "39", "address": "746 PAPE AVE", "city": "TORONTO", "province": "ON", "country": "CA", "postalCode": "M4K3S7", "twitter": "None", "instagram": "None", "facebook": "None", "youtube": "None", "website": "None", "summary": "None", "logo": "None", "latitude": 43.68066438328817, "longitude": -79.34555772136291}, "106832405RR0001": {"name": "CALVARY COMMUNITY CHURCH", "designationCode": "C", "categoryCode": "36", "address": "2418 5/6 SIDE ROAD", "city": "ORO-MEDONTE", "province": "ON", "country": "CA", "postalCode": "L0L2L0", "twitter": "None", "instagram": "None", "facebook": "None", "youtube": "None", "website": "None", "summary": "None", "logo": "None", "latitude": 44.4130078607711, "longitude": -79.62102131635613}, "106832413RR0001": {"name": "CALVARY COMMUNITY CHURCH", "designationCode": "C", "categoryCode": "31", "address": "5502 50 AVENUE", "city": "YELLOWKNIFE", "province": "NT", "country": "CA", "postalCode": "X1A1E6", "twitter": "None", "instagram": "None", "facebook": "None", "youtube": "None", "website": "None", "summary": "None", "logo": "None", "latitude": 62.451145372139, "longitude": -114.37814710328236}, "106833106RR0001": {"name": "CALVARY COMMUNITY CHURCH", "designationCode": "C", "categoryCode": "36", "address": "679 DUNDAS STREET WEST", "city": "BELLEVILLE", "province": "ON", "country": "CA", "postalCode": "K8N4Z2", "twitter": "None", "instagram": "None", "facebook": "None", "youtube": "None", "website": "None", "summary": "None", "logo": "None", "latitude": 44.14109552771637, "longitude": -77.4235554897913}, "106833114RR0001": {"name": "CALVARY COMMUNITY CHURCH", "designationCode": "C", "categoryCode": "36", "address": "1205 ROGERS WAY", "city": "KAMLOOPS", "province": "BC", "country": "CA", "postalCode": "V1S1R9", "twitter": "None", "instagram": "None", "facebook": "None", "youtube": "None", "website": "None", "summary": "None", "logo": "None", "latitude": 50.65124753231591, "longitude": -120.36935863474525}, "878943224RR0001": {"name": "CALVARY COMMUNITY CHURCH", "designationCode": "C", "categoryCode": "36", "address": "RR # 5                        4050 RICHARDSON SIDE RD", "city": "TILBURY", "province": "ON", "country": "CA", "postalCode": "N0P2L0", "twitter": "None", "instagram": "None", "facebook": "None", "youtube": "None", "website": "None", "summary": "None", "logo": "None", "latitude": 42.26406224841788, "longitude": -82.46179969303229}, "130004674RR0001": {"name": "CALVARY COMMUNITY CHURCH OF EDMONTON", "designationCode": "C", "categoryCode": "36", "address": "8704 MILL WOODS RD NW", "city": "EDMONTON", "province": "AB", "country": "CA", "postalCode": "T6K3J3", "twitter": "None", "instagram": "None", "facebook": "None", "youtube": "None", "website": "None", "summary": "None", "logo": "None", "latitude": 53.47418353159381, "longitude": -113.4631935}, "118825017RR0001": {"name": "CALVARY COMMUNITY CHURCH WINDSOR", "designationCode": "C", "categoryCode": "36", "address": "1731 LESPERANCE RD.", "city": "WINDSOR", "province": "ON", "country": "CA", "postalCode": "N8N1Y2", "twitter": "None", "instagram": "None", "facebook": "None", "youtube": "None", "website": "None", "summary": "None", "logo": "None", "latitude": 42.302470876024124, "longitude": -82.88401011207279}, "891538993RR0001": {"name": "CALVARY CONSERVATIVE MENNONITE CHURCH", "designationCode": "C", "categoryCode": "34", "address": "1050 BOYDE LANE", "city": "LINWOOD", "province": "ON", "country": "CA", "postalCode": "N0B2A0", "twitter": "None", "instagram": "None", "facebook": "None", "youtube": "None", "website": "None", "summary": "None", "logo": "None", "latitude": 43.58031981761299, "longitude": -80.76089699644874}, "106832504RR0001": {"name": "CALVARY EVANGELICAL LUTHERAN CHURCH", "designationCode": "C", "categoryCode": "32", "address": "10815 - 76 AVE", "city": "EDMONTON", "province": "AB", "country": "CA", "postalCode": "T6E1M1", "twitter": "None", "instagram": "None", "facebook": "None", "youtube": "None", "website": "None", "summary": "None", "logo": "None", "latitude": 53.512262488458816, "longitude": -113.5101825}, "118825058RR0001": {"name": "CALVARY EVANGELICAL LUTHERAN CHURCH", "designationCode": "C", "categoryCode": "32", "address": "RR 2", "city": "WETASKIWIN", "province": "AB", "country": "CA", "postalCode": "T9A1W9", "twitter": "None", "instagram": "None", "facebook": "None", "youtube": "None", "website": "None", "summary": "None", "logo": "None", "latitude": 52.96987500000006, "longitude": -113.37725149999994}, "118825074RR0001": {"name": "CALVARY FAITH CHURCH OF SONORA", "designationCode": "C", "categoryCode": "39", "address": "RR#1 SHERBROOKE", "city": "GUYS CO", "province": "NS", "country": "CA", "postalCode": "B0J3C0", "twitter": "None", "instagram": "None", "facebook": "None", "youtube": "None", "website": "None", "summary": "None", "logo": "None", "latitude": 44.62486683013651, "longitude": -64.54661386209058}, "822319034RR0001": {"name": "CALVARY FELLOWSHIP CHURCH COMOX VALLEY", "designationCode": "C", "categoryCode": "39", "address": "3961 LIVINGSTONE RD", "city": "ROYSTON", "province": "BC", "country": "CA", "postalCode": "V0R2V0", "twitter": "None", "instagram": "None", "facebook": "None", "youtube": "None", "website": "None", "summary": "None", "logo": "None", "latitude": 49.64761939594134, "longitude": -124.95667543017068}, "861731461RR0001": {"name": "CALVARY FELLOWSHIP NANAIMO", "designationCode": "C", "categoryCode": "39", "address": "6121 SOMERSIDE PLACE", "city": "NANAIMO", "province": "BC", "country": "CA", "postalCode": "V9V1T6", "twitter": "None", "instagram": "None", "facebook": "None", "youtube": "None", "website": "None", "summary": "None", "logo": "None", "latitude": 49.236365516056615, "longitude": -124.02805663335425}, "855422143RR0001": {"name": "CALVARY FELLOWSHIP OF OTTAWA", "designationCode": "C", "categoryCode": "39", "address": "516 - 130 ALBERT ST", "city": "OTTAWA", "province": "ON", "country": "CA", "postalCode": "K1P5G4", "twitter": "None", "instagram": "None", "facebook": "None", "youtube": "None", "website": "None", "summary": "None", "logo": "None", "latitude": 45.4211987129957, "longitude": -75.69730054175095}, "118825132RR0001": {"name": "CALVARY GOSPEL CHURCH", "designationCode": "C", "categoryCode": "36", "address": "BOX 488", "city": "HORNEPAYNE", "province": "ON", "country": "CA", "postalCode": "P0M1Z0", "twitter": "None", "instagram": "None", "facebook": "None", "youtube": "None", "website": "None", "summary": "None", "logo": "None", "latitude": 49.170080784352486, "longitude": -84.86323931324436}, "118825140RR0001": {"name": "CALVARY GOSPEL CHURCH", "designationCode": "C", "categoryCode": "39", "address": "24 BEECH DRIVE", "city": "BLIND RIVER", "province": "ON", "country": "CA", "postalCode": "P0R1B0", "twitter": "None", "instagram": "None", "facebook": "None", "youtube": "None", "website": "None", "summary": "None", "logo": "None", "latitude": 46.18217209302296, "longitude": -82.90152753124804}, "890762040RR0001": {"name": "CALVARY GOSPEL CHURCH", "designationCode": "C", "categoryCode": "36", "address": "BOX 88", "city": "ELPHINSTONE", "province": "MB", "country": "CA", "postalCode": "R0J0N0", "twitter": "None", "instagram": "None", "facebook": "None", "youtube": "None", "website": "None", "summary": "None", "logo": "None", "latitude": 50.53263000000004, "longitude": -100.32305999999994}, "893770669RR0001": {"name": "CALVARY GOSPEL CHURCH", "designationCode": "C", "categoryCode": "39", "address": "4129 HIXON ST", "city": "BEAMSVILLE", "province": "ON", "country": "CA", "postalCode": "L0R1B7", "twitter": "None", "instagram": "None", "facebook": "None", "youtube": "None", "website": "None", "summary": "None", "logo": "None", "latitude": 43.157517306970945, "longitude": -79.47569293334993}, "106832538RR0001": {"name": "CALVARY GOSPEL CHURCH WELLAND", "designationCode": "C", "categoryCode": "39", "address": "735 SOUTH PELHAM ST.", "city": "WELLAND", "province": "ON", "country": "CA", "postalCode": "L3C3C9", "twitter": "None", "instagram": "None", "facebook": "None", "youtube": "None", "website": "None", "summary": "None", "logo": "None", "latitude": 43.0103697485429, "longitude": -79.28539857992295}, "876020512RR0001": {"name": "CALVARY GOSPEL TEMPLE", "designationCode": "C", "categoryCode": "39", "address": "290 TRADERS BLVD. E #1 & 2", "city": "MISSISSAUGA", "province": "ON", "country": "CA", "postalCode": "L4Z1W7", "twitter": "None", "instagram": "None", "facebook": "None", "youtube": "None", "website": "None", "summary": "None", "logo": "None", "latitude": 43.62864639878275, "longitude": -79.66716439630123}, "810556076RR0001": {"name": "CALVARY GOSPEL TEMPLE (KINGSVILLE)", "designationCode": "C", "categoryCode": "36", "address": "1860 DIVISION RD N", "city": "KINGSVILLE", "province": "ON", "country": "CA", "postalCode": "N9Y2Z1", "twitter": "None", "instagram": "None", "facebook": "None", "youtube": "None", "website": "None", "summary": "None", "logo": "None", "latitude": 42.0537972156501, "longitude": -82.73834620445561}, "864355995RR0001": {"name": "CALVARY INTERNATIONAL CANADA", "designationCode": "C", "categoryCode": "39", "address": "433 NORWICH AVENUE            PO BOX 1735 WOODSTOCK STN MAIN", "city": "WOODSTOCK", "province": "ON", "country": "CA", "postalCode": "N4S3W4", "twitter": "None", "instagram": "None", "facebook": "None", "youtube": "None", "website": "None", "summary": "None", "logo": "None", "latitude": 43.11760376054535, "longitude": -80.73839535230893}, "106832603RR0001": {"name": "CALVARY KOREAN PRESBYTERIAN CHURCH (MARKHAM)", "designationCode": "C", "categoryCode": "37", "address": "7011A MCCOWAN ROAD", "city": "MARKHAM", "province": "ON", "country": "CA", "postalCode": "L3S3L7", "twitter": "None", "instagram": "None", "facebook": "None", "youtube": "None", "website": "None", "summary": "None", "logo": "None", "latitude": 43.83176300186429, "longitude": -79.27534230049241}, "839712163RR0001": {"name": "CALVARY LOGOS BAPTIST CHURCH", "designationCode": "C", "categoryCode": "31", "address": "241 ALEXMUIR BLVD", "city": "SCARBOROUGH", "province": "ON", "country": "CA", "postalCode": "M1V2W6", "twitter": "None", "instagram": "None", "facebook": "None", "youtube": "None", "website": "None", "summary": "None", "logo": "None", "latitude": 43.810725889232096, "longitude": -79.28092554925277}, "106832611RR0001": {"name": "CALVARY LUTHERAN CHURCH", "designationCode": "C", "categoryCode": "32", "address": "2820A DONALD ST E", "city": "THUNDER BAY", "province": "ON", "country": "CA", "postalCode": "P7E5X7", "twitter": "None", "instagram": "None", "facebook": "None", "youtube": "None", "website": "None", "summary": "None", "logo": "None", "latitude": 48.382401989169345, "longitude": -89.27739051083066}, "118825181RR0001": {"name": "CALVARY LUTHERAN CHURCH", "designationCode": "C", "categoryCode": "32", "address": "16013 HWY 3", "city": "HEBBVILLE", "province": "NS", "country": "CA", "postalCode": "B4V6Y1", "twitter": "None", "instagram": "None", "facebook": "None", "youtube": "None", "website": "None", "summary": "None", "logo": "None", "latitude": 44.32619038390819, "longitude": -64.55702573177665}, "118825207RR0001": {"name": "CALVARY LUTHERAN CHURCH", "designationCode": "C", "categoryCode": "32", "address": "P.O. BOX 204", "city": "LAGLACE", "province": "AB", "country": "CA", "postalCode": "T0H2J0", "twitter": "None", "instagram": "None", "facebook": "None", "youtube": "None", "website": "None", "summary": "None", "logo": "None", "latitude": 55.403043000000054, "longitude": -119.15395099999994}, "811987163RR0001": {"name": "CALVARY MENNONITE CHURCH MONETVILLE", "designationCode": "C", "categoryCode": "34", "address": "15 MERCER ROAD                SITE 7 BOX 9", "city": "MONETVILLE", "province": "ON", "country": "CA", "postalCode": "P0M2K0", "twitter": "None", "instagram": "None", "facebook": "None", "youtube": "None", "website": "None", "summary": "None", "logo": "None", "latitude": 46.17750843636988, "longitude": -80.32625416664962}, "892253980RR0001": {"name": "CALVARY MENNONITE CHURCH,", "designationCode": "C", "categoryCode": "34", "address": "173 NORTHUMBERLAND ST", "city": "AYR", "province": "ON", "country": "CA", "postalCode": "N0B1E0", "twitter": "None", "instagram": "None", "facebook": "None", "youtube": "None", "website": "None", "summary": "None", "logo": "None", "latitude": 43.29099642454604, "longitude": -80.4573057115808}, "106832660RR0001": {"name": "CALVARY MISSIONARY CHURCH", "designationCode": "C", "categoryCode": "39", "address": "655 10TH ST W", "city": "OWEN SOUND", "province": "ON", "country": "CA", "postalCode": "N4K3R8", "twitter": "None", "instagram": "None", "facebook": "None", "youtube": "None", "website": "None", "summary": "None", "logo": "None", "latitude": 44.566791644988385, "longitude": -80.95593971994926}, "887834711RR0001": {"name": "CALVARY OUTREACH MINISTRIES", "designationCode": "C", "categoryCode": "39", "address": "P.O. BOX 327                  10 FIRST STREET", "city": "MOOSONEE", "province": "ON", "country": "CA", "postalCode": "P0L1Y0", "twitter": "None", "instagram": "None", "facebook": "None", "youtube": "None", "website": "None", "summary": "None", "logo": "None", "latitude": 49.058757079785146, "longitude": -81.03926181523691}, "859195224RR0001": {"name": "CALVARY PENTECOSTAL ASSEMBLY", "designationCode": "C", "categoryCode": "36", "address": "127 HESPELER ROAD", "city": "CAMBRIDGE", "province": "ON", "country": "CA", "postalCode": "N1R3G9", "twitter": "None", "instagram": "None", "facebook": "None", "youtube": "None", "website": "None", "summary": "None", "logo": "None", "latitude": 43.3783183497315, "longitude": -80.31905795767305}, "106832736RR0001": {"name": "CALVARY PENTECOSTAL CHURCH", "designationCode": "C", "categoryCode": "36", "address": "20 CURTIS DR.", "city": "TRURO", "province": "NS", "country": "CA", "postalCode": "B2N3M9", "twitter": "None", "instagram": "None", "facebook": "None", "youtube": "None", "website": "None", "summary": "None", "logo": "None", "latitude": 45.35120311350919, "longitude": -63.28567754570341}, "106832793RR0001": {"name": "CALVARY PENTECOSTAL CHURCH", "designationCode": "C", "categoryCode": "36", "address": "1421 LANSDOWNE ST W", "city": "PETERBOROUGH", "province": "ON", "country": "CA", "postalCode": "K9J7M3", "twitter": "None", "instagram": "None", "facebook": "None", "youtube": "None", "website": "None", "summary": "None", "logo": "None", "latitude": 44.27857269238352, "longitude": -78.35905190809402}, "106832868RR0001": {"name": "CALVARY PENTECOSTAL CHURCH", "designationCode": "C", "categoryCode": "36", "address": "BOX 401                       12 GOVERNMENT ROAD", "city": "WAWA", "province": "ON", "country": "CA", "postalCode": "P0S1K0", "twitter": "None", "instagram": "None", "facebook": "None", "youtube": "None", "website": "None", "summary": "None", "logo": "None", "latitude": 47.99972847029981, "longitude": -84.77191063756517}, "107833394RR0040": {"name": "CALVARY PENTECOSTAL CHURCH", "designationCode": "C", "categoryCode": "36", "address": "BOX 57, SITE 1", "city": "CRESTON NORTH", "province": "NL", "country": "CA", "postalCode": "A0E1L0", "twitter": "None", "instagram": "None", "facebook": "None", "youtube": "None", "website": "None", "summary": "None", "logo": "None", "latitude": 47.14954000000006, "longitude": -55.189419999999984}, "118825355RR0001": {"name": "CALVARY PENTECOSTAL CHURCH", "designationCode": "C", "categoryCode": "36", "address": "7196 COUNTY RD 29N", "city": "CARLETON PLACE", "province": "ON", "country": "CA", "postalCode": "K7C3P1", "twitter": "None", "instagram": "None", "facebook": "None", "youtube": "None", "website": "None", "summary": "None", "logo": "None", "latitude": 45.12723900000006, "longitude": -76.17449149999993}, "118825397RR0001": {"name": "CALVARY PENTECOSTAL CHURCH", "designationCode": "C", "categoryCode": "36", "address": "401 CROFT STREET EAST", "city": "PORT HOPE", "province": "ON", "country": "CA", "postalCode": "L1A4H1", "twitter": "None", "instagram": "None", "facebook": "None", "youtube": "None", "website": "None", "summary": "None", "logo": "None"}, "118825413RR0001": {"name": "CALVARY PENTECOSTAL CHURCH", "designationCode": "C", "categoryCode": "36", "address": "PO BOX 533", "city": "SIMCOE", "province": "ON", "country": "CA", "postalCode": "N3Y4N5", "twitter": "None", "instagram": "None", "facebook": "None", "youtube": "None", "website": "None", "summary": "None", "logo": "None", "latitude": 42.83590200000006, "longitude": -80.30531149999993}, "870272135RR0001": {"name": "CALVARY PENTECOSTAL CHURCH", "designationCode": "C", "categoryCode": "36", "address": "301 PANNELL LANE", "city": "STRATHROY", "province": "ON", "country": "CA", "postalCode": "N7G2C8", "twitter": "None", "instagram": "None", "facebook": "None", "youtube": "None", "website": "None", "summary": "None", "logo": "None", "latitude": 42.96800362679238, "longitude": -81.63575974746426}, "870877834RR0001": {"name": "CALVARY PENTECOSTAL CHURCH", "designationCode": "C", "categoryCode": "36", "address": "1241 BROAD ST E", "city": "DUNNVILLE", "province": "ON", "country": "CA", "postalCode": "N1A2Z9", "twitter": "None", "instagram": "None", "facebook": "None", "youtube": "None", "website": "None", "summary": "None", "logo": "None", "latitude": 42.90730907954834, "longitude": -79.58786789774166}, "893953927RR0001": {"name": "CALVARY PENTECOSTAL CHURCH", "designationCode": "C", "categoryCode": "36", "address": "BOX 968 125 VICTORIA AVE N", "city": "LINDSAY", "province": "ON", "country": "CA", "postalCode": "K9V5N4", "twitter": "None", "instagram": "None", "facebook": "None", "youtube": "None", "website": "None", "summary": "None", "logo": "None", "latitude": 44.36349636179888, "longitude": -78.74525264571409}, "886716547RR0001": {"name": "CALVARY PENTECOSTAL CHURCH (NIAGARA FALLS)", "designationCode": "C", "categoryCode": "39", "address": "6053 FRANKLIN AVE", "city": "NIAGARA-FALLS", "province": "ON", "country": "CA", "postalCode": "L2G4Z1", "twitter": "None", "instagram": "None", "facebook": "None", "youtube": "None", "website": "None", "summary": "None", "logo": "None", "latitude": 43.086922292255764, "longitude": -79.10406897157924}, "898137559RR0001": {"name": "CALVARY PENTECOSTAL CHURCH WOODSTOCK", "designationCode": "C", "categoryCode": "36", "address": "65 LANSDOWNE AVE", "city": "WOODSTOCK", "province": "ON", "country": "CA", "postalCode": "N4T1S8", "twitter": "None", "instagram": "None", "facebook": "None", "youtube": "None", "website": "None", "summary": "None", "logo": "None", "latitude": 43.136849200386656, "longitude": -80.72185866071317}, "871125621RR0001": {"name": "CALVARY PENTECOSTAL CHURCH,", "designationCode": "C", "categoryCode": "36", "address": "PO BOX 667", "city": "GANANOQUE", "province": "ON", "country": "CA", "postalCode": "K7G2V2", "twitter": "None", "instagram": "None", "facebook": "None", "youtube": "None", "website": "None", "summary": "None", "logo": "None", "latitude": 44.328480000000056, "longitude": -76.16426299999993}, "120866470RR0001": {"name": "CALVARY PENTECOSTAL LIGHTHOUSE INC", "designationCode": "C", "categoryCode": "36", "address": "7 BOYNE ROAD", "city": "HOYT", "province": "NB", "country": "CA", "postalCode": "E5L2B7", "twitter": "None", "instagram": "None", "facebook": "None", "youtube": "None", "website": "None", "summary": "None", "logo": "None", "latitude": 45.551615220613094, "longitude": -66.53595159628385}, "106833007RR0001": {"name": "CALVARY PENTECOSTAL TABERNACLE", "designationCode": "C", "categoryCode": "36", "address": "625 CARSON DR", "city": "WILLIAMS LAKE", "province": "BC", "country": "CA", "postalCode": "V2G1T4", "twitter": "None", "instagram": "None", "facebook": "None", "youtube": "None", "website": "None", "summary": "None", "logo": "None", "latitude": 52.13535559948651, "longitude": -122.13862997123347}, "107833394RR0030": {"name": "CALVARY PENTECOSTAL TABERNACLE", "designationCode": "C", "categoryCode": "36", "address": "P O BOX 3", "city": "SOUTH BROOK", "province": "NL", "country": "CA", "postalCode": "A0J1S0", "twitter": "None", "instagram": "None", "facebook": "None", "youtube": "None", "website": "None", "summary": "None", "logo": "None", "latitude": 49.433250000000044, "longitude": -56.08152999999999}, "107833394RR0055": {"name": "CALVARY PENTECOSTAL TABERNACLE", "designationCode": "C", "categoryCode": "36", "address": "PO BOX 160", "city": "BISHOP'S FALLS", "province": "NL", "country": "CA", "postalCode": "A0H1C0", "twitter": "None", "instagram": "None", "facebook": "None", "youtube": "None", "website": "None", "summary": "None", "logo": "None", "latitude": 49.02673000000004, "longitude": -55.45667999999995}, "118825520RR0001": {"name": "CALVARY PENTECOSTAL TABERNACLE", "designationCode": "C", "categoryCode": "36", "address": "7170-132ND STREET", "city": "SURREY", "province": "BC", "country": "CA", "postalCode": "V3W1H1", "twitter": "None", "instagram": "None", "facebook": "None", "youtube": "None", "website": "None", "summary": "None", "logo": "None", "latitude": 49.133205000000004, "longitude": -122.85663951330154}, "819596693RR0001": {"name": "CALVARY PENTECOSTAL TABERNACLE (ORILLIA)", "designationCode": "C", "categoryCode": "36", "address": "375 WESTMOUNT DR N", "city": "ORILLA", "province": "ON", "country": "CA", "postalCode": "L3V6Y4", "twitter": "None", "instagram": "None", "facebook": "None", "youtube": "None", "website": "None", "summary": "None", "logo": "None", "latitude": 44.616041272943406, "longitude": -79.44308585167079}, "892641663RR0001": {"name": "CALVARY PENTECOSTAL TABERNACLE,", "designationCode": "C", "categoryCode": "36", "address": "1151 GARNER RD W", "city": "ANCASTER", "province": "ON", "country": "CA", "postalCode": "L9G3K9", "twitter": "None", "instagram": "None", "facebook": "None", "youtube": "None", "website": "None", "summary": "None", "logo": "None", "latitude": 43.195635238444005, "longitude": -80.01872644200465}, "118825538RR0001": {"name": "CALVARY PENTECOSTAL TEMPLE", "designationCode": "C", "categoryCode": "36", "address": "271 SKI CLUB ROAD", "city": "NORTH BAY", "province": "ON", "country": "CA", "postalCode": "P1B7R1", "twitter": "None", "instagram": "None", "facebook": "None", "youtube": "None", "website": "None", "summary": "None", "logo": "None", "latitude": 46.3342426559622, "longitude": -79.45218187936676}, "890336845RR0001": {"name": "CALVARY PRESBYTERIAN CHURCH OF KOREA", "designationCode": "C", "categoryCode": "37", "address": "8098-11 AVE", "city": "BURNABY", "province": "BC", "country": "CA", "postalCode": "V3N2S3", "twitter": "None", "instagram": "None", "facebook": "None", "youtube": "None", "website": "None", "summary": "None", "logo": "None", "latitude": 49.22295684545097, "longitude": -122.92228078650535}, "891506487RR0001": {"name": "CALVARY ROAD BAPTIST CHURCH OF WASAGA BEACH, ONTARIO", "designationCode": "C", "categoryCode": "31", "address": "776 SUNNIDALE ROAD", "city": "WASAGA BEACH", "province": "ON", "country": "CA", "postalCode": "L9Z1J7", "twitter": "None", "instagram": "None", "facebook": "None", "youtube": "None", "website": "None", "summary": "None", "logo": "None", "latitude": 44.46047079275642, "longitude": -80.040101435312}, "890639594RR0001": {"name": "CALVARY ROAD GOSPEL ASSOCIATION", "designationCode": "C", "categoryCode": "47", "address": "39 INVERNESS CRESCENT", "city": "RIVERVIEW", "province": "NB", "country": "CA", "postalCode": "E1B3Z6", "twitter": "None", "instagram": "None", "facebook": "None", "youtube": "None", "website": "None", "summary": "None", "logo": "None", "latitude": 46.046400190691784, "longitude": -64.8009674521322}, "892346248RR0001": {"name": "CALVARY SCHOOL OF THEOLOGY CANADIAN FELLOWSHIP", "designationCode": "C", "categoryCode": "49", "address": "490 - 999 BROADWAY W", "city": "VANCOUVER", "province": "BC", "country": "CA", "postalCode": "V5Z1K5", "twitter": "None", "instagram": "None", "facebook": "None", "youtube": "None", "website": "None", "summary": "None", "logo": "None", "latitude": 49.263434493796254, "longitude": -123.12609202553523}, "130265911RR0001": {"name": "CALVARY SENIORS NON-PROFIT HOUSING CORPORATION", "designationCode": "C", "categoryCode": "01", "address": "87 LAKE ST", "city": "ST CATHARINES", "province": "ON", "country": "CA", "postalCode": "L2R5X5", "twitter": "None", "instagram": "None", "facebook": "None", "youtube": "None", "website": "None", "summary": "None", "logo": "None", "latitude": 43.16371096280801, "longitude": -79.25068011368208}, "106833023RR0001": {"name": "CALVARY TABERNACLE INC.", "designationCode": "C", "categoryCode": "36", "address": "12 LEGION ST EXT              BOX 3041", "city": "PERTH ANDOVER", "province": "NB", "country": "CA", "postalCode": "E7H2S9", "twitter": "None", "instagram": "None", "facebook": "None", "youtube": "None", "website": "None", "summary": "None", "logo": "None", "latitude": 46.74284340234086, "longitude": -67.70522723755685}, "106833064RR0001": {"name": "CALVARY TEMPLE", "designationCode": "C", "categoryCode": "36", "address": "PO BOX 272", "city": "MAHONE BAY", "province": "NS", "country": "CA", "postalCode": "B0J2E0", "twitter": "None", "instagram": "None", "facebook": "None", "youtube": "None", "website": "None", "summary": "None", "logo": "None", "latitude": 44.5107664683721, "longitude": -64.5603343504879}, "118825603RR0001": {"name": "CALVARY TEMPLE", "designationCode": "C", "categoryCode": "36", "address": "GD", "city": "LITTLE RIVER", "province": "NS", "country": "CA", "postalCode": "B0V1C0", "twitter": "None", "instagram": "None", "facebook": "None", "youtube": "None", "website": "None", "summary": "None", "logo": "None", "latitude": 44.444413028652654, "longitude": -66.13744949004881}, "118825645RR0001": {"name": "CALVARY TEMPLE", "designationCode": "C", "categoryCode": "36", "address": "620 34TH ST", "city": "BRANDON", "province": "MB", "country": "CA", "postalCode": "R7B2R5", "twitter": "None", "instagram": "None", "facebook": "None", "youtube": "None", "website": "None", "summary": "None", "logo": "None", "latitude": 49.84036297446477, "longitude": -99.98487261454747}, "118825629RR0001": {"name": "CALVARY TEMPLE CHARLOTTETOWN INCORPORATED", "designationCode": "C", "categoryCode": "36", "address": "PO BOX 941 STN CENTRAL", "city": "CHARLOTTETOWN", "province": "PE", "country": "CA", "postalCode": "C1A7M4", "twitter": "None", "instagram": "None", "facebook": "None", "youtube": "None", "website": "None", "summary": "None", "logo": "None", "latitude": 46.23659700000006, "longitude": -63.12815449999994}, "890501174RR0001": {"name": "CALVARY TEMPLE CHURCH OF CHRIST (YORK REGION)", "designationCode": "C", "categoryCode": "39", "address": "721 CLIFTON DRIVE", "city": "OSHAWA", "province": "ON", "country": "CA", "postalCode": "L1G2Y9", "twitter": "None", "instagram": "None", "facebook": "None", "youtube": "None", "website": "None", "summary": "None", "logo": "None", "latitude": 43.91941415098965, "longitude": -78.85995073339504}, "118825686RR0001": {"name": "CALVARY TEMPLE EDUCATIONAL ASSOCIATION", "designationCode": "C", "categoryCode": "47", "address": "8708 151 AVE NW", "city": "EDMONTON", "province": "AB", "country": "CA", "postalCode": "T5E5Y2", "twitter": "None", "instagram": "None", "facebook": "None", "youtube": "None", "website": "None", "summary": "None", "logo": "None", "latitude": 53.612226511541195, "longitude": -113.47399480405674}, "118825694RR0001": {"name": "CALVARY TEMPLE SAINT JOHN", "designationCode": "C", "categoryCode": "39", "address": "83-93 SYDNEY ST", "city": "SAINT JOHN", "province": "NB", "country": "CA", "postalCode": "E2L2L7", "twitter": "None", "instagram": "None", "facebook": "None", "youtube": "None", "website": "None", "summary": "None", "logo": "None", "latitude": 45.27167944601928, "longitude": -66.05651508346855}, "130501935RR0001": {"name": "CALVARY UNITED BAPTIST FRANCES MCLEAN MEMORIAL CHURCH", "designationCode": "C", "categoryCode": "31", "address": "614 MAIN ST", "city": "BLACKS HARBOUR", "province": "NB", "country": "CA", "postalCode": "E5H1C1", "twitter": "None", "instagram": "None", "facebook": "None", "youtube": "None", "website": "None", "summary": "None", "logo": "None", "latitude": 45.06129218737358, "longitude": -66.78409941508446}, "106833148RR0001": {"name": "CALVARY UNITED CHURCH", "designationCode": "C", "categoryCode": "44", "address": "45 CHARLES ST", "city": "KINGSTON", "province": "ON", "country": "CA", "postalCode": "K7K1V3", "twitter": "None", "instagram": "None", "facebook": "None", "youtube": "None", "website": "None", "summary": "None", "logo": "None", "latitude": 44.24036428172419, "longitude": -76.48515801471518}, "106833155RR0001": {"name": "CALVARY UNITED CHURCH", "designationCode": "C", "categoryCode": "44", "address": "48 HAWKESVILLE RD             BOX 189", "city": "ST JACOBS", "province": "ON", "country": "CA", "postalCode": "N0B2N0", "twitter": "None", "instagram": "None", "facebook": "None", "youtube": "None", "website": "None", "summary": "None", "logo": "None", "latitude": 43.54432054306551, "longitude": -80.55552486835577}, "118825728RR0001": {"name": "CALVARY UNITED CHURCH", "designationCode": "C", "categoryCode": "44", "address": "7874 HWY 321 ROSLIN           RR 2", "city": "PORT HOWE", "province": "NS", "country": "CA", "postalCode": "B0K1K0", "twitter": "None", "instagram": "None", "facebook": "None", "youtube": "None", "website": "None", "summary": "None", "logo": "None", "latitude": 45.85173900000005, "longitude": -63.776761999999934}, "118825744RR0001": {"name": "CALVARY UNITED CHURCH", "designationCode": "C", "categoryCode": "44", "address": "100 VALLEY", "city": "SUTTON", "province": "QC", "country": "CA", "postalCode": "J0E2K0", "twitter": "None", "instagram": "None", "facebook": "None", "youtube": "None", "website": "None", "summary": "None", "logo": "None", "latitude": 45.202362601694155, "longitude": -72.57628075391915}, "118825777RR0001": {"name": "CALVARY UNITED CHURCH", "designationCode": "C", "categoryCode": "44", "address": "RR #1", "city": "RODNEY", "province": "ON", "country": "CA", "postalCode": "N0L2C0", "twitter": "None", "instagram": "None", "facebook": "None", "youtube": "None", "website": "None", "summary": "None", "logo": "None", "latitude": 42.6994079467669, "longitude": -81.83525316916756}, "118825785RR0001": {"name": "CALVARY UNITED CHURCH", "designationCode": "C", "categoryCode": "44", "address": "BOX 25                        160 WILLIAM STREET", "city": "DASHWOOD", "province": "ON", "country": "CA", "postalCode": "N0M1N0", "twitter": "None", "instagram": "None", "facebook": "None", "youtube": "None", "website": "None", "summary": "None", "logo": "None", "latitude": 43.14544331836791, "longitude": -81.53599852094759}, "118825801RR0001": {"name": "CALVARY UNITED CHURCH", "designationCode": "C", "categoryCode": "44", "address": "150 BINNING ST W", "city": "LISTOWEL", "province": "ON", "country": "CA", "postalCode": "N4W1G3", "twitter": "None", "instagram": "None", "facebook": "None", "youtube": "None", "website": "None", "summary": "None", "logo": "None", "latitude": 43.73467801201289, "longitude": -80.95150290243545}, "118825819RR0001": {"name": "CALVARY UNITED CHURCH", "designationCode": "C", "categoryCode": "44", "address": "290 RIDOUT ST SOUTH", "city": "LONDON", "province": "ON", "country": "CA", "postalCode": "N6C3Z1", "twitter": "None", "instagram": "None", "facebook": "None", "youtube": "None", "website": "None", "summary": "None", "logo": "None", "latitude": 42.9656786708407, "longitude": -81.24536257683681}, "118825835RR0001": {"name": "CALVARY UNITED CHURCH", "designationCode": "C", "categoryCode": "44", "address": "BOX 61", "city": "LOON LAKE", "province": "SK", "country": "CA", "postalCode": "S0M1L0", "twitter": "None", "instagram": "None", "facebook": "None", "youtube": "None", "website": "None", "summary": "None", "logo": "None", "latitude": 53.8842735, "longitude": -109.57983525}, "118825843RR0001": {"name": "CALVARY UNITED CHURCH", "designationCode": "C", "categoryCode": "44", "address": "114 25TH ST E", "city": "PRINCE ALBERT", "province": "SK", "country": "CA", "postalCode": "S6V1S5", "twitter": "None", "instagram": "None", "facebook": "None", "youtube": "None", "website": "None", "summary": "None", "logo": "None", "latitude": 53.19046446768412, "longitude": -105.7509405}, "886491190RR0001": {"name": "CALVARY UNITED CHURCH", "designationCode": "C", "categoryCode": "44", "address": "91 GRUHN ST.", "city": "KITCHENER", "province": "ON", "country": "CA", "postalCode": "N2G1S5", "twitter": "None", "instagram": "None", "facebook": "None", "youtube": "None", "website": "None", "summary": "None", "logo": "None", "latitude": 43.4541741248775, "longitude": -80.5090059414564}, "118825868RR0001": {"name": "CALVARY UNITED PENTECOSTAL CHURCH", "designationCode": "C", "categoryCode": "36", "address": "135 WALLACE STREET            P.O. BOX 4231", "city": "WOODSTOCK", "province": "NB", "country": "CA", "postalCode": "E7M6B6", "twitter": "None", "instagram": "None", "facebook": "None", "youtube": "None", "website": "None", "summary": "None", "logo": "None", "latitude": 46.14946180188817, "longitude": -67.60463677964117}, "867641177RR0001": {"name": "CALVARY UNITED PENTECOSTAL CHURCH", "designationCode": "C", "categoryCode": "39", "address": "2807 FREDERICTON RD", "city": "SALSBURY", "province": "NB", "country": "CA", "postalCode": "E4J2E4", "twitter": "None", "instagram": "None", "facebook": "None", "youtube": "None", "website": "None", "summary": "None", "logo": "None", "latitude": 46.03791161817447, "longitude": -65.0469446817237}, "892667833RR0001": {"name": "CALVARY UNITED PENTECOSTAL CHURCH", "designationCode": "C", "categoryCode": "39", "address": "33 NICHOL AVE", "city": "SAULT STE MARIE", "province": "ON", "country": "CA", "postalCode": "P6C4V3", "twitter": "None", "instagram": "None", "facebook": "None", "youtube": "None", "website": "None", "summary": "None", "logo": "None", "latitude": 46.5383239103526, "longitude": -84.37570342786638}, "132671629RR0001": {"name": "CALVARY UNITED PENTECOSTAL CHURCH OF NAPANEE", "designationCode": "C", "categoryCode": "39", "address": "PO BOX 414", "city": "NAPANEE", "province": "ON", "country": "CA", "postalCode": "K7R3P5", "twitter": "None", "instagram": "None", "facebook": "None", "youtube": "None", "website": "None", "summary": "None", "logo": "None", "latitude": 44.24834400000006, "longitude": -76.95158299999993}, "898885652RR0001": {"name": "CALVARY UNITED PENTECOSTAL CHURCH OF OTTAWA", "designationCode": "C", "categoryCode": "36", "address": "1681 CYRVILLE RD", "city": "GLOUCESTER", "province": "ON", "country": "CA", "postalCode": "K1B3L7", "twitter": "None", "instagram": "None", "facebook": "None", "youtube": "None", "website": "None", "summary": "None", "logo": "None", "latitude": 45.417411132984896, "longitude": -75.60673759642808}, "106833247RR0001": {"name": "CALVARY UNITED PENTECOSTAL CHURCH OF PRINCE GEORGE", "designationCode": "C", "categoryCode": "39", "address": "1011 OSPIKA BLVD", "city": "PRINCE GEORGE", "province": "BC", "country": "CA", "postalCode": "V2M3R7", "twitter": "None", "instagram": "None", "facebook": "None", "youtube": "None", "website": "None", "summary": "None", "logo": "None", "latitude": 53.91576910981438, "longitude": -122.79643823903267}, "869695494RR0001": {"name": "CALVIN AND FRANCES HAMM FOUNDATION", "designationCode": "B", "categoryCode": "05", "address": "130 KING ST. WEST, 20TH FLOOR P.O.BOX 430 1ST.CANADIAN PLACE", "city": "TORONTO", "province": "ON", "country": "CA", "postalCode": "M5X1K1", "twitter": "None", "instagram": "None", "facebook": "None", "youtube": "None", "website": "None", "summary": "None", "logo": "None", "latitude": 43.64826932503962, "longitude": -79.38190945606182}, "106833288RR0001": {"name": "CALVIN CHRISTIAN REFORMED CHURCH", "designationCode": "C", "categoryCode": "39", "address": "420 HWY 5. W, RR2             PO BOX 129", "city": "DUNDAS", "province": "ON", "country": "CA", "postalCode": "L9H5E2", "twitter": "None", "instagram": "None", "facebook": "None", "youtube": "None", "website": "None", "summary": "None", "logo": "None", "latitude": 43.2983526954819, "longitude": -79.96572795876865}, "118825884RR0001": {"name": "CALVIN CHRISTIAN REFORMED CHURCH OF OTTAWA", "designationCode": "C", "categoryCode": "39", "address": "1475 MERIVALE ROAD", "city": "OTTAWA", "province": "ON", "country": "CA", "postalCode": "K2E5N9", "twitter": "None", "instagram": "None", "facebook": "None", "youtube": "None", "website": "None", "summary": "None", "logo": "None", "latitude": 45.360191851491855, "longitude": -75.73532801687956}, "106833312RR0001": {"name": "CALVIN CHRISTIAN SCHOOL SOCIETY OF CHATHAM", "designationCode": "C", "categoryCode": "20", "address": "475 KEIL DRIVE SOUTH", "city": "CHATHAM", "province": "ON", "country": "CA", "postalCode": "N7M6L8", "twitter": "None", "instagram": "None", "facebook": "None", "youtube": "None", "website": "None", "summary": "None", "logo": "None", "latitude": 42.38128889817622, "longitude": -82.19373239710929}, "118825900RR0001": {"name": "CALVIN CHRISTIAN SCHOOL SOCIETY OF HAMILTON", "designationCode": "C", "categoryCode": "20", "address": "547 WEST 5TH ST", "city": "HAMILTON", "province": "ON", "country": "CA", "postalCode": "L9C3P7", "twitter": "None", "instagram": "None", "facebook": "None", "youtube": "None", "website": "None", "summary": "None", "logo": "None", "latitude": 43.22814760637956, "longitude": -79.88710353759708}, "886658681RR0001": {"name": "CALVIN CHRISTIAN SCHOOL SOCIETY OF THE NETHERLANDS REFORMED CONGREGATIONS", "designationCode": "C", "categoryCode": "20", "address": "PO BOX 26", "city": "COALHURST", "province": "AB", "country": "CA", "postalCode": "T0L0V0", "twitter": "None", "instagram": "None", "facebook": "None", "youtube": "None", "website": "None", "summary": "None", "logo": "None", "latitude": 49.745436000000055, "longitude": -112.93374049999994}, "133790303RR0001": {"name": "CALVIN CHRISTIAN SCHOOL SOCIETY WALLACEBURG", "designationCode": "C", "categoryCode": "20", "address": "693 ALBERT ST", "city": "WALLACEBURG", "province": "ON", "country": "CA", "postalCode": "N8A1Y8", "twitter": "None", "instagram": "None", "facebook": "None", "youtube": "None", "website": "None", "summary": "None", "logo": "None", "latitude": 42.585893968636384, "longitude": -82.3768926954819}, "106833379RR0001": {"name": "CALVIN CHRISTIAN SCHOOLS SOCIETY OF TORONTO", "designationCode": "C", "categoryCode": "20", "address": "60 HILDA AVE", "city": "NORTH YORK", "province": "ON", "country": "CA", "postalCode": "M2M1V5", "twitter": "None", "instagram": "None", "facebook": "None", "youtube": "None", "website": "None", "summary": "None", "logo": "None", "latitude": 43.78651788897232, "longitude": -79.42452671611144}, "106833403RR0001": {"name": "CALVIN GOFORTH PRESBYTERIAN CHURCH", "designationCode": "C", "categoryCode": "37", "address": "1602 SOMMERFELD AVE", "city": "SASKATOON", "province": "SK", "country": "CA", "postalCode": "S7H2S6", "twitter": "None", "instagram": "None", "facebook": "None", "youtube": "None", "website": "None", "summary": "None", "logo": "None", "latitude": 52.10993783819032, "longitude": -106.6278567277682}, "106833437RR0001": {"name": "CALVIN HUNGARIAN PRESBYTERIAN CHURCH", "designationCode": "C", "categoryCode": "37", "address": "91 PIKE ST.", "city": "OTTAWA", "province": "ON", "country": "CA", "postalCode": "K1T3J6", "twitter": "None", "instagram": "None", "facebook": "None", "youtube": "None", "website": "None", "summary": "None", "logo": "None", "latitude": 45.364645685555885, "longitude": -75.6273972081196}, "887707263RR0001": {"name": "CALVIN HUNGARIAN PRESBYTERIAN CHURCH", "designationCode": "C", "categoryCode": "37", "address": "3219 112B ST NW", "city": "EDMONTON", "province": "AB", "country": "CA", "postalCode": "T6J3W6", "twitter": "None", "instagram": "None", "facebook": "None", "youtube": "None", "website": "None", "summary": "None", "logo": "None", "latitude": 53.46498208159733, "longitude": -113.52327740810222}, "888215191RR0001": {"name": "CALVIN HUNGARIAN PRESBYTERIAN CHURCH", "designationCode": "C", "categoryCode": "37", "address": "101 14TH AVE SE", "city": "CALGARY", "province": "AB", "country": "CA", "postalCode": "T2R0L8", "twitter": "None", "instagram": "None", "facebook": "None", "youtube": "None", "website": "None", "summary": "None", "logo": "None", "latitude": 51.03942159275131, "longitude": -114.06336724615508}, "106833536RR0001": {"name": "CALVIN PRESBYTERIAN CHURCH", "designationCode": "C", "categoryCode": "37", "address": "P.O. BOX 152", "city": "MIRAMICHI", "province": "NB", "country": "CA", "postalCode": "E1N3A6", "twitter": "None", "instagram": "None", "facebook": "None", "youtube": "None", "website": "None", "summary": "None", "logo": "None", "latitude": 47.00187600000005, "longitude": -65.56824349999994}, "106833577RR0001": {"name": "CALVIN PRESBYTERIAN CHURCH", "designationCode": "C", "categoryCode": "37", "address": "401 FIRST AVENUE WEST", "city": "NORTH BAY", "province": "ON", "country": "CA", "postalCode": "P1B3C5", "twitter": "None", "instagram": "None", "facebook": "None", "youtube": "None", "website": "None", "summary": "None", "logo": "None", "latitude": 46.315885573287176, "longitude": -79.46431943414329}}