{"118924984RR0001": {"name": "FONDATION RODOLPHE CLEMENT", "designationCode": "B", "categoryCode": "03", "address": "100 RUE BERLIOZ #503", "city": "MONTREAL", "province": "QC", "country": "CA", "postalCode": "H3E1N4", "twitter": "None", "instagram": "None", "facebook": "None", "youtube": "None", "website": "None", "summary": "None", "logo": "None", "latitude": 45.464098466790084, "longitude": -73.54111582662047}, "130450679RR0001": {"name": "FONDATION ROGER ROY", "designationCode": "C", "categoryCode": "01", "address": "843 RUE GOUIN", "city": "LAVAL", "province": "QC", "country": "CA", "postalCode": "H7X3A3", "twitter": "None", "instagram": "None", "facebook": "None", "youtube": "None", "website": "None", "summary": "None", "logo": "None", "latitude": 45.527649726066116, "longitude": -73.80991090784242}, "129639738RR0001": {"name": "FONDATION ROGER ST-GERMAIN", "designationCode": "B", "categoryCode": "03", "address": "1375 AV DE CARILLON", "city": "SAINT-HYACINTHE", "province": "QC", "country": "CA", "postalCode": "J2S6R2", "twitter": "None", "instagram": "None", "facebook": "None", "youtube": "None", "website": "None", "summary": "None", "logo": "None", "latitude": 45.611368979115525, "longitude": -72.97519651253067}, "861432888RR0001": {"name": "FONDATION ROLAND ST-ARNAUD INC.", "designationCode": "B", "categoryCode": "03", "address": "2300 BOUL DES R\u00c9COLLETS", "city": "TROIS-RIVI\u00c8RES", "province": "QC", "country": "CA", "postalCode": "G8Z3X5", "twitter": "None", "instagram": "None", "facebook": "None", "youtube": "None", "website": "None", "summary": "None", "logo": "None", "latitude": 46.33856058529093, "longitude": -72.58042080039182}, "869120964RR0001": {"name": "FONDATION ROLLAND-BRUNELLE", "designationCode": "C", "categoryCode": "22", "address": "20, RUE SAINT-CHARLES-BORROMEES, PORTE 1270", "city": "JOLIETTE", "province": "QC", "country": "CA", "postalCode": "J6E4T1", "twitter": "None", "instagram": "None", "facebook": "None", "youtube": "None", "website": "None", "summary": "None", "logo": "None", "latitude": 46.026535115473685, "longitude": -73.43798345381283}, "886095918RR0001": {"name": "FONDATION ROM\u00c9O DALLAIRE", "designationCode": "A", "categoryCode": "53", "address": "CP 9922 SUCC SAINTE-FOY", "city": "QUEBEC", "province": "QC", "country": "CA", "postalCode": "G1V4C5", "twitter": "None", "instagram": "None", "facebook": "None", "youtube": "None", "website": "None", "summary": "None", "logo": "None", "latitude": 46.78481673911341, "longitude": -71.28547031164715}, "865363469RR0001": {"name": "FONDATION ROM\u00c9O SALOIS", "designationCode": "C", "categoryCode": "23", "address": "303, RUE ST-PIERRE", "city": "ST-GERMAIN DE GRANTHAM", "province": "QC", "country": "CA", "postalCode": "J0C1K0", "twitter": "None", "instagram": "None", "facebook": "None", "youtube": "None", "website": "None", "summary": "None", "logo": "None", "latitude": 45.838008190922935, "longitude": -72.56999279747856}, "118925007RR0001": {"name": "FONDATION ROMEO VACHON", "designationCode": "A", "categoryCode": "23", "address": "1, RUE DE L'AEROPORT", "city": "SAINT-HONORE-DE-CHICOUTIMI", "province": "QC", "country": "CA", "postalCode": "G0V1L0", "twitter": "None", "instagram": "None", "facebook": "None", "youtube": "None", "website": "None", "summary": "None", "logo": "None", "latitude": 48.527660840550745, "longitude": -71.05371369839582}, "867606022RR0001": {"name": "FONDATION RONA", "designationCode": "A", "categoryCode": "03", "address": "220 CHEMIN DU TREMBLAY", "city": "BOUCHERVILLE", "province": "QC", "country": "CA", "postalCode": "J4B8H7", "twitter": "None", "instagram": "None", "facebook": "None", "youtube": "None", "website": "None", "summary": "None", "logo": "None", "latitude": 45.56414642610574, "longitude": -73.42095307337834}, "824349096RR0001": {"name": "FONDATION RONALD DENIS M.D.", "designationCode": "A", "categoryCode": "13", "address": "2500, BOUL. DANIEL-JOHNSON    BUREAU 400", "city": "LAVAL", "province": "QC", "country": "CA", "postalCode": "H7T2P6", "twitter": "None", "instagram": "None", "facebook": "None", "youtube": "None", "website": "None", "summary": "None", "logo": "None", "latitude": 45.56575460669988, "longitude": -73.75397105845668}, "118925015RR0001": {"name": "FONDATION ROSALIE JETTE", "designationCode": "C", "categoryCode": "09", "address": "12435 AVENUE DE LA MISERICORDE", "city": "MONTREAL", "province": "QC", "country": "CA", "postalCode": "H4J2G3", "twitter": "None", "instagram": "None", "facebook": "None", "youtube": "None", "website": "None", "summary": "None", "logo": "None", "latitude": 45.53466392724452, "longitude": -73.71954688710238}, "876458498RR0001": {"name": "FONDATION ROSE ET VALERIEN LASNIER", "designationCode": "B", "categoryCode": "21", "address": "186 ROUTE GERMAIN", "city": "ST NICOLAS", "province": "QC", "country": "CA", "postalCode": "G7A2N3", "twitter": "None", "instagram": "None", "facebook": "None", "youtube": "None", "website": "None", "summary": "None", "logo": "None", "latitude": 46.67730817788118, "longitude": -71.4432971912687}, "886300953RR0001": {"name": "FONDATION ROSEMERE", "designationCode": "A", "categoryCode": "09", "address": "100, CHARBONNEAU", "city": "ROSEMERE", "province": "QC", "country": "CA", "postalCode": "J7A3W1", "twitter": "None", "instagram": "None", "facebook": "None", "youtube": "None", "website": "None", "summary": "None", "logo": "None", "latitude": 45.63747905041958, "longitude": -73.78352512293635}, "884514902RR0001": {"name": "FONDATION ROTAIDE INC./ROTAIDE FOUNDATION INC.", "designationCode": "A", "categoryCode": "63", "address": "223 SHERWOOD ROAD", "city": "BEACONSFIELD", "province": "QC", "country": "CA", "postalCode": "H9W2H2", "twitter": "None", "instagram": "None", "facebook": "None", "youtube": "None", "website": "None", "summary": "None", "logo": "None", "latitude": 45.43644870439736, "longitude": -73.87739505118601}, "118925031RR0001": {"name": "FONDATION ROTARY DE TROIS-RIVIERES INC.", "designationCode": "C", "categoryCode": "53", "address": "C.P. 271", "city": "TROIS-RIVIERES", "province": "QC", "country": "CA", "postalCode": "G9A3G1", "twitter": "None", "instagram": "None", "facebook": "None", "youtube": "None", "website": "None", "summary": "None", "logo": "None", "latitude": 46.35968100000005, "longitude": -72.55319749999994}, "888014396RR0001": {"name": "FONDATION S.G. ROTARY", "designationCode": "C", "categoryCode": "38", "address": "555, 30E AVENUE", "city": "SAINT-GEORGES", "province": "QC", "country": "CA", "postalCode": "G5Y5B7", "twitter": "None", "instagram": "None", "facebook": "None", "youtube": "None", "website": "None", "summary": "None", "logo": "None", "latitude": 46.11032292795292, "longitude": -70.66929917316561}, "856788203RR0001": {"name": "FONDATION S\u00c8VE DE VIE", "designationCode": "C", "categoryCode": "09", "address": "12081 AV DU BEAU-BOIS", "city": "MONTREAL", "province": "QC", "country": "CA", "postalCode": "H4K2Y5", "twitter": "None", "instagram": "None", "facebook": "None", "youtube": "None", "website": "None", "summary": "None", "logo": "None", "latitude": 45.5198212445322, "longitude": -73.73518851843743}, "118925072RR0001": {"name": "FONDATION SACRE-COEUR DE SUDBURY", "designationCode": "A", "categoryCode": "03", "address": "RAMSEY LAKE ROAD", "city": "SUDBURY", "province": "ON", "country": "CA", "postalCode": "P3E2C6", "twitter": "None", "instagram": "None", "facebook": "None", "youtube": "None", "website": "None", "summary": "None", "logo": "None", "latitude": 46.470575299051, "longitude": -80.97529379796119}, "818785677RR0001": {"name": "FONDATION SAINT-DENIS-SUR-RICHELIEU", "designationCode": "A", "categoryCode": "53", "address": "599 CHEMIN DES PATRIOTES", "city": "SAINT-DENIS-SUR-RICHELIEU", "province": "QC", "country": "CA", "postalCode": "J0H1K0", "twitter": "None", "instagram": "None", "facebook": "None", "youtube": "None", "website": "None", "summary": "None", "logo": "None", "latitude": 45.78624212574288, "longitude": -73.15923931755984}, "878182211RR0001": {"name": "FONDATION SAINT-JOSEPH DE DESCHAMBAULT", "designationCode": "A", "categoryCode": "52", "address": "110, ST-JOSEPH", "city": "DESCHAMBAULT", "province": "QC", "country": "CA", "postalCode": "G0A1S0", "twitter": "None", "instagram": "None", "facebook": "None", "youtube": "None", "website": "None", "summary": "None", "logo": "None", "latitude": 46.649165123780975, "longitude": -71.92672763532217}, "131347197RR0001": {"name": "FONDATION SAINT-PATRICK DE MONTREAL/MONTREAL ST. PATRICK'S FOUNDATION", "designationCode": "A", "categoryCode": "53", "address": "460 RENE-LEVESQUE BLVD WEST", "city": "MONTREAL", "province": "QC", "country": "CA", "postalCode": "H2Z1A7", "twitter": "None", "instagram": "None", "facebook": "None", "youtube": "None", "website": "None", "summary": "None", "logo": "None", "latitude": 45.503745299440475, "longitude": -73.56571412314673}, "899497945RR0001": {"name": "FONDATION SAINTE-ANNE INC.", "designationCode": "A", "categoryCode": "23", "address": "1250 BOUL ST-JOSEPH", "city": "LACHINE", "province": "QC", "country": "CA", "postalCode": "H8S2M8", "twitter": "None", "instagram": "None", "facebook": "None", "youtube": "None", "website": "None", "summary": "None", "logo": "None", "latitude": 45.43182050879989, "longitude": -73.67579397016561}, "898291000RR0001": {"name": "FONDATION SAINTE-PHILOMENE DE MONTCERF-LYTTON INC.", "designationCode": "A", "categoryCode": "43", "address": "15 MAIN STREET", "city": "MONTCERF-LYTTON", "province": "QC", "country": "CA", "postalCode": "J0W1N0", "twitter": "None", "instagram": "None", "facebook": "None", "youtube": "None", "website": "None", "summary": "None", "logo": "None", "latitude": 46.54039000000006, "longitude": -76.04393999999996}, "892109885RR0001": {"name": "FONDATION SAISON NOUVELLE", "designationCode": "B", "categoryCode": "43", "address": "825 RUE DE LA CONCORDE", "city": "LEVIS", "province": "QC", "country": "CA", "postalCode": "G6W8A7", "twitter": "None", "instagram": "None", "facebook": "None", "youtube": "None", "website": "None", "summary": "None", "logo": "None", "latitude": 46.728018041087125, "longitude": -71.27297591944186}, "861877157RR0001": {"name": "FONDATION SALABERRY", "designationCode": "C", "categoryCode": "21", "address": "759 SQUARE VICTORIA, SUITE 520", "city": "MONTREAL", "province": "QC", "country": "CA", "postalCode": "H2Y2J3", "twitter": "None", "instagram": "None", "facebook": "None", "youtube": "None", "website": "None", "summary": "None", "logo": "None", "latitude": 45.50162462617556, "longitude": -73.56122378362876}, "140830415RR0001": {"name": "FONDATION SANT\u00c9 BAIE-DES-CHALEURS", "designationCode": "A", "categoryCode": "13", "address": "419 BOUL. PERRON", "city": "MARIA", "province": "QC", "country": "CA", "postalCode": "G0C1Y0", "twitter": "None", "instagram": "None", "facebook": "None", "youtube": "None", "website": "None", "summary": "None", "logo": "None", "latitude": 48.16823728929246, "longitude": -65.99157250287836}, "894433275RR0001": {"name": "FONDATION SANT\u00c9 DE L'ARCHIPEL", "designationCode": "A", "categoryCode": "13", "address": "430 CH. PRINCIPAL", "city": "CAP-AUX-MEULES", "province": "QC", "country": "CA", "postalCode": "G4T1R9", "twitter": "None", "instagram": "None", "facebook": "None", "youtube": "None", "website": "None", "summary": "None", "logo": "None", "latitude": 47.37632233105022, "longitude": -61.868115590729005}, "877980722RR0001": {"name": "FONDATION SANT\u00c9 DE LA HAUTE-GASP\u00c9SIE", "designationCode": "A", "categoryCode": "13", "address": "50 RUE BELVEDERE", "city": "SAINTE-ANNE-DES-MONTS", "province": "QC", "country": "CA", "postalCode": "G4V1X4", "twitter": "None", "instagram": "None", "facebook": "None", "youtube": "None", "website": "None", "summary": "None", "logo": "None", "latitude": 49.11950587365153, "longitude": -66.48293396526086}, "118925130RR0001": {"name": "FONDATION SANT\u00c9 HAUT-RICHELIEU - ROUVILLE", "designationCode": "C", "categoryCode": "11", "address": "920 BOUL DU SEMINAIRE NORD", "city": "ST-JEAN-SUR-RICHELIEU", "province": "QC", "country": "CA", "postalCode": "J3A1B7", "twitter": "None", "instagram": "None", "facebook": "None", "youtube": "None", "website": "None", "summary": "None", "logo": "None", "latitude": 45.33288256730128, "longitude": -73.26795246930499}, "870699584RR0001": {"name": "FONDATION SANT\u00c9 MRC DE D'AUTRAY", "designationCode": "A", "categoryCode": "05", "address": "1341 RUE NOTRE-DAME", "city": "LAVALTRIE", "province": "QC", "country": "CA", "postalCode": "J5T0C7", "twitter": "None", "instagram": "None", "facebook": "None", "youtube": "None", "website": "None", "summary": "None", "logo": "None", "latitude": 45.88395067306243, "longitude": -73.27788577924268}, "107392037RR0001": {"name": "FONDATION SANTA CABRINI", "designationCode": "A", "categoryCode": "11", "address": "5655, RUE ST-ZOTIQUE EST", "city": "MONTREAL", "province": "QC", "country": "CA", "postalCode": "H1T1P7", "twitter": "None", "instagram": "None", "facebook": "None", "youtube": "None", "website": "None", "summary": "None", "logo": "None", "latitude": 45.579873203065524, "longitude": -73.57014455234403}, "815386347RR0001": {"name": "FONDATION SANTE DAIGNEAULT - GAUTHIER DE LA MRC D'ACTON", "designationCode": "C", "categoryCode": "11", "address": "1266, RUE LEMAY", "city": "ACTON VALE", "province": "QC", "country": "CA", "postalCode": "J0H1A0", "twitter": "None", "instagram": "None", "facebook": "None", "youtube": "None", "website": "None", "summary": "None", "logo": "None", "latitude": 45.64953934116184, "longitude": -72.57049814337225}, "890962145RR0001": {"name": "FONDATION SANTE NOTRE DAME HEALTH FOUNDATION INC.", "designationCode": "A", "categoryCode": "03", "address": "C.P. 190", "city": "NOTRE DAME DE LOURDES", "province": "MB", "country": "CA", "postalCode": "R0G1M0", "twitter": "None", "instagram": "None", "facebook": "None", "youtube": "None", "website": "None", "summary": "None", "logo": "None", "latitude": 49.53272000000004, "longitude": -98.55749999999995}, "891100596RR0001": {"name": "FONDATION SCOLAIRE DE LAVAL", "designationCode": "C", "categoryCode": "21", "address": "955 BOULEVARD ST-MARTIN OUEST", "city": "LAVAL", "province": "QC", "country": "CA", "postalCode": "H7S1M5", "twitter": "None", "instagram": "None", "facebook": "None", "youtube": "None", "website": "None", "summary": "None", "logo": "None", "latitude": 45.572855507674724, "longitude": -73.71923512230907}, "893400762RR0001": {"name": "FONDATION SCOUTE ATLANTIQUE", "designationCode": "A", "categoryCode": "03", "address": "126, CHEMIN GERARD", "city": "HAUT SAINT-ANTOINE", "province": "NB", "country": "CA", "postalCode": "E4V3B1", "twitter": "None", "instagram": "None", "facebook": "None", "youtube": "None", "website": "None", "summary": "None", "logo": "None", "latitude": 46.35870107015165, "longitude": -64.75921461855043}, "819225145RR0001": {"name": "FONDATION SCOUTE FRERE FELIX-MONDOUX", "designationCode": "A", "categoryCode": "03", "address": "277 PRESTON ST S              UNIT 106", "city": "TIMMINS", "province": "ON", "country": "CA", "postalCode": "P4N3N9", "twitter": "None", "instagram": "None", "facebook": "None", "youtube": "None", "website": "None", "summary": "None", "logo": "None", "latitude": 48.47023470655447, "longitude": -81.33930779344553}, "118926617RR0001": {"name": "FONDATION SCOUTE LA CORD\u00c9E", "designationCode": "A", "categoryCode": "29", "address": "2159, RUE STE-CATHERINE EST", "city": "MONTREAL", "province": "QC", "country": "CA", "postalCode": "H2K2H9", "twitter": "None", "instagram": "None", "facebook": "None", "youtube": "None", "website": "None", "summary": "None", "logo": "None", "latitude": 45.525715731346224, "longitude": -73.54952750946372}, "878911262RR0001": {"name": "FONDATION SCOUTS CANADA FOUNDATION", "designationCode": "A", "categoryCode": "25", "address": "1345 BASELINE ROAD", "city": "OTTAWA", "province": "ON", "country": "CA", "postalCode": "K2C0A7", "twitter": "None", "instagram": "None", "facebook": "None", "youtube": "None", "website": "None", "summary": "None", "logo": "None", "latitude": 45.36323425483263, "longitude": -75.73574151710977}, "860082528RR0001": {"name": "FONDATION SEDNA", "designationCode": "C", "categoryCode": "21", "address": "280, CHEMIN BOUDREAU", "city": "CAP-AUX-MEULES", "province": "QC", "country": "CA", "postalCode": "G4T1H2", "twitter": "None", "instagram": "None", "facebook": "None", "youtube": "None", "website": "None", "summary": "None", "logo": "None", "latitude": 47.37417074606141, "longitude": -61.87134184150854}, "884251000RR0001": {"name": "FONDATION SEMBEQ", "designationCode": "A", "categoryCode": "43", "address": "1175 RUE TECUMSEH", "city": "DOLLARD-DES-ORMEAUX", "province": "QC", "country": "CA", "postalCode": "H9B2Z3", "twitter": "None", "instagram": "None", "facebook": "None", "youtube": "None", "website": "None", "summary": "None", "logo": "None", "latitude": 45.4839770413756, "longitude": -73.82249687870052}, "853233740RR0001": {"name": "FONDATION SEPHARADE KOLLEL AVRECHIM/SEPHARDIC KOLLEL AVRECHIM FOUNDATION", "designationCode": "C", "categoryCode": "43", "address": "5750 AVE PARKHAVEN", "city": "COTE SAINT-LUC", "province": "QC", "country": "CA", "postalCode": "H4W1X5", "twitter": "None", "instagram": "None", "facebook": "None", "youtube": "None", "website": "None", "summary": "None", "logo": "None", "latitude": 45.4685605053957, "longitude": -73.6658314668474}, "888943263RR0001": {"name": "FONDATION SERCAN", "designationCode": "A", "categoryCode": "11", "address": "50 RUE CH\u00c9NIER", "city": "SAINT-EUSTACHE", "province": "QC", "country": "CA", "postalCode": "J7R1X1", "twitter": "None", "instagram": "None", "facebook": "None", "youtube": "None", "website": "None", "summary": "None", "logo": "None", "latitude": 45.55497499307511, "longitude": -73.89007981975288}, "884959206RR0001": {"name": "FONDATION SERGE PAYER FOUNDATION", "designationCode": "C", "categoryCode": "03", "address": "5-2784 LAURIER ST", "city": "ROCKLAND", "province": "ON", "country": "CA", "postalCode": "K4K1A2", "twitter": "None", "instagram": "None", "facebook": "None", "youtube": "None", "website": "None", "summary": "None", "logo": "None", "latitude": 45.54118208883935, "longitude": -75.30153585059688}, "886898337RR0001": {"name": "FONDATION SERVICES DE SANT\u00c9 LES GR\u00c8S", "designationCode": "A", "categoryCode": "13", "address": "C.P. 42", "city": "ST-ETIENNE DES GR\u00c8S", "province": "QC", "country": "CA", "postalCode": "G0X2P0", "twitter": "None", "instagram": "None", "facebook": "None", "youtube": "None", "website": "None", "summary": "None", "logo": "None", "latitude": 46.440040022217055, "longitude": -72.77292995556594}, "124774431RR0001": {"name": "FONDATION SIDALYS", "designationCode": "B", "categoryCode": "11", "address": "3702 RUE SAINTE-FAMILLE", "city": "MONTR\u00c9AL", "province": "QC", "country": "CA", "postalCode": "H2X2L4", "twitter": "None", "instagram": "None", "facebook": "None", "youtube": "None", "website": "None", "summary": "None", "logo": "None", "latitude": 45.512516840671836, "longitude": -73.57622507773085}, "869491670RR0001": {"name": "FONDATION SIGNES D'ESPOIR", "designationCode": "A", "categoryCode": "03", "address": "4155, 4E AVENUE OUEST", "city": "QU\u00c9BEC", "province": "QC", "country": "CA", "postalCode": "G1H7A6", "twitter": "None", "instagram": "None", "facebook": "None", "youtube": "None", "website": "None", "summary": "None", "logo": "None", "latitude": 46.839042232010044, "longitude": -71.25622507123865}, "837305523RR0001": {"name": "FONDATION SIMPLE PLAN / SIMPLE PLAN FOUNDATION", "designationCode": "A", "categoryCode": "03", "address": "200-1100, BOULEVARD CREMAZIE E", "city": "MONTREAL", "province": "QC", "country": "CA", "postalCode": "H2P2X2", "twitter": "None", "instagram": "None", "facebook": "None", "youtube": "None", "website": "None", "summary": "None", "logo": "None", "latitude": 45.54833484765332, "longitude": -73.63583274627518}, "836688747RR0001": {"name": "FONDATION SIR-WILFRID-LAURIER/SIR WILFRID LAURIER FOUNDATION", "designationCode": "C", "categoryCode": "21", "address": "235, MONTEE LESAGE", "city": "ROSEMERE", "province": "QC", "country": "CA", "postalCode": "J7A4Y6", "twitter": "None", "instagram": "None", "facebook": "None", "youtube": "None", "website": "None", "summary": "None", "logo": "None", "latitude": 45.64690267274529, "longitude": -73.7824188965601}, "118925221RR0001": {"name": "FONDATION SOCIO-CULTURELLE POLONAISE DU QUEBEC", "designationCode": "C", "categoryCode": "22", "address": "755 BOUL ST-JEAN, SUITE 605", "city": "POINTE-CLAIRE", "province": "QC", "country": "CA", "postalCode": "H9R5M9", "twitter": "None", "instagram": "None", "facebook": "None", "youtube": "None", "website": "None", "summary": "None", "logo": "None", "latitude": 45.467292769663395, "longitude": -73.82780709036855}, "844241679RR0001": {"name": "FONDATION SOCODEVI POUR LE D\u00c9VELOPPEMENT INTERNATIONAL", "designationCode": "C", "categoryCode": "03", "address": "850 AVENUE ERNEST- GAGNON     BUREAU 160", "city": "QUEBEC", "province": "QC", "country": "CA", "postalCode": "G1S4S2", "twitter": "None", "instagram": "None", "facebook": "None", "youtube": "None", "website": "None", "summary": "None", "logo": "None", "latitude": 46.7951187835132, "longitude": -71.25000242867445}, "883935017RR0001": {"name": "FONDATION SOEUR CECILE RENAULT INC.", "designationCode": "A", "categoryCode": "13", "address": "PO BOX 20070 RPO CENTRE-VILLE", "city": "TRACADIE-SHEILA", "province": "NB", "country": "CA", "postalCode": "E1X1G6", "twitter": "None", "instagram": "None", "facebook": "None", "youtube": "None", "website": "None", "summary": "None", "logo": "None", "latitude": 47.52130200000006, "longitude": -64.91063149999994}, "841072762RR0001": {"name": "FONDATION SOEUR JEANNETTE LECLERC INC.", "designationCode": "A", "categoryCode": "03", "address": "C.P. 33", "city": "CAMPBELLTON", "province": "NB", "country": "CA", "postalCode": "E3N3G1", "twitter": "None", "instagram": "None", "facebook": "None", "youtube": "None", "website": "None", "summary": "None", "logo": "None", "latitude": 47.984555657163995, "longitude": -66.694351513849}, "835903543RR0001": {"name": "FONDATION SOINS SANTE OPTIMAL/OPTIMAL HEALTH CARE FOUNDATION", "designationCode": "A", "categoryCode": "03", "address": "4431 BOUL DECARIE", "city": "MONTREAL", "province": "QC", "country": "CA", "postalCode": "H4A3K4", "twitter": "None", "instagram": "None", "facebook": "None", "youtube": "None", "website": "None", "summary": "None", "logo": "None", "latitude": 45.48023972306502, "longitude": -73.62113682855372}, "101837078RR0001": {"name": "FONDATION SOLEIL DU CENTRE D'ACCUEIL ST-BENOIT INC.", "designationCode": "C", "categoryCode": "09", "address": "9100 RUE DUMOUCHEL", "city": "MIRABEL", "province": "QC", "country": "CA", "postalCode": "J7N5A1", "twitter": "None", "instagram": "None", "facebook": "None", "youtube": "None", "website": "None", "summary": "None", "logo": "None", "latitude": 45.56599675466239, "longitude": -74.09790127042311}, "867271280RR0001": {"name": "FONDATION SOLIDARITE COLOMBIE-QUEBEC (CANADA)/FUNDACION SOLIDARIDAD COLOMBIA-QUEBEC (CANADA)", "designationCode": "C", "categoryCode": "99", "address": "4737 AVE VICTORIA", "city": "MONTREAL", "province": "QC", "country": "CA", "postalCode": "H3W2M9", "twitter": "None", "instagram": "None", "facebook": "None", "youtube": "None", "website": "None", "summary": "None", "logo": "None", "latitude": 45.48586126868243, "longitude": -73.61857186689953}, "865896336RR0001": {"name": "FONDATION SOLIDARITE JEUNESSE", "designationCode": "C", "categoryCode": "09", "address": "605 NOTRE DAME EST", "city": "VICTORIAVILLE", "province": "QC", "country": "CA", "postalCode": "G6P6Y9", "twitter": "None", "instagram": "None", "facebook": "None", "youtube": "None", "website": "None", "summary": "None", "logo": "None", "latitude": 46.062497304003614, "longitude": -71.94275373327773}, "134964766RR0001": {"name": "FONDATION SOMMEIL", "designationCode": "C", "categoryCode": "09", "address": "1600, RUE DE LORIMIER", "city": "MONTREAL", "province": "QC", "country": "CA", "postalCode": "H2K3W5", "twitter": "None", "instagram": "None", "facebook": "None", "youtube": "None", "website": "None", "summary": "None", "logo": "None", "latitude": 45.52597796055766, "longitude": -73.55291510286204}, "887770287RR0001": {"name": "FONDATION SOPHIE BARAT", "designationCode": "C", "categoryCode": "21", "address": "1239, BOULEVARD GOUIN EST", "city": "MONTR\u00c9AL", "province": "QC", "country": "CA", "postalCode": "H2C1B3", "twitter": "None", "instagram": "None", "facebook": "None", "youtube": "None", "website": "None", "summary": "None", "logo": "None", "latitude": 45.56168352264969, "longitude": -73.66630372880645}, "898140405RR0001": {"name": "FONDATION SOURCE BLEUE", "designationCode": "C", "categoryCode": "11", "address": "1130 RUE DE MONTBRUN", "city": "BOUCHERVILLE", "province": "QC", "country": "CA", "postalCode": "J4B8W6", "twitter": "None", "instagram": "None", "facebook": "None", "youtube": "None", "website": "None", "summary": "None", "logo": "None", "latitude": 45.59618393225248, "longitude": -73.41126099532545}, "886866482RR0001": {"name": "FONDATION SPORT-\u00c9TUDES", "designationCode": "C", "categoryCode": "21", "address": "5701 AV CHRISTOPHE-COLOMB", "city": "MONTREAL", "province": "QC", "country": "CA", "postalCode": "H2S2E9", "twitter": "None", "instagram": "None", "facebook": "None", "youtube": "None", "website": "None", "summary": "None", "logo": "None", "latitude": 45.53454826146908, "longitude": -73.59413095793191}, "865997811RR0001": {"name": "FONDATION SPORTS \u00c9TUDES A.N. MORIN", "designationCode": "A", "categoryCode": "21", "address": "258 BOUL. SAINTE-ADELE", "city": "SAINTE-ADELE", "province": "QC", "country": "CA", "postalCode": "J8B1A8", "twitter": "None", "instagram": "None", "facebook": "None", "youtube": "None", "website": "None", "summary": "None", "logo": "None", "latitude": 45.93633321625566, "longitude": -74.1342863507411}, "878678523RR0001": {"name": "FONDATION SR MARCELLE GRAVEL", "designationCode": "C", "categoryCode": "09", "address": "1042 RUE DES COPAINS", "city": "DOLBEAU-MISTASSINI", "province": "QC", "country": "CA", "postalCode": "G8L3N5", "twitter": "None", "instagram": "None", "facebook": "None", "youtube": "None", "website": "None", "summary": "None", "logo": "None", "latitude": 48.876986043020366, "longitude": -72.22476319233657}, "889707162RR0001": {"name": "FONDATION SSQ INC.", "designationCode": "B", "categoryCode": "56", "address": "2525 BOUL LAURIER", "city": "SAINTE-FOY", "province": "QC", "country": "CA", "postalCode": "G1V4L2", "twitter": "None", "instagram": "None", "facebook": "None", "youtube": "None", "website": "None", "summary": "None", "logo": "None", "latitude": 46.77274433579572, "longitude": -71.2769861402565}, "108004334RR0001": {"name": "FONDATION ST-ANDREW/ST-ANDREW'S FOUNDATION", "designationCode": "C", "categoryCode": "20", "address": "151 HILLSIDE AVENUE", "city": "WESTMOUNT", "province": "QC", "country": "CA", "postalCode": "H3Z1W1", "twitter": "None", "instagram": "None", "facebook": "None", "youtube": "None", "website": "None", "summary": "None", "logo": "None", "latitude": 45.4809996139419, "longitude": -73.59165944936224}, "861789196RR0001": {"name": "FONDATION ST-BERNARD", "designationCode": "A", "categoryCode": "43", "address": "1300 CH DU CHANTECLER", "city": "SAINTE-ADELE", "province": "QC", "country": "CA", "postalCode": "J8B2Y3", "twitter": "None", "instagram": "None", "facebook": "None", "youtube": "None", "website": "None", "summary": "None", "logo": "None", "latitude": 45.951021241733564, "longitude": -74.14248641176623}, "118925262RR0001": {"name": "FONDATION ST-GEORGES", "designationCode": "A", "categoryCode": "56", "address": "965, BOUL. B\u00c9CANCOUR", "city": "B\u00c9CANCOUR", "province": "QC", "country": "CA", "postalCode": "G9H3S9", "twitter": "None", "instagram": "None", "facebook": "None", "youtube": "None", "website": "None", "summary": "None", "logo": "None", "latitude": 46.407470009694855, "longitude": -72.2625625434244}, "891397580RR0001": {"name": "FONDATION ST-JEAN-VIANNEY", "designationCode": "A", "categoryCode": "23", "address": "12630, BOUL. GOUIN E", "city": "MONTREAL", "province": "QC", "country": "CA", "postalCode": "H1C1B9", "twitter": "None", "instagram": "None", "facebook": "None", "youtube": "None", "website": "None", "summary": "None", "logo": "None", "latitude": 45.693827048228016, "longitude": -73.5217427939661}, "101837219RR0001": {"name": "FONDATION ST-JOSEPH DE L'ESP\u00c9RANCE INC.", "designationCode": "C", "categoryCode": "03", "address": "65, ST-G\u00c9RARD", "city": "SAINT DAMIEN", "province": "QC", "country": "CA", "postalCode": "G0R2Y0", "twitter": "None", "instagram": "None", "facebook": "None", "youtube": "None", "website": "None", "summary": "None", "logo": "None", "latitude": 46.628598901143654, "longitude": -70.66641534712103}, "835042128RR0001": {"name": "FONDATION ST\u00c9PHAN CR\u00c9TIER", "designationCode": "B", "categoryCode": "03", "address": "3030, BOULEVARD LE CARREFOUR  BUREAU 1002", "city": "LAVAL", "province": "QC", "country": "CA", "postalCode": "H7T2P5", "twitter": "None", "instagram": "None", "facebook": "None", "youtube": "None", "website": "None", "summary": "None", "logo": "None", "latitude": 45.567772462086864, "longitude": -73.7504257036762}, "871906293RR0001": {"name": "FONDATION ST\u00c9PHANE ROY", "designationCode": "C", "categoryCode": "11", "address": "79 WILLOWDALE", "city": "SHERBROOKE", "province": "QC", "country": "CA", "postalCode": "J1M0B6", "twitter": "None", "instagram": "None", "facebook": "None", "youtube": "None", "website": "None", "summary": "None", "logo": "None", "latitude": 45.37759880267178, "longitude": -71.84475164097766}, "872095104RR0001": {"name": "FONDATION STE-TH\u00c9R\u00c8SE-DE-LISIEUX", "designationCode": "A", "categoryCode": "43", "address": "158, RUE BERTRAND", "city": "BEAUPORT", "province": "QC", "country": "CA", "postalCode": "G1B1H7", "twitter": "None", "instagram": "None", "facebook": "None", "youtube": "None", "website": "None", "summary": "None", "logo": "None", "latitude": 46.90598382154189, "longitude": -71.19022341346925}, "862158615RR0001": {"name": "FONDATION STEVE DUCHESNE", "designationCode": "A", "categoryCode": "03", "address": "965, BOULEVARD MGR-DE-LAVAL   BUREAU 200", "city": "BAIE-SAINT-PAUL", "province": "QC", "country": "CA", "postalCode": "G3Z0E9", "twitter": "None", "instagram": "None", "facebook": "None", "youtube": "None", "website": "None", "summary": "None", "logo": "None", "latitude": 47.446590186219744, "longitude": -70.51648678882196}, "141734384RR0001": {"name": "FONDATION STRATOS INC.", "designationCode": "C", "categoryCode": "03", "address": "1300 RUE STE MARGUERITE       SUITE 201", "city": "TROIS RIVIERES", "province": "QC", "country": "CA", "postalCode": "G8Z1V7", "twitter": "None", "instagram": "None", "facebook": "None", "youtube": "None", "website": "None", "summary": "None", "logo": "None", "latitude": 46.34309046047074, "longitude": -72.55460944157197}, "880544275RR0001": {"name": "FONDATION SUICIDE ACTION MONTR\u00c9AL", "designationCode": "A", "categoryCode": "03", "address": "2345 RUE BELANGER", "city": "MONTREAL", "province": "QC", "country": "CA", "postalCode": "H2G1C9", "twitter": "None", "instagram": "None", "facebook": "None", "youtube": "None", "website": "None", "summary": "None", "logo": "None", "latitude": 45.55077364891216, "longitude": -73.59971644451481}, "867322844RR0001": {"name": "FONDATION SUR LA POINTE DES PIEDS/FOUNDATION ON THE TIP OF THE TOES", "designationCode": "C", "categoryCode": "56", "address": "240 RUE BOSS\u00c9 OUEST", "city": "CHICOUTIMI", "province": "QC", "country": "CA", "postalCode": "G7J1L9", "twitter": "None", "instagram": "None", "facebook": "None", "youtube": "None", "website": "None", "summary": "None", "logo": "None", "latitude": 48.42445073933899, "longitude": -71.07656699639332}, "860915776RR0001": {"name": "FONDATION SYLVAIN GOULET", "designationCode": "B", "categoryCode": "03", "address": "80  BERLIOZ 1701", "city": "MONTREAL", "province": "QC", "country": "CA", "postalCode": "H3E1N9", "twitter": "None", "instagram": "None", "facebook": "None", "youtube": "None", "website": "None", "summary": "None", "logo": "None", "latitude": 45.46476013093702, "longitude": -73.53989762718611}, "118925296RR0001": {"name": "FONDATION TAYLOR-BIRKS INC./TAYLOR-BIRKS FOUNDATION INC.", "designationCode": "A", "categoryCode": "01", "address": "2473 RUE SAINT-PATRICK", "city": "MONTREAL", "province": "QC", "country": "CA", "postalCode": "H3K1B3", "twitter": "None", "instagram": "None", "facebook": "None", "youtube": "None", "website": "None", "summary": "None", "logo": "None", "latitude": 45.48061951298885, "longitude": -73.57070179775349}, "890520745RR0001": {"name": "FONDATION TEASDALE-CORTI/TEASDALE-CORTI FOUNDATION", "designationCode": "B", "categoryCode": "03", "address": "8880 BOUL. LACORDAIRE", "city": "SAINT-LEONARD", "province": "QC", "country": "CA", "postalCode": "H1R2B3", "twitter": "None", "instagram": "None", "facebook": "None", "youtube": "None", "website": "None", "summary": "None", "logo": "None", "latitude": 45.59362983790186, "longitude": -73.6026627505048}, "887934578RR0001": {"name": "FONDATION TEDICA", "designationCode": "A", "categoryCode": "13", "address": "55, RUE DU MONT-MARIE", "city": "L\u00c9VIS", "province": "QC", "country": "CA", "postalCode": "G6V0B9", "twitter": "None", "instagram": "None", "facebook": "None", "youtube": "None", "website": "None", "summary": "None", "logo": "None", "latitude": 46.81130092951117, "longitude": -71.17872438219163}, "868433665RR0001": {"name": "FONDATION THEATRE CAPITOL THEATRE FOUNDATION INC", "designationCode": "A", "categoryCode": "23", "address": "811 MAIN STREET", "city": "MONCTON", "province": "NB", "country": "CA", "postalCode": "E1C1G1", "twitter": "None", "instagram": "None", "facebook": "None", "youtube": "None", "website": "None", "summary": "None", "logo": "None", "latitude": 46.08819718405534, "longitude": -64.77927662366541}, "101837276RR0001": {"name": "FONDATION THERESE F. CASGRAIN-THERESE F. CASGRAIN FOUNDATION", "designationCode": "C", "categoryCode": "03", "address": "95 48E AV", "city": "LACHINE", "province": "QC", "country": "CA", "postalCode": "H8T2R5", "twitter": "None", "instagram": "None", "facebook": "None", "youtube": "None", "website": "None", "summary": "None", "logo": "None", "latitude": 45.438017636966954, "longitude": -73.70933014213149}, "892669169RR0001": {"name": "FONDATION THOMAS", "designationCode": "C", "categoryCode": "01", "address": "5505, RUE PLATON # 301", "city": "BROSSARD", "province": "QC", "country": "CA", "postalCode": "J4W2P8", "twitter": "None", "instagram": "None", "facebook": "None", "youtube": "None", "website": "None", "summary": "None", "logo": "None", "latitude": 45.4746495961683, "longitude": -73.47877460681543}, "118925338RR0001": {"name": "FONDATION THOMAS-LEON TREMBLAY", "designationCode": "B", "categoryCode": "23", "address": "621 RUE DES ACTIONNAIRES", "city": "CHICOUTIMI", "province": "QC", "country": "CA", "postalCode": "G7J5B3", "twitter": "None", "instagram": "None", "facebook": "None", "youtube": "None", "website": "None", "summary": "None", "logo": "None", "latitude": 48.401719756275874, "longitude": -71.10563559954383}, "888656949RR0001": {"name": "FONDATION THOMAS-LOUIS-DOR\u00c9", "designationCode": "A", "categoryCode": "43", "address": "3092 RUE DE SAINT-METHODE", "city": "SAINT-FELICIEN", "province": "QC", "country": "CA", "postalCode": "G8K3C3", "twitter": "None", "instagram": "None", "facebook": "None", "youtube": "None", "website": "None", "summary": "None", "logo": "None", "latitude": 48.72774036248479, "longitude": -72.41172379765145}, "852329945RR0001": {"name": "FONDATION TOMMY HARVEY", "designationCode": "C", "categoryCode": "09", "address": "2564 RUE DES G\u00c9LINOTTES", "city": "JONQUIERE", "province": "QC", "country": "CA", "postalCode": "G7X9J8", "twitter": "None", "instagram": "None", "facebook": "None", "youtube": "None", "website": "None", "summary": "None", "logo": "None", "latitude": 48.3988215961683, "longitude": -71.25862589174227}, "814814471RR0001": {"name": "FONDATION TOURNESOL / THE SUNFLOWER FOUNDATION", "designationCode": "C", "categoryCode": "09", "address": "8295 RUE DU CREUSOT", "city": "SAINT-LEONARD", "province": "QC", "country": "CA", "postalCode": "H1P2A2", "twitter": "None", "instagram": "None", "facebook": "None", "youtube": "None", "website": "None", "summary": "None", "logo": "None", "latitude": 45.59865623593385, "longitude": -73.58395081582908}, "805297074RR0001": {"name": "FONDATION TOURNESOL ET AMOUR", "designationCode": "C", "categoryCode": "01", "address": "2397 RUE GOLD", "city": "MONTREAL", "province": "QC", "country": "CA", "postalCode": "H7M1S7", "twitter": "None", "instagram": "None", "facebook": "None", "youtube": "None", "website": "None", "summary": "None", "logo": "None", "latitude": 45.496548019995316, "longitude": -73.68324263685138}, "835877457RR0001": {"name": "FONDATION TOURNESOL POUR LES ENFANTS D'ICI", "designationCode": "A", "categoryCode": "03", "address": "663 BOUL DU BORD-DE-L'EAU", "city": "SALABERRY-DE-VALLEYFIELD", "province": "QC", "country": "CA", "postalCode": "J6S0B5", "twitter": "None", "instagram": "None", "facebook": "None", "youtube": "None", "website": "None", "summary": "None", "logo": "None", "latitude": 45.276848465722196, "longitude": -74.16100232653355}, "870037306RR0001": {"name": "FONDATION TOXI-CO-G\u00ceTES DENIS LAVENTURE", "designationCode": "C", "categoryCode": "57", "address": "107 - 361 RUE MOORE", "city": "SHERBROOKE", "province": "QC", "country": "CA", "postalCode": "J1H1C1", "twitter": "None", "instagram": "None", "facebook": "None", "youtube": "None", "website": "None", "summary": "None", "logo": "None", "latitude": 45.40638997784033, "longitude": -71.8987139858904}, "879136000RR0001": {"name": "FONDATION TRAVAIL ET SANT\u00c9 MENTALE", "designationCode": "C", "categoryCode": "59", "address": "1010 - 55 AVE. MONT-ROYAL O", "city": "MONTREAL", "province": "QC", "country": "CA", "postalCode": "H2T2S6", "twitter": "None", "instagram": "None", "facebook": "None", "youtube": "None", "website": "None", "summary": "None", "logo": "None", "latitude": 45.51880900855456, "longitude": -73.58749603266486}, "887901247RR0001": {"name": "FONDATION TREMBLANT", "designationCode": "A", "categoryCode": "03", "address": "C.P. 4471", "city": "MONT-TREMBLANT", "province": "QC", "country": "CA", "postalCode": "J8E1A1", "twitter": "None", "instagram": "None", "facebook": "None", "youtube": "None", "website": "None", "summary": "None", "logo": "None", "latitude": 46.11832800000006, "longitude": -74.60168299999994}, "882269012RR0001": {"name": "FONDATION TRISTAN", "designationCode": "C", "categoryCode": "23", "address": "20, RUE DES SEIGNEURS", "city": "MONTREAL", "province": "QC", "country": "CA", "postalCode": "H3K3K3", "twitter": "None", "instagram": "None", "facebook": "None", "youtube": "None", "website": "None", "summary": "None", "logo": "None", "latitude": 45.4846416100181, "longitude": -73.56538464285265}, "878471325RR0001": {"name": "FONDATION TROIS-RIVI\u00c8RES POUR UN D\u00c9VELOPPEMENT DURABLE", "designationCode": "C", "categoryCode": "53", "address": "100 RUE DE LA MAIRIE", "city": "TROIS-RIVIERES", "province": "QC", "country": "CA", "postalCode": "G8W1S1", "twitter": "None", "instagram": "None", "facebook": "None", "youtube": "None", "website": "None", "summary": "None", "logo": "None", "latitude": 46.42278819952128, "longitude": -72.59813727176952}, "136735156RR0001": {"name": "FONDATION UKRAINIENNE POUR LESSOINS ET SERVICES A MONTREAL - MONTREAL UKRAINIAN FOUNDATION FOR CARE AND SERVICES", "designationCode": "C", "categoryCode": "01", "address": "2540 BELANGER ST. E.", "city": "MONTREAL", "province": "QC", "country": "CA", "postalCode": "H1Y1A1", "twitter": "None", "instagram": "None", "facebook": "None", "youtube": "None", "website": "None", "summary": "None", "logo": "None", "latitude": 45.552631924779305, "longitude": -73.59803582096497}, "842024564RR0001": {"name": "FONDATION UN GESTE POUR LA VIE", "designationCode": "A", "categoryCode": "03", "address": "12220, 2E AVENUE", "city": "SAINT-GEORGES", "province": "QC", "country": "CA", "postalCode": "G5Y1X4", "twitter": "None", "instagram": "None", "facebook": "None", "youtube": "None", "website": "None", "summary": "None", "logo": "None", "latitude": 46.11958524785041, "longitude": -70.66908042423105}, "867352163RR0001": {"name": "FONDATION UNIVERSITAIRE DE L'ECOLE DES HAUTES ETUDES COMMERCE", "designationCode": "A", "categoryCode": "23", "address": "3000 CH. DE LA COTE           STE-CATHERINE", "city": "MONTREAL", "province": "QC", "country": "CA", "postalCode": "H3T2A7", "twitter": "None", "instagram": "None", "facebook": "None", "youtube": "None", "website": "None", "summary": "None", "logo": "None", "latitude": 45.5039313852214, "longitude": -73.62266572075731}, "863757381RR0001": {"name": "FONDATION UNIVERSITAIRE PIERRE ARBOUR", "designationCode": "C", "categoryCode": "21", "address": "1434 RUE SHERBROOKE OUEST     BUREAU 300", "city": "MONTREAL", "province": "QC", "country": "CA", "postalCode": "H3G1K4", "twitter": "None", "instagram": "None", "facebook": "None", "youtube": "None", "website": "None", "summary": "None", "logo": "None", "latitude": 45.49801746321206, "longitude": -73.5802889482084}, "101837318RR0001": {"name": "FONDATION UNIVERSITE DU QUEBEC", "designationCode": "A", "categoryCode": "23", "address": "475 RUE DU PARIS", "city": "QU\u00c9BEC", "province": "QC", "country": "CA", "postalCode": "G1K9H7", "twitter": "None", "instagram": "None", "facebook": "None", "youtube": "None", "website": "None", "summary": "None", "logo": "None", "latitude": 46.81325202221699, "longitude": -71.22253542238472}, "886045590RR0001": {"name": "FONDATION V.E.Q./V.E.Q. FOUNDATION", "designationCode": "C", "categoryCode": "01", "address": "1270 CHEMIN STE-FOY           SUITE 2141", "city": "QUEBEC", "province": "QC", "country": "CA", "postalCode": "G1S2M4", "twitter": "None", "instagram": "None", "facebook": "None", "youtube": "None", "website": "None", "summary": "None", "logo": "None", "latitude": 46.795915761948145, "longitude": -71.251954217053}, "119251825RR0001": {"name": "FONDATION VALORIS DE PRESCOTT-RUSSELL / VALORIS FOUNDATION OF PRESCOTT-RUSSELL", "designationCode": "A", "categoryCode": "11", "address": "PO BOX 248", "city": "PLANTAGENET", "province": "ON", "country": "CA", "postalCode": "K0B1L0", "twitter": "None", "instagram": "None", "facebook": "None", "youtube": "None", "website": "None", "summary": "None", "logo": "None", "latitude": 45.535250000000076, "longitude": -74.99816999999996}}