{"855315081RR0001": {"name": "THE MACVILLE CHARITABLE FOUNDATION", "designationCode": "B", "categoryCode": "03", "address": "504-1440 CREEKSIDE DRIVE", "city": "VANCOUVER", "province": "BC", "country": "CA", "postalCode": "V6J5B6", "twitter": "None", "instagram": "None", "facebook": "None", "youtube": "None", "website": "None", "summary": "None", "logo": "None", "latitude": 49.27325313797413, "longitude": -123.14054124240334}, "802834275RR0001": {"name": "THE MADAN AND RAKSHA M. BHAYANA FAMILY FOUNDATION", "designationCode": "B", "categoryCode": "03", "address": "1100 - 2 ST CLAIR AVE E", "city": "TORONTO", "province": "ON", "country": "CA", "postalCode": "M4T2T5", "twitter": "None", "instagram": "None", "facebook": "None", "youtube": "None", "website": "None", "summary": "None", "logo": "None", "latitude": 43.68819219458694, "longitude": -79.39364569637594}, "892813361RR0001": {"name": "THE MAGDA TOMCZAK CHILDREN'S AID FOUNDATION", "designationCode": "C", "categoryCode": "09", "address": "4507 190 STREET NW", "city": "EDMONTON", "province": "AB", "country": "CA", "postalCode": "T6M2S9", "twitter": "None", "instagram": "None", "facebook": "None", "youtube": "None", "website": "None", "summary": "None", "logo": "None", "latitude": 53.483290526427844, "longitude": -113.65133386363307}, "119243632RR0001": {"name": "THE MAGFRAT FOUNDATION", "designationCode": "B", "categoryCode": "03", "address": "10 LORNE CRESCENT", "city": "SARNIA", "province": "ON", "country": "CA", "postalCode": "N7S1H8", "twitter": "None", "instagram": "None", "facebook": "None", "youtube": "None", "website": "None", "summary": "None", "logo": "None", "latitude": 42.968547732893654, "longitude": -82.37489512391184}, "139636369RR0001": {"name": "THE MAGIC OF CHRISTMAS (A NON-PROFIT CHARITABLE SOCIETY)", "designationCode": "C", "categoryCode": "09", "address": "BOX 76097                     MILLRISE R.P.O.", "city": "CALGARY", "province": "AB", "country": "CA", "postalCode": "T2Y2Z9", "twitter": "None", "instagram": "None", "facebook": "None", "youtube": "None", "website": "None", "summary": "None", "logo": "None", "latitude": 50.91454132111086, "longitude": -114.09693237631686}, "119243657RR0001": {"name": "THE MAHATMA GANDHI ORGANIZATION OF CANADA", "designationCode": "C", "categoryCode": "39", "address": "705 BRIMORTON DRIVE", "city": "SCARBOROUGH", "province": "ON", "country": "CA", "postalCode": "M1G2R7", "twitter": "None", "instagram": "None", "facebook": "None", "youtube": "None", "website": "None", "summary": "None", "logo": "None", "latitude": 43.77474340631321, "longitude": -79.22801095126682}, "892523705RR0001": {"name": "THE MAHON ROWLAND FOUNDATION", "designationCode": "B", "categoryCode": "03", "address": "6150 CARNARVON STREET", "city": "VANCOUVER", "province": "BC", "country": "CA", "postalCode": "V6N1K3", "twitter": "None", "instagram": "None", "facebook": "None", "youtube": "None", "website": "None", "summary": "None", "logo": "None", "latitude": 49.23056900193324, "longitude": -123.17340004700242}, "119243665RR0001": {"name": "THE MAHONE BAY AND AREA SWIMMING POOL SOCIETY", "designationCode": "C", "categoryCode": "56", "address": "PO BOX 566", "city": "MAHONE BAY", "province": "NS", "country": "CA", "postalCode": "B0J2E0", "twitter": "None", "instagram": "None", "facebook": "None", "youtube": "None", "website": "None", "summary": "None", "logo": "None", "latitude": 44.5107664683721, "longitude": -64.5603343504879}, "119243673RR0001": {"name": "THE MAHONE BAY FOUNDERS SOCIETY", "designationCode": "C", "categoryCode": "50", "address": "BOX 583", "city": "MAHONE BAY", "province": "NS", "country": "CA", "postalCode": "B0J2E0", "twitter": "None", "instagram": "None", "facebook": "None", "youtube": "None", "website": "None", "summary": "None", "logo": "None", "latitude": 44.5107664683721, "longitude": -64.5603343504879}, "107657140RR0001": {"name": "THE MAITLAND B. STEINKOPF RESIDENCE", "designationCode": "B", "categoryCode": "01", "address": "UNIT 9-213 ST MARY'S RD", "city": "WINNIPEG", "province": "MB", "country": "CA", "postalCode": "R2H1J2", "twitter": "None", "instagram": "None", "facebook": "None", "youtube": "None", "website": "None", "summary": "None", "logo": "None", "latitude": 49.875530479600684, "longitude": -97.11863938190317}, "891235749RR0001": {"name": "THE MAKBRANETH FOUNDATION", "designationCode": "B", "categoryCode": "59", "address": "7774 TENTH SIDE ROAD          P.O. BOX 398", "city": "MILTON", "province": "ON", "country": "CA", "postalCode": "L9T4Y9", "twitter": "None", "instagram": "None", "facebook": "None", "youtube": "None", "website": "None", "summary": "None", "logo": "None", "latitude": 43.55783277006835, "longitude": -79.95075905640881}, "119243715RR0001": {"name": "THE MALCOM ISLAND SENIOR CITIZENS HOUSING SOCIETY", "designationCode": "C", "categoryCode": "09", "address": "BOX 217", "city": "SOINTULA", "province": "BC", "country": "CA", "postalCode": "V0N3E0", "twitter": "None", "instagram": "None", "facebook": "None", "youtube": "None", "website": "None", "summary": "None", "logo": "None", "latitude": 50.628040000000055, "longitude": -127.01764999999995}, "119243731RR0001": {"name": "THE MALLINER CHARITABLE FOUNDATION", "designationCode": "B", "categoryCode": "03", "address": "#350, 3-11 BELLEROSE DRIVE", "city": "ST ALBERT", "province": "AB", "country": "CA", "postalCode": "T8N5C9", "twitter": "None", "instagram": "None", "facebook": "None", "youtube": "None", "website": "None", "summary": "None", "logo": "None", "latitude": 53.6633997124945, "longitude": -113.61262262238331}, "889085361RR0001": {"name": "THE MALOEL FOUNDATION", "designationCode": "B", "categoryCode": "05", "address": "60 WILLIAM ST", "city": "YARMOUTH", "province": "NS", "country": "CA", "postalCode": "B5A1Y5", "twitter": "None", "instagram": "None", "facebook": "None", "youtube": "None", "website": "None", "summary": "None", "logo": "None", "latitude": 43.832469331669444, "longitude": -66.1175278877602}, "890477763RR0001": {"name": "THE MANCAP FOUNDATION", "designationCode": "C", "categoryCode": "21", "address": "1665 91 ST SW", "city": "EDMONTON", "province": "AB", "country": "CA", "postalCode": "T6X0W8", "twitter": "None", "instagram": "None", "facebook": "None", "youtube": "None", "website": "None", "summary": "None", "logo": "None", "latitude": 53.41803369383713, "longitude": -113.47921750421318}, "119243756RR0001": {"name": "THE MANCHEE FOUNDATION", "designationCode": "B", "categoryCode": "23", "address": "13383 KENNEDY RD", "city": "STOUFFVILLE", "province": "ON", "country": "CA", "postalCode": "L4A3Y7", "twitter": "None", "instagram": "None", "facebook": "None", "youtube": "None", "website": "None", "summary": "None", "logo": "None", "latitude": 43.98133067509444, "longitude": -79.33480140311298}, "867736001RR0001": {"name": "THE MANIFESTED WORD ASSEMBLY", "designationCode": "C", "categoryCode": "39", "address": "3 CREEKSIDE CLOSE", "city": "SPRUCE GROVE", "province": "AB", "country": "CA", "postalCode": "T7X4N9", "twitter": "None", "instagram": "None", "facebook": "None", "youtube": "None", "website": "None", "summary": "None", "logo": "None", "latitude": 53.56217046047076, "longitude": -113.91716858228982}, "887627990RR0001": {"name": "THE MANITOBA AFFLICTED CHILDREN'S FUND", "designationCode": "C", "categoryCode": "09", "address": "#6 ST. CLAIR BOULEVARD", "city": "WINNIPEG", "province": "MB", "country": "CA", "postalCode": "R2C0V1", "twitter": "None", "instagram": "None", "facebook": "None", "youtube": "None", "website": "None", "summary": "None", "logo": "None", "latitude": 49.90419821426511, "longitude": -96.9971340301515}, "119030013RR0001": {"name": "THE MANITOBA ASSOCIATION FOR CHILDBIRTH AND FAMILY EDUCATION INC.", "designationCode": "C", "categoryCode": "09", "address": "PO BOX 5508 DAKOTA CROSSING PO", "city": "WINNIPEG", "province": "MB", "country": "CA", "postalCode": "R2N0A8", "twitter": "None", "instagram": "None", "facebook": "None", "youtube": "None", "website": "None", "summary": "None", "logo": "None", "latitude": 49.81536398044282, "longitude": -97.09760587080677}, "108087768RR0001": {"name": "THE MANITOBA AUTOMOBILE MUSEUM FOUNDATION", "designationCode": "C", "categoryCode": "50", "address": "BOX 477", "city": "ELKHORN", "province": "MB", "country": "CA", "postalCode": "R0M0N0", "twitter": "None", "instagram": "None", "facebook": "None", "youtube": "None", "website": "None", "summary": "None", "logo": "None", "latitude": 49.975280000000055, "longitude": -101.23601999999994}, "119243806RR0001": {"name": "THE MANITOBA CAMP BOARD OF THE CHURCH OF THE NAZARENE", "designationCode": "C", "categoryCode": "39", "address": "BOX 80047                     TOWERLANE RPO", "city": "AIRDRIE", "province": "AB", "country": "CA", "postalCode": "T4B2V8", "twitter": "None", "instagram": "None", "facebook": "None", "youtube": "None", "website": "None", "summary": "None", "logo": "None", "latitude": 51.28868400000006, "longitude": -114.01344349999994}, "107659831RR0001": {"name": "THE MANITOBA CHILD CARE ASSOCIATION INC.", "designationCode": "C", "categoryCode": "01", "address": "2ND FLR 2350 MCPHILLIPS ST", "city": "WINNIPEG", "province": "MB", "country": "CA", "postalCode": "R2V4J6", "twitter": "None", "instagram": "None", "facebook": "None", "youtube": "None", "website": "None", "summary": "None", "logo": "None", "latitude": 49.95562916876326, "longitude": -97.14583680728805}, "130356397RR0001": {"name": "THE MANITOBA CONSERVATORY OF MUSIC AND ARTS INCORPORATED", "designationCode": "C", "categoryCode": "22", "address": "515 PORTAGE AVE", "city": "WINNIPEG", "province": "MB", "country": "CA", "postalCode": "R3B2E9", "twitter": "None", "instagram": "None", "facebook": "None", "youtube": "None", "website": "None", "summary": "None", "logo": "None", "latitude": 49.89031476164195, "longitude": -97.15288240290808}, "119243871RR0001": {"name": "THE MANITOBA HIGHLAND DANCERS ASSOCIATION INC", "designationCode": "C", "categoryCode": "22", "address": "PO BOX 2491                   TREASURER", "city": "WINNIPEG", "province": "MB", "country": "CA", "postalCode": "R3C4A7", "twitter": "None", "instagram": "None", "facebook": "None", "youtube": "None", "website": "None", "summary": "None", "logo": "None", "latitude": 49.899525000000054, "longitude": -97.14112999999993}, "128115342RR0001": {"name": "THE MANITOBA HINDU SENIORS INC", "designationCode": "C", "categoryCode": "56", "address": "834 ELLICE AVENUE", "city": "WINNIPEG", "province": "MB", "country": "CA", "postalCode": "R3G0C2", "twitter": "None", "instagram": "None", "facebook": "None", "youtube": "None", "website": "None", "summary": "None", "logo": "None", "latitude": 49.89325950678067, "longitude": -97.16969219608748}, "122814601RR0001": {"name": "THE MANITOBA HISTORICAL SOCIETY", "designationCode": "C", "categoryCode": "50", "address": "710A - 1 LOMBARD PL", "city": "WINNIPEG", "province": "MB", "country": "CA", "postalCode": "R3B0X3", "twitter": "None", "instagram": "None", "facebook": "None", "youtube": "None", "website": "None", "summary": "None", "logo": "None", "latitude": 49.89608549999999, "longitude": -97.13498849999999}, "119243897RR0001": {"name": "THE MANITOBA KOREAN CANADIAN HERITAGE LANGUAGE SCHOOL INC.", "designationCode": "C", "categoryCode": "20", "address": "PO BOX 61021                  358-112 GRANT AVE", "city": "WINNIPEG", "province": "MB", "country": "CA", "postalCode": "R3M3X8", "twitter": "None", "instagram": "None", "facebook": "None", "youtube": "None", "website": "None", "summary": "None", "logo": "None", "latitude": 49.857817557346486, "longitude": -97.1699079449958}, "119030534RR0001": {"name": "THE MANITOBA MUSEUM", "designationCode": "C", "categoryCode": "50", "address": "190 RUPERT AVE", "city": "WINNIPEG", "province": "MB", "country": "CA", "postalCode": "R3B0N2", "twitter": "None", "instagram": "None", "facebook": "None", "youtube": "None", "website": "None", "summary": "None", "logo": "None", "latitude": 49.90049804244344, "longitude": -97.13658903179629}, "892493537RR0001": {"name": "THE MANITOBA MUSEUM FOUNDATION INCORPORATED/FONDATION DU MUSEE DU MANITOBA INCORPOREE", "designationCode": "A", "categoryCode": "53", "address": "190 RUPERT AVE                DIRECTOR OF OPERATIONS", "city": "WINNIPEG", "province": "MB", "country": "CA", "postalCode": "R3B0N2", "twitter": "None", "instagram": "None", "facebook": "None", "youtube": "None", "website": "None", "summary": "None", "logo": "None", "latitude": 49.90049804244344, "longitude": -97.13658903179629}, "889312195RR0001": {"name": "THE MANITOBA P.E.O. FOUNDATION", "designationCode": "A", "categoryCode": "21", "address": "571 CHURCH ROAD               PO BOX 185", "city": "EAST SELKIRK", "province": "MB", "country": "CA", "postalCode": "R0E0M0", "twitter": "None", "instagram": "None", "facebook": "None", "youtube": "None", "website": "None", "summary": "None", "logo": "None", "latitude": 50.13917750871393, "longitude": -96.84791437111178}, "843054164RR0001": {"name": "THE MANITOBA REAL ESTATE ASSOCIATION SHELTER FOUNDATION INC.", "designationCode": "A", "categoryCode": "03", "address": "1873 INKSTER BOULEVARD", "city": "WINNIPEG", "province": "MB", "country": "CA", "postalCode": "R2R2A6", "twitter": "None", "instagram": "None", "facebook": "None", "youtube": "None", "website": "None", "summary": "None", "logo": "None", "latitude": 49.94606249047804, "longitude": -97.19613}, "119030666RR0002": {"name": "THE MANITOBA-SASKATCHEWAN CONFERENCE OF THE SEVENTH-DAY ADVENTIST CHURCH", "designationCode": "C", "categoryCode": "41", "address": "1004 VICTORIA AVE", "city": "SASKATOON", "province": "SK", "country": "CA", "postalCode": "S7N0Z8", "twitter": "None", "instagram": "None", "facebook": "None", "youtube": "None", "website": "None", "summary": "None", "logo": "None", "latitude": 52.115409, "longitude": -106.66240826773014}, "132029653RR0001": {"name": "THE MANN ART GALLERY, INC.", "designationCode": "C", "categoryCode": "22", "address": "142-12TH ST W", "city": "PRINCE ALBERT", "province": "SK", "country": "CA", "postalCode": "S6V3B5", "twitter": "None", "instagram": "None", "facebook": "None", "youtube": "None", "website": "None", "summary": "None", "logo": "None", "latitude": 53.20220453318128, "longitude": -105.75885052553522}, "851866574RR0001": {"name": "THE MANTLE FOUNDATION", "designationCode": "B", "categoryCode": "03", "address": "273 WELLAND ROAD              RR5", "city": "FENWICK", "province": "ON", "country": "CA", "postalCode": "L0S1C0", "twitter": "None", "instagram": "None", "facebook": "None", "youtube": "None", "website": "None", "summary": "None", "logo": "None", "latitude": 43.02497651269503, "longitude": -79.30989288634657}, "889411179RR0001": {"name": "THE MANUEL & EVA KIMEL FOUNDATION", "designationCode": "B", "categoryCode": "03", "address": "1450 CASTLEFIELD AVENUE", "city": "TORONTO", "province": "ON", "country": "CA", "postalCode": "M6M1Y6", "twitter": "None", "instagram": "None", "facebook": "None", "youtube": "None", "website": "None", "summary": "None", "logo": "None", "latitude": 43.697605567314845, "longitude": -79.46717140564938}, "119244028RR0001": {"name": "THE MAPLE GROVE CEMETERY COMPANY", "designationCode": "C", "categoryCode": "59", "address": "1787 HIGHWAY 10", "city": "WEST NORTHFIELD", "province": "NS", "country": "CA", "postalCode": "B4V5C1", "twitter": "None", "instagram": "None", "facebook": "None", "youtube": "None", "website": "None", "summary": "None", "logo": "None", "latitude": 44.441814175149055, "longitude": -64.57936289701139}, "864790209RR0001": {"name": "THE MAPLE LEAF LEGACY PROJECT/LE PROJET DE L'HERITAGE DE LA FEUILLE D'ERABLE", "designationCode": "C", "categoryCode": "50", "address": "236 EDGEBROOK GARDENS N.W.", "city": "CALGARY", "province": "AB", "country": "CA", "postalCode": "T3A4Z9", "twitter": "None", "instagram": "None", "facebook": "None", "youtube": "None", "website": "None", "summary": "None", "logo": "None", "latitude": 51.13290818956661, "longitude": -114.13368270275258}, "119244036RR0001": {"name": "THE MAPLE LEAF SINGERS", "designationCode": "C", "categoryCode": "22", "address": "1650 PIERARD ROAD", "city": "NORTH VANCOUVER", "province": "BC", "country": "CA", "postalCode": "V7J1Y2", "twitter": "None", "instagram": "None", "facebook": "None", "youtube": "None", "website": "None", "summary": "None", "logo": "None", "latitude": 49.34077401001199, "longitude": -123.02919714865236}, "868798166RR0001": {"name": "THE MAPLE RIDGE CHRISTADELPHIAN ECCLESIA (CENTRAL)", "designationCode": "C", "categoryCode": "39", "address": "22340 132ND AVE", "city": "MAPLE RIDGE", "province": "BC", "country": "CA", "postalCode": "V4R2P6", "twitter": "None", "instagram": "None", "facebook": "None", "youtube": "None", "website": "None", "summary": "None", "logo": "None", "latitude": 49.24218648456368, "longitude": -122.60289438634658}, "119244051RR0001": {"name": "THE MAPLE RIDGE COMMUNITY FOUNDATION", "designationCode": "A", "categoryCode": "56", "address": "PO BOX 370", "city": "MAPLE RIDGE", "province": "BC", "country": "CA", "postalCode": "V2X8K9", "twitter": "None", "instagram": "None", "facebook": "None", "youtube": "None", "website": "None", "summary": "None", "logo": "None", "latitude": 49.21686600000005, "longitude": -122.60537449999993}, "107663437RR0001": {"name": "THE MAPLE RIDGE HISTORICAL SOCIETY", "designationCode": "C", "categoryCode": "50", "address": "22520 116TH AVE", "city": "MAPLE RIDGE", "province": "BC", "country": "CA", "postalCode": "V2X0S4", "twitter": "None", "instagram": "None", "facebook": "None", "youtube": "None", "website": "None", "summary": "None", "logo": "None", "latitude": 49.21134455879698, "longitude": -122.59734088042354}, "886743996RR0001": {"name": "THE MAPLE RIDGE PITT-MEADOWS CHRISTMAS HAMPER SOCIETY", "designationCode": "C", "categoryCode": "09", "address": "BOX 403", "city": "MAPLE RIDGE", "province": "BC", "country": "CA", "postalCode": "V2X8K9", "twitter": "None", "instagram": "None", "facebook": "None", "youtube": "None", "website": "None", "summary": "None", "logo": "None", "latitude": 49.21686600000005, "longitude": -122.60537449999993}, "119288918RR0573": {"name": "THE MAPLES CONGREGATION OF JEHOVAH'S WITNESSES", "designationCode": "C", "categoryCode": "61", "address": "53 KENVILLE CR", "city": "WINNIPEG", "province": "MB", "country": "CA", "postalCode": "R2P0X6", "twitter": "None", "instagram": "None", "facebook": "None", "youtube": "None", "website": "None", "summary": "None", "logo": "None", "latitude": 49.956866422990295, "longitude": -97.17713190934298}, "892324666RR0001": {"name": "THE MAPLES EVANGELICAL CHURCH", "designationCode": "C", "categoryCode": "39", "address": "1575 INKSTER BLVD", "city": "WINNIPEG", "province": "MB", "country": "CA", "postalCode": "R2X1R2", "twitter": "None", "instagram": "None", "facebook": "None", "youtube": "None", "website": "None", "summary": "None", "logo": "None", "latitude": 49.94563890374481, "longitude": -97.18021389102111}, "890977283RR0001": {"name": "THE MAR THOMA CHURCH OTTAWA", "designationCode": "C", "categoryCode": "39", "address": "3 FALLOW CRT", "city": "OTTAWA", "province": "ON", "country": "CA", "postalCode": "K1T1W8", "twitter": "None", "instagram": "None", "facebook": "None", "youtube": "None", "website": "None", "summary": "None", "logo": "None", "latitude": 45.36181682763007, "longitude": -75.64638606327547}, "892156647RR0001": {"name": "THE MAR THOMA CHURCH, MONTREAL, QUEBEC, CANADA", "designationCode": "C", "categoryCode": "39", "address": "402 BOUL DE L'ILE", "city": "PINCOURT", "province": "QC", "country": "CA", "postalCode": "J7W9Y3", "twitter": "None", "instagram": "None", "facebook": "None", "youtube": "None", "website": "None", "summary": "None", "logo": "None", "latitude": 45.37258079516997, "longitude": -73.97839450856968}, "131942286RR0001": {"name": "THE MARA MUSICAL AND ATHLETIC ASSOCIATION", "designationCode": "C", "categoryCode": "56", "address": "11 COELL-JONES RD", "city": "MARA", "province": "BC", "country": "CA", "postalCode": "V0E2K0", "twitter": "None", "instagram": "None", "facebook": "None", "youtube": "None", "website": "None", "summary": "None", "logo": "None", "latitude": 50.68532320760001, "longitude": -119.0715638645336}, "889948774RR0001": {"name": "THE MARATHON SICK CHILDREN'S FUND", "designationCode": "C", "categoryCode": "09", "address": "PO BOX 375", "city": "MARATHON", "province": "ON", "country": "CA", "postalCode": "P0T2E0", "twitter": "None", "instagram": "None", "facebook": "None", "youtube": "None", "website": "None", "summary": "None", "logo": "None", "latitude": 48.721610000000055, "longitude": -86.37360999999999}, "119244101RR0001": {"name": "THE MARDER FAMILY FOUNDATION", "designationCode": "B", "categoryCode": "03", "address": "3845 BATHURST STREET          STE #102", "city": "TORONTO", "province": "ON", "country": "CA", "postalCode": "M3B3N2", "twitter": "None", "instagram": "None", "facebook": "None", "youtube": "None", "website": "None", "summary": "None", "logo": "None"}, "865560866RR0001": {"name": "THE MAREK JABLONSKI ENDOWMENT FUND", "designationCode": "B", "categoryCode": "21", "address": "1101 BELL TOWER               10104-103 AVENUE", "city": "EDMONTON", "province": "AB", "country": "CA", "postalCode": "T5J0H8", "twitter": "None", "instagram": "None", "facebook": "None", "youtube": "None", "website": "None", "summary": "None", "logo": "None", "latitude": 53.544630041115816, "longitude": -113.49473991949915}, "119244119RR0001": {"name": "THE MARGAREE NEW HORIZONS SENIOR CITIZENS' CLUB", "designationCode": "C", "categoryCode": "56", "address": "40 MARSH BROOK RD", "city": "MARGAREE", "province": "NS", "country": "CA", "postalCode": "B0E1Y0", "twitter": "None", "instagram": "None", "facebook": "None", "youtube": "None", "website": "None", "summary": "None", "logo": "None", "latitude": 46.39263252954595, "longitude": -61.071195204570245}, "891002594RR0001": {"name": "THE MARGARET ANN AND DONALD S MCGIVERIN FOUNDATION", "designationCode": "B", "categoryCode": "55", "address": "850-36 TORONTO STREET", "city": "TORONTO", "province": "ON", "country": "CA", "postalCode": "M5C2C5", "twitter": "None", "instagram": "None", "facebook": "None", "youtube": "None", "website": "None", "summary": "None", "logo": "None", "latitude": 43.650531712735905, "longitude": -79.37637427673252}, "132031956RR0001": {"name": "THE MARGARET JEAN LEPPINGTON FOUNDATION", "designationCode": "B", "categoryCode": "05", "address": "130 KING STREET WEST, 20TH FL BOX 430, STN FIRST CANADIAN PL", "city": "TORONTO", "province": "ON", "country": "CA", "postalCode": "M5X1K1", "twitter": "None", "instagram": "None", "facebook": "None", "youtube": "None", "website": "None", "summary": "None", "logo": "None", "latitude": 43.64826932503962, "longitude": -79.38190945606182}, "119244127RR0001": {"name": "THE MARGARET LUGSDIN SCHOLARSHIP FUND", "designationCode": "C", "categoryCode": "21", "address": "1871 WESTON ROAD", "city": "WESTON", "province": "ON", "country": "CA", "postalCode": "M9N1V9", "twitter": "None", "instagram": "None", "facebook": "None", "youtube": "None", "website": "None", "summary": "None", "logo": "None", "latitude": 43.699856520139534, "longitude": -79.5153306382077}, "871029211RR0001": {"name": "THE MARGARET ROCHE-HEYWOOD FOUNDATION", "designationCode": "B", "categoryCode": "03", "address": "2771 SEAVIEW PLACE", "city": "VICTORIA", "province": "BC", "country": "CA", "postalCode": "V8N1K8", "twitter": "None", "instagram": "None", "facebook": "None", "youtube": "None", "website": "None", "summary": "None", "logo": "None", "latitude": 48.455838, "longitude": -123.28643141165065}, "851818633RR0001": {"name": "THE MARGARET SALSMAN CANCER CARE PATIENT NAVIGATOR MEMORIAL FUND", "designationCode": "C", "categoryCode": "09", "address": "5387 BROOKLYN ST", "city": "GRAFTON", "province": "NS", "country": "CA", "postalCode": "B0P1V0", "twitter": "None", "instagram": "None", "facebook": "None", "youtube": "None", "website": "None", "summary": "None", "logo": "None", "latitude": 45.094103840988936, "longitude": -64.69096346099033}, "890512643RR0001": {"name": "THE MARGARET SAUL SCHOLARSHIP", "designationCode": "C", "categoryCode": "21", "address": "45 ANNETTE CRES", "city": "ST. ALBERT", "province": "AB", "country": "CA", "postalCode": "T8N2Z8", "twitter": "None", "instagram": "None", "facebook": "None", "youtube": "None", "website": "None", "summary": "None", "logo": "None", "latitude": 53.62544033720936, "longitude": -113.60326410496816}, "119244135RR0001": {"name": "THE MARGO SILVER THREADS SENIOR CITIZENS CLUB", "designationCode": "C", "categoryCode": "56", "address": "PO BOX 77", "city": "MARGO", "province": "SK", "country": "CA", "postalCode": "S0A2M0", "twitter": "None", "instagram": "None", "facebook": "None", "youtube": "None", "website": "None", "summary": "None", "logo": "None", "latitude": 51.81669000000005, "longitude": -103.33428999999995}, "833970742RR0001": {"name": "THE MARGUERITE HUBBARD CHARITABLE FOUNDATION", "designationCode": "B", "categoryCode": "03", "address": "P.O. BOX 651", "city": "LUNENBURG", "province": "NS", "country": "CA", "postalCode": "B0J2C0", "twitter": "None", "instagram": "None", "facebook": "None", "youtube": "None", "website": "None", "summary": "None", "logo": "None", "latitude": 44.37886006217898, "longitude": -64.31792993782098}, "108087941RR0001": {"name": "THE MARIA F. GANONG OLD FOLKS HOME", "designationCode": "C", "categoryCode": "01", "address": "28 UNION STREET", "city": "ST. STEPHEN", "province": "NB", "country": "CA", "postalCode": "E3L1T1", "twitter": "None", "instagram": "None", "facebook": "None", "youtube": "None", "website": "None", "summary": "None", "logo": "None", "latitude": 45.194419480668515, "longitude": -67.278332414796}, "892502725RR0001": {"name": "THE MARIA-HELENA FOUNDATION", "designationCode": "B", "categoryCode": "21", "address": "4616 WEST 13TH AVE", "city": "VANCOUVER", "province": "BC", "country": "CA", "postalCode": "V6R2V7", "twitter": "None", "instagram": "None", "facebook": "None", "youtube": "None", "website": "None", "summary": "None", "logo": "None", "latitude": 49.26115149567219, "longitude": -123.21266141188181}, "119244143RR0001": {"name": "THE MARIAN CENTRE", "designationCode": "C", "categoryCode": "01", "address": "10528 98 STREET", "city": "EDMONTON", "province": "AB", "country": "CA", "postalCode": "T5H2N4", "twitter": "None", "instagram": "None", "facebook": "None", "youtube": "None", "website": "None", "summary": "None", "logo": "None", "latitude": 53.54917108881069, "longitude": -113.48970867586104}, "119244168RR0001": {"name": "THE MARIANO ELIA FOUNDATION", "designationCode": "B", "categoryCode": "23", "address": "1100 CENTRAL PARKWAY W STE 1", "city": "MISSISSAUGA", "province": "ON", "country": "CA", "postalCode": "L5C4E5", "twitter": "None", "instagram": "None", "facebook": "None", "youtube": "None", "website": "None", "summary": "None", "logo": "None", "latitude": 43.56668589090553, "longitude": -79.65714983218905}, "119048205RR0001": {"name": "THE MARIE ESTHER SOCIETY", "designationCode": "C", "categoryCode": "10", "address": "861 FAIRFIELD RD", "city": "VICTORIA", "province": "BC", "country": "CA", "postalCode": "V8V5A9", "twitter": "None", "instagram": "None", "facebook": "None", "youtube": "None", "website": "None", "summary": "None", "logo": "None", "latitude": 48.420231384356015, "longitude": -123.36105303681661}, "825908742RR0001": {"name": "THE MARILYN NEAVES CHARITABLE FOUNDATION TRUST", "designationCode": "B", "categoryCode": "05", "address": "510-650 GEORGIA ST W          PO BOX 11538", "city": "VANCOUVER", "province": "BC", "country": "CA", "postalCode": "V6B4N7", "twitter": "None", "instagram": "None", "facebook": "None", "youtube": "None", "website": "None", "summary": "None", "logo": "None", "latitude": 49.282095217179936, "longitude": -123.11767129779695}, "867654758RR0001": {"name": "THE MARION ARMSTRONG CHARITABLE FOUNDATION", "designationCode": "B", "categoryCode": "03", "address": "BAY ADELAINE CENTRE           333 BAY ST, SUITE 1630, BOX 19", "city": "TORONTO", "province": "ON", "country": "CA", "postalCode": "M5H2R2", "twitter": "None", "instagram": "None", "facebook": "None", "youtube": "None", "website": "None", "summary": "None", "logo": "None", "latitude": 43.65048243851353, "longitude": -79.38095868798008}, "119244176RR0001": {"name": "THE MARION COMMUNITY HOMES CORPORATION", "designationCode": "C", "categoryCode": "01", "address": "480 DAYS ROAD", "city": "KINGSTON", "province": "ON", "country": "CA", "postalCode": "K7M7M1", "twitter": "None", "instagram": "None", "facebook": "None", "youtube": "None", "website": "None", "summary": "None", "logo": "None", "latitude": 44.234676848462094, "longitude": -76.57081297775433}, "819513870RR0001": {"name": "THE MARION MCCAIN FOUNDATION INC", "designationCode": "B", "categoryCode": "22", "address": "8800 MAIN STREET", "city": "FLORENCEVILLE-BRISTOL", "province": "NB", "country": "CA", "postalCode": "E7L1B2", "twitter": "None", "instagram": "None", "facebook": "None", "youtube": "None", "website": "None", "summary": "None", "logo": "None", "latitude": 46.44740124226082, "longitude": -67.61606090079638}, "119244200RR0001": {"name": "THE MARION RITCHIE WMS", "designationCode": "C", "categoryCode": "47", "address": "7017 LINE 21, R.R. 2", "city": "STAFFA", "province": "ON", "country": "CA", "postalCode": "N0K1Y0", "twitter": "None", "instagram": "None", "facebook": "None", "youtube": "None", "website": "None", "summary": "None", "logo": "None", "latitude": 43.4279047597232, "longitude": -81.3530169370586}, "888591872RR0001": {"name": "THE MARITIME ALLIANCE OF COVENANTING CONGREGATIONS", "designationCode": "C", "categoryCode": "49", "address": "3 SUNSHINE GDNS", "city": "SUSSEX", "province": "NB", "country": "CA", "postalCode": "E4E2E3", "twitter": "None", "instagram": "None", "facebook": "None", "youtube": "None", "website": "None", "summary": "None", "logo": "None", "latitude": 45.72958290452422, "longitude": -65.51259167485142}, "853651743RR0001": {"name": "THE MARITIME HEART CENTER", "designationCode": "C", "categoryCode": "11", "address": "3005 - 5657 SPRING GARDEN RD  PARK LANE MALL BOX 231", "city": "HALIFAX", "province": "NS", "country": "CA", "postalCode": "B3J3R4", "twitter": "None", "instagram": "None", "facebook": "None", "youtube": "None", "website": "None", "summary": "None", "logo": "None", "latitude": 44.642640022793984, "longitude": -63.57846005886069}, "856364104RR0001": {"name": "THE MARITIME REGIONAL CGIT COMMITTEE", "designationCode": "C", "categoryCode": "49", "address": "18 ALEXANDER CRT.", "city": "STANLEY", "province": "NB", "country": "CA", "postalCode": "E6B1E4", "twitter": "None", "instagram": "None", "facebook": "None", "youtube": "None", "website": "None", "summary": "None", "logo": "None", "latitude": 46.2767153782965, "longitude": -66.74255296433722}, "119244234RR0001": {"name": "THE MARJORIE AND GERALD BRONFMAN FOUNDATION / LA FONDATION MARJORIE ET GERALD BRONFMAN", "designationCode": "B", "categoryCode": "05", "address": "157 RUE MONTEVISTA", "city": "DOLLARD-DES-ORMEAUX", "province": "QC", "country": "CA", "postalCode": "H9B3A4", "twitter": "None", "instagram": "None", "facebook": "None", "youtube": "None", "website": "None", "summary": "None", "logo": "None", "latitude": 45.48485761809684, "longitude": -73.81218111521129}, "861427045RR0001": {"name": "THE MARJORIE AND JOSEPH WRIGHT MEMORIAL FOUNDATION", "designationCode": "B", "categoryCode": "03", "address": "12 REIGATE RD", "city": "ETOBICOKE", "province": "ON", "country": "CA", "postalCode": "M9A2Y2", "twitter": "None", "instagram": "None", "facebook": "None", "youtube": "None", "website": "None", "summary": "None", "logo": "None", "latitude": 43.66009906691082, "longitude": -79.52145986692818}, "888879665RR0001": {"name": "THE MARK DANIELS AND ANDREA WEISSMAN-DANIELS CHARITABLE FOUNDATION", "designationCode": "B", "categoryCode": "05", "address": "2345 YONGE STREET, SUITE 700", "city": "TORONTO", "province": "ON", "country": "CA", "postalCode": "M4P2E5", "twitter": "None", "instagram": "None", "facebook": "None", "youtube": "None", "website": "None", "summary": "None", "logo": "None", "latitude": 43.70885846961736, "longitude": -79.39875583894106}, "119244267RR0001": {"name": "THE MARK MANDELBAUM FAMILY FOUNDATION", "designationCode": "B", "categoryCode": "03", "address": "500-3625 DUFFERIN ST", "city": "DOWNSVIEW", "province": "ON", "country": "CA", "postalCode": "M3K1N4", "twitter": "None", "instagram": "None", "facebook": "None", "youtube": "None", "website": "None", "summary": "None", "logo": "None", "latitude": 43.73098330919264, "longitude": -79.45857671963213}, "852497676RR0001": {"name": "THE MARK MERCIER FOUNDATION", "designationCode": "A", "categoryCode": "13", "address": "201-5303 75  ST", "city": "EDMONTON", "province": "AB", "country": "CA", "postalCode": "T6E5S5", "twitter": "None", "instagram": "None", "facebook": "None", "youtube": "None", "website": "None", "summary": "None", "logo": "None", "latitude": 53.49087900000001, "longitude": -113.442544812252}, "890731243RR0001": {"name": "THE MARKDALE ROTARY CLUB CHARITABLE TRUST", "designationCode": "A", "categoryCode": "65", "address": "PO BOX 357", "city": "MARKDALE", "province": "ON", "country": "CA", "postalCode": "N0C1H0", "twitter": "None", "instagram": "None", "facebook": "None", "youtube": "None", "website": "None", "summary": "None", "logo": "None", "latitude": 44.31914000000006, "longitude": -80.64888999999994}, "889876025RR0001": {"name": "THE MARKHAM HISTORICAL SOCIETY", "designationCode": "C", "categoryCode": "50", "address": "9350 MARKHAM ROAD", "city": "MARKHAM", "province": "ON", "country": "CA", "postalCode": "L3P3J3", "twitter": "None", "instagram": "None", "facebook": "None", "youtube": "None", "website": "None", "summary": "None", "logo": "None", "latitude": 43.89388122938195, "longitude": -79.26455209455929}, "888045440RR0001": {"name": "THE MARKHAM INSTITUTE FOR HUMAN SERVICES", "designationCode": "C", "categoryCode": "20", "address": "20 ATHLONE RD", "city": "EAST YORK", "province": "ON", "country": "CA", "postalCode": "M4J4H2", "twitter": "None", "instagram": "None", "facebook": "None", "youtube": "None", "website": "None", "summary": "None", "logo": "None", "latitude": 43.69364162891686, "longitude": -79.33618380226774}, "888451861RR0001": {"name": "THE MARKHAM/STOUFFVILLE CRISIS PREGNANCY CENTRE, INC", "designationCode": "C", "categoryCode": "09", "address": "6070 HWY #7 EAST, UNIT 1B", "city": "MARKHAM", "province": "ON", "country": "CA", "postalCode": "L3P3A9", "twitter": "None", "instagram": "None", "facebook": "None", "youtube": "None", "website": "None", "summary": "None", "logo": "None", "latitude": 43.87458770091803, "longitude": -79.25733437432004}, "867883464RR0001": {"name": "THE MARKHAVEN FOUNDATION", "designationCode": "C", "categoryCode": "01", "address": "54 PARKWAY AVENUE", "city": "MARKHAM", "province": "ON", "country": "CA", "postalCode": "L3P2G4", "twitter": "None", "instagram": "None", "facebook": "None", "youtube": "None", "website": "None", "summary": "None", "logo": "None", "latitude": 43.88307510081323, "longitude": -79.25393907219093}, "122463276RR0001": {"name": "THE MARQUIS PROJECT INC", "designationCode": "C", "categoryCode": "21", "address": "PO BOX 50045", "city": "BRANDON", "province": "MB", "country": "CA", "postalCode": "R7A7E4", "twitter": "None", "instagram": "None", "facebook": "None", "youtube": "None", "website": "None", "summary": "None", "logo": "None", "latitude": 49.84965600000005, "longitude": -99.96197299999993}, "887834216RR0001": {"name": "THE MARS FOUNDATION", "designationCode": "A", "categoryCode": "05", "address": "401 - 101 COLLEGE ST", "city": "TORONTO", "province": "ON", "country": "CA", "postalCode": "M5G1L7", "twitter": "None", "instagram": "None", "facebook": "None", "youtube": "None", "website": "None", "summary": "None", "logo": "None", "latitude": 43.66017488533698, "longitude": -79.38889641727748}, "119244309RR0001": {"name": "THE MARSH COLLECTION SOCIETY", "designationCode": "C", "categoryCode": "50", "address": "5-80 RICHMOND STREET", "city": "AMHERSTBURG", "province": "ON", "country": "CA", "postalCode": "K1A0L5", "twitter": "None", "instagram": "None", "facebook": "None", "youtube": "None", "website": "None", "summary": "None", "logo": "None", "latitude": 42.10280113298491, "longitude": -83.1112791848634}, "132361205RR0001": {"name": "THE MARSHA FOREST CENTRE", "designationCode": "C", "categoryCode": "21", "address": "47 INDIAN TRAIL", "city": "TORONTO", "province": "ON", "country": "CA", "postalCode": "M6R1Z8", "twitter": "None", "instagram": "None", "facebook": "None", "youtube": "None", "website": "None", "summary": "None", "logo": "None", "latitude": 43.65452476934627, "longitude": -79.45559484026779}, "886353689RR0001": {"name": "THE MARTIN DALOS CHARITABLE FOUNDATION", "designationCode": "B", "categoryCode": "03", "address": "62 OLD COLONY RD", "city": "NORTH YORK", "province": "ON", "country": "CA", "postalCode": "M2L2K1", "twitter": "None", "instagram": "None", "facebook": "None", "youtube": "None", "website": "None", "summary": "None", "logo": "None", "latitude": 43.75806711466304, "longitude": -79.3799061848634}, "898966114RR0001": {"name": "THE MARTINDALE POND HERITAGE & ENVIRONMENTAL CENTRE", "designationCode": "C", "categoryCode": "52", "address": "344 LAKE ST, P.O.BOX 1600", "city": "ST.CATHARINES", "province": "ON", "country": "CA", "postalCode": "L2R7J9", "twitter": "None", "instagram": "None", "facebook": "None", "youtube": "None", "website": "None", "summary": "None", "logo": "None"}, "123204216RR0001": {"name": "THE MARTINTOWN MILL PRESERVATION SOCIETY CORP", "designationCode": "C", "categoryCode": "52", "address": "18582 BEAVERBROOK ROAD", "city": "MARTINTOWN", "province": "ON", "country": "CA", "postalCode": "K0C1S0", "twitter": "None", "instagram": "None", "facebook": "None", "youtube": "None", "website": "None", "summary": "None", "logo": "None", "latitude": 45.15951263696696, "longitude": -74.71044183374691}, "107673733RR0001": {"name": "THE MARTYRS' SHRINE (SUBSIDIARY OF THE JESUIT FATHERS OF UPPER CANADA)", "designationCode": "C", "categoryCode": "38", "address": "PO BOX 7 STN MAIN", "city": "MIDLAND", "province": "ON", "country": "CA", "postalCode": "L4R4K6", "twitter": "None", "instagram": "None", "facebook": "None", "youtube": "None", "website": "None", "summary": "None", "logo": "None", "latitude": 44.74989600000005, "longitude": -79.88850349999993}, "119244366RR0001": {"name": "THE MARVIN AND ESTELLE KATES FAMILY FOUNDATION", "designationCode": "B", "categoryCode": "03", "address": "20 EGLINTON AVE WEST          SUITE 1110 PO BOX 2049", "city": "TORONTO", "province": "ON", "country": "CA", "postalCode": "M4R1K8", "twitter": "None", "instagram": "None", "facebook": "None", "youtube": "None", "website": "None", "summary": "None", "logo": "None", "latitude": 43.70660119790514, "longitude": -79.39910587844072}, "119290104RR0001": {"name": "THE MARY-MARGARET WEBB FOUNDATION", "designationCode": "B", "categoryCode": "03", "address": "PO BOX 1109, TDC POSTAL STN.  77 KING STREET WEST", "city": "TORONTO", "province": "ON", "country": "CA", "postalCode": "M5K1P2", "twitter": "None", "instagram": "None", "facebook": "None", "youtube": "None", "website": "None", "summary": "None", "logo": "None", "latitude": 43.648190845375034, "longitude": -79.38214471980503}, "890057995RR0001": {"name": "THE MARYFIELD AND DISTRICT DONOR'S CHOICE", "designationCode": "A", "categoryCode": "05", "address": "PO BOX 280", "city": "MARYFIELD", "province": "SK", "country": "CA", "postalCode": "S0G3K0", "twitter": "None", "instagram": "None", "facebook": "None", "youtube": "None", "website": "None", "summary": "None", "logo": "None", "latitude": 49.67794879240291, "longitude": -103.02358407574349}, "119244390RR0001": {"name": "THE MARYFIELD CEMETERY CLUB", "designationCode": "C", "categoryCode": "59", "address": "PO BOX 385", "city": "MARYFIELD", "province": "SK", "country": "CA", "postalCode": "S0G3K0", "twitter": "None", "instagram": "None", "facebook": "None", "youtube": "None", "website": "None", "summary": "None", "logo": "None", "latitude": 49.67794879240291, "longitude": -103.02358407574349}, "132059668RR0001": {"name": "THE MASCALL DANCE SOCIETY", "designationCode": "C", "categoryCode": "22", "address": "1130 JERVIS ST", "city": "VANCOUVER", "province": "BC", "country": "CA", "postalCode": "V6E2C7", "twitter": "None", "instagram": "None", "facebook": "None", "youtube": "None", "website": "None", "summary": "None", "logo": "None", "latitude": 49.283277580616385, "longitude": -123.13412745002607}, "888923992RR0001": {"name": "THE MASONIC BURSARY FUND", "designationCode": "C", "categoryCode": "21", "address": "600-925 WEST GEORGIA STREET", "city": "VANCOUVER", "province": "BC", "country": "CA", "postalCode": "V6H3L2", "twitter": "None", "instagram": "None", "facebook": "None", "youtube": "None", "website": "None", "summary": "None", "logo": "None", "latitude": 49.283809937821125, "longitude": -123.12023006780484}, "890909443RR0001": {"name": "THE MASONIC COMMUNITY CHARITIES FUND", "designationCode": "C", "categoryCode": "09", "address": "600-925 WEST GEORGIA STREET", "city": "VANCOUVER", "province": "BC", "country": "CA", "postalCode": "V6C3L2", "twitter": "None", "instagram": "None", "facebook": "None", "youtube": "None", "website": "None", "summary": "None", "logo": "None", "latitude": 49.28390922466058, "longitude": -123.1202009000431}, "887403996RR0001": {"name": "THE MASONIC FOUNDATION OF ALBERTA", "designationCode": "A", "categoryCode": "53", "address": "10318-100 AVENUE", "city": "EDMONTON", "province": "AB", "country": "CA", "postalCode": "T5J0A2", "twitter": "None", "instagram": "None", "facebook": "None", "youtube": "None", "website": "None", "summary": "None", "logo": "None", "latitude": 53.538862471579236, "longitude": -113.49810047155059}, "894112986RR0001": {"name": "THE MASONIC FOUNDATION OF ONTARIO", "designationCode": "A", "categoryCode": "03", "address": "361 KING STREET WEST SECOND FL", "city": "HAMILTON", "province": "ON", "country": "CA", "postalCode": "L8P1B4", "twitter": "None", "instagram": "None", "facebook": "None", "youtube": "None", "website": "None", "summary": "None", "logo": "None", "latitude": 43.259700908816164, "longitude": -79.88007661419223}, "119244432RR0001": {"name": "THE MASSAWIPPI CEMETERY ASSOCIATION", "designationCode": "C", "categoryCode": "59", "address": "610 CHEMIN HARVEY", "city": "HATLEY", "province": "QC", "country": "CA", "postalCode": "J0B4B0", "twitter": "None", "instagram": "None", "facebook": "None", "youtube": "None", "website": "None", "summary": "None", "logo": "None", "latitude": 45.182180024121585, "longitude": -71.99006003318128}}