{"119261501RR0001": {"name": "VICTORIA VISUAL ARTS LEGACY SOCIETY", "designationCode": "C", "categoryCode": "22", "address": "311 - 165 KIMTA RD", "city": "VICTORIA", "province": "BC", "country": "CA", "postalCode": "V9A7P1", "twitter": "None", "instagram": "None", "facebook": "None", "youtube": "None", "website": "None", "summary": "None", "logo": "None", "latitude": 48.428024575336266, "longitude": -123.3812395241789}, "119285393RR0001": {"name": "VICTORIA WEST PEOPLE'S CEMETERY", "designationCode": "C", "categoryCode": "59", "address": "379 HARMONY LINE RD", "city": "RICHMOND", "province": "PE", "country": "CA", "postalCode": "C0B1Y0", "twitter": "None", "instagram": "None", "facebook": "None", "youtube": "None", "website": "None", "summary": "None", "logo": "None", "latitude": 46.527674711062474, "longitude": -64.02145501082005}, "888262995RR0001": {"name": "VICTORIA WEST PRESBYTERIAN CHURCH,", "designationCode": "C", "categoryCode": "37", "address": "RR2", "city": "TYNE VALLEY", "province": "PE", "country": "CA", "postalCode": "C0B2C0", "twitter": "None", "instagram": "None", "facebook": "None", "youtube": "None", "website": "None", "summary": "None", "logo": "None", "latitude": 46.58344000000005, "longitude": -63.93202999999994}, "882045297RR0001": {"name": "VICTORIA WHITE CANE CLUB", "designationCode": "C", "categoryCode": "01", "address": "2340 RICHMOND AVENUE", "city": "VICTORIA", "province": "BC", "country": "CA", "postalCode": "V8R4R9", "twitter": "None", "instagram": "None", "facebook": "None", "youtube": "None", "website": "None", "summary": "None", "logo": "None", "latitude": 48.434008400225046, "longitude": -123.32913991773884}, "119285419RR0001": {"name": "VICTORIA WOMEN'S ASSOCIATION - BURSARY FUND,", "designationCode": "A", "categoryCode": "25", "address": "73 QUEENS PARK CRES.", "city": "TORONTO", "province": "ON", "country": "CA", "postalCode": "M5S1K7", "twitter": "None", "instagram": "None", "facebook": "None", "youtube": "None", "website": "None", "summary": "None", "logo": "None", "latitude": 43.666042837670716, "longitude": -79.39212237676728}, "108173501RR0001": {"name": "VICTORIA WOMEN'S TRANSITION HOUSE SOCIETY", "designationCode": "C", "categoryCode": "01", "address": "100 3060 CEDAR HILL RD", "city": "VICTORIA", "province": "BC", "country": "CA", "postalCode": "V8T3J5", "twitter": "None", "instagram": "None", "facebook": "None", "youtube": "None", "website": "None", "summary": "None", "logo": "None", "latitude": 48.44722708465576, "longitude": -123.34463548239928}, "888488400RR0001": {"name": "VICTORIA-TAIAMA SCHOOL PROJECT", "designationCode": "C", "categoryCode": "20", "address": "262 STEBBINGS ROAD            BOX 95", "city": "MALAHAT", "province": "BC", "country": "CA", "postalCode": "V0R2L0", "twitter": "None", "instagram": "None", "facebook": "None", "youtube": "None", "website": "None", "summary": "None", "logo": "None", "latitude": 48.55047220903733, "longitude": -123.60224863872001}, "880364815RR0001": {"name": "VICTORIA'S QUILTS CANADA", "designationCode": "C", "categoryCode": "11", "address": "SUITE 454                     1568 MERIVALE ROAD", "city": "NEPEAN", "province": "ON", "country": "CA", "postalCode": "K2G5Y7", "twitter": "None", "instagram": "None", "facebook": "None", "youtube": "None", "website": "None", "summary": "None", "logo": "None", "latitude": 45.351826408534926, "longitude": -75.73418209608137}, "866909898RR0001": {"name": "VICTORIAN CHILDREN'S FOUNDATION", "designationCode": "B", "categoryCode": "03", "address": "855 MARLBOROUGH WOOD", "city": "HALIFAX", "province": "NS", "country": "CA", "postalCode": "B3H1H9", "twitter": "None", "instagram": "None", "facebook": "None", "youtube": "None", "website": "None", "summary": "None", "logo": "None", "latitude": 44.62837303130629, "longitude": -63.58531508436728}, "888640729RR0001": {"name": "VICTORIAN HOSPITAL OF KASLO AUXILIARY SOCIETY", "designationCode": "C", "categoryCode": "19", "address": "BOX 607", "city": "KASLO", "province": "BC", "country": "CA", "postalCode": "V0G1M0", "twitter": "None", "instagram": "None", "facebook": "None", "youtube": "None", "website": "None", "summary": "None", "logo": "None", "latitude": 49.91053000000005, "longitude": -116.90458999999998}, "890582208RR0001": {"name": "VICTORIAN OPERETTA SOCIETY INC.", "designationCode": "C", "categoryCode": "22", "address": "PO BOX 274", "city": "COBOURG", "province": "ON", "country": "CA", "postalCode": "K9A4K8", "twitter": "None", "instagram": "None", "facebook": "None", "youtube": "None", "website": "None", "summary": "None", "logo": "None", "latitude": 43.95960600000005, "longitude": -78.16778449999994}, "119284396RR0001": {"name": "VICTORIAN ORDER OF NURSES (BATHURST BRANCH)", "designationCode": "C", "categoryCode": "11", "address": "100 - 2315 ST. LAURENT BLVD", "city": "OTTAWA", "province": "ON", "country": "CA", "postalCode": "K1G4J8", "twitter": "None", "instagram": "None", "facebook": "None", "youtube": "None", "website": "None", "summary": "None", "logo": "None"}, "119284701RR0001": {"name": "VICTORIAN ORDER OF NURSES (MONCTON BRANCH) INC,", "designationCode": "C", "categoryCode": "11", "address": "100 - 7075 BAYERS RD", "city": "HALIFAX", "province": "NS", "country": "CA", "postalCode": "B3L2C2", "twitter": "None", "instagram": "None", "facebook": "None", "youtube": "None", "website": "None", "summary": "None", "logo": "None", "latitude": 44.65364446826102, "longitude": -63.62741516056892}, "131692196RR0001": {"name": "VICTORIAN ORDER OF NURSES (SACKVILLE BRANCH)", "designationCode": "C", "categoryCode": "11", "address": "100 - 2315 ST. LAURENT BLVD", "city": "OTTAWA", "province": "ON", "country": "CA", "postalCode": "K1G4J8", "twitter": "None", "instagram": "None", "facebook": "None", "youtube": "None", "website": "None", "summary": "None", "logo": "None", "latitude": 45.38432212179042, "longitude": -75.61927339783045}, "130404262RR0001": {"name": "VICTORIAN ORDER OF NURSES (SAINT JOHN) INC", "designationCode": "C", "categoryCode": "11", "address": "P.O. BOX 20065                BRUNSWICK SQUARE", "city": "SAINT JOHN", "province": "NB", "country": "CA", "postalCode": "E2L5B2", "twitter": "None", "instagram": "None", "facebook": "None", "youtube": "None", "website": "None", "summary": "None", "logo": "None", "latitude": 45.27306008050087, "longitude": -66.06129006939226}, "119285013RR0001": {"name": "VICTORIAN ORDER OF NURSES (WOODSTOCK BRANCH)", "designationCode": "C", "categoryCode": "11", "address": "100 - 2315 ST. LAURENT BLVD", "city": "OTTAWA", "province": "ON", "country": "CA", "postalCode": "K1G4J8", "twitter": "None", "instagram": "None", "facebook": "None", "youtube": "None", "website": "None", "summary": "None", "logo": "None", "latitude": 45.38432212179042, "longitude": -75.61927339783045}, "129482493RR0001": {"name": "VICTORIAN ORDER OF NURSES FOR CANADA - LES INFIRMI\u00c8RES DE L'ORDRE DE VICTORIA DU CANADA", "designationCode": "C", "categoryCode": "11", "address": "2315 SAINT LAURENT BLVD       SUITE 100", "city": "OTTAWA", "province": "ON", "country": "CA", "postalCode": "K1G4J8", "twitter": "None", "instagram": "None", "facebook": "None", "youtube": "None", "website": "None", "summary": "None", "logo": "None", "latitude": 45.38432212179042, "longitude": -75.61927339783045}, "887027514RR0001": {"name": "VICTORIAN ORDER OF NURSES FOR CANADA - ONTARIO BRANCH", "designationCode": "C", "categoryCode": "11", "address": "2315 ST. LAURENT BOULEVARD    SUITE 100", "city": "OTTAWA", "province": "ON", "country": "CA", "postalCode": "K1G4J8", "twitter": "None", "instagram": "None", "facebook": "None", "youtube": "None", "website": "None", "summary": "None", "logo": "None", "latitude": 45.38432212179042, "longitude": -75.61927339783045}, "895826063RR0001": {"name": "VICTORIAN ORDER OF NURSES SARNIA-LAMBTON FOUNDATION", "designationCode": "C", "categoryCode": "11", "address": "1705 LONDON LINE", "city": "SARNIA", "province": "ON", "country": "CA", "postalCode": "N7W1B2", "twitter": "None", "instagram": "None", "facebook": "None", "youtube": "None", "website": "None", "summary": "None", "logo": "None", "latitude": 42.98380953837541, "longitude": -82.32875121440934}, "119284362RR0001": {"name": "VICTORIAN ORDER OF NURSES WINDSOR ESSEX COUNTY ENDOWMENT FOUNDATION", "designationCode": "C", "categoryCode": "11", "address": "3270 ELECTRICITY DR", "city": "WINDSOR", "province": "ON", "country": "CA", "postalCode": "N8W5J1", "twitter": "None", "instagram": "None", "facebook": "None", "youtube": "None", "website": "None", "summary": "None", "logo": "None", "latitude": 42.28323371313452, "longitude": -82.96554950300775}, "119284578RR0001": {"name": "VICTORIAN ORDER OF NURSES, GREATER CORNER BROOK BRANCH", "designationCode": "C", "categoryCode": "11", "address": "100 - 2315 ST. LAURENT BLVD", "city": "OTTAWA", "province": "ON", "country": "CA", "postalCode": "K1G4J8", "twitter": "None", "instagram": "None", "facebook": "None", "youtube": "None", "website": "None", "summary": "None", "logo": "None", "latitude": 45.38432212179042, "longitude": -75.61927339783045}, "119284750RR0001": {"name": "VICTORIAN ORDER OF NURSES, OROMOCTO BRANCH,", "designationCode": "C", "categoryCode": "11", "address": "100 - 7075 BAYERS RD", "city": "HALIFAX", "province": "NS", "country": "CA", "postalCode": "B3L2C2", "twitter": "None", "instagram": "None", "facebook": "None", "youtube": "None", "website": "None", "summary": "None", "logo": "None", "latitude": 44.65364446826102, "longitude": -63.62741516056892}, "131628026RR0001": {"name": "VICTORIAN ORDER OF NURSES, ST JOHN'S NLD BRANCH,", "designationCode": "C", "categoryCode": "11", "address": "100 - 7075 BAYERS RD", "city": "HALIFAX", "province": "NS", "country": "CA", "postalCode": "B3L2C2", "twitter": "None", "instagram": "None", "facebook": "None", "youtube": "None", "website": "None", "summary": "None", "logo": "None", "latitude": 44.65364446826102, "longitude": -63.62741516056892}, "140862863RR0001": {"name": "VICTORIOUS CHURCH OF CHRIST", "designationCode": "C", "categoryCode": "39", "address": "844 WILSON AVE", "city": "NORTH YORK", "province": "ON", "country": "CA", "postalCode": "M3K1E5", "twitter": "None", "instagram": "None", "facebook": "None", "youtube": "None", "website": "None", "summary": "None", "logo": "None", "latitude": 43.73051612519462, "longitude": -79.4674079834958}, "893222760RR0001": {"name": "VICTORIOUS FAITH MINISTRIES AND CHURCH (RED DEER)", "designationCode": "C", "categoryCode": "39", "address": "5833-53 AVE", "city": "RED DEER", "province": "AB", "country": "CA", "postalCode": "T4N4L4", "twitter": "None", "instagram": "None", "facebook": "None", "youtube": "None", "website": "None", "summary": "None", "logo": "None", "latitude": 52.27796904302036, "longitude": -113.81822837826783}, "119285450RR0001": {"name": "VICTORIOUS FAITH MINISTRIES INC", "designationCode": "C", "categoryCode": "39", "address": "188 SCOTIA STREET", "city": "WINNIPEG", "province": "MB", "country": "CA", "postalCode": "R2W3X5", "twitter": "None", "instagram": "None", "facebook": "None", "youtube": "None", "website": "None", "summary": "None", "logo": "None", "latitude": 49.925919458220385, "longitude": -97.11294203525874}, "131951022RR0001": {"name": "VICTORIOUS LIVING MINISTRIES", "designationCode": "C", "categoryCode": "39", "address": "2 STELLA STREET", "city": "TORONTO", "province": "ON", "country": "CA", "postalCode": "M6L3A7", "twitter": "None", "instagram": "None", "facebook": "None", "youtube": "None", "website": "None", "summary": "None", "logo": "None", "latitude": 43.712856827918536, "longitude": -79.50075758217424}, "119285476RR0001": {"name": "VICTORIOUS MINISTRY THROUGH CHRIST (CANADA)", "designationCode": "C", "categoryCode": "49", "address": "73587 BLUEWATER HIGHWAY", "city": "ZURICH", "province": "ON", "country": "CA", "postalCode": "N0M2T0", "twitter": "None", "instagram": "None", "facebook": "None", "youtube": "None", "website": "None", "summary": "None", "logo": "None", "latitude": 43.44959332692316, "longitude": -81.70158895778847}, "892190042RR0001": {"name": "VICTORIOUS REVIVAL FIRE CHRISTIAN MINISTRIES OF EDMONTON", "designationCode": "C", "categoryCode": "39", "address": "PO BOX 67143                  MEADOWLARK PARK", "city": "EDMONTON", "province": "AB", "country": "CA", "postalCode": "T5R5Y3", "twitter": "None", "instagram": "None", "facebook": "None", "youtube": "None", "website": "None", "summary": "None", "logo": "None", "latitude": 53.526650000000075, "longitude": -113.59693999999996}, "867143661RR0001": {"name": "VICTORY AND PRAISE CHRISTIAN MINISTRIES TORONTO ONTARIO", "designationCode": "C", "categoryCode": "39", "address": "2300 FINCH AVENUE WEST        UNITS 27 & 28", "city": "TORONTO", "province": "ON", "country": "CA", "postalCode": "M9M2Y3", "twitter": "None", "instagram": "None", "facebook": "None", "youtube": "None", "website": "None", "summary": "None", "logo": "None", "latitude": 43.75234500000006, "longitude": -79.54089649999993}, "886733799RR0001": {"name": "VICTORY ARTISTS", "designationCode": "C", "categoryCode": "47", "address": "25 RUE VALMOUNT", "city": "DOLLARD-DES-ORMEAUX", "province": "QC", "country": "CA", "postalCode": "H9B2T8", "twitter": "None", "instagram": "None", "facebook": "None", "youtube": "None", "website": "None", "summary": "None", "logo": "None", "latitude": 45.48806763087878, "longitude": -73.7854357825609}, "827185745RR0001": {"name": "VICTORY ASSEMBLY INTERNATIONAL", "designationCode": "C", "categoryCode": "39", "address": "39 LUDGATE DRIVE", "city": "TORONTO", "province": "ON", "country": "CA", "postalCode": "M9W2Y2", "twitter": "None", "instagram": "None", "facebook": "None", "youtube": "None", "website": "None", "summary": "None", "logo": "None", "latitude": 43.73180291866247, "longitude": -79.57414475783374}, "108173873RR0001": {"name": "VICTORY BAPTIST CHURCH", "designationCode": "C", "categoryCode": "31", "address": "1920 HIGHWAY 203", "city": "KEMPTVILLE", "province": "NS", "country": "CA", "postalCode": "B5A5P4", "twitter": "None", "instagram": "None", "facebook": "None", "youtube": "None", "website": "None", "summary": "None", "logo": "None", "latitude": 44.03723040094423, "longitude": -65.8443301448324}, "108173881RR0001": {"name": "VICTORY BAPTIST CHURCH", "designationCode": "C", "categoryCode": "31", "address": "2099 LANSDOWNE ST. W.", "city": "PETERBOROUGH CAVAN MONAGHAN", "province": "ON", "country": "CA", "postalCode": "K9J0G5", "twitter": "None", "instagram": "None", "facebook": "None", "youtube": "None", "website": "None", "summary": "None", "logo": "None", "latitude": 44.272504897022394, "longitude": -78.38468408589651}, "119118701RR0001": {"name": "VICTORY BAPTIST CHURCH", "designationCode": "C", "categoryCode": "31", "address": "1 CAISSIE CRT", "city": "REXTON", "province": "NB", "country": "CA", "postalCode": "E4W5S1", "twitter": "None", "instagram": "None", "facebook": "None", "youtube": "None", "website": "None", "summary": "None", "logo": "None", "latitude": 46.64446710904599, "longitude": -64.88744736080078}, "119285559RR0001": {"name": "VICTORY BAPTIST CHURCH", "designationCode": "C", "categoryCode": "31", "address": "2191 PRAIRIE AVENUE", "city": "PORT COQUITLAM", "province": "BC", "country": "CA", "postalCode": "V3B1V6", "twitter": "None", "instagram": "None", "facebook": "None", "youtube": "None", "website": "None", "summary": "None", "logo": "None", "latitude": 49.27123948600598, "longitude": -122.7748905}, "897828455RR0001": {"name": "VICTORY BAPTIST CHURCH", "designationCode": "C", "categoryCode": "31", "address": "3428 PORTAGE AVE", "city": "WINNIPEG", "province": "MB", "country": "CA", "postalCode": "R3K0Z3", "twitter": "None", "instagram": "None", "facebook": "None", "youtube": "None", "website": "None", "summary": "None", "logo": "None", "latitude": 49.88289652784383, "longitude": -97.30182340619766}, "137516977RR0001": {"name": "VICTORY BAPTIST CHURCH OF FORT FRANCES INC", "designationCode": "C", "categoryCode": "31", "address": "SITE 105-31, RR#1", "city": "FORT FRANCES", "province": "ON", "country": "CA", "postalCode": "P9A3M2", "twitter": "None", "instagram": "None", "facebook": "None", "youtube": "None", "website": "None", "summary": "None", "logo": "None", "latitude": 48.606882000000056, "longitude": -93.42323449999994}, "895471407RR0001": {"name": "VICTORY BAPTIST CHURCH OF KENORA INC.", "designationCode": "C", "categoryCode": "39", "address": "133 MILLER ROAD", "city": "KENORA", "province": "ON", "country": "CA", "postalCode": "P9N0A9", "twitter": "None", "instagram": "None", "facebook": "None", "youtube": "None", "website": "None", "summary": "None", "logo": "None", "latitude": 49.796860943129836, "longitude": -94.36558865557727}, "133672972RR0001": {"name": "VICTORY BAPTIST CHURCH OF LANGLEY, BRITISH COLUMBIA, CANADA", "designationCode": "C", "categoryCode": "31", "address": "5501-204TH ST P.O.BOX 26117", "city": "LANGLEY", "province": "BC", "country": "CA", "postalCode": "V3A8J2", "twitter": "None", "instagram": "None", "facebook": "None", "youtube": "None", "website": "None", "summary": "None", "logo": "None", "latitude": 49.10259361176187, "longitude": -122.65667537712167}, "868664731RR0001": {"name": "VICTORY BAPTIST CHURCH OF MIDLAND, ONTARIO", "designationCode": "C", "categoryCode": "31", "address": "P. O. BOX 764", "city": "MIDLAND", "province": "ON", "country": "CA", "postalCode": "L4R4P4", "twitter": "None", "instagram": "None", "facebook": "None", "youtube": "None", "website": "None", "summary": "None", "logo": "None", "latitude": 44.74989600000005, "longitude": -79.88850349999993}, "119285526RR0001": {"name": "VICTORY BAPTIST CHURCH,", "designationCode": "C", "categoryCode": "31", "address": "PO BOX 21502 POSTAL OUTLET    UPPER CANADA", "city": "NEWMARKET", "province": "ON", "country": "CA", "postalCode": "L3Y8J1", "twitter": "None", "instagram": "None", "facebook": "None", "youtube": "None", "website": "None", "summary": "None", "logo": "None", "latitude": 44.05375099678789, "longitude": -79.48423278652677}, "889771770RR0001": {"name": "VICTORY BAPTIST FELLOWSHIP INC", "designationCode": "C", "categoryCode": "31", "address": "55 ROUTE 420", "city": "SOUTH ESK", "province": "NB", "country": "CA", "postalCode": "E1V4R3", "twitter": "None", "instagram": "None", "facebook": "None", "youtube": "None", "website": "None", "summary": "None", "logo": "None", "latitude": 46.960600821046334, "longitude": -65.60257561118178}, "891411142RR0001": {"name": "VICTORY BIBLE COLLEGE", "designationCode": "C", "categoryCode": "20", "address": "BOX 65077  NORTH HILL PO", "city": "CALGARY", "province": "AB", "country": "CA", "postalCode": "T2N4T6", "twitter": "None", "instagram": "None", "facebook": "None", "youtube": "None", "website": "None", "summary": "None", "logo": "None", "latitude": 51.065529000000055, "longitude": -114.12679849999994}, "890468598RR0001": {"name": "VICTORY CHILDREN'S HOMES INTERNATIONAL FOUNDATION", "designationCode": "C", "categoryCode": "47", "address": "BOX 65077 NORTH HILL P.O.", "city": "CALGARY", "province": "AB", "country": "CA", "postalCode": "T2N3T6", "twitter": "None", "instagram": "None", "facebook": "None", "youtube": "None", "website": "None", "summary": "None", "logo": "None", "latitude": 51.05688000000005, "longitude": -114.13885399999992}, "140554908RR0001": {"name": "VICTORY CHRISTIAN CENTRE DURHAM", "designationCode": "C", "categoryCode": "47", "address": "593 ALMA STREET", "city": "PORT PERRY", "province": "ON", "country": "CA", "postalCode": "L9L1C8", "twitter": "None", "instagram": "None", "facebook": "None", "youtube": "None", "website": "None", "summary": "None", "logo": "None", "latitude": 44.09587747215618, "longitude": -78.95697396878062}, "134948975RR0001": {"name": "VICTORY CHRISTIAN CENTRE INC", "designationCode": "C", "categoryCode": "39", "address": "PO BOX 13937  STN A", "city": "ST. JOHN'S", "province": "NL", "country": "CA", "postalCode": "A1B4G7", "twitter": "None", "instagram": "None", "facebook": "None", "youtube": "None", "website": "None", "summary": "None", "logo": "None", "latitude": 47.56938900000006, "longitude": -52.78609699999993}, "119024115RR0001": {"name": "VICTORY CHRISTIAN CENTRE, LONDON INC.", "designationCode": "C", "categoryCode": "47", "address": "PO BOX 188, STN LAMBETH", "city": "LONDON", "province": "ON", "country": "CA", "postalCode": "N6P1P9", "twitter": "None", "instagram": "None", "facebook": "None", "youtube": "None", "website": "None", "summary": "None", "logo": "None", "latitude": 42.91244761023706, "longitude": -81.30148110402438}, "897613493RR0001": {"name": "VICTORY CHRISTIAN CHURCH (FORT ST. JAMES) SOCIETY", "designationCode": "C", "categoryCode": "39", "address": "POST OFFICE BOX 98", "city": "FORT ST. JAMES", "province": "BC", "country": "CA", "postalCode": "V0J1P0", "twitter": "None", "instagram": "None", "facebook": "None", "youtube": "None", "website": "None", "summary": "None", "logo": "None", "latitude": 54.44540000000006, "longitude": -124.25099999999998}, "132074089RR0001": {"name": "VICTORY CHRISTIAN FELLOWSHIP OF CALGARY N W", "designationCode": "C", "categoryCode": "39", "address": "450 ROYAL OAK DRIVE NW", "city": "CALGARY", "province": "AB", "country": "CA", "postalCode": "T3G5J7", "twitter": "None", "instagram": "None", "facebook": "None", "youtube": "None", "website": "None", "summary": "None", "logo": "None", "latitude": 51.13871147100234, "longitude": -114.23192433527612}, "119285625RR0001": {"name": "VICTORY CHRISTIAN FELLOWSHIP OF LETHBRIDGE (1983) INC", "designationCode": "C", "categoryCode": "39", "address": "BOX 1780", "city": "LETHBRIDGE", "province": "AB", "country": "CA", "postalCode": "T1J4K4", "twitter": "None", "instagram": "None", "facebook": "None", "youtube": "None", "website": "None", "summary": "None", "logo": "None", "latitude": 49.69383000000006, "longitude": -112.83373249999994}, "108174046RR0001": {"name": "VICTORY CHURCH OF BROOKS", "designationCode": "C", "categoryCode": "39", "address": "BOX 1197", "city": "BROOKS", "province": "AB", "country": "CA", "postalCode": "T1R1B9", "twitter": "None", "instagram": "None", "facebook": "None", "youtube": "None", "website": "None", "summary": "None", "logo": "None", "latitude": 50.56584900000006, "longitude": -111.89848399999994}, "136585965RR0001": {"name": "VICTORY CHURCH OF CLARESHOLM", "designationCode": "C", "categoryCode": "39", "address": "BOX 1779", "city": "CLARESHOLM", "province": "AB", "country": "CA", "postalCode": "T0L0T0", "twitter": "None", "instagram": "None", "facebook": "None", "youtube": "None", "website": "None", "summary": "None", "logo": "None", "latitude": 50.026080000000036, "longitude": -113.58213999999998}, "118896679RR0001": {"name": "VICTORY CHURCH OF GOD", "designationCode": "C", "categoryCode": "39", "address": "397 DALTON ST", "city": "WINNIPEG", "province": "MB", "country": "CA", "postalCode": "R2X2C5", "twitter": "None", "instagram": "None", "facebook": "None", "youtube": "None", "website": "None", "summary": "None", "logo": "None", "latitude": 49.93012409241739, "longitude": -97.16141428807217}, "859800880RR0001": {"name": "VICTORY CHURCH OF JESUS CHRIST APOSTOLIC", "designationCode": "C", "categoryCode": "39", "address": "22 LENECK AVE", "city": "BRAMPTON", "province": "ON", "country": "CA", "postalCode": "L6X2A7", "twitter": "None", "instagram": "None", "facebook": "None", "youtube": "None", "website": "None", "summary": "None", "logo": "None", "latitude": 43.672238014166936, "longitude": -79.77747430601865}, "894503374RR0001": {"name": "VICTORY CHURCH OF MOOSE JAW INC.", "designationCode": "C", "categoryCode": "39", "address": "637 MAIN ST. N.", "city": "MOOSE JAW", "province": "SK", "country": "CA", "postalCode": "S6H0W6", "twitter": "None", "instagram": "None", "facebook": "None", "youtube": "None", "website": "None", "summary": "None", "logo": "None", "latitude": 50.39568677931061, "longitude": -105.5345491881191}, "883358111RR0001": {"name": "VICTORY CHURCH OF PENTICTON", "designationCode": "C", "categoryCode": "39", "address": "352 WINNIPEG ST", "city": "PENTICTON", "province": "BC", "country": "CA", "postalCode": "V2A5M5", "twitter": "None", "instagram": "None", "facebook": "None", "youtube": "None", "website": "None", "summary": "None", "logo": "None", "latitude": 49.497736756592985, "longitude": -119.59501697570553}, "106918790RR0001": {"name": "VICTORY CHURCH OF RED DEER", "designationCode": "C", "categoryCode": "39", "address": "98 OBERLIN AVENUE", "city": "RED DEER", "province": "AB", "country": "CA", "postalCode": "T4N5A4", "twitter": "None", "instagram": "None", "facebook": "None", "youtube": "None", "website": "None", "summary": "None", "logo": "None", "latitude": 52.27604691978766, "longitude": -113.83781561549975}, "841788755RR0001": {"name": "VICTORY CHURCH OF SALMO", "designationCode": "C", "categoryCode": "39", "address": "518 DAVIES AVE                P.O.BOX 775", "city": "SALMO", "province": "BC", "country": "CA", "postalCode": "V0G1Z0", "twitter": "None", "instagram": "None", "facebook": "None", "youtube": "None", "website": "None", "summary": "None", "logo": "None", "latitude": 49.192918621898784, "longitude": -117.27966868305745}, "890437262RR0001": {"name": "VICTORY CHURCH OF SASKATOON INC.", "designationCode": "C", "categoryCode": "39", "address": "2802 RUSHOLME ROAD", "city": "SASKATOON", "province": "SK", "country": "CA", "postalCode": "S7L0H2", "twitter": "None", "instagram": "None", "facebook": "None", "youtube": "None", "website": "None", "summary": "None", "logo": "None", "latitude": 52.13345442772217, "longitude": -106.71295875131287}, "874416357RR0001": {"name": "VICTORY CHURCH OF THREE HILLS", "designationCode": "C", "categoryCode": "39", "address": "P.O. BOX 1523", "city": "THREE HILLS", "province": "AB", "country": "CA", "postalCode": "T0M2A0", "twitter": "None", "instagram": "None", "facebook": "None", "youtube": "None", "website": "None", "summary": "None", "logo": "None", "latitude": 52.38329400000001, "longitude": -114.606927}, "138094628RR0001": {"name": "VICTORY CHURCH ON THE ROCK", "designationCode": "C", "categoryCode": "39", "address": "10445 172 STREET", "city": "EDMONTON", "province": "AB", "country": "CA", "postalCode": "T5S1K9", "twitter": "None", "instagram": "None", "facebook": "None", "youtube": "None", "website": "None", "summary": "None", "logo": "None", "latitude": 53.54772299999999, "longitude": -113.61782372352728}, "873715205RR0001": {"name": "VICTORY CHURCH ON THE ROCK GRANDE PRAIRIE", "designationCode": "C", "categoryCode": "39", "address": "7702 100 ST", "city": "GRANDE PRAIRIE", "province": "AB", "country": "CA", "postalCode": "T8V5J2", "twitter": "None", "instagram": "None", "facebook": "None", "youtube": "None", "website": "None", "summary": "None", "logo": "None", "latitude": 55.14948041909517, "longitude": -118.79486804503959}, "121461792RR0001": {"name": "VICTORY CHURCHES OF CANADA INTERNATIONAL ASSOCIATION", "designationCode": "C", "categoryCode": "47", "address": "BOX 65077                     NORTH HILL POST OFFICE", "city": "CALGARY", "province": "AB", "country": "CA", "postalCode": "T2N4T6", "twitter": "None", "instagram": "None", "facebook": "None", "youtube": "None", "website": "None", "summary": "None", "logo": "None", "latitude": 51.065529000000055, "longitude": -114.12679849999994}, "890017502RR0001": {"name": "VICTORY FAMILY CHURCH", "designationCode": "C", "categoryCode": "39", "address": "BOX 2609", "city": "ALTONA", "province": "MB", "country": "CA", "postalCode": "R0G0B0", "twitter": "None", "instagram": "None", "facebook": "None", "youtube": "None", "website": "None", "summary": "None", "logo": "None", "latitude": 49.10353800000006, "longitude": -97.55120149999993}, "140454349RR0001": {"name": "VICTORY FAMILY CHURCH OF SWIFT CURRENT INC", "designationCode": "C", "categoryCode": "39", "address": "BOX 638", "city": "SWIFT CURRENT", "province": "SK", "country": "CA", "postalCode": "S9H3W4", "twitter": "None", "instagram": "None", "facebook": "None", "youtube": "None", "website": "None", "summary": "None", "logo": "None", "latitude": 50.292744000000056, "longitude": -107.80056349999994}, "868503988RR0001": {"name": "VICTORY FAMILY CHURCH SOCIETY", "designationCode": "C", "categoryCode": "39", "address": "8468 134A ST", "city": "SURREY", "province": "BC", "country": "CA", "postalCode": "V3W0T8", "twitter": "None", "instagram": "None", "facebook": "None", "youtube": "None", "website": "None", "summary": "None", "logo": "None", "latitude": 49.15657664910151, "longitude": -122.8504930447361}, "129979225RR0001": {"name": "VICTORY FELLOWSHIP BAPTIST CHURCH", "designationCode": "C", "categoryCode": "31", "address": "PO BOX 20143", "city": "HANOVER", "province": "ON", "country": "CA", "postalCode": "N4N3T1", "twitter": "None", "instagram": "None", "facebook": "None", "youtube": "None", "website": "None", "summary": "None", "logo": "None", "latitude": 44.152395000000055, "longitude": -81.02554999999994}, "824060529RR0001": {"name": "VICTORY FREEDOM CENTRE", "designationCode": "C", "categoryCode": "39", "address": "28 GURNEY ROAD", "city": "KAPUSKASING", "province": "ON", "country": "CA", "postalCode": "P5N2S5", "twitter": "None", "instagram": "None", "facebook": "None", "youtube": "None", "website": "None", "summary": "None", "logo": "None", "latitude": 49.4060197846784, "longitude": -82.3896202846784}, "863851291RR0001": {"name": "VICTORY HARVEST CHURCH/L'EGLISE VICTORIEUSE DE LA MOISSON", "designationCode": "C", "categoryCode": "39", "address": "821 CH. DA LA CARRIERE", "city": "BROWNSBURG-CHATHAM", "province": "QC", "country": "CA", "postalCode": "J8G1K7", "twitter": "None", "instagram": "None", "facebook": "None", "youtube": "None", "website": "None", "summary": "None", "logo": "None", "latitude": 45.69278564830659, "longitude": -74.51465729407343}, "847063922RR0001": {"name": "VICTORY IN PRAISE UNITED PENTECOSTAL CHURCH OF ATHABASCA", "designationCode": "C", "categoryCode": "39", "address": "379 REYNALDS CRT", "city": "LEDUC", "province": "AB", "country": "CA", "postalCode": "T9E0T2", "twitter": "None", "instagram": "None", "facebook": "None", "youtube": "None", "website": "None", "summary": "None", "logo": "None", "latitude": 53.240061259431094, "longitude": -113.51085161372266}, "133027896RR0001": {"name": "VICTORY LIFE CENTRE INC.", "designationCode": "C", "categoryCode": "39", "address": "P.O. BOX 7388", "city": "RIVERVIEW", "province": "NB", "country": "CA", "postalCode": "E1B4T9", "twitter": "None", "instagram": "None", "facebook": "None", "youtube": "None", "website": "None", "summary": "None", "logo": "None", "latitude": 46.05759600000006, "longitude": -64.80031399999993}, "859881179RR0001": {"name": "VICTORY LIFE CHURCH ST. ALBERT", "designationCode": "C", "categoryCode": "39", "address": "20-94 MCKENNEY AVE", "city": "ST ALBERT", "province": "AB", "country": "CA", "postalCode": "T8N2T7", "twitter": "None", "instagram": "None", "facebook": "None", "youtube": "None", "website": "None", "summary": "None", "logo": "None", "latitude": 53.639781726614366, "longitude": -113.63917394226445}, "803086073RR0001": {"name": "VICTORY LIGHTHOUSE INC.", "designationCode": "C", "categoryCode": "39", "address": "119 TAIT ST", "city": "DALHOUSIE", "province": "NB", "country": "CA", "postalCode": "E8C2N1", "twitter": "None", "instagram": "None", "facebook": "None", "youtube": "None", "website": "None", "summary": "None", "logo": "None", "latitude": 48.049104180737125, "longitude": -66.37756974412817}, "108174145RR0001": {"name": "VICTORY LUTHERAN CHURCH OF DEVON, ALBERTA", "designationCode": "C", "categoryCode": "32", "address": "6 COLUMBIA AVENUE EAST", "city": "DEVON", "province": "AB", "country": "CA", "postalCode": "T9G1H8", "twitter": "None", "instagram": "None", "facebook": "None", "youtube": "None", "website": "None", "summary": "None", "logo": "None", "latitude": 53.36368050043269, "longitude": -113.7237435}, "108174137RR0001": {"name": "VICTORY LUTHERAN CHURCH OF MEDICINE HAT ALBERTA", "designationCode": "C", "categoryCode": "32", "address": "2793 SOUTHVIEW DRIVE SE", "city": "MEDICINE HAT", "province": "AB", "country": "CA", "postalCode": "T1B3H1", "twitter": "None", "instagram": "None", "facebook": "None", "youtube": "None", "website": "None", "summary": "None", "logo": "None", "latitude": 50.01242219816496, "longitude": -110.65034904356862}, "891644577RR0001": {"name": "VICTORY MISSION OF THE AMERICAS (CANADA)", "designationCode": "C", "categoryCode": "47", "address": "#1 8691 HWY 95A", "city": "KIMBERLEY", "province": "BC", "country": "CA", "postalCode": "V1A3M2", "twitter": "None", "instagram": "None", "facebook": "None", "youtube": "None", "website": "None", "summary": "None", "logo": "None", "latitude": 49.63324713007712, "longitude": -115.93632539938304}, "851314328RR0001": {"name": "VICTORY NEIGHBOURHOOD SERVICES INC.", "designationCode": "C", "categoryCode": "09", "address": "20 WOODWARD CRES", "city": "AJAX", "province": "ON", "country": "CA", "postalCode": "L1S5T5", "twitter": "None", "instagram": "None", "facebook": "None", "youtube": "None", "website": "None", "summary": "None", "logo": "None", "latitude": 43.85910580209487, "longitude": -79.03353809602405}, "889760740RR0001": {"name": "VICTORY OUTREACH CHURCH", "designationCode": "C", "categoryCode": "39", "address": "7012 OGDEN ROAD SE", "city": "CALGARY", "province": "AB", "country": "CA", "postalCode": "T2C1B4", "twitter": "None", "instagram": "None", "facebook": "None", "youtube": "None", "website": "None", "summary": "None", "logo": "None", "latitude": 50.99040610796927, "longitude": -114.00154291283408}, "899128870RR0001": {"name": "VICTORY OUTREACH FOUNDATION", "designationCode": "C", "categoryCode": "01", "address": "7012 OGDEN RD SE", "city": "CALGARY", "province": "AB", "country": "CA", "postalCode": "T2C1B4", "twitter": "None", "instagram": "None", "facebook": "None", "youtube": "None", "website": "None", "summary": "None", "logo": "None", "latitude": 50.99040610796927, "longitude": -114.00154291283408}, "879915163RR0001": {"name": "VICTORY TABERNACLE INC.", "designationCode": "C", "categoryCode": "39", "address": "19 IRONWOOD AVE", "city": "NOONAN", "province": "NB", "country": "CA", "postalCode": "E3A0Z2", "twitter": "None", "instagram": "None", "facebook": "None", "youtube": "None", "website": "None", "summary": "None", "logo": "None", "latitude": 45.96188362254022, "longitude": -66.52317481092433}, "867306276RR0001": {"name": "VICTORY TABERNACLE OF THE UNITED PENTECOSTAL CHURCH,", "designationCode": "C", "categoryCode": "36", "address": "519 BOX", "city": "BEAVERTON", "province": "ON", "country": "CA", "postalCode": "L0K1A0", "twitter": "None", "instagram": "None", "facebook": "None", "youtube": "None", "website": "None", "summary": "None", "logo": "None", "latitude": 44.43640800000006, "longitude": -79.16058799999993}, "811605542RR0001": {"name": "VICTORY TABERNACLE PENTECOSTAL CHURCH", "designationCode": "C", "categoryCode": "36", "address": "131 CHARLTON SETTLEMENT AVENUE", "city": "TORONTO", "province": "ON", "country": "CA", "postalCode": "M6M5L5", "twitter": "None", "instagram": "None", "facebook": "None", "youtube": "None", "website": "None", "summary": "None", "logo": "None", "latitude": 43.692018285879115, "longitude": -79.50627947374363}, "871824744RR0001": {"name": "VICTORY WORSHIP CENTER", "designationCode": "C", "categoryCode": "36", "address": "4616 ROUTE 11", "city": "TABUSINTAC", "province": "NB", "country": "CA", "postalCode": "E9H1J5", "twitter": "None", "instagram": "None", "facebook": "None", "youtube": "None", "website": "None", "summary": "None", "logo": "None", "latitude": 47.33832864083062, "longitude": -65.0070300066555}, "865343834RR0001": {"name": "VIDA ABUNDANT IGREJA PENTECOSTAL PORTUGUESA", "designationCode": "C", "categoryCode": "36", "address": "356 WINDERMERE AVE", "city": "TORONTO", "province": "ON", "country": "CA", "postalCode": "M6S3L3", "twitter": "None", "instagram": "None", "facebook": "None", "youtube": "None", "website": "None", "summary": "None", "logo": "None", "latitude": 43.648870442956955, "longitude": -79.48000456581428}, "888038718RR0001": {"name": "VIDAR FOUNDATION", "designationCode": "A", "categoryCode": "53", "address": "113 HAMILTON ST BOX 437", "city": "RICHMOND", "province": "ON", "country": "CA", "postalCode": "K0A2Z0", "twitter": "None", "instagram": "None", "facebook": "None", "youtube": "None", "website": "None", "summary": "None", "logo": "None", "latitude": 45.19084301861033, "longitude": -75.84060817765004}, "130113673RR0001": {"name": "VIDEO CABARET INTERNATIONAL", "designationCode": "C", "categoryCode": "22", "address": "408 QUEEN ST W", "city": "TORONTO", "province": "ON", "country": "CA", "postalCode": "M5V2A7", "twitter": "None", "instagram": "None", "facebook": "None", "youtube": "None", "website": "None", "summary": "None", "logo": "None", "latitude": 43.64850617626507, "longitude": -79.39751658702168}, "119285757RR0001": {"name": "VIDEO POOL INC", "designationCode": "C", "categoryCode": "50", "address": "300-100 ARTHUR STREET", "city": "WINNIPEG", "province": "MB", "country": "CA", "postalCode": "R3B1H3", "twitter": "None", "instagram": "None", "facebook": "None", "youtube": "None", "website": "None", "summary": "None", "logo": "None", "latitude": 49.897593000000015, "longitude": -97.1406225}, "105531255RR0001": {"name": "VIDEOGRAPHE INC.", "designationCode": "C", "categoryCode": "22", "address": "4550 GARNIER", "city": "MONTREAL", "province": "QC", "country": "CA", "postalCode": "H2J3S7", "twitter": "None", "instagram": "None", "facebook": "None", "youtube": "None", "website": "None", "summary": "None", "logo": "None", "latitude": 45.53129181513661, "longitude": -73.57748596837659}, "829157742RR0001": {"name": "VIDES CANADA VOLUNTEERS INTERNATIONAL", "designationCode": "A", "categoryCode": "03", "address": "17 PORTERFIELD RD", "city": "ETOBICOKE", "province": "ON", "country": "CA", "postalCode": "M9W3J2", "twitter": "None", "instagram": "None", "facebook": "None", "youtube": "None", "website": "None", "summary": "None", "logo": "None", "latitude": 43.72227094419768, "longitude": -79.57891920941766}, "896104031RR0001": {"name": "VIE AUTONOME ABITIBI-T\u00c9MISCAMINGUE", "designationCode": "C", "categoryCode": "09", "address": "201 9E RUE", "city": "VAL-D'OR", "province": "QC", "country": "CA", "postalCode": "J9P3K5", "twitter": "None", "instagram": "None", "facebook": "None", "youtube": "None", "website": "None", "summary": "None", "logo": "None", "latitude": 48.102784333891144, "longitude": -77.78191146768411}, "883123218RR0001": {"name": "VIE AUTONOME-MONTR\u00c9AL / INDEPENDENT LIVING-MONTR\u00c9AL", "designationCode": "C", "categoryCode": "09", "address": "402-2120 RUE SHERBROOKE EST", "city": "MONTR\u00c9AL", "province": "QC", "country": "CA", "postalCode": "H2K1C3", "twitter": "None", "instagram": "None", "facebook": "None", "youtube": "None", "website": "None", "summary": "None", "logo": "None", "latitude": 45.53400108533833, "longitude": -73.56199564861863}, "823662929RR0001": {"name": "VIE NOUVELLE EN CHRIST", "designationCode": "C", "categoryCode": "39", "address": "69 MUSCAT CRES", "city": "AJAX", "province": "ON", "country": "CA", "postalCode": "L1Z0B8", "twitter": "None", "instagram": "None", "facebook": "None", "youtube": "None", "website": "None", "summary": "None", "logo": "None", "latitude": 43.89988185541567, "longitude": -79.02005010159263}, "141423715RR0001": {"name": "VIELLIR ENSEMBLE A MERCIER-EST", "designationCode": "C", "categoryCode": "09", "address": "7958 RUE HOCHELOGA", "city": "MONTREAL", "province": "QC", "country": "CA", "postalCode": "H1L2K8", "twitter": "None", "instagram": "None", "facebook": "None", "youtube": "None", "website": "None", "summary": "None", "logo": "None", "latitude": 45.594153733827724, "longitude": -73.52389830610556}, "874815871RR0001": {"name": "VIEN QUANG VIETNAMESE BUDDHIST ASSOCIATION KITCHENER WATERLOO", "designationCode": "C", "categoryCode": "35", "address": "689 ST CHARLES ST EAST", "city": "MARYHILL", "province": "ON", "country": "CA", "postalCode": "N0B2B0", "twitter": "None", "instagram": "None", "facebook": "None", "youtube": "None", "website": "None", "summary": "None", "logo": "None", "latitude": 43.563508553436385, "longitude": -80.37772550718469}, "863613352RR0001": {"name": "VIENS ET VOIS LA CITE DES MERVEILLES", "designationCode": "C", "categoryCode": "39", "address": "318 CHALLENGER CRT", "city": "NEWCASTLE", "province": "ON", "country": "CA", "postalCode": "L1B1K4", "twitter": "None", "instagram": "None", "facebook": "None", "youtube": "None", "website": "None", "summary": "None", "logo": "None", "latitude": 43.92018096583777, "longitude": -78.58041560462239}, "860737634RR0001": {"name": "VIETNAM EDUCATION SOCIETY", "designationCode": "C", "categoryCode": "20", "address": "9340 LASKO STREET", "city": "RICHMOND", "province": "BC", "country": "CA", "postalCode": "V7E5W8", "twitter": "None", "instagram": "None", "facebook": "None", "youtube": "None", "website": "None", "summary": "None", "logo": "None", "latitude": 49.145542658895494, "longitude": -123.16243904605012}, "108174350RR0001": {"name": "VIETNAMESE ALLIANCE CHURCH OF EDMONTON", "designationCode": "C", "categoryCode": "39", "address": "7302 118 ST", "city": "EDMONTON", "province": "AB", "country": "CA", "postalCode": "T6G1S4", "twitter": "None", "instagram": "None", "facebook": "None", "youtube": "None", "website": "None", "summary": "None", "logo": "None", "latitude": 53.50866224562873, "longitude": -113.53469613436988}, "119267540RR0001": {"name": "VIETNAMESE ASSOCIATION, TORONTO", "designationCode": "C", "categoryCode": "09", "address": "TREASURER                     1364 DUNDAS STREET WEST", "city": "TORONTO", "province": "ON", "country": "CA", "postalCode": "M6J1Y2", "twitter": "None", "instagram": "None", "facebook": "None", "youtube": "None", "website": "None", "summary": "None", "logo": "None", "latitude": 43.649552482110835, "longitude": -79.42776216180968}, "133638536RR0001": {"name": "VIETNAMESE BUDDHIST CONGREGATION IN CALGARY", "designationCode": "C", "categoryCode": "35", "address": "1720 - 36 ST SE", "city": "CALGARY", "province": "AB", "country": "CA", "postalCode": "T2A1C8", "twitter": "None", "instagram": "None", "facebook": "None", "youtube": "None", "website": "None", "summary": "None", "logo": "None", "latitude": 51.03887298335157, "longitude": -113.98149824158935}}