{"119288918RR1501": {"name": "Congr\u00e9gation des T\u00e9moins de J\u00e9hovah de Montr\u00e9al-Monterosa (Qu\u00e9bec)", "designationCode": "C", "categoryCode": "61", "address": "7200, LOUIS H\u00c9BERT", "city": "MONTR\u00c9AL", "province": "QC", "country": "CA", "postalCode": "H2E2X4", "twitter": "None", "instagram": "None", "facebook": "None", "youtube": "None", "website": "None", "summary": "None", "logo": "None", "latitude": 45.55344680792323, "longitude": -73.60353391730614}, "119288918RR1516": {"name": "Congr\u00e9gation des T\u00e9moins de J\u00e9hovah de Montr\u00e9al-Oeste (Qu\u00e9bec)", "designationCode": "C", "categoryCode": "61", "address": "20 AVENUE JOHN-FISHER", "city": "POINTE-CLAIRE", "province": "QC", "country": "CA", "postalCode": "H9R5W4", "twitter": "None", "instagram": "None", "facebook": "None", "youtube": "None", "website": "None", "summary": "None", "logo": "None", "latitude": 45.45791276184445, "longitude": -73.79627948857437}, "119288918RR1445": {"name": "Congr\u00e9gation des T\u00e9moins de J\u00e9hovah de Montr\u00e9al-Polonais (Qu\u00e9bec)", "designationCode": "C", "categoryCode": "61", "address": "2400, RUE WARD", "city": "ST-LAURENT", "province": "QC", "country": "CA", "postalCode": "H4M2Y3", "twitter": "None", "instagram": "None", "facebook": "None", "youtube": "None", "website": "None", "summary": "None", "logo": "None", "latitude": 45.49627816928284, "longitude": -73.68206098012027}, "119288918RR1660": {"name": "Congr\u00e9gation des T\u00e9moins de J\u00e9hovah de Montreal-Paraiso (Qu\u00e9bec)", "designationCode": "C", "categoryCode": "61", "address": "906-150 RUE BERLIOZ", "city": "VERDUN", "province": "QC", "country": "CA", "postalCode": "H3E1K3", "twitter": "None", "instagram": "None", "facebook": "None", "youtube": "None", "website": "None", "summary": "None", "logo": "None", "latitude": 45.461241503309765, "longitude": -73.54283558758519}, "119288918RR1614": {"name": "Congr\u00e9gation des T\u00e9moins de J\u00e9hovah de Nord-Langue des Signes,Laval (Qu\u00e9bec)", "designationCode": "C", "categoryCode": "61", "address": "60, RUE MAYENCE", "city": "LAVAL", "province": "QC", "country": "CA", "postalCode": "H7M3M3", "twitter": "None", "instagram": "None", "facebook": "None", "youtube": "None", "website": "None", "summary": "None", "logo": "None", "latitude": 45.59476834358601, "longitude": -73.7186072757229}, "119288918RR1474": {"name": "Congr\u00e9gation des T\u00e9moins de J\u00e9hovah de Qu\u00e9bec - Langue des signes (Qu\u00e9bec)", "designationCode": "C", "categoryCode": "61", "address": "7070 BOUL. HENRI-BOURASSA", "city": "QU\u00c9BEC", "province": "QC", "country": "CA", "postalCode": "G1H3E1", "twitter": "None", "instagram": "None", "facebook": "None", "youtube": "None", "website": "None", "summary": "None", "logo": "None", "latitude": 46.85760957536493, "longitude": -71.26197125226516}, "119288918RR1526": {"name": "Congr\u00e9gation des T\u00e9moins de J\u00e9hovah de Saint-Hubert-Langue des signes (Qu\u00e9bec)", "designationCode": "C", "categoryCode": "61", "address": "5250, RUE GRANDE-ALL\u00c9E", "city": "ST-HUBERT", "province": "QC", "country": "CA", "postalCode": "J3Y1A2", "twitter": "None", "instagram": "None", "facebook": "None", "youtube": "None", "website": "None", "summary": "None", "logo": "None"}, "119288918RR1609": {"name": "Congr\u00e9gation des T\u00e9moins de J\u00e9hovah de Scarborough-Fran\u00e7aise (Ontario)", "designationCode": "C", "categoryCode": "61", "address": "846 PROGRESS AVENUE", "city": "SCARBOROUGH", "province": "ON", "country": "CA", "postalCode": "M1H2X5", "twitter": "None", "instagram": "None", "facebook": "None", "youtube": "None", "website": "None", "summary": "None", "logo": "None", "latitude": 43.780682460470736, "longitude": -79.23949355551385}, "119288918RR1161": {"name": "Congr\u00e9gation des T\u00e9moins de J\u00e9hovah de Sudbury-French", "designationCode": "C", "categoryCode": "61", "address": "48 - 600 WILLIAM AVE", "city": "SUDBURY", "province": "ON", "country": "CA", "postalCode": "P3A5M9", "twitter": "None", "instagram": "None", "facebook": "None", "youtube": "None", "website": "None", "summary": "None", "logo": "None", "latitude": 46.508879003666664, "longitude": -80.94547339151164}, "119288918RR1477": {"name": "Congr\u00e9gation des T\u00e9moins de J\u00e9hovah de Toronto-Fran\u00e7aise (Ontario)", "designationCode": "C", "categoryCode": "61", "address": "2101 DUNDAS OUEST", "city": "TORONTO", "province": "ON", "country": "CA", "postalCode": "M6R1X1", "twitter": "None", "instagram": "None", "facebook": "None", "youtube": "None", "website": "None", "summary": "None", "logo": "None", "latitude": 43.652413844566965, "longitude": -79.44879209645674}, "119288918RR1656": {"name": "Congr\u00e9gation des T\u00e9moins de J\u00e9hovah de Trois-Rivi\u00e9res-Centro-Hispana (Qu\u00e9bec)", "designationCode": "C", "categoryCode": "61", "address": "7200 BOUL SAINT-JEAN", "city": "TROIS-RIVIERES", "province": "QC", "country": "CA", "postalCode": "G9A5E1", "twitter": "None", "instagram": "None", "facebook": "None", "youtube": "None", "website": "None", "summary": "None", "logo": "None", "latitude": 46.35194489872448, "longitude": -72.63878343251227}, "119288918RR1500": {"name": "Congr\u00e9gation des T\u00e9moins de J\u00e9hovah de Trois-Rivi\u00e8res-Langue des signes", "designationCode": "C", "categoryCode": "61", "address": "7200, BOUL. ST-JEAN", "city": "TROIS-RIVI\u00c8RES", "province": "QC", "country": "CA", "postalCode": "G9A5E1", "twitter": "None", "instagram": "None", "facebook": "None", "youtube": "None", "website": "None", "summary": "None", "logo": "None", "latitude": 46.35194489872448, "longitude": -72.63878343251227}, "119288918RR1570": {"name": "Congr\u00e9gation des T\u00e9moins de J\u00e9hovah de Victoria-Fran\u00e7aise (Columbia Britannique)", "designationCode": "C", "categoryCode": "61", "address": "2780, RUE SHELBOURNE", "city": "VICTORIA", "province": "BC", "country": "CA", "postalCode": "V8R4M2", "twitter": "None", "instagram": "None", "facebook": "None", "youtube": "None", "website": "None", "summary": "None", "logo": "None", "latitude": 48.43972017346644, "longitude": -123.33354139332879}, "793172511RR0001": {"name": "Congr\u00e9gation des T\u00e9moins de J\u00e9hovah Rivi\u00e8re-des-Prairies Cr\u00e9ole", "designationCode": "C", "categoryCode": "61", "address": "12145 5E AV", "city": "MONTREAL", "province": "QC", "country": "CA", "postalCode": "H1E1R4", "twitter": "None", "instagram": "None", "facebook": "None", "youtube": "None", "website": "None", "summary": "None", "logo": "None", "latitude": 45.62564178824505, "longitude": -73.60416989283878}, "119288918RR0562": {"name": "Congr\u00e9gation des T\u00e9moins de J\u00e9hovah Saint-Lambert Qu\u00e9bec", "designationCode": "C", "categoryCode": "61", "address": "122 DE PICARDIE", "city": "SAINT-LAMBERT", "province": "QC", "country": "CA", "postalCode": "J4S1J1", "twitter": "None", "instagram": "None", "facebook": "None", "youtube": "None", "website": "None", "summary": "None", "logo": "None", "latitude": 45.48370455063776, "longitude": -73.50090277990651}, "869525360RR0001": {"name": "Congr\u00e9gation internationale des disciples libres du Christ -Qu\u00e9bec / Free Believers in Christ Fellowship International -Qu\u00e9bec", "designationCode": "C", "categoryCode": "39", "address": "377 44E AV", "city": "LACHINE", "province": "QC", "country": "CA", "postalCode": "H8T2K5", "twitter": "None", "instagram": "None", "facebook": "None", "youtube": "None", "website": "None", "summary": "None", "logo": "None", "latitude": 45.43883814570953, "longitude": -73.70473205790843}, "824454896RR0001": {"name": "Congr\u00e9gation messianique Beth Ariel / Beth Ariel Messianic Congregation", "designationCode": "C", "categoryCode": "47", "address": "C.P. 46521                    CPS BOULEVARD SAINT-JEAN", "city": "PIERREFONDS", "province": "QC", "country": "CA", "postalCode": "H9H5G9", "twitter": "None", "instagram": "None", "facebook": "None", "youtube": "None", "website": "None", "summary": "None", "logo": "None", "latitude": 45.48836844975038, "longitude": -73.8497886622257}, "825330004RR0001": {"name": "Congr\u00e9gation Anshei Yisroel/Anshei Yisroel Congregation", "designationCode": "B", "categoryCode": "42", "address": "5380 BOURRET", "city": "MONTREAL", "province": "QC", "country": "CA", "postalCode": "H3X1J2", "twitter": "None", "instagram": "None", "facebook": "None", "youtube": "None", "website": "None", "summary": "None", "logo": "None", "latitude": 45.48666735247281, "longitude": -73.64036932289822}, "816612592RR0001": {"name": "Congr\u00e9gation Beth Chabad C.S.L.", "designationCode": "C", "categoryCode": "42", "address": "6501 CH KILDARE", "city": "COTE SAINT-LUC", "province": "QC", "country": "CA", "postalCode": "H4W0A1", "twitter": "None", "instagram": "None", "facebook": "None", "youtube": "None", "website": "None", "summary": "None", "logo": "None"}, "106968035RR0001": {"name": "Congr\u00e9gation Good Heart: Congr\u00e9gation Yetev Lav", "designationCode": "C", "categoryCode": "42", "address": "5555 RUE HUTCHISON", "city": "MONTREAL", "province": "QC", "country": "CA", "postalCode": "H2V4B5", "twitter": "None", "instagram": "None", "facebook": "None", "youtube": "None", "website": "None", "summary": "None", "logo": "None", "latitude": 45.52164325757394, "longitude": -73.60297246182706}, "825111131RR0001": {"name": "Congr\u00e9gation Mater Dei", "designationCode": "C", "categoryCode": "49", "address": "539 BOULEVARD BOURASSA", "city": "SAINT-JEROME", "province": "QC", "country": "CA", "postalCode": "J7Y1Y1", "twitter": "None", "instagram": "None", "facebook": "None", "youtube": "None", "website": "None", "summary": "None", "logo": "None", "latitude": 45.78606125673723, "longitude": -74.01123234344178}, "823411020RR0001": {"name": "Congr\u00e9gation Ohel-Chaim / Ohel-Chaim Congregation", "designationCode": "C", "categoryCode": "42", "address": "384 RUE BERNARD O", "city": "MONTREAL", "province": "QC", "country": "CA", "postalCode": "H2V1T7", "twitter": "None", "instagram": "None", "facebook": "None", "youtube": "None", "website": "None", "summary": "None", "logo": "None", "latitude": 45.52310217040802, "longitude": -73.6059900710371}, "845157007RR0001": {"name": "Congr\u00e9gation Romaine de Saint-Dominique (Canada)", "designationCode": "C", "categoryCode": "46", "address": "5655 RUE DE SALABERRY", "city": "MONTREAL", "province": "QC", "country": "CA", "postalCode": "H4J1J5", "twitter": "None", "instagram": "None", "facebook": "None", "youtube": "None", "website": "None", "summary": "None", "logo": "None", "latitude": 45.528873699753234, "longitude": -73.71145253699511}, "821142486RR0001": {"name": "Congr\u00e9gation Satmar de Montr\u00e9al", "designationCode": "C", "categoryCode": "42", "address": "384 RUE BERNARD O", "city": "MONTREAL", "province": "QC", "country": "CA", "postalCode": "H2V1T7", "twitter": "None", "instagram": "None", "facebook": "None", "youtube": "None", "website": "None", "summary": "None", "logo": "None", "latitude": 45.52310217040802, "longitude": -73.6059900710371}, "813995305RR0001": {"name": "Congr\u00e9gation Sepharade Beth Hillel Tiferet David", "designationCode": "C", "categoryCode": "42", "address": "202 RUE FINCHLEY", "city": "HAMPSTEAD", "province": "QC", "country": "CA", "postalCode": "H3X3A8", "twitter": "None", "instagram": "None", "facebook": "None", "youtube": "None", "website": "None", "summary": "None", "logo": "None", "latitude": 45.48678876406614, "longitude": -73.6505736586357}, "119288918RR1631": {"name": "Congr\u00e9gation Sud des T\u00e9moins de J\u00e9hovah Mont-Laurier (Qu\u00e9bec)", "designationCode": "C", "categoryCode": "61", "address": "1570 BOULEVARD DES RUISSEAUX", "city": "MONT-LAURIER", "province": "QC", "country": "CA", "postalCode": "J9L0H6", "twitter": "None", "instagram": "None", "facebook": "None", "youtube": "None", "website": "None", "summary": "None", "logo": "None", "latitude": 46.556969505481675, "longitude": -75.59151130252755}, "119288918RR1716": {"name": "Congr\u00e9gation Vancouver-Fran\u00e7aise-Centrale des T\u00e9moins de J\u00e9hova (C.B.)", "designationCode": "C", "categoryCode": "61", "address": "1015 8TH AVE W", "city": "VANCOUVER", "province": "BC", "country": "CA", "postalCode": "V6H1C3", "twitter": "None", "instagram": "None", "facebook": "None", "youtube": "None", "website": "None", "summary": "None", "logo": "None", "latitude": 49.26435749321934, "longitude": -123.12705108090483}, "119288918RR1673": {"name": "Congregation des T\u00e9moins de J\u00e9hovah d'Ottawa Ouest (Ontario)", "designationCode": "C", "categoryCode": "61", "address": "4554 FALLOWFIELD RD", "city": "NEPEAN", "province": "ON", "country": "CA", "postalCode": "K2J4S2", "twitter": "None", "instagram": "None", "facebook": "None", "youtube": "None", "website": "None", "summary": "None", "logo": "None", "latitude": 45.26984475044748, "longitude": -75.8011975367593}, "831673942RR0001": {"name": "Congregation of the Sister of the Immaculate Heart of Mary, Mother of Christ Inc.", "designationCode": "C", "categoryCode": "46", "address": "365-367 DUCKWORTH STREET", "city": "ST. JOHN'S", "province": "NL", "country": "CA", "postalCode": "A1C5X3", "twitter": "None", "instagram": "None", "facebook": "None", "youtube": "None", "website": "None", "summary": "None", "logo": "None", "latitude": 47.56271957478802, "longitude": -52.70957065500034}, "119151363RR0001": {"name": "Congregation of the Sisters of St. Joseph in Canada", "designationCode": "C", "categoryCode": "46", "address": "PO BOX 566", "city": "PETERBOROUGH", "province": "ON", "country": "CA", "postalCode": "K9J6Z6", "twitter": "None", "instagram": "None", "facebook": "None", "youtube": "None", "website": "None", "summary": "None", "logo": "None", "latitude": 44.30591700000005, "longitude": -78.31950199999993}, "883807588RR0001": {"name": "Congregation of Missionaries of the Precious Blood, Atlantic Province", "designationCode": "C", "categoryCode": "47", "address": "100 PELMO CRES", "city": "NORTH YORK", "province": "ON", "country": "CA", "postalCode": "M9N2Y1", "twitter": "None", "instagram": "None", "facebook": "None", "youtube": "None", "website": "None", "summary": "None", "logo": "None", "latitude": 43.711952907871094, "longitude": -79.51261932832257}, "763748324RR0001": {"name": "Congregation of Victoria Lake", "designationCode": "C", "categoryCode": "39", "address": "224 CARMICHAEL AVE", "city": "NORTH YORK", "province": "ON", "country": "CA", "postalCode": "M5M2X4", "twitter": "None", "instagram": "None", "facebook": "None", "youtube": "None", "website": "None", "summary": "None", "logo": "None", "latitude": 43.735179183478415, "longitude": -79.43131820358929}, "813130564RR0001": {"name": "Congregation Anash and Mikvah Society of Richmond", "designationCode": "C", "categoryCode": "42", "address": "401 - 1037 BROADWAY W", "city": "VANCOUVER", "province": "BC", "country": "CA", "postalCode": "V6H1E3", "twitter": "None", "instagram": "None", "facebook": "None", "youtube": "None", "website": "None", "summary": "None", "logo": "None", "latitude": 49.2634524532574, "longitude": -123.1275012485429}, "826127912RR0001": {"name": "Congregation Bayit", "designationCode": "C", "categoryCode": "42", "address": "401-1037 WEST BROADWAY", "city": "VANCOUVER", "province": "BC", "country": "CA", "postalCode": "V6H1E3", "twitter": "None", "instagram": "None", "facebook": "None", "youtube": "None", "website": "None", "summary": "None", "logo": "None", "latitude": 49.2634524532574, "longitude": -123.1275012485429}, "822600136RR0001": {"name": "Congregation Nachat Ruach", "designationCode": "C", "categoryCode": "42", "address": "344573 NORTH LINE             RR 2", "city": "PRICEVILLE", "province": "ON", "country": "CA", "postalCode": "N0C1K0", "twitter": "None", "instagram": "None", "facebook": "None", "youtube": "None", "website": "None", "summary": "None", "logo": "None", "latitude": 44.193264737705654, "longitude": -80.58688316393092}, "860234707RR0001": {"name": "Congregation Shaar Shalom", "designationCode": "C", "categoryCode": "42", "address": "4880 BOUL NOTRE-DAME", "city": "LAVAL", "province": "QC", "country": "CA", "postalCode": "H7W1V4", "twitter": "None", "instagram": "None", "facebook": "None", "youtube": "None", "website": "None", "summary": "None", "logo": "None", "latitude": 45.53431869799207, "longitude": -73.77006088464447}, "849969811RR0001": {"name": "Congregation Sheves Achim", "designationCode": "C", "categoryCode": "42", "address": "210 - 6927 AV DU PARC", "city": "MONTREAL", "province": "QC", "country": "CA", "postalCode": "H3N1X7", "twitter": "None", "instagram": "None", "facebook": "None", "youtube": "None", "website": "None", "summary": "None", "logo": "None", "latitude": 45.52943369499095, "longitude": -73.61848342241338}, "848736211RR0001": {"name": "Congregation Shir Libeynu", "designationCode": "C", "categoryCode": "42", "address": "122 - 8171 YONGE ST", "city": "THORNHILL", "province": "ON", "country": "CA", "postalCode": "L3T2C6", "twitter": "None", "instagram": "None", "facebook": "None", "youtube": "None", "website": "None", "summary": "None", "logo": "None", "latitude": 43.82696167721735, "longitude": -79.42696585841676}, "813232238RR0001": {"name": "Congregation Tehilos Yisroel", "designationCode": "C", "categoryCode": "39", "address": "310 WILSON AVENUE", "city": "TORONTO", "province": "ON", "country": "CA", "postalCode": "M3H1S8", "twitter": "None", "instagram": "None", "facebook": "None", "youtube": "None", "website": "None", "summary": "None", "logo": "None", "latitude": 43.737052157943204, "longitude": -79.43576003886541}, "820265015RR0001": {"name": "Congregation Tzemach Tzaddik", "designationCode": "C", "categoryCode": "42", "address": "5873 AV DUROCHER", "city": "OUTREMONT", "province": "QC", "country": "CA", "postalCode": "H2V3Y5", "twitter": "None", "instagram": "None", "facebook": "None", "youtube": "None", "website": "None", "summary": "None", "logo": "None", "latitude": 45.522749366928196, "longitude": -73.60759968774893}, "839150372RR0001": {"name": "Congregation Yeshua", "designationCode": "C", "categoryCode": "39", "address": "1655 STOCKBRIDGE CRT", "city": "MISSISSAUGA", "province": "ON", "country": "CA", "postalCode": "L5N8A1", "twitter": "None", "instagram": "None", "facebook": "None", "youtube": "None", "website": "None", "summary": "None", "logo": "None", "latitude": 43.62201197919666, "longitude": -79.75200494924667}, "777462128RR0001": {"name": "Congregation Yetev Lev D'Satmar", "designationCode": "C", "categoryCode": "42", "address": "5446 AV DU PARC", "city": "MONTREAL", "province": "QC", "country": "CA", "postalCode": "H2V4G7", "twitter": "None", "instagram": "None", "facebook": "None", "youtube": "None", "website": "None", "summary": "None", "logo": "None", "latitude": 45.521961738530926, "longitude": -73.60175226798995}, "836044719RR0001": {"name": "Congregational Church of Chebogue Preservation Society", "designationCode": "C", "categoryCode": "52", "address": "108 CHEBOGUE POINT ROAD", "city": "ROCKVILLE", "province": "NS", "country": "CA", "postalCode": "B5A5E8", "twitter": "None", "instagram": "None", "facebook": "None", "youtube": "None", "website": "None", "summary": "None", "logo": "None", "latitude": 43.7728797537084, "longitude": -66.11248832849546}, "869640284RR0001": {"name": "Connect Charter School Society", "designationCode": "C", "categoryCode": "20", "address": "5915 LEWIS DRIVE SW", "city": "CALGARY", "province": "AB", "country": "CA", "postalCode": "T3E5Z4", "twitter": "None", "instagram": "None", "facebook": "None", "youtube": "None", "website": "None", "summary": "None", "logo": "None", "latitude": 51.00111714570952, "longitude": -114.13589925382303}, "106800857RR0001": {"name": "Connect Church", "designationCode": "C", "categoryCode": "36", "address": "12495 50 HWY", "city": "BOLTON", "province": "ON", "country": "CA", "postalCode": "L7E1M3", "twitter": "None", "instagram": "None", "facebook": "None", "youtube": "None", "website": "None", "summary": "None", "logo": "None", "latitude": 43.85833683997678, "longitude": -79.70858942958665}, "761317494RR0001": {"name": "Connect Church", "designationCode": "C", "categoryCode": "39", "address": "143 HAWKHILL WAY NW", "city": "CALGARY", "province": "AB", "country": "CA", "postalCode": "T3G3H3", "twitter": "None", "instagram": "None", "facebook": "None", "youtube": "None", "website": "None", "summary": "None", "logo": "None", "latitude": 51.129235529286134, "longitude": -114.16285375145709}, "858471238RR0001": {"name": "Connect City", "designationCode": "C", "categoryCode": "43", "address": "108-15 TOBERMORY DRIVE", "city": "TORONTO", "province": "ON", "country": "CA", "postalCode": "M3N2R5", "twitter": "None", "instagram": "None", "facebook": "None", "youtube": "None", "website": "None", "summary": "None", "logo": "None", "latitude": 43.76029360534354, "longitude": -79.5089865710371}, "848974648RR0001": {"name": "Connect 4 Life", "designationCode": "C", "categoryCode": "09", "address": "505-880 DUNDAS ST. W", "city": "MISSISSAUGA", "province": "ON", "country": "CA", "postalCode": "L5C4H3", "twitter": "None", "instagram": "None", "facebook": "None", "youtube": "None", "website": "None", "summary": "None", "logo": "None", "latitude": 43.54380792803128, "longitude": -79.65688225315085}, "805609849RR0001": {"name": "Connecting Community Church", "designationCode": "C", "categoryCode": "39", "address": "14625-108 AVENUE              FLOOR DECOR", "city": "SURREY", "province": "BC", "country": "CA", "postalCode": "V3R1V9", "twitter": "None", "instagram": "None", "facebook": "None", "youtube": "None", "website": "None", "summary": "None", "logo": "None", "latitude": 49.1987835148594, "longitude": -122.81695183236194}, "859053019RR0001": {"name": "Connecting Countries Adopt-A-School", "designationCode": "C", "categoryCode": "03", "address": "51 PAISLEY AVE N", "city": "HAMILTON", "province": "ON", "country": "CA", "postalCode": "L8S4G7", "twitter": "None", "instagram": "None", "facebook": "None", "youtube": "None", "website": "None", "summary": "None", "logo": "None", "latitude": 43.263232282532236, "longitude": -79.90780059299429}, "107396905RR0077": {"name": "Connecting Point Foursquare Gospel Church", "designationCode": "C", "categoryCode": "39", "address": "307B - 2099 LOUGHEED HWY", "city": "PORT COQUITLAM", "province": "BC", "country": "CA", "postalCode": "V3B1A8", "twitter": "None", "instagram": "None", "facebook": "None", "youtube": "None", "website": "None", "summary": "None", "logo": "None", "latitude": 49.266550538461395, "longitude": -122.77400226767284}, "834489288RR0001": {"name": "Connection Church", "designationCode": "C", "categoryCode": "39", "address": "137 DEEP ROAD", "city": "FORT MCMURRAY", "province": "AB", "country": "CA", "postalCode": "T9K1B7", "twitter": "None", "instagram": "None", "facebook": "None", "youtube": "None", "website": "None", "summary": "None", "logo": "None", "latitude": 56.73103350764605, "longitude": -111.44265205689884}, "819686981RR0001": {"name": "Connection Life Centre", "designationCode": "C", "categoryCode": "39", "address": "PO BOX 53577 RPO BROADMEAD", "city": "VICTORIA", "province": "BC", "country": "CA", "postalCode": "V8X5K2", "twitter": "None", "instagram": "None", "facebook": "None", "youtube": "None", "website": "None", "summary": "None", "logo": "None", "latitude": 48.46233415889341, "longitude": -123.33377785005337}, "838215978RR0001": {"name": "Connection Point Christian Church Inc.", "designationCode": "C", "categoryCode": "39", "address": "156 MOUNT EDWARD ROAD", "city": "CHARLOTTETOWN", "province": "PE", "country": "CA", "postalCode": "C1A5T2", "twitter": "None", "instagram": "None", "facebook": "None", "youtube": "None", "website": "None", "summary": "None", "logo": "None", "latitude": 46.26196715459633, "longitude": -63.134533986525575}, "135391902RR0001": {"name": "Connection Wesleyan Church", "designationCode": "C", "categoryCode": "39", "address": "38 PLEASANT ST", "city": "TRURO", "province": "NS", "country": "CA", "postalCode": "B2N3R7", "twitter": "None", "instagram": "None", "facebook": "None", "youtube": "None", "website": "None", "summary": "None", "logo": "None", "latitude": 45.363640254227064, "longitude": -63.28259590553382}, "108030396RR0001": {"name": "Connections An Early Years Family Centre Inc.", "designationCode": "C", "categoryCode": "09", "address": "795 GILES BOULEVARD EAST", "city": "WINDSOR", "province": "ON", "country": "CA", "postalCode": "N9A4E5", "twitter": "None", "instagram": "None", "facebook": "None", "youtube": "None", "website": "None", "summary": "None", "logo": "None", "latitude": 42.3093234143633, "longitude": -83.02083475047615}, "850910555RR0001": {"name": "Connections Christian Fellowship", "designationCode": "C", "categoryCode": "49", "address": "2 EAGLE CRES", "city": "HALIFAX", "province": "NS", "country": "CA", "postalCode": "B3M3A9", "twitter": "None", "instagram": "None", "facebook": "None", "youtube": "None", "website": "None", "summary": "None", "logo": "None", "latitude": 44.66811311933758, "longitude": -63.65681350265439}, "840784573RR0001": {"name": "Connect3: For Faith Development and Poverty Reduction Inc.", "designationCode": "C", "categoryCode": "39", "address": "810 - 601 SPADINA CRES E", "city": "SASKATOON", "province": "SK", "country": "CA", "postalCode": "S7K3G8", "twitter": "None", "instagram": "None", "facebook": "None", "youtube": "None", "website": "None", "summary": "None", "logo": "None", "latitude": 52.12655161166288, "longitude": -106.65889940264921}, "806329041RR0001": {"name": "Connexion Emploi ressources mixtes", "designationCode": "C", "categoryCode": "59", "address": "1201 RUE CHARLES-RODRIGUE     APP 102", "city": "LEVIS", "province": "QC", "country": "CA", "postalCode": "G6W0N1", "twitter": "None", "instagram": "None", "facebook": "None", "youtube": "None", "website": "None", "summary": "None", "logo": "None", "latitude": 46.786376193296796, "longitude": -71.18221569743656}, "897456679RR0001": {"name": "Connexontario Health Services Information", "designationCode": "C", "categoryCode": "11", "address": "200-685 RICHMOND ST", "city": "LONDON", "province": "ON", "country": "CA", "postalCode": "N6A5M1", "twitter": "None", "instagram": "None", "facebook": "None", "youtube": "None", "website": "None", "summary": "None", "logo": "None", "latitude": 42.99304484318197, "longitude": -81.25196386721665}, "839319019RR0001": {"name": "Connexus Community Church", "designationCode": "C", "categoryCode": "39", "address": "I-20 MILLS RD", "city": "BARRIE", "province": "ON", "country": "CA", "postalCode": "L4N6H4", "twitter": "None", "instagram": "None", "facebook": "None", "youtube": "None", "website": "None", "summary": "None", "logo": "None", "latitude": 44.326746197905145, "longitude": -79.68972840397595}, "833267115RR0001": {"name": "Conoser Scholarship Fund Group", "designationCode": "C", "categoryCode": "21", "address": "20 KENNERLY CRT", "city": "NORTH YORK", "province": "ON", "country": "CA", "postalCode": "M3J1G9", "twitter": "None", "instagram": "None", "facebook": "None", "youtube": "None", "website": "None", "summary": "None", "logo": "None", "latitude": 43.75437263226377, "longitude": -79.5068983482023}, "808394357RR0001": {"name": "Conrad Kain Centennial Society", "designationCode": "C", "categoryCode": "50", "address": "4385 BULLIN STREET            RR5", "city": "WILMER", "province": "BC", "country": "CA", "postalCode": "V0A1K5", "twitter": "None", "instagram": "None", "facebook": "None", "youtube": "None", "website": "None", "summary": "None", "logo": "None", "latitude": 50.541037724728916, "longitude": -116.06035909488855}, "834469389RR0001": {"name": "Conrads Kids Charitable Trust", "designationCode": "B", "categoryCode": "09", "address": "128 BRANDY LANE WAY", "city": "NEWMARKET", "province": "ON", "country": "CA", "postalCode": "L3Y8P7", "twitter": "None", "instagram": "None", "facebook": "None", "youtube": "None", "website": "None", "summary": "None", "logo": "None", "latitude": 44.03907710297762, "longitude": -79.47471733028446}, "890284656RR0001": {"name": "Conseil de l'alphab\u00e9tisation de Yamaska / Yamaska Literacy Council", "designationCode": "C", "categoryCode": "21", "address": "505 RUE DU SUD                SUITE 203", "city": "COWANSVILLE", "province": "QC", "country": "CA", "postalCode": "J2K2X9", "twitter": "None", "instagram": "None", "facebook": "None", "youtube": "None", "website": "None", "summary": "None", "logo": "None", "latitude": 45.20371614268276, "longitude": -72.7468830470603}, "841864507RR0001": {"name": "Conseil de la Biblioth\u00e8que publique du Canton de Russell / Township Russell Public Library Board", "designationCode": "C", "categoryCode": "50", "address": "P.O. BOX 280", "city": "RUSSELL", "province": "ON", "country": "CA", "postalCode": "K4R1E1", "twitter": "None", "instagram": "None", "facebook": "None", "youtube": "None", "website": "None", "summary": "None", "logo": "None", "latitude": 45.25810800000005, "longitude": -75.35879449999993}, "858963614RR0001": {"name": "Conseil des arts de Nipissing Ouest", "designationCode": "C", "categoryCode": "22", "address": "90 RUE MAIN", "city": "STURGEON FALLS", "province": "ON", "country": "CA", "postalCode": "P2B2Z7", "twitter": "None", "instagram": "None", "facebook": "None", "youtube": "None", "website": "None", "summary": "None", "logo": "None", "latitude": 46.37201767224719, "longitude": -79.92815974126164}, "119981165RR0001": {"name": "Conseil des aveugles de St-Hyacinthe, Inc.", "designationCode": "C", "categoryCode": "01", "address": "472, RANG 4 EST", "city": "SAINT-SIMON DE BAGOT", "province": "QC", "country": "CA", "postalCode": "J0H1Y0", "twitter": "None", "instagram": "None", "facebook": "None", "youtube": "None", "website": "None", "summary": "None", "logo": "None", "latitude": 45.73492800000005, "longitude": -72.87398899999994}, "850450008RR0001": {"name": "Conseil des bassins versants des Mille-\u00celes (COBAMIL)/Mille-\u00celes Watershed Council (COBAMIL)", "designationCode": "C", "categoryCode": "52", "address": "45, RUE SAINT-JOSEPH          PORTE 200", "city": "SAINTE-THERESE", "province": "QC", "country": "CA", "postalCode": "J7E4X5", "twitter": "None", "instagram": "None", "facebook": "None", "youtube": "None", "website": "None", "summary": "None", "logo": "None", "latitude": 45.63832683265039, "longitude": -73.84257544419769}, "819350869RR0001": {"name": "Conseil du bassin versant de la r\u00e9gion de Vaudreuil-Soulanges", "designationCode": "C", "categoryCode": "59", "address": "102, RUE SAINT-PIERRE", "city": "RIGAUD", "province": "QC", "country": "CA", "postalCode": "J0P1P0", "twitter": "None", "instagram": "None", "facebook": "None", "youtube": "None", "website": "None", "summary": "None", "logo": "None", "latitude": 45.47635096171149, "longitude": -74.30489107409551}, "889369336RR0001": {"name": "Conseil du Patrimoine Religieux du Qu\u00e9bec / Qu\u00e9bec ReligiousHeritage Council", "designationCode": "A", "categoryCode": "43", "address": "3300-100 RUE SHERBROOKE EST", "city": "MONTR\u00c9AL", "province": "QC", "country": "CA", "postalCode": "H2X1C3", "twitter": "None", "instagram": "None", "facebook": "None", "youtube": "None", "website": "None", "summary": "None", "logo": "None", "latitude": 45.51470699730257, "longitude": -73.56848157816805}, "893990846RR0001": {"name": "Conseil r\u00e9gional de l'environnement de Laval", "designationCode": "C", "categoryCode": "59", "address": "218 - 3235 BOUL SAINT-MARTIN E", "city": "LAVAL", "province": "QC", "country": "CA", "postalCode": "H7E5G8", "twitter": "None", "instagram": "None", "facebook": "None", "youtube": "None", "website": "None", "summary": "None", "logo": "None", "latitude": 45.60480449999999, "longitude": -73.67749649999999}, "874411960RR0001": {"name": "Conseil scolaire catholique de district des Grandes Rivi\u00e8res", "designationCode": "C", "categoryCode": "20", "address": "896, PROMENADE RIVERSIDE", "city": "TIMMINS", "province": "ON", "country": "CA", "postalCode": "P4N3W2", "twitter": "None", "instagram": "None", "facebook": "None", "youtube": "None", "website": "None", "summary": "None", "logo": "None", "latitude": 48.47663789242436, "longitude": -81.3626893682143}, "894152024RR0001": {"name": "Conseil scolaire catholique Providence", "designationCode": "C", "categoryCode": "20", "address": "7515, PROM FOREST GLADE       RR 2", "city": "WINDSOR", "province": "ON", "country": "CA", "postalCode": "N8T3P5", "twitter": "None", "instagram": "None", "facebook": "None", "youtube": "None", "website": "None", "summary": "None", "logo": "None", "latitude": 42.29854991175968, "longitude": -82.92518905226979}, "894752021RR0001": {"name": "Conseil scolaire de district catholique des aurores bor\u00e9ales", "designationCode": "C", "categoryCode": "20", "address": "175 RUE HIGH NORD", "city": "THUNDER BAY", "province": "ON", "country": "CA", "postalCode": "P7A8C7", "twitter": "None", "instagram": "None", "facebook": "None", "youtube": "None", "website": "None", "summary": "None", "logo": "None", "latitude": 48.44418313682274, "longitude": -89.22936987896033}, "870966868RR0001": {"name": "Conseil scolaire de district du Nord-Est de l'Ontario", "designationCode": "C", "categoryCode": "20", "address": "820 PROMENADE LAKESHORE       CP 3600", "city": "NORTH BAY", "province": "ON", "country": "CA", "postalCode": "P1B9T5", "twitter": "None", "instagram": "None", "facebook": "None", "youtube": "None", "website": "None", "summary": "None", "logo": "None", "latitude": 46.260854455864965, "longitude": -79.40404525710271}, "869390146RR0001": {"name": "Conseil scolaire Viamonde", "designationCode": "C", "categoryCode": "20", "address": "1 PROMENADE VANIER            BUREAU 101", "city": "WELLAND", "province": "ON", "country": "CA", "postalCode": "L3B1A1", "twitter": "None", "instagram": "None", "facebook": "None", "youtube": "None", "website": "None", "summary": "None", "logo": "None", "latitude": 42.98506200000001, "longitude": -79.222932}, "846183556RR0001": {"name": "Conseil Fr\u00e8re Andr\u00e9 8163 Fid\u00e9icommis de Charit\u00e9", "designationCode": "A", "categoryCode": "65", "address": "15 REGENT CRT", "city": "NORTH BAY", "province": "ON", "country": "CA", "postalCode": "P1A3W2", "twitter": "None", "instagram": "None", "facebook": "None", "youtube": "None", "website": "None", "summary": "None", "logo": "None", "latitude": 46.282768815431716, "longitude": -79.4360755599649}, "837666817RR0001": {"name": "Conseil Mgr-Charette 10143 Fid\u00e9icommis de Charit\u00e9", "designationCode": "A", "categoryCode": "65", "address": "P.O. BOX 760 - STATION MAIN", "city": "HAWKESBURY", "province": "ON", "country": "CA", "postalCode": "K6A3C8", "twitter": "None", "instagram": "None", "facebook": "None", "youtube": "None", "website": "None", "summary": "None", "logo": "None", "latitude": 45.606556980078736, "longitude": -74.58149588855949}, "805927415RR0001": {"name": "Conseil St-Joseph 9707 Fid\u00e9icommis de Charit\u00e9", "designationCode": "A", "categoryCode": "63", "address": "130 HILLSIDE DRIVE NORTH      SALLE ST FRANCOIS PAROISSE STE", "city": "ELLIOT LAKE", "province": "ON", "country": "CA", "postalCode": "P5A1X7", "twitter": "None", "instagram": "None", "facebook": "None", "youtube": "None", "website": "None", "summary": "None", "logo": "None", "latitude": 46.3837645150739, "longitude": -82.65896193906408}, "854399011RR0001": {"name": "Conservation des Vallons de la Serpentine", "designationCode": "C", "categoryCode": "52", "address": "465 CHEMIN BELLEVUE", "city": "BOLTON-EST", "province": "QC", "country": "CA", "postalCode": "J0E1G0", "twitter": "None", "instagram": "None", "facebook": "None", "youtube": "None", "website": "None", "summary": "None", "logo": "None", "latitude": 45.2545804422678, "longitude": -72.30574454428489}, "140871559RR0001": {"name": "Conservation Baie Missisquoi inc.", "designationCode": "C", "categoryCode": "52", "address": "260 AVENUE CHAMPLAIN          CASE POSTALE 337", "city": "PHILIPSBURG", "province": "QC", "country": "CA", "postalCode": "J0J1N0", "twitter": "None", "instagram": "None", "facebook": "None", "youtube": "None", "website": "None", "summary": "None", "logo": "None", "latitude": 45.04270354371286, "longitude": -73.07576632662047}, "892173451RR0001": {"name": "Conservation Education Wildlife Museum", "designationCode": "C", "categoryCode": "50", "address": "911 SYLVESTER CRES. SW", "city": "CALGARY", "province": "AB", "country": "CA", "postalCode": "T2W0R8", "twitter": "None", "instagram": "None", "facebook": "None", "youtube": "None", "website": "None", "summary": "None", "logo": "None", "latitude": 50.95892758728148, "longitude": -114.08368523036528}, "777867292RR0001": {"name": "Conservation Lakefield", "designationCode": "C", "categoryCode": "59", "address": "40 - 1120 AV BERNARD", "city": "OUTREMONT", "province": "QC", "country": "CA", "postalCode": "H2V1V3", "twitter": "None", "instagram": "None", "facebook": "None", "youtube": "None", "website": "None", "summary": "None", "logo": "None", "latitude": 45.52145430140238, "longitude": -73.60747830457635}, "831460936RR0001": {"name": "Conservation Manitou", "designationCode": "C", "categoryCode": "52", "address": "4342 WESTMOUNT AVENUE", "city": "WESTMOUNT", "province": "QC", "country": "CA", "postalCode": "H3Y1W3", "twitter": "None", "instagram": "None", "facebook": "None", "youtube": "None", "website": "None", "summary": "None", "logo": "None", "latitude": 45.488142577009704, "longitude": -73.60293622742242}, "878972207RR0001": {"name": "Conservatoire de musique de la Mont\u00e9r\u00e9gie", "designationCode": "C", "categoryCode": "22", "address": "600 AVENUE OAK", "city": "ST-LAMBERT", "province": "QC", "country": "CA", "postalCode": "J4P2R6", "twitter": "None", "instagram": "None", "facebook": "None", "youtube": "None", "website": "None", "summary": "None", "logo": "None", "latitude": 45.503503550146824, "longitude": -73.50562034952996}, "881875587RR0001": {"name": "Consortium du R22eR", "designationCode": "C", "categoryCode": "59", "address": "1 C\u00d4TE DE LA CITADELLE        C.P. 6020, SUCC. HAUTE-VILLE", "city": "QU\u00c9BEC", "province": "QC", "country": "CA", "postalCode": "G1R3R2", "twitter": "None", "instagram": "None", "facebook": "None", "youtube": "None", "website": "None", "summary": "None", "logo": "None", "latitude": 46.80950000000007, "longitude": -71.21099999999996}, "850271214RR0001": {"name": "Consortium Evolution", "designationCode": "C", "categoryCode": "52", "address": "1.124-2275 BL.ST-JOSEPH E.", "city": "MONTREAL", "province": "QC", "country": "CA", "postalCode": "H2H1G4", "twitter": "None", "instagram": "None", "facebook": "None", "youtube": "None", "website": "None", "summary": "None", "logo": "None", "latitude": 45.53952300000002, "longitude": -73.57541175}, "757535521RR0001": {"name": "Constable Gerald Breese Centre for Traumatic Life Losses", "designationCode": "C", "categoryCode": "11", "address": "2031 GOURMAN PL", "city": "VICTORIA", "province": "BC", "country": "CA", "postalCode": "V9B6A9", "twitter": "None", "instagram": "None", "facebook": "None", "youtube": "None", "website": "None", "summary": "None", "logo": "None", "latitude": 48.46971978377299, "longitude": -123.4852965478678}, "868244476RR0001": {"name": "Constance Creek Wildlife Refuge", "designationCode": "C", "categoryCode": "54", "address": "3225 WILTON RD", "city": "HARROWSMITH", "province": "ON", "country": "CA", "postalCode": "K0H1V0", "twitter": "None", "instagram": "None", "facebook": "None", "youtube": "None", "website": "None", "summary": "None", "logo": "None", "latitude": 44.40357993884392, "longitude": -76.66589001634834}, "829781681RR0001": {"name": "Constance Livingstone-Friedman and Sydney Friedman Foundation", "designationCode": "A", "categoryCode": "03", "address": "101-325 HOWE STREET", "city": "VANCOUVER", "province": "BC", "country": "CA", "postalCode": "V6C1E1", "twitter": "None", "instagram": "None", "facebook": "None", "youtube": "None", "website": "None", "summary": "None", "logo": "None", "latitude": 49.28641531002936, "longitude": -123.11419699460431}, "830266300RR0001": {"name": "Construction Foundation of BC (2012) Society", "designationCode": "C", "categoryCode": "21", "address": "215 - 963 LANGFORD PKY", "city": "VICTORIA", "province": "BC", "country": "CA", "postalCode": "V9B0A5", "twitter": "None", "instagram": "None", "facebook": "None", "youtube": "None", "website": "None", "summary": "None", "logo": "None", "latitude": 48.44278288727303, "longitude": -123.51355566335594}, "863647061RR0001": {"name": "Consumer Education and Research Foundation CERF", "designationCode": "C", "categoryCode": "59", "address": "1025 MONTEREY AVE", "city": "VICTORIA", "province": "BC", "country": "CA", "postalCode": "V8S4V4", "twitter": "None", "instagram": "None", "facebook": "None", "youtube": "None", "website": "None", "summary": "None", "logo": "None", "latitude": 48.42068729393465, "longitude": -123.31401420606537}, "857155766RR0001": {"name": "Consumers' Health Awareness Network Newfoundland and Labrador Incorporated", "designationCode": "C", "categoryCode": "11", "address": "284 LEMARCHANT RD", "city": "ST. JOHN'S", "province": "NL", "country": "CA", "postalCode": "A1E1R2", "twitter": "None", "instagram": "None", "facebook": "None", "youtube": "None", "website": "None", "summary": "None", "logo": "None", "latitude": 47.552475016936896, "longitude": -52.72487979421766}, "834324204RR0001": {"name": "Contact Photography Festival", "designationCode": "C", "categoryCode": "22", "address": "80 SPADINA AVENUE             UNIT 310", "city": "TORONTO", "province": "ON", "country": "CA", "postalCode": "M5V2J4", "twitter": "None", "instagram": "None", "facebook": "None", "youtube": "None", "website": "None", "summary": "None", "logo": "None", "latitude": 43.64608498972823, "longitude": -79.39543750265439}, "107857765RR0001": {"name": "Contact-Ain\u00e9s", "designationCode": "C", "categoryCode": "49", "address": "CP 933 SUCC HAUTE-VILLE", "city": "QUEBEC", "province": "QC", "country": "CA", "postalCode": "G1R4T4", "twitter": "None", "instagram": "None", "facebook": "None", "youtube": "None", "website": "None", "summary": "None", "logo": "None", "latitude": 46.81977000000006, "longitude": -71.23039999999997}, "835953738RR0001": {"name": "Contemplative Fire Canada / Feu Contemplatif Canada", "designationCode": "C", "categoryCode": "47", "address": "19 DON RIDGE DRIVE", "city": "TORONTO", "province": "ON", "country": "CA", "postalCode": "M2P1H3", "twitter": "None", "instagram": "None", "facebook": "None", "youtube": "None", "website": "None", "summary": "None", "logo": "None", "latitude": 43.74840381057856, "longitude": -79.40450641292006}, "118823418RR0001": {"name": "Contemporary Calgary Arts Society", "designationCode": "C", "categoryCode": "22", "address": "117 8 AVE SW", "city": "CALGARY", "province": "AB", "country": "CA", "postalCode": "T2P1B4", "twitter": "None", "instagram": "None", "facebook": "None", "youtube": "None", "website": "None", "summary": "None", "logo": "None", "latitude": 51.045429779127744, "longitude": -114.06347156938855}, "832761399RR0001": {"name": "Continuing Church of God", "designationCode": "C", "categoryCode": "39", "address": "1893 ROUTE 3", "city": "HARVEY STATION", "province": "NB", "country": "CA", "postalCode": "E6K2P5", "twitter": "None", "instagram": "None", "facebook": "None", "youtube": "None", "website": "None", "summary": "None", "logo": "None", "latitude": 45.731019515477186, "longitude": -66.9993633270416}, "819106089RR0001": {"name": "Convergence - Service d'aide aux hommes de la Gasp\u00e9sie", "designationCode": "C", "categoryCode": "09", "address": "28 1ER RUE OUEST", "city": "ST-ANNE-DES-MONTS", "province": "QC", "country": "CA", "postalCode": "G4V2G5", "twitter": "None", "instagram": "None", "facebook": "None", "youtube": "None", "website": "None", "summary": "None", "logo": "None", "latitude": 49.129366850683816, "longitude": -66.48799393254093}}