{"895352466RR0001": {"name": "HALTE-REPIT HOCHELAGA-MAISONNEUVE", "designationCode": "C", "categoryCode": "20", "address": "2597 RUE CHAMBLY", "city": "MONTR\u00c9AL", "province": "QC", "country": "CA", "postalCode": "H1W3J8", "twitter": "None", "instagram": "None", "facebook": "None", "youtube": "None", "website": "None", "summary": "None", "logo": "None", "latitude": 45.54831088484603, "longitude": -73.55308599665312}, "889123444RR0001": {"name": "HALTON ALCOHOL AND DRUG ASSESSMENT PREVENTION AND TREATMENT", "designationCode": "C", "categoryCode": "57", "address": "304 - 165 CROSS AVE", "city": "OAKVILLE", "province": "ON", "country": "CA", "postalCode": "L6J0A9", "twitter": "None", "instagram": "None", "facebook": "None", "youtube": "None", "website": "None", "summary": "None", "logo": "None", "latitude": 43.454611081971784, "longitude": -79.68579398617979}, "119232817RR0001": {"name": "HALTON APHASIA CENTRE", "designationCode": "C", "categoryCode": "09", "address": "UNIT 103                      1405 NORTH SERVICE ROAD EST", "city": "OAKVILLE", "province": "ON", "country": "CA", "postalCode": "L6H1A7", "twitter": "None", "instagram": "None", "facebook": "None", "youtube": "None", "website": "None", "summary": "None", "logo": "None", "latitude": 43.48415520843673, "longitude": -79.67339920529139}, "868957622RR0001": {"name": "HALTON CATHOLIC CHILDREN'S EDUCATION FOUNDATION", "designationCode": "C", "categoryCode": "21", "address": "802 DRURY LANE                PO BOX 5308", "city": "BURLINGTON", "province": "ON", "country": "CA", "postalCode": "L7R4L3", "twitter": "None", "instagram": "None", "facebook": "None", "youtube": "None", "website": "None", "summary": "None", "logo": "None", "latitude": 43.34187176850956, "longitude": -79.80267842342299}, "108083775RR0001": {"name": "HALTON CATHOLIC DISTRICT SCHOOL BOARD", "designationCode": "C", "categoryCode": "21", "address": "802 DRURY LANE                P O BOX 5308", "city": "BURLINGTON", "province": "ON", "country": "CA", "postalCode": "L7R4L3", "twitter": "None", "instagram": "None", "facebook": "None", "youtube": "None", "website": "None", "summary": "None", "logo": "None", "latitude": 43.34187176850956, "longitude": -79.80267842342299}, "890015068RR0001": {"name": "HALTON COLUMBUS CHARITIES", "designationCode": "C", "categoryCode": "09", "address": "2400 INDUSTRIAL", "city": "BURLINGTON", "province": "ON", "country": "CA", "postalCode": "L7P1A5", "twitter": "None", "instagram": "None", "facebook": "None", "youtube": "None", "website": "None", "summary": "None", "logo": "None", "latitude": 43.35153944489018, "longitude": -79.81056096125015}, "107462301RR0001": {"name": "HALTON DISTRICT SCHOOL BOARD", "designationCode": "C", "categoryCode": "29", "address": "P.O. BOX 5005                 STN LCD 1", "city": "BURLINGTON", "province": "ON", "country": "CA", "postalCode": "L7R3Z2", "twitter": "None", "instagram": "None", "facebook": "None", "youtube": "None", "website": "None", "summary": "None", "logo": "None", "latitude": 43.326195000000055, "longitude": -79.79863399999994}, "118951243RR0001": {"name": "HALTON DOWN SYNDROME ASSOCIATION", "designationCode": "C", "categoryCode": "11", "address": "201 - 330 BRONTE ST S", "city": "MILTON", "province": "ON", "country": "CA", "postalCode": "L9T7X1", "twitter": "None", "instagram": "None", "facebook": "None", "youtube": "None", "website": "None", "summary": "None", "logo": "None", "latitude": 43.49262459184623, "longitude": -79.8666981603627}, "884061110RR0001": {"name": "HALTON HEALTHCARE LTC INC.", "designationCode": "C", "categoryCode": "10", "address": "291 REYNOLDS STREET", "city": "OAKVILLE", "province": "ON", "country": "CA", "postalCode": "L6J3L5", "twitter": "None", "instagram": "None", "facebook": "None", "youtube": "None", "website": "None", "summary": "None", "logo": "None", "latitude": 43.452277353886466, "longitude": -79.67285895876864}, "103966628RR0002": {"name": "HALTON HEALTHCARE SERVICES CORPORATION", "designationCode": "C", "categoryCode": "10", "address": "3001 HOSPITAL GATE", "city": "OAKVILLE", "province": "ON", "country": "CA", "postalCode": "L6M0L8", "twitter": "None", "instagram": "None", "facebook": "None", "youtube": "None", "website": "None", "summary": "None", "logo": "None", "latitude": 43.447489375269086, "longitude": -79.76403185193158}, "127773554RR0001": {"name": "HALTON INDUSTRY EDUCATION COUNCIL", "designationCode": "C", "categoryCode": "21", "address": "5230 SOUTH SERVICE ROAD", "city": "BURLINGTON", "province": "ON", "country": "CA", "postalCode": "L7L5K2", "twitter": "None", "instagram": "None", "facebook": "None", "youtube": "None", "website": "None", "summary": "None", "logo": "None", "latitude": 43.38708277237603, "longitude": -79.76470116576307}, "118951292RR0001": {"name": "HALTON ISLAMIC ASSOCIATION", "designationCode": "C", "categoryCode": "60", "address": "PO BOX 93142 RPO HEADON", "city": "BURLINGTON", "province": "ON", "country": "CA", "postalCode": "L7M4A3", "twitter": "None", "instagram": "None", "facebook": "None", "youtube": "None", "website": "None", "summary": "None", "logo": "None", "latitude": 43.37764783955658, "longitude": -79.81492906902258}, "889975223RR0001": {"name": "HALTON LEARNING FOUNDATION", "designationCode": "A", "categoryCode": "23", "address": "PO BOX 5005 STN LCDI", "city": "BURLINGTON", "province": "ON", "country": "CA", "postalCode": "L7R3Z2", "twitter": "None", "instagram": "None", "facebook": "None", "youtube": "None", "website": "None", "summary": "None", "logo": "None", "latitude": 43.326195000000055, "longitude": -79.79863399999994}, "120014220RR0001": {"name": "HALTON MULTICULTURAL COUNCIL INC", "designationCode": "C", "categoryCode": "22", "address": "1092 SPEERS ROAD", "city": "OAKVILLE", "province": "ON", "country": "CA", "postalCode": "L6L2X4", "twitter": "None", "instagram": "None", "facebook": "None", "youtube": "None", "website": "None", "summary": "None", "logo": "None", "latitude": 43.43093109518733, "longitude": -79.70486260294896}, "867040271RR0001": {"name": "HALTON MUSEUM FOUNDATION", "designationCode": "A", "categoryCode": "03", "address": "5181 KELSO ROAD, RR #3", "city": "MILTON", "province": "ON", "country": "CA", "postalCode": "L9T2X7", "twitter": "None", "instagram": "None", "facebook": "None", "youtube": "None", "website": "None", "summary": "None", "logo": "None", "latitude": 43.50740516368493, "longitude": -79.94362786343126}, "891708166RR0001": {"name": "HALTON PEEL BUDDHIST CULTURAL SOCIETY", "designationCode": "C", "categoryCode": "35", "address": "3133 CAWTHRA ROAD", "city": "MISSISSAUGA", "province": "ON", "country": "CA", "postalCode": "L5A2X4", "twitter": "None", "instagram": "None", "facebook": "None", "youtube": "None", "website": "None", "summary": "None", "logo": "None", "latitude": 43.59737417767871, "longitude": -79.60378552435272}, "118951300RR0001": {"name": "HALTON PRESBYTERY", "designationCode": "C", "categoryCode": "44", "address": "2296 LOGWOOD COURT", "city": "MISSISSAUGA", "province": "ON", "country": "CA", "postalCode": "L5C3C5", "twitter": "None", "instagram": "None", "facebook": "None", "youtube": "None", "website": "None", "summary": "None", "logo": "None", "latitude": 43.5602939106124, "longitude": -79.62805409919804}, "118951318RR0001": {"name": "HALTON PRO-LIFE", "designationCode": "C", "categoryCode": "09", "address": "PO BOX 85061  RPO BRANT PL", "city": "BURLINGTON", "province": "ON", "country": "CA", "postalCode": "L7R4K3", "twitter": "None", "instagram": "None", "facebook": "None", "youtube": "None", "website": "None", "summary": "None", "logo": "None", "latitude": 43.33391234479427, "longitude": -79.80987351719138}, "119064509RR0001": {"name": "HALTON SIKH CULTURAL ASSOCIATION", "designationCode": "C", "categoryCode": "62", "address": "2403 KHALSA GATE", "city": "OAKVILLE", "province": "ON", "country": "CA", "postalCode": "L6M4J2", "twitter": "None", "instagram": "None", "facebook": "None", "youtube": "None", "website": "None", "summary": "None", "logo": "None", "latitude": 43.43274431530948, "longitude": -79.77240576975029}, "107462558RR0001": {"name": "HALTON WOMEN'S PLACE", "designationCode": "C", "categoryCode": "09", "address": "20060-2211 BRANT ST", "city": "BURLINGTON", "province": "ON", "country": "CA", "postalCode": "L7P0A4", "twitter": "None", "instagram": "None", "facebook": "None", "youtube": "None", "website": "None", "summary": "None", "logo": "None", "latitude": 43.357652526804635, "longitude": -79.84460481262643}, "889170775RR0001": {"name": "HALTON 4-H ASSOCIATION", "designationCode": "C", "categoryCode": "29", "address": "747 ROSEHEATH DRIVE", "city": "MILTON", "province": "ON", "country": "CA", "postalCode": "L9T4M4", "twitter": "None", "instagram": "None", "facebook": "None", "youtube": "None", "website": "None", "summary": "None", "logo": "None", "latitude": 43.50024605661036, "longitude": -79.87009255733152}, "118951367RR0001": {"name": "HAMAR LUTHERAN CHURCH", "designationCode": "C", "categoryCode": "32", "address": "P.O. BOX 117", "city": "BROMHEAD", "province": "SK", "country": "CA", "postalCode": "S0C0N0", "twitter": "None", "instagram": "None", "facebook": "None", "youtube": "None", "website": "None", "summary": "None", "logo": "None", "latitude": 49.182390000000055, "longitude": -103.67930999999999}, "879456879RR0001": {"name": "HAMDANI ISLAMIC FOUNDATION", "designationCode": "B", "categoryCode": "43", "address": "55 CATHERINE STREET", "city": "ST CATHARINES", "province": "ON", "country": "CA", "postalCode": "L2R5E9", "twitter": "None", "instagram": "None", "facebook": "None", "youtube": "None", "website": "None", "summary": "None", "logo": "None", "latitude": 43.16775318872988, "longitude": -79.24570860430434}, "107462921RR0001": {"name": "HAMILTON & DISTRICT COUNCIL OF CO-OPERATIVE PRESCHOOLS CORP.", "designationCode": "C", "categoryCode": "21", "address": "A - 526 UPPER PARADISE RD", "city": "HAMILTON", "province": "ON", "country": "CA", "postalCode": "L9C5E3", "twitter": "None", "instagram": "None", "facebook": "None", "youtube": "None", "website": "None", "summary": "None", "logo": "None", "latitude": 43.23152037610346, "longitude": -79.91254429291867}, "118951557RR0001": {"name": "HAMILTON & DISTRICT EXTEND-A-FAMILY", "designationCode": "C", "categoryCode": "09", "address": "111 - 293 WELLINGTON ST N", "city": "HAMILTON", "province": "ON", "country": "CA", "postalCode": "L8L8E7", "twitter": "None", "instagram": "None", "facebook": "None", "youtube": "None", "website": "None", "summary": "None", "logo": "None", "latitude": 43.26224850000001, "longitude": -79.85563875}, "893003160RR0001": {"name": "HAMILTON ALL STAR JAZZ BAND INC.", "designationCode": "C", "categoryCode": "22", "address": "334 WILSON ST E", "city": "ANCASTER", "province": "ON", "country": "CA", "postalCode": "L9G2C2", "twitter": "None", "instagram": "None", "facebook": "None", "youtube": "None", "website": "None", "summary": "None", "logo": "None", "latitude": 43.22645105355196, "longitude": -79.97650229747856}, "891646267RR0001": {"name": "HAMILTON AMATEUR ASTRONOMERS", "designationCode": "C", "categoryCode": "21", "address": "PO BOX 65578", "city": "DUNDAS", "province": "ON", "country": "CA", "postalCode": "L9H6Y6", "twitter": "None", "instagram": "None", "facebook": "None", "youtube": "None", "website": "None", "summary": "None", "logo": "None", "latitude": 43.26394200000006, "longitude": -79.95243049999993}, "118951417RR0001": {"name": "HAMILTON AND DISTRICT OSTOMY ASSOCIATION", "designationCode": "C", "categoryCode": "11", "address": "2-558 UPPER GAGE AVENUE       SUITE 116", "city": "HAMILTON", "province": "ON", "country": "CA", "postalCode": "L8V4J6", "twitter": "None", "instagram": "None", "facebook": "None", "youtube": "None", "website": "None", "summary": "None", "logo": "None", "latitude": 43.22865474894516, "longitude": -79.83875380227951}, "118951433RR0001": {"name": "HAMILTON AREA MEETING ROOMS ASSOCIATION", "designationCode": "C", "categoryCode": "49", "address": "192 EWEN ROAD", "city": "HAMILTON", "province": "ON", "country": "CA", "postalCode": "L8S3C9", "twitter": "None", "instagram": "None", "facebook": "None", "youtube": "None", "website": "None", "summary": "None", "logo": "None", "latitude": 43.249133892030734, "longitude": -79.9296685123779}, "118951466RR0001": {"name": "HAMILTON ARTISTS' INC.", "designationCode": "C", "categoryCode": "22", "address": "PO BOX 57125 JACKSON STATION  2 KING ST. W.", "city": "HAMILTON", "province": "ON", "country": "CA", "postalCode": "L8P4W9", "twitter": "None", "instagram": "None", "facebook": "None", "youtube": "None", "website": "None", "summary": "None", "logo": "None", "latitude": 43.25684205969744, "longitude": -79.86950704633858}, "118951474RR0001": {"name": "HAMILTON ASSOCIATION FOR CHRISTIAN EDUCATION INC.", "designationCode": "C", "categoryCode": "20", "address": "92 GLANCASTER ROAD, R.R. #1", "city": "ANCASTER", "province": "ON", "country": "CA", "postalCode": "L9G3K9", "twitter": "None", "instagram": "None", "facebook": "None", "youtube": "None", "website": "None", "summary": "None", "logo": "None", "latitude": 43.20737026562401, "longitude": -79.9287845663912}, "890290992RR0001": {"name": "HAMILTON BALLET YOUTH ENSEMBLE", "designationCode": "C", "categoryCode": "22", "address": "145 MAIN STREET EAST", "city": "HAMILTON", "province": "ON", "country": "CA", "postalCode": "L8N1G4", "twitter": "None", "instagram": "None", "facebook": "None", "youtube": "None", "website": "None", "summary": "None", "logo": "None", "latitude": 43.25398194644804, "longitude": -79.86386422938432}, "137692372RR0001": {"name": "HAMILTON BEACH RESCUE UNIT INC", "designationCode": "C", "categoryCode": "59", "address": "316 BEACH BLVD", "city": "HAMILTON", "province": "ON", "country": "CA", "postalCode": "L8H6W2", "twitter": "None", "instagram": "None", "facebook": "None", "youtube": "None", "website": "None", "summary": "None", "logo": "None", "latitude": 43.272143770182986, "longitude": -79.77844658370346}, "141049759RR0001": {"name": "HAMILTON BRAIN INJURY ASSOCIATION", "designationCode": "C", "categoryCode": "09", "address": "822 MAIN ST E", "city": "HAMILTON", "province": "ON", "country": "CA", "postalCode": "L8M1L6", "twitter": "None", "instagram": "None", "facebook": "None", "youtube": "None", "website": "None", "summary": "None", "logo": "None", "latitude": 43.24688497305113, "longitude": -79.83689861408611}, "118951490RR0001": {"name": "HAMILTON BUDDHIST TEMPLE", "designationCode": "C", "categoryCode": "35", "address": "45 HEMPSTEAD DR.", "city": "HAMILTON", "province": "ON", "country": "CA", "postalCode": "L8W2Y6", "twitter": "None", "instagram": "None", "facebook": "None", "youtube": "None", "website": "None", "summary": "None", "logo": "None", "latitude": 43.19520948433253, "longitude": -79.83944384436447}, "887612968RR0001": {"name": "HAMILTON CHALLENGER BASEBALL ASSOCIATION", "designationCode": "C", "categoryCode": "56", "address": "2-558 UPPER GAGE AVENUE       SUITE 245", "city": "HAMILTON", "province": "ON", "country": "CA", "postalCode": "L8V4J6", "twitter": "None", "instagram": "None", "facebook": "None", "youtube": "None", "website": "None", "summary": "None", "logo": "None", "latitude": 43.22865474894516, "longitude": -79.83875380227951}, "129979050RR0001": {"name": "HAMILTON CHILDREN'S CHOIR", "designationCode": "C", "categoryCode": "22", "address": "252 JAMES ST N.", "city": "HAMILTON", "province": "ON", "country": "CA", "postalCode": "L8R2L3", "twitter": "None", "instagram": "None", "facebook": "None", "youtube": "None", "website": "None", "summary": "None", "logo": "None", "latitude": 43.26303055231121, "longitude": -79.866250127359}, "107462780RR0001": {"name": "HAMILTON CHINESE ALLIANCE CHURCH", "designationCode": "C", "categoryCode": "39", "address": "50 BREADALBANE ST", "city": "HAMILTON", "province": "ON", "country": "CA", "postalCode": "L8R3G1", "twitter": "None", "instagram": "None", "facebook": "None", "youtube": "None", "website": "None", "summary": "None", "logo": "None", "latitude": 43.2639554357436, "longitude": -79.888929649576}, "118951516RR0001": {"name": "HAMILTON CHRISTADELPHIAN ECCLESIA", "designationCode": "C", "categoryCode": "39", "address": "3116 BENTWORTH DR", "city": "BURLINGTON", "province": "ON", "country": "CA", "postalCode": "L7M1M2", "twitter": "None", "instagram": "None", "facebook": "None", "youtube": "None", "website": "None", "summary": "None", "logo": "None", "latitude": 43.364358701915876, "longitude": -79.81725523700172}, "860661370RR0001": {"name": "HAMILTON CHRISTIAN FELLOWSHIP", "designationCode": "C", "categoryCode": "39", "address": "135 STRATHCONA  AVE. N.", "city": "HAMILTON", "province": "ON", "country": "CA", "postalCode": "L8R3C2", "twitter": "None", "instagram": "None", "facebook": "None", "youtube": "None", "website": "None", "summary": "None", "logo": "None", "latitude": 43.26546117525921, "longitude": -79.88367282882155}, "106923253RR0001": {"name": "HAMILTON CHURCH OF CHRIST", "designationCode": "C", "categoryCode": "39", "address": "33 HIGHCLIFFE AVE.", "city": "HAMILTON", "province": "ON", "country": "CA", "postalCode": "L9A3L3", "twitter": "None", "instagram": "None", "facebook": "None", "youtube": "None", "website": "None", "summary": "None", "logo": "None", "latitude": 43.24359386343709, "longitude": -79.8668880753076}, "106923972RR0001": {"name": "HAMILTON CHURCH OF GOD", "designationCode": "C", "categoryCode": "39", "address": "1955 UPPER JAMES ST", "city": "HAMILTON", "province": "ON", "country": "CA", "postalCode": "L9B1K8", "twitter": "None", "instagram": "None", "facebook": "None", "youtube": "None", "website": "None", "summary": "None", "logo": "None", "latitude": 43.19153706743041, "longitude": -79.89827733016983}, "139301451RR0001": {"name": "HAMILTON COMMUNITY ASSOCIATION", "designationCode": "C", "categoryCode": "56", "address": "5140 SMITH DRIVE", "city": "RICHMOND", "province": "BC", "country": "CA", "postalCode": "V6V2W5", "twitter": "None", "instagram": "None", "facebook": "None", "youtube": "None", "website": "None", "summary": "None", "logo": "None", "latitude": 49.176405166995785, "longitude": -122.96586198021247}, "130527427RR0001": {"name": "HAMILTON COMMUNITY FOUNDATION", "designationCode": "A", "categoryCode": "03", "address": "700-120 KING ST W", "city": "HAMILTON", "province": "ON", "country": "CA", "postalCode": "L8P4V2", "twitter": "None", "instagram": "None", "facebook": "None", "youtube": "None", "website": "None", "summary": "None", "logo": "None", "latitude": 43.25771590706303, "longitude": -79.8726349718677}, "890794548RR0001": {"name": "HAMILTON COMMUNITY JUSTICE FUND", "designationCode": "A", "categoryCode": "03", "address": "652 BARTON ST E", "city": "HAMILTON", "province": "ON", "country": "CA", "postalCode": "L8L3A2", "twitter": "None", "instagram": "None", "facebook": "None", "youtube": "None", "website": "None", "summary": "None", "logo": "None", "latitude": 43.256722035230084, "longitude": -79.83719084722135}, "107865412RR0001": {"name": "HAMILTON COMMUNITY SUPPORT ASSOCIATION", "designationCode": "C", "categoryCode": "11", "address": "103 - 987 KING ST E", "city": "HAMILTON", "province": "ON", "country": "CA", "postalCode": "L8M1C6", "twitter": "None", "instagram": "None", "facebook": "None", "youtube": "None", "website": "None", "summary": "None", "logo": "None", "latitude": 43.25104493923469, "longitude": -79.83464628475394}, "888185261RR0001": {"name": "HAMILTON CONCERT BAND", "designationCode": "C", "categoryCode": "22", "address": "5 CLIFTON DOWNS RD.", "city": "HAMILTON", "province": "ON", "country": "CA", "postalCode": "L9C2P1", "twitter": "None", "instagram": "None", "facebook": "None", "youtube": "None", "website": "None", "summary": "None", "logo": "None", "latitude": 43.22986902080336, "longitude": -79.90406932889948}, "118951540RR0001": {"name": "HAMILTON CONFERENCE THE UNITED CHURCH OF CANADA", "designationCode": "C", "categoryCode": "44", "address": "P O BOX 100", "city": "CARLISLE", "province": "ON", "country": "CA", "postalCode": "L0R1H0", "twitter": "None", "instagram": "None", "facebook": "None", "youtube": "None", "website": "None", "summary": "None", "logo": "None", "latitude": 43.394869979118596, "longitude": -79.97965946808691}, "859975617RR0001": {"name": "HAMILTON CONSERVATION FOUNDATION", "designationCode": "A", "categoryCode": "53", "address": "P.O. BOX 81067", "city": "ANCASTER", "province": "ON", "country": "CA", "postalCode": "L9G4X1", "twitter": "None", "instagram": "None", "facebook": "None", "youtube": "None", "website": "None", "summary": "None", "logo": "None", "latitude": 43.22590800000006, "longitude": -79.97685199999994}, "868047135RR0001": {"name": "HAMILTON DELIVERANCE CHURCH OF JESUS CHRIST APOSTOLIC", "designationCode": "C", "categoryCode": "39", "address": "155 MOUNT ALBION ROAD", "city": "HAMILTON", "province": "ON", "country": "CA", "postalCode": "L8K5S7", "twitter": "None", "instagram": "None", "facebook": "None", "youtube": "None", "website": "None", "summary": "None", "logo": "None", "latitude": 43.21973835192456, "longitude": -79.79319876614362}, "107462905RR0001": {"name": "HAMILTON DISTRICT CHRISTIAN SENIOR CITIZENS HOME INCORPORATED", "designationCode": "C", "categoryCode": "59", "address": "109-3260 NEW ST", "city": "BURLINGTON", "province": "ON", "country": "CA", "postalCode": "L7N3L4", "twitter": "None", "instagram": "None", "facebook": "None", "youtube": "None", "website": "None", "summary": "None", "logo": "None", "latitude": 43.34533116400272, "longitude": -79.77762142362548}, "118951607RR0001": {"name": "HAMILTON EAST KIWANIS BOYS' & GIRLS' CLUB", "designationCode": "C", "categoryCode": "56", "address": "45 ELLIS AVENUE", "city": "HAMILTON", "province": "ON", "country": "CA", "postalCode": "L8H4L8", "twitter": "None", "instagram": "None", "facebook": "None", "youtube": "None", "website": "None", "summary": "None", "logo": "None", "latitude": 43.24890278296495, "longitude": -79.81026613561063}, "125901439RR0001": {"name": "HAMILTON EAST KIWANIS NON-PROFIT HOMES INC.", "designationCode": "C", "categoryCode": "09", "address": "281 QUEENSTON RD", "city": "HAMILTON", "province": "ON", "country": "CA", "postalCode": "L8K1G9", "twitter": "None", "instagram": "None", "facebook": "None", "youtube": "None", "website": "None", "summary": "None", "logo": "None", "latitude": 43.234290899272736, "longitude": -79.79207551497498}, "107797383RR0018": {"name": "HAMILTON EAST SEVENTH-DAY ADVENTIST CHURCH", "designationCode": "C", "categoryCode": "41", "address": "203 BELL AVENUE", "city": "HAMILTON", "province": "ON", "country": "CA", "postalCode": "L8K3E5", "twitter": "None", "instagram": "None", "facebook": "None", "youtube": "None", "website": "None", "summary": "None", "logo": "None", "latitude": 43.23248438467313, "longitude": -79.80357871117803}, "853476687RR0001": {"name": "HAMILTON FESTIVAL THEATRE COMPANY", "designationCode": "C", "categoryCode": "22", "address": "108 - 95 KING STREET EAST", "city": "HAMILTON", "province": "ON", "country": "CA", "postalCode": "L8N1A9", "twitter": "None", "instagram": "None", "facebook": "None", "youtube": "None", "website": "None", "summary": "None", "logo": "None", "latitude": 43.25573070220432, "longitude": -79.86611255300367}, "118918051RR0001": {"name": "HAMILTON FIRST CHURCH OF THE NAZARENE", "designationCode": "C", "categoryCode": "39", "address": "92 OTTAWA ST N", "city": "HAMILTON", "province": "ON", "country": "CA", "postalCode": "L8H3Z1", "twitter": "None", "instagram": "None", "facebook": "None", "youtube": "None", "website": "None", "summary": "None", "logo": "None", "latitude": 43.245271771019716, "longitude": -79.81860941254563}, "879910107RR0001": {"name": "HAMILTON FOOD FOR THOUGHT", "designationCode": "A", "categoryCode": "23", "address": "785 CONCESSION STREET", "city": "HAMILTON", "province": "ON", "country": "CA", "postalCode": "L8V1C4", "twitter": "None", "instagram": "None", "facebook": "None", "youtube": "None", "website": "None", "summary": "None", "logo": "None", "latitude": 43.23855107412417, "longitude": -79.84231570967748}, "888786647RR0001": {"name": "HAMILTON GAULT MEMORIAL FUND", "designationCode": "C", "categoryCode": "51", "address": "4520 CROWCHILD TRAIL SW", "city": "CALGARY", "province": "AB", "country": "CA", "postalCode": "T2T5J4", "twitter": "None", "instagram": "None", "facebook": "None", "youtube": "None", "website": "None", "summary": "None", "logo": "None", "latitude": 51.014627821546306, "longitude": -114.11605994395097}, "891601445RR0001": {"name": "HAMILTON GRACE MANDARIN ALLIANCE CHURCH", "designationCode": "C", "categoryCode": "39", "address": "31 SUMMIT AVE", "city": "HAMILTON", "province": "ON", "country": "CA", "postalCode": "L8V2R7", "twitter": "None", "instagram": "None", "facebook": "None", "youtube": "None", "website": "None", "summary": "None", "logo": "None", "latitude": 43.24161032194592, "longitude": -79.85225052244814}, "138935267RR0001": {"name": "HAMILTON HABITAT FOR HUMANITY", "designationCode": "C", "categoryCode": "09", "address": "285 NASH ROAD NORTH           UNIT 1", "city": "HAMILTON", "province": "ON", "country": "CA", "postalCode": "L8H7P4", "twitter": "None", "instagram": "None", "facebook": "None", "youtube": "None", "website": "None", "summary": "None", "logo": "None", "latitude": 43.24122417903503, "longitude": -79.76933497051138}, "867435497RR0001": {"name": "HAMILTON HEALTH SCIENCES CORPORATION", "designationCode": "C", "categoryCode": "10", "address": "PO BOX 2000 STN LCD 1", "city": "HAMILTON", "province": "ON", "country": "CA", "postalCode": "L8N3Z5", "twitter": "None", "instagram": "None", "facebook": "None", "youtube": "None", "website": "None", "summary": "None", "logo": "None", "latitude": 43.261962000000054, "longitude": -79.88800399999994}, "131159543RR0001": {"name": "HAMILTON HEALTH SCIENCES FOUNDATION", "designationCode": "A", "categoryCode": "13", "address": "40 WELLINGTON STREET NORTH", "city": "HAMILTON", "province": "ON", "country": "CA", "postalCode": "L8R1M8", "twitter": "None", "instagram": "None", "facebook": "None", "youtube": "None", "website": "None", "summary": "None", "logo": "None", "latitude": 43.254487823475145, "longitude": -79.85880964138168}, "119236685RR0001": {"name": "HAMILTON HEALTH SCIENCES VOLUNTEER ASSOCIATION", "designationCode": "C", "categoryCode": "19", "address": "1200 MAIN STREET WEST         POST OFFICE BOX 2000", "city": "HAMILTON", "province": "ON", "country": "CA", "postalCode": "L8N3Z5", "twitter": "None", "instagram": "None", "facebook": "None", "youtube": "None", "website": "None", "summary": "None", "logo": "None", "latitude": 40.21606341591894, "longitude": -86.02742897302078}, "876454604RR0001": {"name": "HAMILTON INTERNATIONAL BAPTIST CHURCH", "designationCode": "C", "categoryCode": "31", "address": "115 STANLEY AVENUE", "city": "HAMILTON", "province": "ON", "country": "CA", "postalCode": "L8P2L5", "twitter": "None", "instagram": "None", "facebook": "None", "youtube": "None", "website": "None", "summary": "None", "logo": "None", "latitude": 43.251656992261935, "longitude": -79.8879484251216}, "107463119RR0001": {"name": "HAMILTON JAPANESE UNITED CHURCH", "designationCode": "C", "categoryCode": "44", "address": "715 UPPER GAGE AVE", "city": "HAMILTON", "province": "ON", "country": "CA", "postalCode": "L8V4J9", "twitter": "None", "instagram": "None", "facebook": "None", "youtube": "None", "website": "None", "summary": "None", "logo": "None", "latitude": 43.22612979793992, "longitude": -79.83981012305983}, "118951664RR0001": {"name": "HAMILTON JEWISH COMMUNAL PROJECTS", "designationCode": "C", "categoryCode": "56", "address": "853 MAIN ST E", "city": "HAMILTON", "province": "ON", "country": "CA", "postalCode": "L8M1L8", "twitter": "None", "instagram": "None", "facebook": "None", "youtube": "None", "website": "None", "summary": "None", "logo": "None", "latitude": 43.24656099030515, "longitude": -79.83547559449485}, "887725091RR0001": {"name": "HAMILTON JEWISH HOME FOR THE AGED", "designationCode": "C", "categoryCode": "01", "address": "70 MACKLIN ST NORTH", "city": "HAMILTON", "province": "ON", "country": "CA", "postalCode": "L8S3S1", "twitter": "None", "instagram": "None", "facebook": "None", "youtube": "None", "website": "None", "summary": "None", "logo": "None", "latitude": 43.264223340816045, "longitude": -79.89572967063917}, "118951680RR0001": {"name": "HAMILTON JEWISH HOME FOR THE AGED CHARITABLE FOUNDATION", "designationCode": "A", "categoryCode": "03", "address": "70 MACKLIN STREET NORTH", "city": "HAMILTON", "province": "ON", "country": "CA", "postalCode": "L8S3S1", "twitter": "None", "instagram": "None", "facebook": "None", "youtube": "None", "website": "None", "summary": "None", "logo": "None", "latitude": 43.264223340816045, "longitude": -79.89572967063917}, "874512528RR0001": {"name": "HAMILTON KOREAN BETHEL METHODIST CHURCH", "designationCode": "C", "categoryCode": "39", "address": "207 WEST 19TH ST", "city": "HAMILTON", "province": "ON", "country": "CA", "postalCode": "L9C4J1", "twitter": "None", "instagram": "None", "facebook": "None", "youtube": "None", "website": "None", "summary": "None", "logo": "None", "latitude": 43.233554378844744, "longitude": -79.89942150219304}, "118951904RR0001": {"name": "HAMILTON KOREAN PRESBYTERIAN CHURCH", "designationCode": "C", "categoryCode": "37", "address": "2501 EAGLESFIELD DR", "city": "BURLINGTON", "province": "ON", "country": "CA", "postalCode": "L7P3Z7", "twitter": "None", "instagram": "None", "facebook": "None", "youtube": "None", "website": "None", "summary": "None", "logo": "None", "latitude": 43.36870101667708, "longitude": -79.84845354423246}, "877215723RR0001": {"name": "HAMILTON MACNAB CHRISTADELPHIAN ECCLESIA", "designationCode": "C", "categoryCode": "39", "address": "1107 MAIN ST E", "city": "HAMILTON", "province": "ON", "country": "CA", "postalCode": "L8M1N7", "twitter": "None", "instagram": "None", "facebook": "None", "youtube": "None", "website": "None", "summary": "None", "logo": "None", "latitude": 43.24349508133754, "longitude": -79.82353573229851}, "118951706RR0001": {"name": "HAMILTON MASONIC DISTRICTS' BOARD OF RELIEF", "designationCode": "C", "categoryCode": "09", "address": "16 MARGARET AVE", "city": "GRIMSBY", "province": "ON", "country": "CA", "postalCode": "L3M4S1", "twitter": "None", "instagram": "None", "facebook": "None", "youtube": "None", "website": "None", "summary": "None", "logo": "None", "latitude": 43.19796300141365, "longitude": -79.54605693698433}, "118951714RR0001": {"name": "HAMILTON MENNONITE CHURCH", "designationCode": "C", "categoryCode": "34", "address": "143 LOWER HORNING RD", "city": "HAMILTON", "province": "ON", "country": "CA", "postalCode": "L8S3G8", "twitter": "None", "instagram": "None", "facebook": "None", "youtube": "None", "website": "None", "summary": "None", "logo": "None", "latitude": 43.24968293311785, "longitude": -79.93412788158605}, "118951722RR0001": {"name": "HAMILTON MONTHLY MEETING", "designationCode": "C", "categoryCode": "39", "address": "7 BUTTY PLACE", "city": "HAMILTON", "province": "ON", "country": "CA", "postalCode": "L8S2R5", "twitter": "None", "instagram": "None", "facebook": "None", "youtube": "None", "website": "None", "summary": "None", "logo": "None", "latitude": 43.25070932947641, "longitude": -79.93378788022974}, "876819129RR0001": {"name": "HAMILTON MOUNTAIN HERITAGE SOCIETY", "designationCode": "C", "categoryCode": "50", "address": "6 SILVERCREST DR", "city": "HAMILTON", "province": "ON", "country": "CA", "postalCode": "L9C2J4", "twitter": "None", "instagram": "None", "facebook": "None", "youtube": "None", "website": "None", "summary": "None", "logo": "None", "latitude": 43.229234041375584, "longitude": -79.89239323951188}, "890728249RR0001": {"name": "HAMILTON MOUNTAIN ROTARY CLUB CHARITABLE FUND", "designationCode": "A", "categoryCode": "59", "address": "1104 FENNELL AVE E SUITE 222", "city": "HAMILTON", "province": "ON", "country": "CA", "postalCode": "L8T1R9", "twitter": "None", "instagram": "None", "facebook": "None", "youtube": "None", "website": "None", "summary": "None", "logo": "None", "latitude": 43.22577696583778, "longitude": -79.83042906010148}, "861464261RR0001": {"name": "HAMILTON NA SUM PRESBYTERIAN CHURCH", "designationCode": "C", "categoryCode": "37", "address": "61 MOHAWK RD W", "city": "HAMILTON", "province": "ON", "country": "CA", "postalCode": "L9C1V9", "twitter": "None", "instagram": "None", "facebook": "None", "youtube": "None", "website": "None", "summary": "None", "logo": "None", "latitude": 43.229724983005795, "longitude": -79.8853994031679}, "118951748RR0001": {"name": "HAMILTON NATURALISTS' CLUB", "designationCode": "C", "categoryCode": "54", "address": "P.O. BOX 89052", "city": "HAMILTON", "province": "ON", "country": "CA", "postalCode": "L8S4R5", "twitter": "None", "instagram": "None", "facebook": "None", "youtube": "None", "website": "None", "summary": "None", "logo": "None", "latitude": 43.261962000000054, "longitude": -79.88800399999994}, "864263488RR0001": {"name": "HAMILTON OUT OF THE COLD PROGRAM COALITION", "designationCode": "C", "categoryCode": "09", "address": "209 MACNAB ST NORTH UNIT 105", "city": "HAMILTON", "province": "ON", "country": "CA", "postalCode": "L8R2M5", "twitter": "None", "instagram": "None", "facebook": "None", "youtube": "None", "website": "None", "summary": "None", "logo": "None", "latitude": 43.26343934416293, "longitude": -79.86784367265838}, "871849774RR0001": {"name": "HAMILTON PHILHARMONIC YOUTH ORCHESTRA", "designationCode": "C", "categoryCode": "22", "address": "10 MACNAB ST S", "city": "HAMILTON", "province": "ON", "country": "CA", "postalCode": "L8P4Y3", "twitter": "None", "instagram": "None", "facebook": "None", "youtube": "None", "website": "None", "summary": "None", "logo": "None", "latitude": 43.256400673610685, "longitude": -79.87093372664302}, "118951813RR0001": {"name": "HAMILTON POETRY CENTRE", "designationCode": "C", "categoryCode": "22", "address": "P.O. BOX 89027 WESTDALE", "city": "HAMILTON", "province": "ON", "country": "CA", "postalCode": "L8S4R5", "twitter": "None", "instagram": "None", "facebook": "None", "youtube": "None", "website": "None", "summary": "None", "logo": "None", "latitude": 43.258530000000064, "longitude": -79.90213999999997}, "118951821RR0001": {"name": "HAMILTON PRAYER & PRAISE FELLOWSHIP", "designationCode": "C", "categoryCode": "39", "address": "710 HWY 54", "city": "CAYUGA", "province": "ON", "country": "CA", "postalCode": "N0A1E0", "twitter": "None", "instagram": "None", "facebook": "None", "youtube": "None", "website": "None", "summary": "None", "logo": "None", "latitude": 43.00534193369172, "longitude": -79.8691398438846}, "118951839RR0001": {"name": "HAMILTON PRESBYTERY MISSION COUNCIL OF THE UNITED CHURCH OF CANADA", "designationCode": "C", "categoryCode": "44", "address": "BARTON STONE UNITED CHURCH    21 STONE CHURCH ROAD WEST", "city": "HAMILTON", "province": "ON", "country": "CA", "postalCode": "L9B1A1", "twitter": "None", "instagram": "None", "facebook": "None", "youtube": "None", "website": "None", "summary": "None", "logo": "None", "latitude": 43.21176152202902, "longitude": -79.8917162089972}, "894326065RR0002": {"name": "HAMILTON PROFESSIONAL FIRE FIGHTERS ASSISTANCE FUND", "designationCode": "A", "categoryCode": "05", "address": "9 WEIRS LANE", "city": "DUNDAS", "province": "ON", "country": "CA", "postalCode": "L9H5E3", "twitter": "None", "instagram": "None", "facebook": "None", "youtube": "None", "website": "None", "summary": "None", "logo": "None", "latitude": 43.253732588118204, "longitude": -80.00767645311315}, "860181882RR0001": {"name": "HAMILTON PUBLIC LIBRARY BOARD", "designationCode": "C", "categoryCode": "50", "address": "PO BOX 2700", "city": "HAMILTON", "province": "ON", "country": "CA", "postalCode": "L8R3K1", "twitter": "None", "instagram": "None", "facebook": "None", "youtube": "None", "website": "None", "summary": "None", "logo": "None", "latitude": 43.25924400000005, "longitude": -79.87031899999994}, "108083890RR0001": {"name": "HAMILTON REGION CONSERVATION AUTHORITY", "designationCode": "C", "categoryCode": "52", "address": "PO BOX 81067", "city": "ANCASTER", "province": "ON", "country": "CA", "postalCode": "L9G4X1", "twitter": "None", "instagram": "None", "facebook": "None", "youtube": "None", "website": "None", "summary": "None", "logo": "None", "latitude": 43.22590800000006, "longitude": -79.97685199999994}, "118951854RR0001": {"name": "HAMILTON REGIONAL INDIAN CENTRE", "designationCode": "C", "categoryCode": "09", "address": "34 OTTAWA ST N", "city": "HAMILTON", "province": "ON", "country": "CA", "postalCode": "L8H3Y7", "twitter": "None", "instagram": "None", "facebook": "None", "youtube": "None", "website": "None", "summary": "None", "logo": "None", "latitude": 43.2433637710197, "longitude": -79.81937891254563}, "118951862RR0001": {"name": "HAMILTON RIGHT TO LIFE", "designationCode": "C", "categoryCode": "09", "address": "209 MACNAB ST E", "city": "HAMILTON", "province": "ON", "country": "CA", "postalCode": "L8R2M5", "twitter": "None", "instagram": "None", "facebook": "None", "youtube": "None", "website": "None", "summary": "None", "logo": "None", "latitude": 43.26343934416293, "longitude": -79.86784367265838}, "107797383RR0011": {"name": "HAMILTON SEVENTH-DAY ADVENTIST CHURCH", "designationCode": "C", "categoryCode": "41", "address": "PO BOX 60514                  RPO MOUNTAIN PLAZA", "city": "HAMILTON", "province": "ON", "country": "CA", "postalCode": "L9C7N7", "twitter": "None", "instagram": "None", "facebook": "None", "youtube": "None", "website": "None", "summary": "None", "logo": "None", "latitude": 43.261962000000054, "longitude": -79.88800399999994}, "118951946RR0001": {"name": "HAMILTON SUZUKI SCHOOL OF MUSIC", "designationCode": "C", "categoryCode": "22", "address": "2 KING STREET WEST", "city": "HAMILTON", "province": "ON", "country": "CA", "postalCode": "L8P1A1", "twitter": "None", "instagram": "None", "facebook": "None", "youtube": "None", "website": "None", "summary": "None", "logo": "None", "latitude": 43.25684205969744, "longitude": -79.86950704633858}, "131432056RR0001": {"name": "HAMILTON THEATRE INC", "designationCode": "C", "categoryCode": "22", "address": "140 MACNAB STREET NORTH", "city": "HAMILTON", "province": "ON", "country": "CA", "postalCode": "L8R2M3", "twitter": "None", "instagram": "None", "facebook": "None", "youtube": "None", "website": "None", "summary": "None", "logo": "None", "latitude": 43.261525572018044, "longitude": -79.868609918374}, "895442044RR0001": {"name": "HAMILTON URBAN CORE COMMUNITY HEALTH CENTRE", "designationCode": "C", "categoryCode": "11", "address": "71 REBECCA ST", "city": "HAMILTON", "province": "ON", "country": "CA", "postalCode": "L8R1B6", "twitter": "None", "instagram": "None", "facebook": "None", "youtube": "None", "website": "None", "summary": "None", "logo": "None", "latitude": 43.257388713312835, "longitude": -79.8650724508628}, "107463465RR0001": {"name": "HAMILTON VIETNAMESE ALLIANCE CHURCH", "designationCode": "C", "categoryCode": "39", "address": "POBOX 99006 RPO HERITAGE GREEN", "city": "STONEY CREEK", "province": "ON", "country": "CA", "postalCode": "L8J2P7", "twitter": "None", "instagram": "None", "facebook": "None", "youtube": "None", "website": "None", "summary": "None", "logo": "None", "latitude": 43.20879000000005, "longitude": -79.65669049999994}, "119288918RR0521": {"name": "HAMILTON-DUNDAS CONGREGATION OF JEHOVAH'S WITNESSES", "designationCode": "C", "categoryCode": "61", "address": "370 BROCK ROAD", "city": "DUNDAS", "province": "ON", "country": "CA", "postalCode": "L9H5E4", "twitter": "None", "instagram": "None", "facebook": "None", "youtube": "None", "website": "None", "summary": "None", "logo": "None", "latitude": 43.285181624502115, "longitude": -79.99267950842545}, "118951912RR0001": {"name": "HAMILTON-SCOURGE SOCIETY", "designationCode": "C", "categoryCode": "52", "address": "81 GOLFVIEW CRESCENT", "city": "DUNDAS", "province": "ON", "country": "CA", "postalCode": "L9H6T9", "twitter": "None", "instagram": "None", "facebook": "None", "youtube": "None", "website": "None", "summary": "None", "logo": "None", "latitude": 43.26176267441874, "longitude": -79.97892554648281}, "140651514RR0001": {"name": "HAMILTON-WENTWORTH CATHOLIC CHILD CARE CENTRES INC", "designationCode": "C", "categoryCode": "20", "address": "785 BRITANNIA AVE             ATTENTION:PATTY CHARTERS", "city": "HAMILTON", "province": "ON", "country": "CA", "postalCode": "L8H2B6", "twitter": "None", "instagram": "None", "facebook": "None", "youtube": "None", "website": "None", "summary": "None", "logo": "None", "latitude": 43.23951904861761, "longitude": -79.78149535743582}, "119236784RR0002": {"name": "HAMILTON-WENTWORTH CATHOLIC DISTRICT SCHOOL BOARD", "designationCode": "C", "categoryCode": "20", "address": "90 MULBERRY ST                BOX 2012", "city": "HAMILTON", "province": "ON", "country": "CA", "postalCode": "L8N3R9", "twitter": "None", "instagram": "None", "facebook": "None", "youtube": "None", "website": "None", "summary": "None", "logo": "None", "latitude": 43.26281384820229, "longitude": -79.87066220523408}, "118951987RR0001": {"name": "HAMILTON-WENTWORTH CHAPTER OF NATIVE WOMEN INCORPORATED", "designationCode": "C", "categoryCode": "59", "address": "PO BOX 69036 1900 KING ST E", "city": "HAMILTON", "province": "ON", "country": "CA", "postalCode": "L8K1W1", "twitter": "None", "instagram": "None", "facebook": "None", "youtube": "None", "website": "None", "summary": "None", "logo": "None", "latitude": 43.23161250952198, "longitude": -79.80680321732352}, "888193067RR0001": {"name": "HAMILTON-WENTWORTH OLD-TYME FIDDLERS ASSOCIATION", "designationCode": "C", "categoryCode": "22", "address": "86 WEST 23RD", "city": "HAMILTON", "province": "ON", "country": "CA", "postalCode": "L9C4V4", "twitter": "None", "instagram": "None", "facebook": "None", "youtube": "None", "website": "None", "summary": "None", "logo": "None", "latitude": 43.23841046421804, "longitude": -79.90219418340965}, "118952019RR0001": {"name": "HAMILTON-WENTWORTH REGIONAL POLICE EMPLOYEES CHARITY TRUST PROJECT CONCERN", "designationCode": "B", "categoryCode": "75", "address": "155 KING WILLIAM ST", "city": "HAMILTON", "province": "ON", "country": "CA", "postalCode": "L8R1A6", "twitter": "None", "instagram": "None", "facebook": "None", "youtube": "None", "website": "None", "summary": "None", "logo": "None", "latitude": 43.25578908133754, "longitude": -79.86271731611754}}