{"890554066RR0001": {"name": "TAMIL CHRISTIAN PRAYER HEALING MINISTRY OF SCARBOROUGH", "designationCode": "C", "categoryCode": "39", "address": "25 SEWELLS ROAD", "city": "SCARBOROUGH", "province": "ON", "country": "CA", "postalCode": "M1B3H2", "twitter": "None", "instagram": "None", "facebook": "None", "youtube": "None", "website": "None", "summary": "None", "logo": "None", "latitude": 43.80761368024712, "longitude": -79.21593158852224}, "841060676RR0001": {"name": "TAMIL CHURCH OF THE LIVING SAVIOUR", "designationCode": "C", "categoryCode": "39", "address": "P O BOX 30072                 2355 WARDEN AVE", "city": "SCARBOROUGH", "province": "ON", "country": "CA", "postalCode": "M1T0A1", "twitter": "None", "instagram": "None", "facebook": "None", "youtube": "None", "website": "None", "summary": "None", "logo": "None", "latitude": 43.78463709660098, "longitude": -79.31054828331165}, "888768207RR0001": {"name": "TAMIL COMMUNITY CHURCH", "designationCode": "C", "categoryCode": "39", "address": "410 GOLDHAWK TRAIL", "city": "SCARBOROUGH", "province": "ON", "country": "CA", "postalCode": "M1V4E7", "twitter": "None", "instagram": "None", "facebook": "None", "youtube": "None", "website": "None", "summary": "None", "logo": "None", "latitude": 43.82626404827183, "longitude": -79.27868345686406}, "119288918RR1375": {"name": "TAMIL CONGREGATION OF JEHOVAH'S WITNESSES, MONTREAL, QUEBEC", "designationCode": "C", "categoryCode": "61", "address": "2400 WARD STREET              SAINT-LAURENT", "city": "MONTREAL", "province": "QC", "country": "CA", "postalCode": "H4M2Y3", "twitter": "None", "instagram": "None", "facebook": "None", "youtube": "None", "website": "None", "summary": "None", "logo": "None", "latitude": 45.49627816928284, "longitude": -73.68206098012027}, "119288918RR1359": {"name": "TAMIL EAST CONGREGATION OF JEHOVAH'S WITNESSES, TORONTO ONTARIO", "designationCode": "C", "categoryCode": "61", "address": "846 PROGRESS AVENUE", "city": "SCARBOROUGH", "province": "ON", "country": "CA", "postalCode": "M1H2X5", "twitter": "None", "instagram": "None", "facebook": "None", "youtube": "None", "website": "None", "summary": "None", "logo": "None", "latitude": 43.780682460470736, "longitude": -79.23949355551385}, "119288918RR1039": {"name": "TAMIL WEST CONGREGATION OF JEHOVAH'S WITNESSES, TORONTO, ONTARIO", "designationCode": "C", "categoryCode": "61", "address": "16 ARROW ROAD", "city": "NORTH YORK", "province": "ON", "country": "CA", "postalCode": "M9M2L7", "twitter": "None", "instagram": "None", "facebook": "None", "youtube": "None", "website": "None", "summary": "None", "logo": "None", "latitude": 43.73638723896361, "longitude": -79.52951807608606}, "108063686RR0001": {"name": "TAMIR FOUNDATION INC.", "designationCode": "C", "categoryCode": "01", "address": "11 NADOLNY SACHS PRIVATE      STE 218", "city": "OTTAWA", "province": "ON", "country": "CA", "postalCode": "K2A1R9", "twitter": "None", "instagram": "None", "facebook": "None", "youtube": "None", "website": "None", "summary": "None", "logo": "None", "latitude": 45.375832560101486, "longitude": -75.75231223766554}, "134103878RR0001": {"name": "TAMITIK STATUS OF WOMEN SOCIETY", "designationCode": "C", "categoryCode": "09", "address": "350-370 CITY CENTRE", "city": "KITIMAT", "province": "BC", "country": "CA", "postalCode": "V8C1T6", "twitter": "None", "instagram": "None", "facebook": "None", "youtube": "None", "website": "None", "summary": "None", "logo": "None", "latitude": 54.05329848843723, "longitude": -128.65498902983163}, "846288769RR0001": {"name": "TANBRIDGE ACADEMY", "designationCode": "B", "categoryCode": "20", "address": "180 QUARRY PARK BLVD SE", "city": "CALGARY", "province": "AB", "country": "CA", "postalCode": "T2C3G3", "twitter": "None", "instagram": "None", "facebook": "None", "youtube": "None", "website": "None", "summary": "None", "logo": "None", "latitude": 50.9634774893242, "longitude": -114.00942318451575}, "127079044RR0001": {"name": "TANCOOK ISLAND RECREATIONAL CENTRE ASSOCIATION", "designationCode": "C", "categoryCode": "56", "address": "PO BOX  35", "city": "BIG TANCOOK ISLAND", "province": "NS", "country": "CA", "postalCode": "B0J3G0", "twitter": "None", "instagram": "None", "facebook": "None", "youtube": "None", "website": "None", "summary": "None", "logo": "None", "latitude": 44.4587584366241, "longitude": -64.17294299999999}, "108063777RR0001": {"name": "TANCOOK UNITED BAPTIST CHURCH", "designationCode": "C", "categoryCode": "31", "address": "PO BOX 35", "city": "TANCOOK ISLAND", "province": "NS", "country": "CA", "postalCode": "B0J3G0", "twitter": "None", "instagram": "None", "facebook": "None", "youtube": "None", "website": "None", "summary": "None", "logo": "None", "latitude": 44.4587584366241, "longitude": -64.17294299999999}, "140795287RR0001": {"name": "TANDEM-JEUNESSE", "designationCode": "C", "categoryCode": "01", "address": "407, 5E RUE ROULEAU", "city": "LA POCATIERE", "province": "QC", "country": "CA", "postalCode": "G0R1Z0", "twitter": "None", "instagram": "None", "facebook": "None", "youtube": "None", "website": "None", "summary": "None", "logo": "None", "latitude": 47.36799530223907, "longitude": -70.03588031017358}, "141151308RR0001": {"name": "TANGAGE DES LAURENTIDES", "designationCode": "C", "categoryCode": "57", "address": "118-B PRINCIPALE EST", "city": "STE-AGATHE-DES-MONTS", "province": "QC", "country": "CA", "postalCode": "J8C1K1", "twitter": "None", "instagram": "None", "facebook": "None", "youtube": "None", "website": "None", "summary": "None", "logo": "None", "latitude": 46.04635450078052, "longitude": -74.28376303267764}, "119208551RR0001": {"name": "TANGENTE INC.", "designationCode": "C", "categoryCode": "22", "address": "101 - 1435 RUE DE BLEURY", "city": "MONTREAL", "province": "QC", "country": "CA", "postalCode": "H3A2H7", "twitter": "None", "instagram": "None", "facebook": "None", "youtube": "None", "website": "None", "summary": "None", "logo": "None", "latitude": 45.50669398447676, "longitude": -73.56772820064644}, "119208569RR0001": {"name": "TANGLERS CHARITIES TRUST FOUNDATION", "designationCode": "A", "categoryCode": "65", "address": "P.O. BOX 490", "city": "ST JOHNS", "province": "NL", "country": "CA", "postalCode": "A1C5K6", "twitter": "None", "instagram": "None", "facebook": "None", "youtube": "None", "website": "None", "summary": "None", "logo": "None", "latitude": 47.56082100000006, "longitude": -52.71219349999993}, "121568059RR0001": {"name": "TANSI FRIENDSHIP CENTRE SOCIETY", "designationCode": "C", "categoryCode": "56", "address": "5301 SOUTH ACCESS RD          PO BOX 418", "city": "CHETWYND", "province": "BC", "country": "CA", "postalCode": "V0C1J0", "twitter": "None", "instagram": "None", "facebook": "None", "youtube": "None", "website": "None", "summary": "None", "logo": "None", "latitude": 55.69577613679406, "longitude": -121.6355524193263}, "892885922RR0001": {"name": "TANSI TRANS CANADA TRAIL ASSOCIATION INC.", "designationCode": "C", "categoryCode": "56", "address": "BOX 2466", "city": "FORT QU'APPLELLE", "province": "SK", "country": "CA", "postalCode": "S0G1S0", "twitter": "None", "instagram": "None", "facebook": "None", "youtube": "None", "website": "None", "summary": "None", "logo": "None", "latitude": 50.76964000000004, "longitude": -103.79339999999996}, "119208577RR0001": {"name": "TANSLEY UNITED CHURCH", "designationCode": "C", "categoryCode": "44", "address": "2111 WALKERS LINE", "city": "BURLINGTON", "province": "ON", "country": "CA", "postalCode": "L7R3X5", "twitter": "None", "instagram": "None", "facebook": "None", "youtube": "None", "website": "None", "summary": "None", "logo": "None", "latitude": 43.381448002250366, "longitude": -79.80933162415634}, "119208585RR0001": {"name": "TANTALLON AND DISTRICT DONORS CHOICE CORPORATION", "designationCode": "C", "categoryCode": "03", "address": "BOX 56", "city": "TANTALLON", "province": "SK", "country": "CA", "postalCode": "S0A4B0", "twitter": "None", "instagram": "None", "facebook": "None", "youtube": "None", "website": "None", "summary": "None", "logo": "None", "latitude": 50.533300000000054, "longitude": -101.83423999999997}, "140591660RR0001": {"name": "TANTALLON ELEMENTARY SCHOOL PARENTS ASSOCIATION", "designationCode": "C", "categoryCode": "21", "address": "1 FRENCH VILLAGE STATION RD", "city": "UPPER TANTALLON", "province": "NS", "country": "CA", "postalCode": "B3Z1E4", "twitter": "None", "instagram": "None", "facebook": "None", "youtube": "None", "website": "None", "summary": "None", "logo": "None", "latitude": 44.690697400051214, "longitude": -63.8750782554974}, "107669848RR0007": {"name": "TANTALLON SEVENTH-DAY ADVENTIST CHURCH", "designationCode": "C", "categoryCode": "41", "address": "121 SALISBURY RD", "city": "MONCTON", "province": "NB", "country": "CA", "postalCode": "E1E1A6", "twitter": "None", "instagram": "None", "facebook": "None", "youtube": "None", "website": "None", "summary": "None", "logo": "None", "latitude": 46.0711640413756, "longitude": -64.82144086984238}, "132043704RR0001": {"name": "TANTALLON UNITED CHURCH,", "designationCode": "C", "categoryCode": "44", "address": "306 MAIN STREET               BOX 100", "city": "TANTALLON", "province": "SK", "country": "CA", "postalCode": "S0A4B0", "twitter": "None", "instagram": "None", "facebook": "None", "youtube": "None", "website": "None", "summary": "None", "logo": "None", "latitude": 51.8070744843398, "longitude": -103.15211237907751}, "888786191RR0001": {"name": "TANTRAMAR HERITAGE TRUST INC.", "designationCode": "C", "categoryCode": "50", "address": "P.O. BOX 3554                 29B QUEENS ROAD", "city": "SACKVILLE", "province": "NB", "country": "CA", "postalCode": "E4L4G4", "twitter": "None", "instagram": "None", "facebook": "None", "youtube": "None", "website": "None", "summary": "None", "logo": "None", "latitude": 45.89119892392834, "longitude": -64.37108788090245}, "811123348RR0001": {"name": "TANTRAMAR HOSPICE PALLIATIVE CARE ORGANIZATION INCORPORATED", "designationCode": "C", "categoryCode": "19", "address": "99 SALEM ST", "city": "SACKVILLE", "province": "NB", "country": "CA", "postalCode": "E4L4K2", "twitter": "None", "instagram": "None", "facebook": "None", "youtube": "None", "website": "None", "summary": "None", "logo": "None", "latitude": 45.89258017513988, "longitude": -64.37785394924666}, "869992842RR0001": {"name": "TANTRAMAR WETLANDS CENTER INCORPORATED", "designationCode": "C", "categoryCode": "52", "address": "TANTRAMAR HIGH SCHOOL         223 MAIN ST", "city": "SACKVILLE", "province": "NB", "country": "CA", "postalCode": "E4L3A7", "twitter": "None", "instagram": "None", "facebook": "None", "youtube": "None", "website": "None", "summary": "None", "logo": "None", "latitude": 45.91135000000003, "longitude": -64.37293999999997}, "896557956RR0001": {"name": "TANTRIC BUDDHIST SOCIETY", "designationCode": "C", "categoryCode": "35", "address": "3115-8888 ODLIN CRESCENT", "city": "RICHMOND", "province": "BC", "country": "CA", "postalCode": "V6X3Z8", "twitter": "None", "instagram": "None", "facebook": "None", "youtube": "None", "website": "None", "summary": "None", "logo": "None", "latitude": 49.18411800000001, "longitude": -123.12697792832867}, "856825872RR0001": {"name": "TANZANIA EDUCATION AND MICRO-BUSINESS OPPORTUNITY", "designationCode": "C", "categoryCode": "21", "address": "4C-268 FIRST AVENUE", "city": "OTTAWA", "province": "ON", "country": "CA", "postalCode": "K1S2G8", "twitter": "None", "instagram": "None", "facebook": "None", "youtube": "None", "website": "None", "summary": "None", "logo": "None", "latitude": 45.40307248317869, "longitude": -75.6923431713603}, "108173360RR0001": {"name": "TAOIST TAI CHI SOCIETY OF CANADA - PACIFIC REGION", "designationCode": "C", "categoryCode": "19", "address": "2930 CARLING AVENUE", "city": "OTTAWA", "province": "ON", "country": "CA", "postalCode": "K2B7J7", "twitter": "None", "instagram": "None", "facebook": "None", "youtube": "None", "website": "None", "summary": "None", "logo": "None", "latitude": 45.35616570910056, "longitude": -75.80240239575298}, "119258655RR0001": {"name": "TAOIST TAI CHI SOCIETY OF CANADA / SOCI\u00c9T\u00c9 DE TAI CHI TAO\u00cfS TE DU CANADA", "designationCode": "C", "categoryCode": "19", "address": "2930 CARLING AVENUE", "city": "OTTAWA", "province": "ON", "country": "CA", "postalCode": "K2B7J7", "twitter": "None", "instagram": "None", "facebook": "None", "youtube": "None", "website": "None", "summary": "None", "logo": "None", "latitude": 45.35616570910056, "longitude": -75.80240239575298}, "870603602RR0001": {"name": "TAPA CAT RESCUE SOCIETY", "designationCode": "C", "categoryCode": "54", "address": "PO BOX 272                    SUPERSTORE MALL", "city": "LOWER SACKVILLE", "province": "NS", "country": "CA", "postalCode": "B4C2S9", "twitter": "None", "instagram": "None", "facebook": "None", "youtube": "None", "website": "None", "summary": "None", "logo": "None", "latitude": 44.76871500000006, "longitude": -63.65960449999993}, "889006995RR0001": {"name": "TAPESTRY CHAMBER CHOIR", "designationCode": "C", "categoryCode": "22", "address": "101 DELAYNE DR", "city": "AURORA", "province": "ON", "country": "CA", "postalCode": "L4G5B5", "twitter": "None", "instagram": "None", "facebook": "None", "youtube": "None", "website": "None", "summary": "None", "logo": "None", "latitude": 44.0007376816321, "longitude": -79.49182606287144}, "880479001RR0001": {"name": "TAPESTRY CHURCH", "designationCode": "C", "categoryCode": "39", "address": "1450 HEADON RD                BOX 93089", "city": "BURLINGTON", "province": "ON", "country": "CA", "postalCode": "L7M4A3", "twitter": "None", "instagram": "None", "facebook": "None", "youtube": "None", "website": "None", "summary": "None", "logo": "None", "latitude": 43.373694794593035, "longitude": -79.8093847315191}, "844639872RR0001": {"name": "TAPESTRY FOUNDATION FOR HEALTH CARE", "designationCode": "A", "categoryCode": "03", "address": "4865 HEATHER STREET", "city": "VANCOUVER", "province": "BC", "country": "CA", "postalCode": "V5Z0B3", "twitter": "None", "instagram": "None", "facebook": "None", "youtube": "None", "website": "None", "summary": "None", "logo": "None", "latitude": 49.24184697412038, "longitude": -123.12067587898831}, "119208619RR0001": {"name": "TAPESTRY MUSIC THEATRE", "designationCode": "C", "categoryCode": "22", "address": "316 - 9 TRINITY ST", "city": "TORONTO", "province": "ON", "country": "CA", "postalCode": "M5A3C4", "twitter": "None", "instagram": "None", "facebook": "None", "youtube": "None", "website": "None", "summary": "None", "logo": "None", "latitude": 43.649990706359254, "longitude": -79.35941110240068}, "119288918RR0074": {"name": "TAPLEYTOWN, ONTARIO, CONGREGATION OF JEHOVAH'S WITNESSES", "designationCode": "C", "categoryCode": "61", "address": "218 MUD ST. E", "city": "STONEY CREEK", "province": "ON", "country": "CA", "postalCode": "L8J3C5", "twitter": "None", "instagram": "None", "facebook": "None", "youtube": "None", "website": "None", "summary": "None", "logo": "None", "latitude": 43.18546088533697, "longitude": -79.74914026868244}, "124401472RR0001": {"name": "TAQRAMIUT NIPINGAT INC.", "designationCode": "C", "categoryCode": "59", "address": "455 FENELON BLVD              SUITE 107", "city": "DORVAL", "province": "QC", "country": "CA", "postalCode": "H9S5T8", "twitter": "None", "instagram": "None", "facebook": "None", "youtube": "None", "website": "None", "summary": "None", "logo": "None", "latitude": 45.44714884347043, "longitude": -73.75037343874469}, "891374001RR0001": {"name": "TARA BOOM HOUSTON CHILDREN'S FOUNDATION", "designationCode": "A", "categoryCode": "03", "address": "P.O. BOX 20171", "city": "ST.THOMAS", "province": "ON", "country": "CA", "postalCode": "N5P4H4", "twitter": "None", "instagram": "None", "facebook": "None", "youtube": "None", "website": "None", "summary": "None", "logo": "None", "latitude": 42.778932000000054, "longitude": -81.19315249999994}, "119208643RR0001": {"name": "TARA CANADA NETWORK ASSOCIATION", "designationCode": "C", "categoryCode": "39", "address": "PO BOX 15270", "city": "VANCOUVER", "province": "BC", "country": "CA", "postalCode": "V6B5B1", "twitter": "None", "instagram": "None", "facebook": "None", "youtube": "None", "website": "None", "summary": "None", "logo": "None", "latitude": 49.28024400000005, "longitude": -123.11294749999993}, "108064254RR0001": {"name": "TARA PASTORAL CHARGE", "designationCode": "C", "categoryCode": "44", "address": "PO BOX 5                      33 MARKET STREET", "city": "TARA", "province": "ON", "country": "CA", "postalCode": "N0H2N0", "twitter": "None", "instagram": "None", "facebook": "None", "youtube": "None", "website": "None", "summary": "None", "logo": "None", "latitude": 44.47891170220433, "longitude": -81.14463102746845}, "891064347RR0001": {"name": "TARA VIHARA ASSOCIATION", "designationCode": "C", "categoryCode": "35", "address": "3435 SEAFORTH DRIVE", "city": "VANCOUVER", "province": "BC", "country": "CA", "postalCode": "V5M4C6", "twitter": "None", "instagram": "None", "facebook": "None", "youtube": "None", "website": "None", "summary": "None", "logo": "None", "latitude": 49.25380441217026, "longitude": -123.03152000279862}, "132294471RR0001": {"name": "TARAS SHEVCHENKO HOME FOR THE AGED", "designationCode": "C", "categoryCode": "01", "address": "APT  604                      194 GAGE AVENUE SOUTH", "city": "HAMILTON", "province": "ON", "country": "CA", "postalCode": "L8M3E2", "twitter": "None", "instagram": "None", "facebook": "None", "youtube": "None", "website": "None", "summary": "None", "logo": "None", "latitude": 43.24259208549248, "longitude": -79.83094645354583}, "893169441RR0001": {"name": "TARAS SHEVCHENKO UKRAINIAN SCHOOL SOCIETY", "designationCode": "C", "categoryCode": "20", "address": "11656 MORRIS ST", "city": "MAPLE RIDGE", "province": "BC", "country": "CA", "postalCode": "V2X5C6", "twitter": "None", "instagram": "None", "facebook": "None", "youtube": "None", "website": "None", "summary": "None", "logo": "None", "latitude": 49.21447482263843, "longitude": -122.62753997276268}, "119208676RR0001": {"name": "TARBOLTON CEMETERY", "designationCode": "C", "categoryCode": "59", "address": "PO BOX 126", "city": "ALEXANDER", "province": "MB", "country": "CA", "postalCode": "R0K0A0", "twitter": "None", "instagram": "None", "facebook": "None", "youtube": "None", "website": "None", "summary": "None", "logo": "None", "latitude": 49.41068548304382, "longitude": -100.02339714097964}, "119208700RR0001": {"name": "TARRAGON THEATRE", "designationCode": "C", "categoryCode": "22", "address": "30 BRIDGMAN AVENUE", "city": "TORONTO", "province": "ON", "country": "CA", "postalCode": "M5R1X3", "twitter": "None", "instagram": "None", "facebook": "None", "youtube": "None", "website": "None", "summary": "None", "logo": "None", "latitude": 43.67478117958328, "longitude": -79.41275862698363}, "845108927RR0001": {"name": "TARRYS AND DISTRICT COMMUNITY HALL SOCIETY", "designationCode": "C", "categoryCode": "56", "address": "PO BOX 3000", "city": "CASTLEGAR", "province": "BC", "country": "CA", "postalCode": "V1N3L8", "twitter": "None", "instagram": "None", "facebook": "None", "youtube": "None", "website": "None", "summary": "None", "logo": "None", "latitude": 49.296228000000056, "longitude": -117.65424049999993}, "899795801RR0001": {"name": "TARTAN GARDENS OF JUDIQUE SOCIETY", "designationCode": "C", "categoryCode": "56", "address": "313 RIVER DENYS RD.           P.O. BOX 33", "city": "JUDIQUE", "province": "NS", "country": "CA", "postalCode": "B0E1P0", "twitter": "None", "instagram": "None", "facebook": "None", "youtube": "None", "website": "None", "summary": "None", "logo": "None", "latitude": 45.87517224017476, "longitude": -61.469866506347984}, "871594644RR0001": {"name": "TASHBAR", "designationCode": "C", "categoryCode": "39", "address": "5611 JEANNE MANCE AVE", "city": "MONTREAL", "province": "QC", "country": "CA", "postalCode": "H2V4K7", "twitter": "None", "instagram": "None", "facebook": "None", "youtube": "None", "website": "None", "summary": "None", "logo": "None", "latitude": 45.52345234139298, "longitude": -73.60271162946513}, "890466998RR0001": {"name": "TASHI CHOLING SOCIETY", "designationCode": "C", "categoryCode": "39", "address": "PO BOX 4", "city": "NELSON", "province": "BC", "country": "CA", "postalCode": "V1L5P7", "twitter": "None", "instagram": "None", "facebook": "None", "youtube": "None", "website": "None", "summary": "None", "logo": "None", "latitude": 49.49754900000005, "longitude": -117.28882249999992}, "897708111RR0001": {"name": "TASSLE NON-PROFIT RESIDENCE INC.", "designationCode": "C", "categoryCode": "09", "address": "1270 GAINSBOROUGH DR STE 68", "city": "OAKVILLE", "province": "ON", "country": "CA", "postalCode": "L6H2L2", "twitter": "None", "instagram": "None", "facebook": "None", "youtube": "None", "website": "None", "summary": "None", "logo": "None", "latitude": 43.47474888897229, "longitude": -79.68566115266309}, "897423760RR0001": {"name": "TATAGWA KIDZ KARE INC.", "designationCode": "C", "categoryCode": "01", "address": "PO BOX 2003 STN MAIN", "city": "WEYBURN", "province": "SK", "country": "CA", "postalCode": "S4H2Z9", "twitter": "None", "instagram": "None", "facebook": "None", "youtube": "None", "website": "None", "summary": "None", "logo": "None", "latitude": 49.66802700000005, "longitude": -103.85818999999994}, "890741648RR0001": {"name": "TATAMAGOUCHE AREA SINGERS", "designationCode": "C", "categoryCode": "22", "address": "PO BOX 46", "city": "TATAMAGOUCHE", "province": "NS", "country": "CA", "postalCode": "B0K1V0", "twitter": "None", "instagram": "None", "facebook": "None", "youtube": "None", "website": "None", "summary": "None", "logo": "None", "latitude": 45.71288526208159, "longitude": -63.415849046616174}, "870630993RR0001": {"name": "TATAMAGOUCHE AREA TRAILS ASSOCIATION", "designationCode": "C", "categoryCode": "56", "address": "RR1, 4285 HWY 6", "city": "TATAMAGOUCHE", "province": "NS", "country": "CA", "postalCode": "B0K1V0", "twitter": "None", "instagram": "None", "facebook": "None", "youtube": "None", "website": "None", "summary": "None", "logo": "None", "latitude": 45.74063906646849, "longitude": -63.17690810260159}, "119208759RR0001": {"name": "TATAMAGOUCHE MOUNTAIN CEMETERY COMPANY", "designationCode": "C", "categoryCode": "59", "address": "7673 HIGHWAY 311              RR#5", "city": "TATAMAGOUCHE", "province": "NS", "country": "CA", "postalCode": "B0K1V0", "twitter": "None", "instagram": "None", "facebook": "None", "youtube": "None", "website": "None", "summary": "None", "logo": "None", "latitude": 45.625752665586376, "longitude": -63.21976785332245}, "119208775RR0001": {"name": "TATAMAGOUCHE PASTORAL CHARGE,", "designationCode": "C", "categoryCode": "44", "address": "PO BOX 91", "city": "TATAMAGOUCHE", "province": "NS", "country": "CA", "postalCode": "B0K1V0", "twitter": "None", "instagram": "None", "facebook": "None", "youtube": "None", "website": "None", "summary": "None", "logo": "None", "latitude": 45.71288526208159, "longitude": -63.415849046616174}, "888496668RR0001": {"name": "TATAMAGOUCHE SCHOOLS EDUCATION SOCIETY", "designationCode": "A", "categoryCode": "29", "address": "PO BOX 46", "city": "TATAMAGOUCHE", "province": "NS", "country": "CA", "postalCode": "B0K1V0", "twitter": "None", "instagram": "None", "facebook": "None", "youtube": "None", "website": "None", "summary": "None", "logo": "None", "latitude": 45.71288526208159, "longitude": -63.415849046616174}, "891443947RR0001": {"name": "TATAMAGOUCHE VOLUNTARY FIRE DEPARTMENT", "designationCode": "C", "categoryCode": "59", "address": "P.O. BOX 65", "city": "TATAMAGOUCHE", "province": "NS", "country": "CA", "postalCode": "B0K1V0", "twitter": "None", "instagram": "None", "facebook": "None", "youtube": "None", "website": "None", "summary": "None", "logo": "None", "latitude": 45.71288526208159, "longitude": -63.415849046616174}, "879262624RR0001": {"name": "TATLA LAKE CHRISTIAN FELLOWSHIP", "designationCode": "C", "categoryCode": "39", "address": "BOX 150", "city": "TATLA LAKE", "province": "BC", "country": "CA", "postalCode": "V0L1V0", "twitter": "None", "instagram": "None", "facebook": "None", "youtube": "None", "website": "None", "summary": "None", "logo": "None", "latitude": 51.89562600000005, "longitude": -124.62352099999993}, "860071778RR0001": {"name": "TAVISTOCK AND DISTRICT HISTORICAL SOCIETY", "designationCode": "C", "categoryCode": "50", "address": "37 MARIA STREET               P.O. BOX 280", "city": "TAVISTOCK", "province": "ON", "country": "CA", "postalCode": "N0B2R0", "twitter": "None", "instagram": "None", "facebook": "None", "youtube": "None", "website": "None", "summary": "None", "logo": "None", "latitude": 43.31997358312654, "longitude": -80.83553284817363}, "119208817RR0001": {"name": "TAVISTOCK BIBLE CHAPEL", "designationCode": "C", "categoryCode": "39", "address": "PO BOX 129", "city": "TAVISTOCK", "province": "ON", "country": "CA", "postalCode": "N0B2R0", "twitter": "None", "instagram": "None", "facebook": "None", "youtube": "None", "website": "None", "summary": "None", "logo": "None", "latitude": 43.32137000000006, "longitude": -80.83615999999995}, "855629531RR0001": {"name": "TAVISTOCK COMMUNITY HEALTH INC.", "designationCode": "C", "categoryCode": "11", "address": "80 MARIA STREET               PO BOX 310", "city": "TAVISTOCK", "province": "ON", "country": "CA", "postalCode": "N0B2R0", "twitter": "None", "instagram": "None", "facebook": "None", "youtube": "None", "website": "None", "summary": "None", "logo": "None", "latitude": 43.31708300925211, "longitude": -80.83438057583832}, "119208825RR0001": {"name": "TAVISTOCK MENNONITE CHURCH,", "designationCode": "C", "categoryCode": "34", "address": "131 WETTLAUFER ST.BOX 248", "city": "TAVISTOCK", "province": "ON", "country": "CA", "postalCode": "N0B2R0", "twitter": "None", "instagram": "None", "facebook": "None", "youtube": "None", "website": "None", "summary": "None", "logo": "None", "latitude": 43.315925166599044, "longitude": -80.8389078879169}, "108064650RR0001": {"name": "TAVISTOCK MISSIONARY CHURCH", "designationCode": "C", "categoryCode": "39", "address": "PO BOX 220", "city": "TAVISTOCK", "province": "ON", "country": "CA", "postalCode": "N0B2R0", "twitter": "None", "instagram": "None", "facebook": "None", "youtube": "None", "website": "None", "summary": "None", "logo": "None", "latitude": 43.32137000000006, "longitude": -80.83615999999995}, "138414776RR0001": {"name": "TAVRIA UKRAINIAN FOLK DANCE ENSEMBLE INC", "designationCode": "C", "categoryCode": "22", "address": "105 HODSMAN RD", "city": "REGINA", "province": "SK", "country": "CA", "postalCode": "S4N5W5", "twitter": "None", "instagram": "None", "facebook": "None", "youtube": "None", "website": "None", "summary": "None", "logo": "None", "latitude": 50.4770735201529, "longitude": -104.57717504686093}, "128278322RR0001": {"name": "TAWAAK HOUSING ASSOCIATION", "designationCode": "C", "categoryCode": "09", "address": "6175 LADY HAMMOND RD", "city": "HALIFAX", "province": "NS", "country": "CA", "postalCode": "B3K2R9", "twitter": "None", "instagram": "None", "facebook": "None", "youtube": "None", "website": "None", "summary": "None", "logo": "None", "latitude": 44.66521249711447, "longitude": -63.614962943245395}, "119208924RR0001": {"name": "TAY VALLEY EVANGELISTIC ASSOCIATION INC", "designationCode": "C", "categoryCode": "49", "address": "115 MOSS AVE", "city": "FREDERICTON", "province": "NB", "country": "CA", "postalCode": "E3A2G2", "twitter": "None", "instagram": "None", "facebook": "None", "youtube": "None", "website": "None", "summary": "None", "logo": "None", "latitude": 45.97873755259967, "longitude": -66.6462179901609}, "119058907RR0001": {"name": "TAYLOR COLLEGE AND SEMINARY", "designationCode": "C", "categoryCode": "20", "address": "11525 23 AVE NW", "city": "EDMONTON", "province": "AB", "country": "CA", "postalCode": "T6J4T3", "twitter": "None", "instagram": "None", "facebook": "None", "youtube": "None", "website": "None", "summary": "None", "logo": "None", "latitude": 53.45376650822484, "longitude": -113.52726215361537}, "886254705RR0001": {"name": "TAYLOR STATTEN CAMPING BURSARY FUND", "designationCode": "C", "categoryCode": "56", "address": "P.O. BOX 1128 TD CENTRE POSTALSTATION, 77 KING STREET WEST", "city": "TORONTO", "province": "ON", "country": "CA", "postalCode": "M5K1P2", "twitter": "None", "instagram": "None", "facebook": "None", "youtube": "None", "website": "None", "summary": "None", "logo": "None", "latitude": 43.648190845375034, "longitude": -79.38214471980503}, "866327109RR0001": {"name": "TAYLORSIDE GOSPEL HALL", "designationCode": "C", "categoryCode": "39", "address": "BOX 2666", "city": "MELFORT", "province": "SK", "country": "CA", "postalCode": "S0E1A0", "twitter": "None", "instagram": "None", "facebook": "None", "youtube": "None", "website": "None", "summary": "None", "logo": "None", "latitude": 52.85637, "longitude": -104.63436225000001}, "119208916RR0001": {"name": "TAYMOUTH UNITED CHURCH", "designationCode": "C", "categoryCode": "44", "address": "879 ENGLISH SETTLEMENT ROAD", "city": "TAYMOUTH", "province": "NB", "country": "CA", "postalCode": "E6C2B2", "twitter": "None", "instagram": "None", "facebook": "None", "youtube": "None", "website": "None", "summary": "None", "logo": "None", "latitude": 46.185273151883685, "longitude": -66.62425506327547}, "130240344RR0001": {"name": "TAYSIDE COMMUNITY RESIDENTIAL & SUPPORT OPTIONS", "designationCode": "C", "categoryCode": "09", "address": "BOX 707,", "city": "PERTH", "province": "ON", "country": "CA", "postalCode": "K7H3K5", "twitter": "None", "instagram": "None", "facebook": "None", "youtube": "None", "website": "None", "summary": "None", "logo": "None", "latitude": 44.89893600000005, "longitude": -76.24831399999994}, "874161482RR0001": {"name": "TB VETS CHARITABLE FOUNDATION", "designationCode": "A", "categoryCode": "13", "address": "1410 KOOTENAY STREET", "city": "VANCOUVER", "province": "BC", "country": "CA", "postalCode": "V5K4R1", "twitter": "None", "instagram": "None", "facebook": "None", "youtube": "None", "website": "None", "summary": "None", "logo": "None", "latitude": 49.271990802828185, "longitude": -123.02735870599301}, "848161949RR0001": {"name": "TCIG CHARITABLE FOUNDATION INC.", "designationCode": "A", "categoryCode": "03", "address": "ROOM 221 - 530 CENTURY ST", "city": "WINNIPEG", "province": "MB", "country": "CA", "postalCode": "R3H0Y4", "twitter": "None", "instagram": "None", "facebook": "None", "youtube": "None", "website": "None", "summary": "None", "logo": "None", "latitude": 49.89247481409741, "longitude": -97.20426556460218}, "133702845RR0001": {"name": "TD FRIENDS OF THE ENVIRONMENT FOUNDATION", "designationCode": "B", "categoryCode": "55", "address": "77 KING STREET WEST           TD NORTH TOWER 10TH FLOOR", "city": "TORONTO", "province": "ON", "country": "CA", "postalCode": "M5K1A2", "twitter": "None", "instagram": "None", "facebook": "None", "youtube": "None", "website": "None", "summary": "None", "logo": "None", "latitude": 43.64868300000006, "longitude": -79.38544399999994}, "119266393RR0001": {"name": "TD Securities Underwriting Hope Fund", "designationCode": "B", "categoryCode": "75", "address": "66 WELLINGTON STREET WEST     TD TOWER, 6TH FLOOR", "city": "TORONTO", "province": "ON", "country": "CA", "postalCode": "M5K1A2", "twitter": "None", "instagram": "None", "facebook": "None", "youtube": "None", "website": "None", "summary": "None", "logo": "None", "latitude": 43.64868300000006, "longitude": -79.38544399999994}, "886585835RR0001": {"name": "TDA/H Estrie", "designationCode": "C", "categoryCode": "09", "address": "1265 RUE BELVEDERE SUD", "city": "SHERBROOKE", "province": "QC", "country": "CA", "postalCode": "J1H4E2", "twitter": "None", "instagram": "None", "facebook": "None", "youtube": "None", "website": "None", "summary": "None", "logo": "None", "latitude": 45.387105841797, "longitude": -71.89628018890276}, "892303900RR0001": {"name": "TDA/H Mauricie Centre du Qu\u00e9bec", "designationCode": "C", "categoryCode": "11", "address": "235 - 255 RUE BROCK", "city": "DRUMMONDVILLE", "province": "QC", "country": "CA", "postalCode": "J2C1M5", "twitter": "None", "instagram": "None", "facebook": "None", "youtube": "None", "website": "None", "summary": "None", "logo": "None", "latitude": 45.88389463108206, "longitude": -72.48787668869153}, "137871828RR0001": {"name": "TDH POUR LES ENFANTS INC", "designationCode": "C", "categoryCode": "11", "address": "2520 AV LIONEL-GROULX         3RD FLOOR", "city": "MONTREAL", "province": "QC", "country": "CA", "postalCode": "H3J1J8", "twitter": "None", "instagram": "None", "facebook": "None", "youtube": "None", "website": "None", "summary": "None", "logo": "None", "latitude": 45.48405188314393, "longitude": -73.5773841942698}, "811107747RR0001": {"name": "TEA CUP MINISTRIES", "designationCode": "C", "categoryCode": "47", "address": "15011 72A ST. NW", "city": "EDMONTON", "province": "AB", "country": "CA", "postalCode": "T5C0S3", "twitter": "None", "instagram": "None", "facebook": "None", "youtube": "None", "website": "None", "summary": "None", "logo": "None", "latitude": 53.612685, "longitude": -113.45058715413496}, "890642374RR0001": {"name": "TEACHERS FOR KIDS FOUNDATION", "designationCode": "C", "categoryCode": "59", "address": "166 EVANS DR", "city": "PETERBOROUGH", "province": "ON", "country": "CA", "postalCode": "K9H7T3", "twitter": "None", "instagram": "None", "facebook": "None", "youtube": "None", "website": "None", "summary": "None", "logo": "None", "latitude": 44.33002890342768, "longitude": -78.3307604109295}, "119208965RR0001": {"name": "TEACHERS ON WHEELS", "designationCode": "C", "categoryCode": "21", "address": "P.O. BOX 8455 STATION A", "city": "ST. JOHN'S", "province": "NL", "country": "CA", "postalCode": "A1B3N9", "twitter": "None", "instagram": "None", "facebook": "None", "youtube": "None", "website": "None", "summary": "None", "logo": "None", "latitude": 47.56938900000006, "longitude": -52.78609699999993}, "882397987RR0001": {"name": "TEACHERS-FESTIVAL LIAISON COUNCIL (STRATFORD)", "designationCode": "C", "categoryCode": "22", "address": "P.O. BOX 520 STN MAIN         55 QUEEN STREET", "city": "STRATFORD", "province": "ON", "country": "CA", "postalCode": "N5A6V2", "twitter": "None", "instagram": "None", "facebook": "None", "youtube": "None", "website": "None", "summary": "None", "logo": "None", "latitude": 43.374483, "longitude": -80.96981573137582}, "857208961RR0001": {"name": "TEACHING FOR LIFE MINISTRIES", "designationCode": "C", "categoryCode": "47", "address": "34A AVONDALE BLVD             P.O BOX 83046", "city": "BRAMPTON", "province": "ON", "country": "CA", "postalCode": "L6T5N3", "twitter": "None", "instagram": "None", "facebook": "None", "youtube": "None", "website": "None", "summary": "None", "logo": "None", "latitude": 43.70705208464059, "longitude": -79.69894856814507}, "132171968RR0001": {"name": "TEAL CHARITABLE FOUNDATION", "designationCode": "C", "categoryCode": "21", "address": "206-640 BROADWAY W", "city": "VANCOUVER", "province": "BC", "country": "CA", "postalCode": "V5Z1G4", "twitter": "None", "instagram": "None", "facebook": "None", "youtube": "None", "website": "None", "summary": "None", "logo": "None", "latitude": 49.263196109523165, "longitude": -123.11874531075742}, "849016340RR0001": {"name": "TEAM CANADA HEALING HANDS INC.", "designationCode": "C", "categoryCode": "19", "address": "PO BOX 1313                   STN A", "city": "FREDERICTON", "province": "NB", "country": "CA", "postalCode": "E3B5C8", "twitter": "None", "instagram": "None", "facebook": "None", "youtube": "None", "website": "None", "summary": "None", "logo": "None", "latitude": 45.96062100000006, "longitude": -66.63911299999994}, "119258671RR0001": {"name": "TEARMANN SOCIETY FOR ABUSED WOMEN", "designationCode": "C", "categoryCode": "09", "address": "P.O. BOX 153", "city": "NEW GLASGOW", "province": "NS", "country": "CA", "postalCode": "B2H5E2", "twitter": "None", "instagram": "None", "facebook": "None", "youtube": "None", "website": "None", "summary": "None", "logo": "None", "latitude": 45.591837000000055, "longitude": -62.643414499999935}, "891414864RR0001": {"name": "TEATRO LA QUINDICINA THEATRE SOCIETY", "designationCode": "C", "categoryCode": "22", "address": "10329-83 AVENUE", "city": "EDMONTON", "province": "AB", "country": "CA", "postalCode": "T6E2C6", "twitter": "None", "instagram": "None", "facebook": "None", "youtube": "None", "website": "None", "summary": "None", "logo": "None", "latitude": 53.51902951399404, "longitude": -113.496372}, "856798848RR0001": {"name": "TEATRON TORONTO JEWISH THEATRE INC.", "designationCode": "C", "categoryCode": "22", "address": "11 VESTA DR", "city": "RICHMOND HILL", "province": "ON", "country": "CA", "postalCode": "L4B2L9", "twitter": "None", "instagram": "None", "facebook": "None", "youtube": "None", "website": "None", "summary": "None", "logo": "None", "latitude": 43.86869859781308, "longitude": -79.40657941020835}, "872420427RR0001": {"name": "TECHNICAL SEARCH & RESCUE ASSOCIATION", "designationCode": "C", "categoryCode": "59", "address": "PO BOX 21105 RPO CO-OP PLAZA", "city": "GRANDE PRAIRIE", "province": "AB", "country": "CA", "postalCode": "T8V6W7", "twitter": "None", "instagram": "None", "facebook": "None", "youtube": "None", "website": "None", "summary": "None", "logo": "None", "latitude": 55.17067000000003, "longitude": -118.78942999999998}, "868868761RR0001": {"name": "TECHNICAL VOCATIONAL (TEC-VOC) HIGH SCHOOL SCHOLARSHIP AND EDUCATION FUND", "designationCode": "C", "categoryCode": "21", "address": "1555 WALL STREET", "city": "WINNIPEG", "province": "MB", "country": "CA", "postalCode": "R3E2S2", "twitter": "None", "instagram": "None", "facebook": "None", "youtube": "None", "website": "None", "summary": "None", "logo": "None", "latitude": 49.90604413627446, "longitude": -97.18117788877075}, "866482334RR0001": {"name": "TECHNOLOGY FOUNDATION/CHARITE TECHNOLOGIE INC.", "designationCode": "A", "categoryCode": "20", "address": "2-385 WILSEY ROAD", "city": "FREDERICTON", "province": "NB", "country": "CA", "postalCode": "E3B5N6", "twitter": "None", "instagram": "None", "facebook": "None", "youtube": "None", "website": "None", "summary": "None", "logo": "None", "latitude": 45.91996098831772, "longitude": -66.61994486219359}, "808164479RR0001": {"name": "TECK FOUNDATION", "designationCode": "B", "categoryCode": "03", "address": "3300, 550 BURRARD ST", "city": "VANCOUVER", "province": "BC", "country": "CA", "postalCode": "V6C0B3", "twitter": "None", "instagram": "None", "facebook": "None", "youtube": "None", "website": "None", "summary": "None", "logo": "None", "latitude": 49.28596391921073, "longitude": -123.11870289255033}, "869828350RR0001": {"name": "TECUMSEH AREA HISTORICAL SOCIETY", "designationCode": "C", "categoryCode": "50", "address": "12350 TECUMSEH ROAD EAST", "city": "TECUMSEH", "province": "ON", "country": "CA", "postalCode": "N8N1M4", "twitter": "None", "instagram": "None", "facebook": "None", "youtube": "None", "website": "None", "summary": "None", "logo": "None", "latitude": 42.311880511541204, "longitude": -82.8848747828207}, "119209047RR0001": {"name": "TECUMSEH PASTORAL CHARGE,", "designationCode": "C", "categoryCode": "44", "address": "11994 GREEN COURT", "city": "TECUMSEH", "province": "ON", "country": "CA", "postalCode": "N8N2M1", "twitter": "None", "instagram": "None", "facebook": "None", "youtube": "None", "website": "None", "summary": "None", "logo": "None", "latitude": 42.276646213459834, "longitude": -82.88270168289168}, "119209054RR0001": {"name": "TECUMSETH AND WEST GWILLIMBURY HISTORICAL SOCIETY", "designationCode": "C", "categoryCode": "50", "address": "P.O.BOX 171", "city": "BOND HEAD", "province": "ON", "country": "CA", "postalCode": "L0G1B0", "twitter": "None", "instagram": "None", "facebook": "None", "youtube": "None", "website": "None", "summary": "None", "logo": "None", "latitude": 44.08776000000006, "longitude": -79.67845999999997}, "119209070RR0001": {"name": "TED HUDSON JR MEMORIAL BURSARY", "designationCode": "C", "categoryCode": "21", "address": "12975 76TH AVENUE", "city": "SURREY", "province": "BC", "country": "CA", "postalCode": "V3W2V3", "twitter": "None", "instagram": "None", "facebook": "None", "youtube": "None", "website": "None", "summary": "None", "logo": "None", "latitude": 49.141039514859415, "longitude": -122.86367002553521}, "887999241RR0001": {"name": "TED JAREMY MEMORIAL FUND", "designationCode": "B", "categoryCode": "21", "address": "22 HIGH MEADOW DRIVE", "city": "EAST ST. PAUL", "province": "MB", "country": "CA", "postalCode": "R2E0M9", "twitter": "None", "instagram": "None", "facebook": "None", "youtube": "None", "website": "None", "summary": "None", "logo": "None", "latitude": 49.96989932664914, "longitude": -97.04577096352915}, "882972805RR0001": {"name": "TED SHUTTLESWORTH MINISTRIES CANADA", "designationCode": "C", "categoryCode": "39", "address": "PO BOX 1000 STN LCD 1", "city": "HAMILTON", "province": "ON", "country": "CA", "postalCode": "L8N3R1", "twitter": "None", "instagram": "None", "facebook": "None", "youtube": "None", "website": "None", "summary": "None", "logo": "None", "latitude": 43.261962000000054, "longitude": -79.88800399999994}, "132946898RR0001": {"name": "TEEGATHA'OH ZHEH", "designationCode": "C", "categoryCode": "01", "address": "311 RAY ST", "city": "WHITEHORSE", "province": "YT", "country": "CA", "postalCode": "Y1A0L9", "twitter": "None", "instagram": "None", "facebook": "None", "youtube": "None", "website": "None", "summary": "None", "logo": "None", "latitude": 60.72673435467241, "longitude": -135.06052627352997}, "122304470RR0001": {"name": "TEEKINAKAN DAY CARE CENTRE INC", "designationCode": "C", "categoryCode": "01", "address": "P.O. BOX 471", "city": "THOMPSON", "province": "MB", "country": "CA", "postalCode": "R8N1N2", "twitter": "None", "instagram": "None", "facebook": "None", "youtube": "None", "website": "None", "summary": "None", "logo": "None", "latitude": 55.74417900000006, "longitude": -97.85067199999993}, "108066663RR0001": {"name": "TEEN CHALLENGE CANADA INC.", "designationCode": "C", "categoryCode": "01", "address": "PO BOX 777 LAMBETH STN", "city": "LONDON", "province": "ON", "country": "CA", "postalCode": "N6P1R6", "twitter": "None", "instagram": "None", "facebook": "None", "youtube": "None", "website": "None", "summary": "None", "logo": "None", "latitude": 42.91244761023706, "longitude": -81.30148110402438}}