{"880468012RR0001": {"name": "OKANAGAN CHINESE BAPTIST CHURCH", "designationCode": "C", "categoryCode": "31", "address": "1025 RUTLAND RD N", "city": "KELOWNA", "province": "BC", "country": "CA", "postalCode": "V1X4Y9", "twitter": "None", "instagram": "None", "facebook": "None", "youtube": "None", "website": "None", "summary": "None", "logo": "None", "latitude": 49.90201398029316, "longitude": -119.38678736770758}, "891541849RR0001": {"name": "OKANAGAN CHORAL SOCIETY", "designationCode": "C", "categoryCode": "22", "address": "1527 DUNCAN DRIVE", "city": "KELOWNA", "province": "BC", "country": "CA", "postalCode": "V1P1L2", "twitter": "None", "instagram": "None", "facebook": "None", "youtube": "None", "website": "None", "summary": "None", "logo": "None", "latitude": 49.86968184124875, "longitude": -119.34861461125882}, "857037576RR0001": {"name": "OKANAGAN COLLEGE", "designationCode": "C", "categoryCode": "20", "address": "1000 KLO ROAD", "city": "KELOWNA", "province": "BC", "country": "CA", "postalCode": "V1Y4X8", "twitter": "None", "instagram": "None", "facebook": "None", "youtube": "None", "website": "None", "summary": "None", "logo": "None", "latitude": 49.86099451211812, "longitude": -119.47926141618098}, "887636892RR0001": {"name": "OKANAGAN COLLEGE ALUMNI ASSOCIATION", "designationCode": "C", "categoryCode": "21", "address": "1000 KLO ROAD", "city": "KELOWNA", "province": "BC", "country": "CA", "postalCode": "V1Y4X8", "twitter": "None", "instagram": "None", "facebook": "None", "youtube": "None", "website": "None", "summary": "None", "logo": "None", "latitude": 49.86099451211812, "longitude": -119.47926141618098}, "862488194RR0001": {"name": "OKANAGAN COLLEGE FOUNDATION", "designationCode": "A", "categoryCode": "23", "address": "1000 KLO RD", "city": "KELOWNA", "province": "BC", "country": "CA", "postalCode": "V1Y4X8", "twitter": "None", "instagram": "None", "facebook": "None", "youtube": "None", "website": "None", "summary": "None", "logo": "None", "latitude": 49.86099451211812, "longitude": -119.47926141618098}, "810631879RR0001": {"name": "OKANAGAN COLLIE RESCUE SOCIETY", "designationCode": "C", "categoryCode": "54", "address": "5620 GRANT ST", "city": "BURNABY", "province": "BC", "country": "CA", "postalCode": "V5B2K3", "twitter": "None", "instagram": "None", "facebook": "None", "youtube": "None", "website": "None", "summary": "None", "logo": "None", "latitude": 49.27027654284748, "longitude": -122.98214177699232}, "107793192RR0001": {"name": "OKANAGAN COMMEMORATIVE PIONEER CULTURAL SOCIETY", "designationCode": "C", "categoryCode": "09", "address": "403-3003 GATEBY PL", "city": "VERNON", "province": "BC", "country": "CA", "postalCode": "V1T9H5", "twitter": "None", "instagram": "None", "facebook": "None", "youtube": "None", "website": "None", "summary": "None", "logo": "None", "latitude": 50.26473371720796, "longitude": -119.28227109475465}, "119288918RR0514": {"name": "OKANAGAN CONGREGATION OF JEHOVAH'S WITNESSES", "designationCode": "C", "categoryCode": "61", "address": "5700 HERITAGE DR", "city": "VERNON", "province": "BC", "country": "CA", "postalCode": "V1H1A5", "twitter": "None", "instagram": "None", "facebook": "None", "youtube": "None", "website": "None", "summary": "None", "logo": "None", "latitude": 50.26084959781306, "longitude": -119.31185702677597}, "888762465RR0001": {"name": "OKANAGAN CRIME STOPPERS SOCIETY", "designationCode": "C", "categoryCode": "59", "address": "350 DOYLE AVENUE", "city": "KELOWNA", "province": "BC", "country": "CA", "postalCode": "V1Y6V7", "twitter": "None", "instagram": "None", "facebook": "None", "youtube": "None", "website": "None", "summary": "None", "logo": "None", "latitude": 49.8889834538343, "longitude": -119.49576202553521}, "119066058RR0001": {"name": "OKANAGAN FALLS COMMUNITY CHURCH (BAPTIST)", "designationCode": "C", "categoryCode": "31", "address": "1356 MCLEAN CREEK ROAD", "city": "OKANAGAN FALLS", "province": "BC", "country": "CA", "postalCode": "V0H1R1", "twitter": "None", "instagram": "None", "facebook": "None", "youtube": "None", "website": "None", "summary": "None", "logo": "None", "latitude": 49.339444277511916, "longitude": -119.56411584823095}, "856163548RR0001": {"name": "OKANAGAN FALLS HELPING HAND", "designationCode": "C", "categoryCode": "09", "address": "P.O. BOX 640", "city": "OKANAGAN FALLS", "province": "BC", "country": "CA", "postalCode": "V0H1R0", "twitter": "None", "instagram": "None", "facebook": "None", "youtube": "None", "website": "None", "summary": "None", "logo": "None", "latitude": 49.34373000000005, "longitude": -119.57151999999996}, "119066074RR0001": {"name": "OKANAGAN FALLS SENIOR ACTIVITIES", "designationCode": "C", "categoryCode": "56", "address": "BOX 515", "city": "OKANAGAN FALLS", "province": "BC", "country": "CA", "postalCode": "V0H1R0", "twitter": "None", "instagram": "None", "facebook": "None", "youtube": "None", "website": "None", "summary": "None", "logo": "None", "latitude": 49.34373000000005, "longitude": -119.57151999999996}, "107793267RR0001": {"name": "OKANAGAN FALLS UNITED CHURCH", "designationCode": "C", "categoryCode": "39", "address": "BOX 47,1108 WILLOW STREET", "city": "OKANAGAN FALLS", "province": "BC", "country": "CA", "postalCode": "V0H1R0", "twitter": "None", "instagram": "None", "facebook": "None", "youtube": "None", "website": "None", "summary": "None", "logo": "None", "latitude": 49.34259970191587, "longitude": -119.57302206719926}, "892706243RR0001": {"name": "OKANAGAN FALLS VOLUNTEER FIRE DEPARTMENT", "designationCode": "C", "categoryCode": "59", "address": "PO BOX 484", "city": "OKANAGAN FALLS", "province": "BC", "country": "CA", "postalCode": "V0H1R0", "twitter": "None", "instagram": "None", "facebook": "None", "youtube": "None", "website": "None", "summary": "None", "logo": "None", "latitude": 49.34373000000005, "longitude": -119.57151999999996}, "119066066RR0001": {"name": "OKANAGAN FALLS' HERITAGE AND MUSEUM SOCIETY", "designationCode": "C", "categoryCode": "52", "address": "BOX 323", "city": "OKANAGAN FALLS", "province": "BC", "country": "CA", "postalCode": "V0H1R0", "twitter": "None", "instagram": "None", "facebook": "None", "youtube": "None", "website": "None", "summary": "None", "logo": "None", "latitude": 49.34373000000005, "longitude": -119.57151999999996}, "895765543RR0001": {"name": "OKANAGAN GLEANERS", "designationCode": "C", "categoryCode": "09", "address": "RR#1 SITE 70 COMP 22", "city": "OLIVER", "province": "BC", "country": "CA", "postalCode": "V0H1T0", "twitter": "None", "instagram": "None", "facebook": "None", "youtube": "None", "website": "None", "summary": "None", "logo": "None", "latitude": 49.088513193812254, "longitude": -119.53878758371586}, "123482002RR0001": {"name": "OKANAGAN HALFWAY HOUSE SOCIETY", "designationCode": "C", "categoryCode": "01", "address": "1822 CHANDLER ST", "city": "KELOWNA", "province": "BC", "country": "CA", "postalCode": "V1Y3Z1", "twitter": "None", "instagram": "None", "facebook": "None", "youtube": "None", "website": "None", "summary": "None", "logo": "None", "latitude": 49.881784145637155, "longitude": -119.46899574632629}, "886591858RR0001": {"name": "OKANAGAN HINDU SOCIETY", "designationCode": "C", "categoryCode": "48", "address": "BOX 126", "city": "SUMMERLAND", "province": "BC", "country": "CA", "postalCode": "V0H1Z0", "twitter": "None", "instagram": "None", "facebook": "None", "youtube": "None", "website": "None", "summary": "None", "logo": "None", "latitude": 49.60131900000006, "longitude": -119.67899299999993}, "119066082RR0001": {"name": "OKANAGAN HISTORICAL SOCIETY", "designationCode": "C", "categoryCode": "50", "address": "PO BOX 313                    STN. MAIN", "city": "VERNON", "province": "BC", "country": "CA", "postalCode": "V1T6M3", "twitter": "None", "instagram": "None", "facebook": "None", "youtube": "None", "website": "None", "summary": "None", "logo": "None", "latitude": 50.26567200000005, "longitude": -119.27378149999993}, "733691497RR0001": {"name": "OKANAGAN HOCKEY COMMUNITY FOUNDATION", "designationCode": "C", "categoryCode": "21", "address": "1800-510 GEORGIA W ST", "city": "VANCOUVER", "province": "BC", "country": "CA", "postalCode": "V6B0M3", "twitter": "None", "instagram": "None", "facebook": "None", "youtube": "None", "website": "None", "summary": "None", "logo": "None", "latitude": 49.28012307167682, "longitude": -123.11442679241839}, "888817269RR0001": {"name": "OKANAGAN HUMANE SOCIETY", "designationCode": "C", "categoryCode": "54", "address": "14651 OYAMA RD", "city": "OYAMA", "province": "BC", "country": "CA", "postalCode": "V4V2C7", "twitter": "None", "instagram": "None", "facebook": "None", "youtube": "None", "website": "None", "summary": "None", "logo": "None", "latitude": 50.09556577018298, "longitude": -119.36842203410491}, "119066108RR0001": {"name": "OKANAGAN JAPANESE UNITED CHURCH", "designationCode": "C", "categoryCode": "44", "address": "1005 EUCLID RD", "city": "KELOWNA", "province": "BC", "country": "CA", "postalCode": "V1X3L1", "twitter": "None", "instagram": "None", "facebook": "None", "youtube": "None", "website": "None", "summary": "None", "logo": "None", "latitude": 49.90160700000001, "longitude": -119.39220833164079}, "870257763RR0001": {"name": "OKANAGAN JAZZ AND BLUES SOCIETY", "designationCode": "C", "categoryCode": "22", "address": "804 ELLIOT AVE", "city": "KELOWNA", "province": "BC", "country": "CA", "postalCode": "V1Y5T1", "twitter": "None", "instagram": "None", "facebook": "None", "youtube": "None", "website": "None", "summary": "None", "logo": "None", "latitude": 49.87881544604402, "longitude": -119.48531061073922}, "133382721RR0001": {"name": "OKANAGAN JEWISH COMMUNITY ASSOCIATION", "designationCode": "C", "categoryCode": "49", "address": "102 SNOWSELL ST. NORTH", "city": "KELOWNA", "province": "BC", "country": "CA", "postalCode": "V1V2E2", "twitter": "None", "instagram": "None", "facebook": "None", "youtube": "None", "website": "None", "summary": "None", "logo": "None", "latitude": 49.928522351953205, "longitude": -119.43757081908905}, "895266435RR0001": {"name": "OKANAGAN KIDS CARE FUND SOCIETY", "designationCode": "A", "categoryCode": "53", "address": "3805 LAKESHORE ROAD", "city": "KELOWNA", "province": "BC", "country": "CA", "postalCode": "V1W3K6", "twitter": "None", "instagram": "None", "facebook": "None", "youtube": "None", "website": "None", "summary": "None", "logo": "None", "latitude": 49.84506815153791, "longitude": -119.48772030065255}, "863540449RR0001": {"name": "OKANAGAN LIFETIME NETWORKS ASSOCIATION", "designationCode": "C", "categoryCode": "09", "address": "1650 BERNARD AVENUE", "city": "KELOWNA", "province": "BC", "country": "CA", "postalCode": "V1Y6R9", "twitter": "None", "instagram": "None", "facebook": "None", "youtube": "None", "website": "None", "summary": "None", "logo": "None", "latitude": 49.886755158699856, "longitude": -119.46165802038558}, "119066124RR0001": {"name": "OKANAGAN MAINLINE OSTOMY ASSOCIATION OF BRITISH COLUMBIA", "designationCode": "C", "categoryCode": "11", "address": "8200 ROGERS RD.", "city": "VERNON", "province": "BC", "country": "CA", "postalCode": "V1B3M7", "twitter": "None", "instagram": "None", "facebook": "None", "youtube": "None", "website": "None", "summary": "None", "logo": "None", "latitude": 50.32853046879933, "longitude": -119.16357642239282}, "864828934RR0001": {"name": "OKANAGAN MENTAL HEALTH SERVICES SOCIETY", "designationCode": "C", "categoryCode": "11", "address": "112-2303 LECKIE ROAD", "city": "KELOWNA", "province": "BC", "country": "CA", "postalCode": "V1X6Y5", "twitter": "None", "instagram": "None", "facebook": "None", "youtube": "None", "website": "None", "summary": "None", "logo": "None", "latitude": 49.88526172491227, "longitude": -119.43419720457025}, "118978816RR0001": {"name": "OKANAGAN METIS & ABORIGINAL HOUSING SOCIETY", "designationCode": "C", "categoryCode": "09", "address": "240 - 1855 KIRSCHNER RD", "city": "KELOWNA", "province": "BC", "country": "CA", "postalCode": "V1Y4N7", "twitter": "None", "instagram": "None", "facebook": "None", "youtube": "None", "website": "None", "summary": "None", "logo": "None", "latitude": 49.880121976650905, "longitude": -119.45816672061306}, "134330737RR0001": {"name": "OKANAGAN MILITARY MUSEUM SOCIETY", "designationCode": "C", "categoryCode": "50", "address": "PO BOX 24079,                 RPO TOWNE CENTRE", "city": "KELOWNA", "province": "BC", "country": "CA", "postalCode": "V1Y9H2", "twitter": "None", "instagram": "None", "facebook": "None", "youtube": "None", "website": "None", "summary": "None", "logo": "None", "latitude": 49.886279922817444, "longitude": -119.49080999999995}, "131212003RR0001": {"name": "OKANAGAN MISSION COMMUNITY HALL ASSOCIATION", "designationCode": "C", "categoryCode": "56", "address": "4409 LAKESHORE RD", "city": "KELOWNA", "province": "BC", "country": "CA", "postalCode": "V1W1W7", "twitter": "None", "instagram": "None", "facebook": "None", "youtube": "None", "website": "None", "summary": "None", "logo": "None", "latitude": 49.82253094725612, "longitude": -119.48881589099246}, "878911122RR0001": {"name": "OKANAGAN MISSION SENIOR CENTRE", "designationCode": "C", "categoryCode": "09", "address": "4395 HOBSON ROAD", "city": "KELOWNA", "province": "BC", "country": "CA", "postalCode": "V1W1Y3", "twitter": "None", "instagram": "None", "facebook": "None", "youtube": "None", "website": "None", "summary": "None", "logo": "None", "latitude": 49.82711221724101, "longitude": -119.4957902953926}, "134624667RR0001": {"name": "OKANAGAN MONTESSORI ELEMENTARY SCHOOL SOCIETY", "designationCode": "C", "categoryCode": "20", "address": "3439 EAST KELOWNA RD.", "city": "KELOWNA", "province": "BC", "country": "CA", "postalCode": "V1Y6R2", "twitter": "None", "instagram": "None", "facebook": "None", "youtube": "None", "website": "None", "summary": "None", "logo": "None", "latitude": 49.86707820341562, "longitude": -119.40577781897477}, "874916208RR0001": {"name": "OKANAGAN NATION FAMILY INTERVENTION AND SERVICES SOCIETY", "designationCode": "C", "categoryCode": "09", "address": "22-650 DUNCAN AVE WEST", "city": "PENTICTON", "province": "BC", "country": "CA", "postalCode": "V2A7N1", "twitter": "None", "instagram": "None", "facebook": "None", "youtube": "None", "website": "None", "summary": "None", "logo": "None", "latitude": 49.48697909602406, "longitude": -119.60438762934956}, "892691718RR0001": {"name": "OKANAGAN PROSTATE RESOURCE CENTRE SOCIETY", "designationCode": "C", "categoryCode": "11", "address": "105 1405 GUISACHAN PLACE", "city": "KELOWNA", "province": "BC", "country": "CA", "postalCode": "V1Y9X8", "twitter": "None", "instagram": "None", "facebook": "None", "youtube": "None", "website": "None", "summary": "None", "logo": "None", "latitude": 49.872762503462454, "longitude": -119.46914100000001}, "135866432RR0001": {"name": "OKANAGAN QUALITY LIFE SOCIETY (QLS)", "designationCode": "C", "categoryCode": "09", "address": "3000 GATEBY PL", "city": "VERNON", "province": "BC", "country": "CA", "postalCode": "V1T8V8", "twitter": "None", "instagram": "None", "facebook": "None", "youtube": "None", "website": "None", "summary": "None", "logo": "None", "latitude": 50.264576330544266, "longitude": -119.28203179416035}, "133285882RR0001": {"name": "OKANAGAN REGIONAL LIBRARY DISTRICT", "designationCode": "A", "categoryCode": "50", "address": "1430 K.L.O. RD", "city": "KELOWNA", "province": "BC", "country": "CA", "postalCode": "V1W3P6", "twitter": "None", "instagram": "None", "facebook": "None", "youtube": "None", "website": "None", "summary": "None", "logo": "None", "latitude": 49.861041963409384, "longitude": -119.46814123824142}, "870679735RR0001": {"name": "OKANAGAN SIMILKAMEEN CONSERVATION ALLIANCE", "designationCode": "C", "categoryCode": "52", "address": "113 - 437 MARTIN ST", "city": "PENTICTON", "province": "BC", "country": "CA", "postalCode": "V2A5L1", "twitter": "None", "instagram": "None", "facebook": "None", "youtube": "None", "website": "None", "summary": "None", "logo": "None", "latitude": 49.49611582431186, "longitude": -119.5923936051993}, "119066199RR0001": {"name": "OKANAGAN SIMILKAMEEN PARKS SOCIETY", "designationCode": "C", "categoryCode": "54", "address": "BOX 787,", "city": "SUMMERLAND", "province": "BC", "country": "CA", "postalCode": "V0H1Z0", "twitter": "None", "instagram": "None", "facebook": "None", "youtube": "None", "website": "None", "summary": "None", "logo": "None", "latitude": 49.60131900000006, "longitude": -119.67899299999993}, "141023671RR0001": {"name": "OKANAGAN SPECIAL PEOPLE SOCIETY", "designationCode": "C", "categoryCode": "59", "address": "6957 TERAZONA DR", "city": "KELOWNA", "province": "BC", "country": "CA", "postalCode": "V1Z3R8", "twitter": "None", "instagram": "None", "facebook": "None", "youtube": "None", "website": "None", "summary": "None", "logo": "None", "latitude": 50.120022866810494, "longitude": -119.51519949313351}, "119066215RR0001": {"name": "OKANAGAN SYMPHONY SOCIETY", "designationCode": "C", "categoryCode": "22", "address": "865 BERNARD AVE", "city": "KELOWNA", "province": "BC", "country": "CA", "postalCode": "V1Y6P6", "twitter": "None", "instagram": "None", "facebook": "None", "youtube": "None", "website": "None", "summary": "None", "logo": "None", "latitude": 49.88626449567219, "longitude": -119.4838515}, "119066223RR0001": {"name": "OKANAGAN VALLEY MUSIC FESTIVAL SOCIETY OF PENTICTON", "designationCode": "C", "categoryCode": "22", "address": "P.O. BOX 23041", "city": "PENTICTON", "province": "BC", "country": "CA", "postalCode": "V2A8L7", "twitter": "None", "instagram": "None", "facebook": "None", "youtube": "None", "website": "None", "summary": "None", "logo": "None", "latitude": 49.50021300000006, "longitude": -119.59384399999993}, "863797171RR0001": {"name": "OKANAGAN VALLEY PREGNANCY CARE CENTRE", "designationCode": "C", "categoryCode": "09", "address": "201-2622 PANDOSY ST", "city": "KELOWNA", "province": "BC", "country": "CA", "postalCode": "V1Y1V6", "twitter": "None", "instagram": "None", "facebook": "None", "youtube": "None", "website": "None", "summary": "None", "logo": "None", "latitude": 49.867001351707025, "longitude": -119.49128877951561}, "119066181RR0001": {"name": "OKANAGAN-SIMILKAMEEN NEUROLOGICAL SOCIETY", "designationCode": "C", "categoryCode": "11", "address": "103-550 CARMI AVE", "city": "PENTICTON", "province": "BC", "country": "CA", "postalCode": "V2A3G6", "twitter": "None", "instagram": "None", "facebook": "None", "youtube": "None", "website": "None", "summary": "None", "logo": "None", "latitude": 49.48263050346246, "longitude": -119.5783335}, "899081947RR0001": {"name": "OKE-IGBALA AYO SPIRITUAL CHURCH OF CHRIST CHERUBIM AND SERAPHIM KERUBU AND SERAFU", "designationCode": "C", "categoryCode": "39", "address": "130 INDUSTRY STREET           UNIT 15", "city": "TORONTO", "province": "ON", "country": "CA", "postalCode": "M6M5G3", "twitter": "None", "instagram": "None", "facebook": "None", "youtube": "None", "website": "None", "summary": "None", "logo": "None", "latitude": 43.69451294061968, "longitude": -79.49522143767682}, "108090713RR0001": {"name": "OKEEFE RANCH & INTERIOR HERITAGE SOCIETY", "designationCode": "C", "categoryCode": "50", "address": "BOX 955", "city": "VERNON", "province": "BC", "country": "CA", "postalCode": "V1T6M8", "twitter": "None", "instagram": "None", "facebook": "None", "youtube": "None", "website": "None", "summary": "None", "logo": "None", "latitude": 50.26567200000005, "longitude": -119.27378149999993}, "873242200RR0001": {"name": "OKLA COMMUNITY CEMETERY COMMITTEE", "designationCode": "C", "categoryCode": "59", "address": "PO BOX 44", "city": "OKLA", "province": "SK", "country": "CA", "postalCode": "S0A2X0", "twitter": "None", "instagram": "None", "facebook": "None", "youtube": "None", "website": "None", "summary": "None", "logo": "None", "latitude": 51.99816300000006, "longitude": -103.22328049999993}, "137674768RR0001": {"name": "OKOTOKS AGRICULTURAL SOCIETY", "designationCode": "C", "categoryCode": "56", "address": "RR 2, SITE 2, BOX 1", "city": "OKOTOKS", "province": "AB", "country": "CA", "postalCode": "T1S1A2", "twitter": "None", "instagram": "None", "facebook": "None", "youtube": "None", "website": "None", "summary": "None", "logo": "None", "latitude": 50.72589600000006, "longitude": -113.97494149999994}, "129003067RR0001": {"name": "OKOTOKS ALLIANCE CHURCH", "designationCode": "C", "categoryCode": "39", "address": "BOX 202", "city": "OKOTOKS", "province": "AB", "country": "CA", "postalCode": "T1S1A5", "twitter": "None", "instagram": "None", "facebook": "None", "youtube": "None", "website": "None", "summary": "None", "logo": "None", "latitude": 50.72589600000006, "longitude": -113.97494149999994}, "107793713RR0001": {"name": "OKOTOKS ARTS COUNCIL", "designationCode": "C", "categoryCode": "22", "address": "BOX 149", "city": "OKOTOKS", "province": "AB", "country": "CA", "postalCode": "T1S1A4", "twitter": "None", "instagram": "None", "facebook": "None", "youtube": "None", "website": "None", "summary": "None", "logo": "None", "latitude": 50.72589600000006, "longitude": -113.97494149999994}, "892564964RR0001": {"name": "OKOTOKS BRANCH #291, ROYAL CANADIAN LEGION POPPY TRUST FUNDS", "designationCode": "C", "categoryCode": "05", "address": "PO BOX 937", "city": "OKOTOKS", "province": "AB", "country": "CA", "postalCode": "T1S1B1", "twitter": "None", "instagram": "None", "facebook": "None", "youtube": "None", "website": "None", "summary": "None", "logo": "None", "latitude": 50.72589600000006, "longitude": -113.97494149999994}, "132397811RR0001": {"name": "OKOTOKS EVANGELICAL FREE CHURCH,", "designationCode": "C", "categoryCode": "39", "address": "28 WESTLAND RD.", "city": "OKOTOKS", "province": "AB", "country": "CA", "postalCode": "T1S1T2", "twitter": "None", "instagram": "None", "facebook": "None", "youtube": "None", "website": "None", "summary": "None", "logo": "None", "latitude": 50.7143275099669, "longitude": -113.9797185902429}, "890359045RR0001": {"name": "OKOTOKS PASTORAL CHARGE,", "designationCode": "C", "categoryCode": "44", "address": "BOX 507", "city": "OKOTOKS", "province": "AB", "country": "CA", "postalCode": "T1S1A7", "twitter": "None", "instagram": "None", "facebook": "None", "youtube": "None", "website": "None", "summary": "None", "logo": "None", "latitude": 50.72589600000006, "longitude": -113.97494149999994}, "808610042RR0001": {"name": "OKSANA'S HARVEST LIMITED", "designationCode": "C", "categoryCode": "09", "address": "33 RIDGEVIEW DR", "city": "KESWICK RIDGE", "province": "NB", "country": "CA", "postalCode": "E6L1R1", "twitter": "None", "instagram": "None", "facebook": "None", "youtube": "None", "website": "None", "summary": "None", "logo": "None", "latitude": 45.97528339552183, "longitude": -66.84951110274648}, "880943709RR0001": {"name": "OKTOECHO", "designationCode": "C", "categoryCode": "22", "address": "2120 - 10300 RUE LAJEUNESSE", "city": "MONTREAL", "province": "QC", "country": "CA", "postalCode": "H3L2E5", "twitter": "None", "instagram": "None", "facebook": "None", "youtube": "None", "website": "None", "summary": "None", "logo": "None", "latitude": 45.55358317011958, "longitude": -73.66266993686875}, "816346688RR0001": {"name": "OLA Children's Project", "designationCode": "C", "categoryCode": "09", "address": "621 FERNDALE AVE", "city": "FORT ERIE", "province": "ON", "country": "CA", "postalCode": "L2A5C7", "twitter": "None", "instagram": "None", "facebook": "None", "youtube": "None", "website": "None", "summary": "None", "logo": "None", "latitude": 42.89263238773157, "longitude": -78.96809104097154}, "119066306RR0001": {"name": "OLAFSON BROTHERS MEMORIAL FUND INC.", "designationCode": "C", "categoryCode": "01", "address": "PO BOX 475", "city": "GLENBORO", "province": "MB", "country": "CA", "postalCode": "R0K0X0", "twitter": "None", "instagram": "None", "facebook": "None", "youtube": "None", "website": "None", "summary": "None", "logo": "None", "latitude": 49.55755000000005, "longitude": -99.29090999999994}, "887827061RR0001": {"name": "OLD AGE PENSIONERS' OF BC SCHOLARSHIP SOCIETY", "designationCode": "C", "categoryCode": "21", "address": "406 - 9168 CORBOULD ST", "city": "CHILLIWACK", "province": "BC", "country": "CA", "postalCode": "V2P8A1", "twitter": "None", "instagram": "None", "facebook": "None", "youtube": "None", "website": "None", "summary": "None", "logo": "None", "latitude": 49.16868614348781, "longitude": -121.96471268552723}, "891820847RR0001": {"name": "OLD APOSTOLIC LUTHERAN CHURCH OF BARRIE", "designationCode": "C", "categoryCode": "32", "address": "8520 CONC. 9 RR1", "city": "UTOPIA", "province": "ON", "country": "CA", "postalCode": "L0M1T0", "twitter": "None", "instagram": "None", "facebook": "None", "youtube": "None", "website": "None", "summary": "None", "logo": "None", "latitude": 44.335198256791664, "longitude": -79.78671470093548}, "119066314RR0001": {"name": "OLD APOSTOLIC LUTHERAN CHURCH OF SAULT STE. MARIE, ONTARIO", "designationCode": "C", "categoryCode": "32", "address": "12 FISH HATCHERY RD", "city": "SAULT STE-MARIE", "province": "ON", "country": "CA", "postalCode": "P6A6J8", "twitter": "None", "instagram": "None", "facebook": "None", "youtube": "None", "website": "None", "summary": "None", "logo": "None", "latitude": 46.57519349321934, "longitude": -84.28226279003405}, "891428724RR0001": {"name": "OLD BEAVER RIVER/PORT MAITLAND CEMETERIES PRESERVATION SOCIETY", "designationCode": "C", "categoryCode": "59", "address": "3199 HIGHWAY 1", "city": "PORT MAITLAND", "province": "NS", "country": "CA", "postalCode": "B5A5T4", "twitter": "None", "instagram": "None", "facebook": "None", "youtube": "None", "website": "None", "summary": "None", "logo": "None", "latitude": 43.981751793389336, "longitude": -66.14718113313856}, "119066322RR0001": {"name": "OLD BERGTHALER MENNONITE CHURCH", "designationCode": "C", "categoryCode": "34", "address": "BOX 575", "city": "HAGUE", "province": "SK", "country": "CA", "postalCode": "S0K1X0", "twitter": "None", "instagram": "None", "facebook": "None", "youtube": "None", "website": "None", "summary": "None", "logo": "None", "latitude": 52.50953000000004, "longitude": -106.41138999999998}, "892013608RR0001": {"name": "OLD BREWERY MISSION FOUNDATION / FONDATION MISSION OLD BREWERY", "designationCode": "A", "categoryCode": "03", "address": "250-393 RUE SAINT-JACQUES", "city": "MONTREAL", "province": "QC", "country": "CA", "postalCode": "H2Y1N9", "twitter": "None", "instagram": "None", "facebook": "None", "youtube": "None", "website": "None", "summary": "None", "logo": "None", "latitude": 45.501904759651424, "longitude": -73.55992729283267}, "119066330RR0001": {"name": "OLD BURYING GROUND FOUNDATION", "designationCode": "C", "categoryCode": "52", "address": "79 BEDROS LANE #208", "city": "HALIFAX", "province": "NS", "country": "CA", "postalCode": "B3M4X5", "twitter": "None", "instagram": "None", "facebook": "None", "youtube": "None", "website": "None", "summary": "None", "logo": "None", "latitude": 44.700055170639175, "longitude": -63.663747401061755}, "107793887RR0001": {"name": "OLD CALENDAR GREEK EASTERN METROPOLIA OF GNESION ORTHODOXON", "designationCode": "C", "categoryCode": "39", "address": "4520 HUTCHISON ST", "city": "MONTREAL", "province": "QC", "country": "CA", "postalCode": "H2V4A1", "twitter": "None", "instagram": "None", "facebook": "None", "youtube": "None", "website": "None", "summary": "None", "logo": "None", "latitude": 45.516526523717545, "longitude": -73.59045425105306}, "890164783RR0001": {"name": "OLD CEMETERIES SOCIETY OF VICTORIA", "designationCode": "C", "categoryCode": "52", "address": "PO BOX 50004                  RPO FAIRFIELD PLAZA", "city": "VICTORIA", "province": "BC", "country": "CA", "postalCode": "V8S5L8", "twitter": "None", "instagram": "None", "facebook": "None", "youtube": "None", "website": "None", "summary": "None", "logo": "None", "latitude": 48.412379211710814, "longitude": -123.33598666847247}, "893265165RR0001": {"name": "OLD CLARENDON CEMETERY", "designationCode": "C", "categoryCode": "59", "address": "C260 HEATH ROAD", "city": "SHAWVILLE", "province": "QC", "country": "CA", "postalCode": "J0X2Y0", "twitter": "None", "instagram": "None", "facebook": "None", "youtube": "None", "website": "None", "summary": "None", "logo": "None", "latitude": 45.60212400000006, "longitude": -76.48501849999994}, "119066363RR0001": {"name": "OLD COLONY MENNONITE CHURCH", "designationCode": "C", "categoryCode": "34", "address": "14 MAIN ST", "city": "NEUANLAGE", "province": "SK", "country": "CA", "postalCode": "S0K1X1", "twitter": "None", "instagram": "None", "facebook": "None", "youtube": "None", "website": "None", "summary": "None", "logo": "None", "latitude": 52.63564328544229, "longitude": -104.89346787531736}, "884444423RR0001": {"name": "OLD DURHAM ROAD PIONEER CEMETERY COMMITTEE", "designationCode": "C", "categoryCode": "52", "address": "106 HARCOURT AVE", "city": "TORONTO", "province": "ON", "country": "CA", "postalCode": "M4J1J2", "twitter": "None", "instagram": "None", "facebook": "None", "youtube": "None", "website": "None", "summary": "None", "logo": "None", "latitude": 43.67807323065375, "longitude": -79.3407585431646}, "891226342RR0001": {"name": "OLD ELM CHARITABLE TRUST", "designationCode": "B", "categoryCode": "39", "address": "PO BOX 220", "city": "MAGRATH", "province": "AB", "country": "CA", "postalCode": "T0K1J0", "twitter": "None", "instagram": "None", "facebook": "None", "youtube": "None", "website": "None", "summary": "None", "logo": "None", "latitude": 49.41887400000001, "longitude": -112.86699300000001}, "849172523RR0001": {"name": "OLD FARM CEMETERY SOCIETY", "designationCode": "C", "categoryCode": "59", "address": "5479 HIGHWAY 3                PO BOX 81", "city": "SHAG HARBOUR", "province": "NS", "country": "CA", "postalCode": "B0W3B0", "twitter": "None", "instagram": "None", "facebook": "None", "youtube": "None", "website": "None", "summary": "None", "logo": "None", "latitude": 43.49678704213356, "longitude": -65.70241423109346}, "119066389RR0001": {"name": "OLD HAY BAY UNITED CHURCH", "designationCode": "C", "categoryCode": "44", "address": "1105-828 SUTTON MILLS COURT", "city": "KINGSTON", "province": "ON", "country": "CA", "postalCode": "K7P2S9", "twitter": "None", "instagram": "None", "facebook": "None", "youtube": "None", "website": "None", "summary": "None", "logo": "None", "latitude": 44.255770979635585, "longitude": -76.57526593224635}, "886214113RR0001": {"name": "OLD HOLY TRINITY CHARITABLE TRUST", "designationCode": "C", "categoryCode": "52", "address": "P.O. BOX 1105", "city": "MIDDLETON", "province": "NS", "country": "CA", "postalCode": "B0S1P0", "twitter": "None", "instagram": "None", "facebook": "None", "youtube": "None", "website": "None", "summary": "None", "logo": "None", "latitude": 45.01449600000005, "longitude": -65.06449099999993}, "119066397RR0001": {"name": "OLD LADIES HOME SOCIETY", "designationCode": "C", "categoryCode": "01", "address": "60 WILLIAM ST", "city": "YARMOUTH", "province": "NS", "country": "CA", "postalCode": "B5A1Y5", "twitter": "None", "instagram": "None", "facebook": "None", "youtube": "None", "website": "None", "summary": "None", "logo": "None", "latitude": 43.832469331669444, "longitude": -66.1175278877602}, "119066405RR0001": {"name": "OLD MACDONALD'S DAY CARE (KINGSTON) INC.", "designationCode": "C", "categoryCode": "20", "address": "237 SYDENHAM STREET", "city": "KINGSTON", "province": "ON", "country": "CA", "postalCode": "K7K3M3", "twitter": "None", "instagram": "None", "facebook": "None", "youtube": "None", "website": "None", "summary": "None", "logo": "None", "latitude": 44.23416600721337, "longitude": -76.48677425587182}, "890250061RR0001": {"name": "OLD MILL SOCIETY FOR CULTURAL STUDIES", "designationCode": "C", "categoryCode": "22", "address": "31 GORDON AVE.", "city": "KITCHENER", "province": "ON", "country": "CA", "postalCode": "N2H1N7", "twitter": "None", "instagram": "None", "facebook": "None", "youtube": "None", "website": "None", "summary": "None", "logo": "None", "latitude": 43.4554320283052, "longitude": -80.48106432099362}, "892477019RR0001": {"name": "OLD MILLBROOK SCHOOL FAMILY CENTRE INC.", "designationCode": "C", "categoryCode": "09", "address": "1 DUFFERIN STREET", "city": "MILLBROOK", "province": "ON", "country": "CA", "postalCode": "L0A1G0", "twitter": "None", "instagram": "None", "facebook": "None", "youtube": "None", "website": "None", "summary": "None", "logo": "None", "latitude": 44.15023890365884, "longitude": -78.44500511474995}, "119066421RR0001": {"name": "OLD ORDER MENNONITE CONFERENCE", "designationCode": "C", "categoryCode": "34", "address": "7277 THIRD LINE               RR2", "city": "WALLENSTEIN", "province": "ON", "country": "CA", "postalCode": "N0B2S0", "twitter": "None", "instagram": "None", "facebook": "None", "youtube": "None", "website": "None", "summary": "None", "logo": "None", "latitude": 43.621112407467066, "longitude": -80.6173829965089}, "107794075RR0001": {"name": "OLD PERLICAN PASTORAL CHARGE", "designationCode": "C", "categoryCode": "44", "address": "PO BOX 37", "city": "OLD PERLICAN", "province": "NL", "country": "CA", "postalCode": "A0A3G0", "twitter": "None", "instagram": "None", "facebook": "None", "youtube": "None", "website": "None", "summary": "None", "logo": "None", "latitude": 48.08319000000006, "longitude": -53.01475999999997}, "868842428RR0001": {"name": "OLD PROTESTANT CEMETERY BURIAL GROUND INC.", "designationCode": "C", "categoryCode": "59", "address": "205 MT. EDWARD RD", "city": "CHARLOTTETOWN", "province": "PE", "country": "CA", "postalCode": "C1A5T1", "twitter": "None", "instagram": "None", "facebook": "None", "youtube": "None", "website": "None", "summary": "None", "logo": "None", "latitude": 46.26649989647413, "longitude": -63.13759866279063}, "855673778RR0001": {"name": "OLD ROMAN CATHOLIC CHURCH IN CANADA", "designationCode": "C", "categoryCode": "38", "address": "75 ALBERT STREET              SUITE #207", "city": "LONDON", "province": "ON", "country": "CA", "postalCode": "N6A1L7", "twitter": "None", "instagram": "None", "facebook": "None", "youtube": "None", "website": "None", "summary": "None", "logo": "None", "latitude": 42.98741941271852, "longitude": -81.25576184482675}, "108004698RR0001": {"name": "OLD ST. ANDREW'S PRESBYTERIAN CHURCH", "designationCode": "C", "categoryCode": "37", "address": "BOX 328", "city": "COLBORNE", "province": "ON", "country": "CA", "postalCode": "K0K1S0", "twitter": "None", "instagram": "None", "facebook": "None", "youtube": "None", "website": "None", "summary": "None", "logo": "None", "latitude": 44.47739277748983, "longitude": -77.31137062647974}, "119066595RR0001": {"name": "OLD ST. JOHN'S STAMFORD HERITAGE ASSOCIATION INCORPORATED", "designationCode": "C", "categoryCode": "52", "address": "3428 PORTAGE RD", "city": "NIAGARA FALLS", "province": "ON", "country": "CA", "postalCode": "L2J2K4", "twitter": "None", "instagram": "None", "facebook": "None", "youtube": "None", "website": "None", "summary": "None", "logo": "None", "latitude": 43.12350813044608, "longitude": -79.09953545513329}, "107794323RR0002": {"name": "OLD ST. PAULS ANGLICAN CHURCH", "designationCode": "C", "categoryCode": "30", "address": "723 DUNDAS ST.", "city": "WOODSTOCK", "province": "ON", "country": "CA", "postalCode": "N4S1E8", "twitter": "None", "instagram": "None", "facebook": "None", "youtube": "None", "website": "None", "summary": "None", "logo": "None", "latitude": 43.13161334722136, "longitude": -80.74646479000539}, "818302879RR0001": {"name": "OLD STRATHCONA YOUTH SOCIETY", "designationCode": "C", "categoryCode": "09", "address": "PO BOX 4175", "city": "EDMONTON", "province": "AB", "country": "CA", "postalCode": "T6E4T2", "twitter": "None", "instagram": "None", "facebook": "None", "youtube": "None", "website": "None", "summary": "None", "logo": "None", "latitude": 53.499354000000054, "longitude": -113.46577549999994}, "898361928RR0001": {"name": "OLD TOWN HALL ASSOCIATION", "designationCode": "C", "categoryCode": "56", "address": "76 MAIN STREET SOUTH          BOX 1361", "city": "WATERFORD", "province": "ON", "country": "CA", "postalCode": "N0E1Y0", "twitter": "None", "instagram": "None", "facebook": "None", "youtube": "None", "website": "None", "summary": "None", "logo": "None", "latitude": 42.93308626672056, "longitude": -80.29007476562401}, "889212460RR0001": {"name": "OLD TOWN HALL CONCERTS", "designationCode": "C", "categoryCode": "22", "address": "3100 BOWKER ST", "city": "HILTON BEACH", "province": "ON", "country": "CA", "postalCode": "P0R1G0", "twitter": "None", "instagram": "None", "facebook": "None", "youtube": "None", "website": "None", "summary": "None", "logo": "None", "latitude": 46.25825748120652, "longitude": -83.8895735011535}, "867021529RR0001": {"name": "OLD TROUT PUPPET WORKSHOP SOCIETY", "designationCode": "C", "categoryCode": "22", "address": "106 - 4632 1 ST SE", "city": "CALGARY", "province": "AB", "country": "CA", "postalCode": "T2G2L3", "twitter": "None", "instagram": "None", "facebook": "None", "youtube": "None", "website": "None", "summary": "None", "logo": "None", "latitude": 51.011666413266795, "longitude": -114.0620883035954}, "119066686RR0001": {"name": "OLD WINDHAM UNITED CHURCH", "designationCode": "C", "categoryCode": "44", "address": "30 GLENDALE CRES", "city": "SIMCOE", "province": "ON", "country": "CA", "postalCode": "N3Y4M2", "twitter": "None", "instagram": "None", "facebook": "None", "youtube": "None", "website": "None", "summary": "None", "logo": "None", "latitude": 42.85724257507647, "longitude": -80.31257508549247}, "108049040RR0001": {"name": "OLDER ADULT CENTRE SUDBURY/CENTRE DES AINES DE SUDBURY", "designationCode": "C", "categoryCode": "09", "address": "140 DURHAM STREET", "city": "SUDBURY", "province": "ON", "country": "CA", "postalCode": "P3E3M7", "twitter": "None", "instagram": "None", "facebook": "None", "youtube": "None", "website": "None", "summary": "None", "logo": "None", "latitude": 46.49054589244167, "longitude": -80.99497838465304}, "125123471RR0001": {"name": "OLDER ADULT CENTRES' ASSOCIATION OF ONTARIO", "designationCode": "C", "categoryCode": "59", "address": "15955 AIRPORT ROAD, SUITE 300", "city": "CALEDON EAST", "province": "ON", "country": "CA", "postalCode": "L7C1H9", "twitter": "None", "instagram": "None", "facebook": "None", "youtube": "None", "website": "None", "summary": "None", "logo": "None", "latitude": 43.86918019484674, "longitude": -79.86579293836931}, "119066413RR0001": {"name": "OLDMAN RIVER ANTIQUE EQUIPMENT AND THRESHING CLUB", "designationCode": "C", "categoryCode": "50", "address": "BOX 2496", "city": "PINCHER CREEK", "province": "AB", "country": "CA", "postalCode": "T0K1W0", "twitter": "None", "instagram": "None", "facebook": "None", "youtube": "None", "website": "None", "summary": "None", "logo": "None", "latitude": 49.48739000000006, "longitude": -113.9366800732874}, "889617726RR0001": {"name": "OLDS & DISTRICT CHRISTMAS ANGELS SOCIETY", "designationCode": "C", "categoryCode": "09", "address": "P O BOX 3967", "city": "OLDS", "province": "AB", "country": "CA", "postalCode": "T4H1P7", "twitter": "None", "instagram": "None", "facebook": "None", "youtube": "None", "website": "None", "summary": "None", "logo": "None", "latitude": 51.791613000000055, "longitude": -114.11061199999993}, "890704943RR0001": {"name": "OLDS AND DISTRICT KIWANIS MUSIC FESTIVAL SOCIETY", "designationCode": "C", "categoryCode": "22", "address": "P.O.BOX 3934", "city": "OLDS", "province": "AB", "country": "CA", "postalCode": "T4H1P6", "twitter": "None", "instagram": "None", "facebook": "None", "youtube": "None", "website": "None", "summary": "None", "logo": "None", "latitude": 51.791613000000055, "longitude": -114.11061199999993}, "891206146RR0001": {"name": "OLDS AND DISTRICT MUSIC TEACHERS ASSOCIATION", "designationCode": "C", "categoryCode": "22", "address": "BOX 1063", "city": "SUNDRE", "province": "AB", "country": "CA", "postalCode": "T0M1X0", "twitter": "None", "instagram": "None", "facebook": "None", "youtube": "None", "website": "None", "summary": "None", "logo": "None", "latitude": 51.797180000000026, "longitude": -114.64119999999997}, "107794158RR0001": {"name": "OLDS COLLEGE", "designationCode": "C", "categoryCode": "20", "address": "4500 5OTH STREET", "city": "OLDS", "province": "AB", "country": "CA", "postalCode": "T4H1R6", "twitter": "None", "instagram": "None", "facebook": "None", "youtube": "None", "website": "None", "summary": "None", "logo": "None", "latitude": 51.78964200000006, "longitude": -114.09548299999994}, "119066538RR0001": {"name": "OLDS HISTORICAL SOCIETY", "designationCode": "C", "categoryCode": "50", "address": "P.O. BOX 3882                 5038 - 50TH STREET", "city": "OLDS", "province": "AB", "country": "CA", "postalCode": "T4H1P6", "twitter": "None", "instagram": "None", "facebook": "None", "youtube": "None", "website": "None", "summary": "None", "logo": "None", "latitude": 51.79240133611287, "longitude": -114.10736778781236}, "130740616RR0001": {"name": "OLDS KOINONIA CHRISTIAN SCHOOL SOCIETY", "designationCode": "C", "categoryCode": "23", "address": "PO BOX 4039  STN MAIN", "city": "OLDS", "province": "AB", "country": "CA", "postalCode": "T4H1P7", "twitter": "None", "instagram": "None", "facebook": "None", "youtube": "None", "website": "None", "summary": "None", "logo": "None", "latitude": 51.791613000000055, "longitude": -114.11061199999993}, "126532274RR0001": {"name": "OLDS MOUNTAIN VIEW CHRISTIAN SCHOOL ASSOCIATION", "designationCode": "C", "categoryCode": "20", "address": "RR 2 SITE 8 BOX 2", "city": "OLDS", "province": "AB", "country": "CA", "postalCode": "T4H1P3", "twitter": "None", "instagram": "None", "facebook": "None", "youtube": "None", "website": "None", "summary": "None", "logo": "None", "latitude": 51.791613000000055, "longitude": -114.11061199999993}, "106693047RR0013": {"name": "OLDS SEVENTH-DAY ADVENTIST CHURCH", "designationCode": "C", "categoryCode": "41", "address": "5816 HIGHWAY, 2A", "city": "LACOMBE", "province": "AB", "country": "CA", "postalCode": "T4L2G5", "twitter": "None", "instagram": "None", "facebook": "None", "youtube": "None", "website": "None", "summary": "None", "logo": "None", "latitude": 52.474063600197404, "longitude": -113.71692568401835}}