{"119279719RR0001": {"name": "CHILLIWACK SOCIETY FOR COMMUNITY LIVING", "designationCode": "C", "categoryCode": "11", "address": "9353 MARY STREET", "city": "CHILLIWACK", "province": "BC", "country": "CA", "postalCode": "V2P4G9", "twitter": "None", "instagram": "None", "facebook": "None", "youtube": "None", "website": "None", "summary": "None", "logo": "None", "latitude": 49.17181488326492, "longitude": -121.95777550561711}, "136331667RR0001": {"name": "CHILLIWACK SUPPORTIVE HOUSING SOCIETY", "designationCode": "C", "categoryCode": "01", "address": "46158 CLEVELAND AVENUE", "city": "CHILLIWACK", "province": "BC", "country": "CA", "postalCode": "V2P2X4", "twitter": "None", "instagram": "None", "facebook": "None", "youtube": "None", "website": "None", "summary": "None", "logo": "None", "latitude": 49.17480776097908, "longitude": -121.94793523033663}, "868586546RR0001": {"name": "CHILLIWACK SYMPHONY ORCHESTRA", "designationCode": "C", "categoryCode": "22", "address": "BOX 521, STATION MAIN", "city": "CHILLIWACK", "province": "BC", "country": "CA", "postalCode": "V2P7V5", "twitter": "None", "instagram": "None", "facebook": "None", "youtube": "None", "website": "None", "summary": "None", "logo": "None", "latitude": 49.169860930294725, "longitude": -121.95627179555584}, "118852888RR0001": {"name": "CHILLIWACK UNITED CHURCH", "designationCode": "C", "categoryCode": "44", "address": "45835 SPADINA AVENUE", "city": "CHILLIWACK", "province": "BC", "country": "CA", "postalCode": "V2P1T4", "twitter": "None", "instagram": "None", "facebook": "None", "youtube": "None", "website": "None", "summary": "None", "logo": "None", "latitude": 49.16929687373753, "longitude": -121.95658454910854}, "119092377RR0001": {"name": "CHILTON CEMETERY", "designationCode": "C", "categoryCode": "59", "address": "9259-HWY 6, R.R. 2", "city": "KENILWORTH", "province": "ON", "country": "CA", "postalCode": "N0G2E0", "twitter": "None", "instagram": "None", "facebook": "None", "youtube": "None", "website": "None", "summary": "None", "logo": "None", "latitude": 43.911388513227465, "longitude": -80.64893050129628}, "118852946RR0001": {"name": "CHIMO HELPLINE INC.", "designationCode": "C", "categoryCode": "09", "address": "PO BOX 1033", "city": "FREDERICTON", "province": "NB", "country": "CA", "postalCode": "E3B5C2", "twitter": "None", "instagram": "None", "facebook": "None", "youtube": "None", "website": "None", "summary": "None", "logo": "None", "latitude": 45.96062100000006, "longitude": -66.63911299999994}, "118852961RR0001": {"name": "CHIMO YOUTH & FAMILY SERVICES, INC.", "designationCode": "C", "categoryCode": "11", "address": "107 LINDSAY ST S", "city": "LINDSAY", "province": "ON", "country": "CA", "postalCode": "K9V2M5", "twitter": "None", "instagram": "None", "facebook": "None", "youtube": "None", "website": "None", "summary": "None", "logo": "None", "latitude": 44.34985967007051, "longitude": -78.73227083445869}, "130918295RR0001": {"name": "CHIMO YOUTH RETREAT CENTRE", "designationCode": "C", "categoryCode": "09", "address": "103 10585 111 ST", "city": "EDMONTON", "province": "AB", "country": "CA", "postalCode": "T5H3E8", "twitter": "None", "instagram": "None", "facebook": "None", "youtube": "None", "website": "None", "summary": "None", "logo": "None", "latitude": 53.549514000000016, "longitude": -113.51206621631393}, "845528827RR0001": {"name": "CHIMP: CHARITABLE IMPACT FOUNDATION (CANADA)", "designationCode": "A", "categoryCode": "03", "address": "1500 WEST GEORGIA STREET      SUITE 1250   BOX 62", "city": "VANCOUVER", "province": "BC", "country": "CA", "postalCode": "V6G2Z6", "twitter": "None", "instagram": "None", "facebook": "None", "youtube": "None", "website": "None", "summary": "None", "logo": "None", "latitude": 49.2900638104334, "longitude": -123.12989899362336}, "882338718RR0001": {"name": "CHIN UP FUND", "designationCode": "A", "categoryCode": "13", "address": "71 GARFIELD AVE", "city": "TORONTO", "province": "ON", "country": "CA", "postalCode": "M4T1E8", "twitter": "None", "instagram": "None", "facebook": "None", "youtube": "None", "website": "None", "summary": "None", "logo": "None", "latitude": 43.68816077655962, "longitude": -79.37981687301637}, "858450885RR0001": {"name": "CHINA CARE ASSOCIATES", "designationCode": "C", "categoryCode": "09", "address": "6293 DUMFRIES ST", "city": "VANCOUVER", "province": "BC", "country": "CA", "postalCode": "V5P3B2", "twitter": "None", "instagram": "None", "facebook": "None", "youtube": "None", "website": "None", "summary": "None", "logo": "None", "latitude": 49.227291701915874, "longitude": -123.07447602723731}, "873684856RR0001": {"name": "CHINA EVANGELISTIC MISSION (CANADA)", "designationCode": "C", "categoryCode": "47", "address": "3215 SCHOOL AVE", "city": "VANCOUVER", "province": "BC", "country": "CA", "postalCode": "V5R5N2", "twitter": "None", "instagram": "None", "facebook": "None", "youtube": "None", "website": "None", "summary": "None", "logo": "None", "latitude": 49.23278548349581, "longitude": -123.03675046182707}, "894181973RR0001": {"name": "CHINA MINISTRIES INTERNATIONAL OF CANADA", "designationCode": "C", "categoryCode": "49", "address": "506 THE KINGSWAY", "city": "ETOBICOKE", "province": "ON", "country": "CA", "postalCode": "M9A3W6", "twitter": "None", "instagram": "None", "facebook": "None", "youtube": "None", "website": "None", "summary": "None", "logo": "None", "latitude": 43.673786656096865, "longitude": -79.54708530850016}, "892282435RR0001": {"name": "CHINA PARTNER", "designationCode": "C", "categoryCode": "49", "address": "38 MONKMAN COURT", "city": "AURORA", "province": "ON", "country": "CA", "postalCode": "L4G7J9", "twitter": "None", "instagram": "None", "facebook": "None", "youtube": "None", "website": "None", "summary": "None", "logo": "None", "latitude": 43.98488458422307, "longitude": -79.44103656206339}, "119288918RR0894": {"name": "CHINATOWN CONGREGATION OF JEHOVAH'S WITNESSES", "designationCode": "C", "categoryCode": "61", "address": "4507 NORTH HAVEN DR NW", "city": "CALGARY", "province": "AB", "country": "CA", "postalCode": "T2K2J1", "twitter": "None", "instagram": "None", "facebook": "None", "youtube": "None", "website": "None", "summary": "None", "logo": "None", "latitude": 51.092177467684124, "longitude": -114.09418294463038}, "122417157RR0001": {"name": "CHINATOWN MULTI-LEVEL CARE FOUNDATION", "designationCode": "C", "categoryCode": "10", "address": "PO BOX 21189 RPO TERWILLEGAR", "city": "EDMONTON", "province": "AB", "country": "CA", "postalCode": "T6R2V4", "twitter": "None", "instagram": "None", "facebook": "None", "youtube": "None", "website": "None", "summary": "None", "logo": "None", "latitude": 53.44985681916009, "longitude": -113.5903634394251}, "854001641RR0001": {"name": "CHINESE AMAZING GRACE CHURCH", "designationCode": "C", "categoryCode": "39", "address": "2315 HURON DRIVE", "city": "COQUITLAM", "province": "BC", "country": "CA", "postalCode": "V3J7A6", "twitter": "None", "instagram": "None", "facebook": "None", "youtube": "None", "website": "None", "summary": "None", "logo": "None", "latitude": 49.27099444192814, "longitude": -122.82851622258418}, "118853027RR0001": {"name": "CHINESE AND CANADIAN HERITAGE CULTURAL ASSOCIATION", "designationCode": "C", "categoryCode": "22", "address": "79 GOLF CLUB RD R.R.#4", "city": "SMITHS FALLS", "province": "ON", "country": "CA", "postalCode": "K7A4S5", "twitter": "None", "instagram": "None", "facebook": "None", "youtube": "None", "website": "None", "summary": "None", "logo": "None", "latitude": 44.86418831188513, "longitude": -76.02731196746954}, "138815576RR0001": {"name": "CHINESE ANGLICAN PARISH OF HOLY TRINITY, EDMONTON", "designationCode": "C", "categoryCode": "30", "address": "1428 156 ST NW", "city": "EDMONTON", "province": "AB", "country": "CA", "postalCode": "T6R2S1", "twitter": "None", "instagram": "None", "facebook": "None", "youtube": "None", "website": "None", "summary": "None", "logo": "None", "latitude": 53.44385374854292, "longitude": -113.59017016380024}, "130605223RR0001": {"name": "CHINESE ARTISTS SOCIETY OF TORONTO", "designationCode": "C", "categoryCode": "22", "address": "20 CHAPELTOWN CRES.", "city": "SCARBOROUGH", "province": "ON", "country": "CA", "postalCode": "M1W3A7", "twitter": "None", "instagram": "None", "facebook": "None", "youtube": "None", "website": "None", "summary": "None", "logo": "None", "latitude": 43.810235885913876, "longitude": -79.33240428628315}, "118853035RR0001": {"name": "CHINESE ASSOCIATION OF MISSISSAUGA", "designationCode": "C", "categoryCode": "22", "address": "16-1177 CENTRAL PARKWAY WEST", "city": "MISSISSAUGA", "province": "ON", "country": "CA", "postalCode": "L5C4P3", "twitter": "None", "instagram": "None", "facebook": "None", "youtube": "None", "website": "None", "summary": "None", "logo": "None", "latitude": 43.56673007585493, "longitude": -79.65993450481878}, "878652908RR0001": {"name": "CHINESE BAPTIST FELLOWSHIP OF THE UNITED STATES AND CANADA", "designationCode": "C", "categoryCode": "39", "address": "72-78 BEVERLEY STREET", "city": "TORONTO", "province": "ON", "country": "CA", "postalCode": "M5T1Y1", "twitter": "None", "instagram": "None", "facebook": "None", "youtube": "None", "website": "None", "summary": "None", "logo": "None", "latitude": 43.65206129364075, "longitude": -79.39317694145639}, "867738304RR0001": {"name": "CHINESE BIBLE INTERNATIONAL (CANADA) INC.", "designationCode": "C", "categoryCode": "47", "address": "55 - 3833 MIDLAND AVE", "city": "SCARBOROUGH", "province": "ON", "country": "CA", "postalCode": "M1V5L6", "twitter": "None", "instagram": "None", "facebook": "None", "youtube": "None", "website": "None", "summary": "None", "logo": "None", "latitude": 43.81392069776093, "longitude": -79.29186930512462}, "891094187RR0001": {"name": "CHINESE CALVARY ASSEMBLY", "designationCode": "C", "categoryCode": "36", "address": "3010 LAWRENCE AVENUE EAST     SUITE 809", "city": "TORONTO", "province": "ON", "country": "CA", "postalCode": "M1P4Y6", "twitter": "None", "instagram": "None", "facebook": "None", "youtube": "None", "website": "None", "summary": "None", "logo": "None", "latitude": 43.7547562296432, "longitude": -79.24949880728805}, "769691924RR0001": {"name": "CHINESE CANADIAN CHARITABLE FOUNDATION", "designationCode": "A", "categoryCode": "03", "address": "600 - 625 COCHRANE DR", "city": "MARKHAM", "province": "ON", "country": "CA", "postalCode": "L3R9R9", "twitter": "None", "instagram": "None", "facebook": "None", "youtube": "None", "website": "None", "summary": "None", "logo": "None", "latitude": 43.8454583119626, "longitude": -79.36647826025698}, "106915549RR0002": {"name": "CHINESE CATHOLIC PARISH (EDMONTON)", "designationCode": "C", "categoryCode": "38", "address": "10140 - 119 STREET", "city": "EDMONTON", "province": "AB", "country": "CA", "postalCode": "T5K1Y9", "twitter": "None", "instagram": "None", "facebook": "None", "youtube": "None", "website": "None", "summary": "None", "logo": "None", "latitude": 53.541747000000015, "longitude": -113.5268497731545}, "106915556RR0001": {"name": "CHINESE CHRISTIAN CHAPEL SOCIETY", "designationCode": "C", "categoryCode": "39", "address": "2396 8TH AVE W", "city": "VANCOUVER", "province": "BC", "country": "CA", "postalCode": "V6K2A9", "twitter": "None", "instagram": "None", "facebook": "None", "youtube": "None", "website": "None", "summary": "None", "logo": "None", "latitude": 49.264838510098905, "longitude": -123.15978297016561}, "106915564RR0001": {"name": "CHINESE CHRISTIAN CHURCH", "designationCode": "C", "categoryCode": "39", "address": "255 BRUNEL ROAD", "city": "MISSISSAUGA", "province": "ON", "country": "CA", "postalCode": "L4Z1X3", "twitter": "None", "instagram": "None", "facebook": "None", "youtube": "None", "website": "None", "summary": "None", "logo": "None", "latitude": 43.629931516821316, "longitude": -79.67041396782834}, "867376410RR0001": {"name": "CHINESE CHRISTIAN CHURCH CHOIR (BC)", "designationCode": "C", "categoryCode": "39", "address": "2785 WEST 24TH AVENUE", "city": "VANCOUVER", "province": "BC", "country": "CA", "postalCode": "V6L1R2", "twitter": "None", "instagram": "None", "facebook": "None", "youtube": "None", "website": "None", "summary": "None", "logo": "None", "latitude": 49.251009518754564, "longitude": -123.16733058090483}, "106915572RR0001": {"name": "CHINESE CHRISTIAN CHURCH OF VANCOUVER", "designationCode": "C", "categoryCode": "39", "address": "6-688 EDGAR AVENUE", "city": "COQUITLAM", "province": "BC", "country": "CA", "postalCode": "V3K0A5", "twitter": "None", "instagram": "None", "facebook": "None", "youtube": "None", "website": "None", "summary": "None", "logo": "None", "latitude": 49.24249140867986, "longitude": -122.88137212857211}, "890459878RR0001": {"name": "CHINESE CHRISTIAN GOSPEL CHURCH", "designationCode": "C", "categoryCode": "39", "address": "2385 CAPE HORN AVE", "city": "COQUITLAM", "province": "BC", "country": "CA", "postalCode": "V3K1J7", "twitter": "None", "instagram": "None", "facebook": "None", "youtube": "None", "website": "None", "summary": "None", "logo": "None", "latitude": 49.235749856800645, "longitude": -122.82781788470179}, "862326295RR0001": {"name": "CHINESE CHRISTIAN HERALD CRUSADES (CANADA) HERALD MONTHLY", "designationCode": "C", "categoryCode": "49", "address": "300 STEELCASE RD W            UNIT 28", "city": "MARKHAM", "province": "ON", "country": "CA", "postalCode": "L3R2W2", "twitter": "None", "instagram": "None", "facebook": "None", "youtube": "None", "website": "None", "summary": "None", "logo": "None", "latitude": 43.82228232612954, "longitude": -79.35902764478682}, "106915598RR0001": {"name": "CHINESE CHRISTIAN MISSION OF CANADA", "designationCode": "C", "categoryCode": "47", "address": "4533 KINGSBOROUGH ST", "city": "BURNABY", "province": "BC", "country": "CA", "postalCode": "V5H4V3", "twitter": "None", "instagram": "None", "facebook": "None", "youtube": "None", "website": "None", "summary": "None", "logo": "None", "latitude": 49.228625259095544, "longitude": -123.00571798014539}, "893145979RR0001": {"name": "CHINESE CHRISTIAN MUSIC ASSOCIATION (CANADA)", "designationCode": "C", "categoryCode": "49", "address": "49 EDGEVALLEY WAY NW", "city": "CALGARY", "province": "AB", "country": "CA", "postalCode": "T3A4X7", "twitter": "None", "instagram": "None", "facebook": "None", "youtube": "None", "website": "None", "summary": "None", "logo": "None", "latitude": 51.13189056174627, "longitude": -114.14482185345375}, "897773297RR0001": {"name": "CHINESE CHRISTIAN WING KEI NURSING HOME ASSOCIATION", "designationCode": "C", "categoryCode": "10", "address": "1212 CENTRE STREET NE", "city": "CALGARY", "province": "AB", "country": "CA", "postalCode": "T2E2R4", "twitter": "None", "instagram": "None", "facebook": "None", "youtube": "None", "website": "None", "summary": "None", "logo": "None", "latitude": 51.09141146728742, "longitude": -114.06104612441015}, "840855720RR0001": {"name": "CHINESE CHURCH SUPPORT MINISTRIES", "designationCode": "C", "categoryCode": "47", "address": "63 CLEGG RD", "city": "ELORA", "province": "ON", "country": "CA", "postalCode": "N0B1S0", "twitter": "None", "instagram": "None", "facebook": "None", "youtube": "None", "website": "None", "summary": "None", "logo": "None", "latitude": 43.69296124976125, "longitude": -80.43576115153292}, "119288918RR1347": {"name": "CHINESE CIRCUIT 1A OF JEHOVAH'S WITNESSES", "designationCode": "C", "categoryCode": "61", "address": "3206 - 488 MARINE DR SW", "city": "VANCOUVER", "province": "BC", "country": "CA", "postalCode": "V5X0C6", "twitter": "None", "instagram": "None", "facebook": "None", "youtube": "None", "website": "None", "summary": "None", "logo": "None", "latitude": 49.21022027890343, "longitude": -123.11675012656791}, "860541713RR0001": {"name": "CHINESE COMMUNITY HEALTH SOCIETY", "designationCode": "C", "categoryCode": "11", "address": "234 HASTINGS ST E", "city": "VANCOUVER", "province": "BC", "country": "CA", "postalCode": "V6A1P1", "twitter": "None", "instagram": "None", "facebook": "None", "youtube": "None", "website": "None", "summary": "None", "logo": "None", "latitude": 49.28122766057107, "longitude": -123.09876524603628}, "106915606RR0001": {"name": "CHINESE COMMUNITY LIBRARY SERVICES ASSOCIATION", "designationCode": "C", "categoryCode": "50", "address": "591 E PENDER ST", "city": "VANCOUVER", "province": "BC", "country": "CA", "postalCode": "V6A1V3", "twitter": "None", "instagram": "None", "facebook": "None", "youtube": "None", "website": "None", "summary": "None", "logo": "None", "latitude": 49.28028956130315, "longitude": -123.09155343869685}, "858215080RR0001": {"name": "CHINESE COMMUNITY POLICING CENTRE", "designationCode": "C", "categoryCode": "59", "address": "106 - 268 KEEFER ST", "city": "VANCOUVER", "province": "BC", "country": "CA", "postalCode": "V6A1X5", "twitter": "None", "instagram": "None", "facebook": "None", "youtube": "None", "website": "None", "summary": "None", "logo": "None", "latitude": 49.27939853952926, "longitude": -123.09800263780367}, "119288918RR1336": {"name": "CHINESE CONGREGATION OF JEHOVAH'S WITNESSES VICTORIA, BRITISH CULUMBIA", "designationCode": "C", "categoryCode": "61", "address": "330 - 1900 MAYFAIR DR", "city": "VICTORIA", "province": "BC", "country": "CA", "postalCode": "V8P1P9", "twitter": "None", "instagram": "None", "facebook": "None", "youtube": "None", "website": "None", "summary": "None", "logo": "None", "latitude": 48.45347816803884, "longitude": -123.32672702212538}, "119288918RR1459": {"name": "CHINESE CONGREGATION OF JEHOVAH'S WITNESSES, MISSISSAUGA, ONTARIO", "designationCode": "C", "categoryCode": "61", "address": "830 CARDINGTON STREET", "city": "MISSISSAUGA", "province": "ON", "country": "CA", "postalCode": "L5V1Z6", "twitter": "None", "instagram": "None", "facebook": "None", "youtube": "None", "website": "None", "summary": "None", "logo": "None", "latitude": 43.593461120722566, "longitude": -79.67903191698902}, "119288918RR1077": {"name": "CHINESE CONGREGATION OF JEHOVAH'S WITNESSES, MONTREAL (QUEBEC)", "designationCode": "C", "categoryCode": "61", "address": "2525A CENTRE STREET", "city": "MONTREAL", "province": "QC", "country": "CA", "postalCode": "H3K1J9", "twitter": "None", "instagram": "None", "facebook": "None", "youtube": "None", "website": "None", "summary": "None", "logo": "None", "latitude": 45.47902663531545, "longitude": -73.56856754008554}, "119288918RR1361": {"name": "CHINESE CONGREGATION OF JEHOVAH'S WITNESSES, OTTAWA, ONTARIO", "designationCode": "C", "categoryCode": "61", "address": "405 GLADSTONE AVENUE", "city": "OTTAWA", "province": "ON", "country": "CA", "postalCode": "K2P0Y9", "twitter": "None", "instagram": "None", "facebook": "None", "youtube": "None", "website": "None", "summary": "None", "logo": "None", "latitude": 45.411686443533874, "longitude": -75.6948510251312}, "119288918RR1380": {"name": "CHINESE CONGREGATION OF JEHOVAH'S WITNESSES, TORONTO, ONTARIO", "designationCode": "C", "categoryCode": "61", "address": "846 PROGRESS AVE.", "city": "SCARBOROUGH", "province": "ON", "country": "CA", "postalCode": "M1H2X5", "twitter": "None", "instagram": "None", "facebook": "None", "youtube": "None", "website": "None", "summary": "None", "logo": "None", "latitude": 43.780682460470736, "longitude": -79.23949355551385}, "129124871RR0001": {"name": "CHINESE COORDINATION CENTRE OF WORLD EVANGELISM (CANADA)", "designationCode": "C", "categoryCode": "47", "address": "25 - 145 ROYAL CREST CRT", "city": "MARKHAM", "province": "ON", "country": "CA", "postalCode": "L3R9Z4", "twitter": "None", "instagram": "None", "facebook": "None", "youtube": "None", "website": "None", "summary": "None", "logo": "None", "latitude": 43.84116291750863, "longitude": -79.32536487382443}, "873875009RR0001": {"name": "CHINESE CULTURAL ASSOCIATION OF TORONTO", "designationCode": "C", "categoryCode": "22", "address": "35 STONEHEATH CRES", "city": "MARKHAM", "province": "ON", "country": "CA", "postalCode": "L6C2K9", "twitter": "None", "instagram": "None", "facebook": "None", "youtube": "None", "website": "None", "summary": "None", "logo": "None", "latitude": 43.88044422344037, "longitude": -79.36633856618965}, "133658062RR0001": {"name": "CHINESE CULTURAL CENTRE OF GREATER TORONTO FOUNDATION", "designationCode": "C", "categoryCode": "59", "address": "5183 SHEPPARD AVE E", "city": "SCARBOROUGH", "province": "ON", "country": "CA", "postalCode": "M1B5Z5", "twitter": "None", "instagram": "None", "facebook": "None", "youtube": "None", "website": "None", "summary": "None", "logo": "None", "latitude": 43.79491879819972, "longitude": -79.23353740576495}, "118853167RR0001": {"name": "CHINESE CULTURAL CENTRE OF GREATER VANCOUVER", "designationCode": "C", "categoryCode": "22", "address": "50 PENDER ST E", "city": "VANCOUVER", "province": "BC", "country": "CA", "postalCode": "V6A3V6", "twitter": "None", "instagram": "None", "facebook": "None", "youtube": "None", "website": "None", "summary": "None", "logo": "None", "latitude": 49.28035486692345, "longitude": -123.10323340601447}, "118853175RR0001": {"name": "CHINESE CULTURAL SOCIETY OF SASKATCHEWAN", "designationCode": "C", "categoryCode": "22", "address": "1813 HALFAX", "city": "REGINA", "province": "SK", "country": "CA", "postalCode": "S4P1T4", "twitter": "None", "instagram": "None", "facebook": "None", "youtube": "None", "website": "None", "summary": "None", "logo": "None", "latitude": 50.45004050291419, "longitude": -104.60343035036668}, "887787067RR0001": {"name": "CHINESE DANCE WORKSHOP", "designationCode": "C", "categoryCode": "22", "address": "20 JOYCE DALE ST.", "city": "MARKHAM", "province": "ON", "country": "CA", "postalCode": "L3S3G9", "twitter": "None", "instagram": "None", "facebook": "None", "youtube": "None", "website": "None", "summary": "None", "logo": "None", "latitude": 43.83367800000005, "longitude": -79.26510949999994}, "894945633RR0062": {"name": "CHINESE EVANGELICAL ALLIANCE CHURCH OF TORONTO OF THE CHRISTIAN AND MISSIONARY ALLIANCE IN CANADA", "designationCode": "C", "categoryCode": "39", "address": "145 SPARKS AVENUE", "city": "NORTH YORK", "province": "ON", "country": "CA", "postalCode": "M2H2S5", "twitter": "None", "instagram": "None", "facebook": "None", "youtube": "None", "website": "None", "summary": "None", "logo": "None", "latitude": 43.80755693640742, "longitude": -79.34224661474995}, "892783762RR0001": {"name": "CHINESE EVANGELICAL FOUNDATION OF B C", "designationCode": "C", "categoryCode": "47", "address": "#201-745 WEST BROADWAY", "city": "VANCOUVER", "province": "BC", "country": "CA", "postalCode": "V5Z1J6", "twitter": "None", "instagram": "None", "facebook": "None", "youtube": "None", "website": "None", "summary": "None", "logo": "None", "latitude": 49.263354511541195, "longitude": -123.1209725553696}, "118853209RR0001": {"name": "CHINESE EVANGELICAL LUTHERAN CHURCH (TORONTO)", "designationCode": "C", "categoryCode": "39", "address": "59 PURCELL SQUARE", "city": "SCARBOROUGH", "province": "ON", "country": "CA", "postalCode": "M1V3Y2", "twitter": "None", "instagram": "None", "facebook": "None", "youtube": "None", "website": "None", "summary": "None", "logo": "None", "latitude": 43.81681256869983, "longitude": -79.30882251232059}, "890595796RR0001": {"name": "CHINESE FAMILY FOR CHRIST", "designationCode": "C", "categoryCode": "47", "address": "188 EAST 15TH AVE", "city": "VANCOUVER", "province": "BC", "country": "CA", "postalCode": "V5T4R3", "twitter": "None", "instagram": "None", "facebook": "None", "youtube": "None", "website": "None", "summary": "None", "logo": "None", "latitude": 49.25741744522553, "longitude": -123.10141140701255}, "132320508RR0001": {"name": "CHINESE FAMILY SERVICES OF ONTARIO", "designationCode": "C", "categoryCode": "09", "address": "229-3330 MIDLAND AVE", "city": "SCARBOROUGH", "province": "ON", "country": "CA", "postalCode": "M1V5E7", "twitter": "None", "instagram": "None", "facebook": "None", "youtube": "None", "website": "None", "summary": "None", "logo": "None", "latitude": 43.80779734609616, "longitude": -79.28916370540696}, "138984455RR0001": {"name": "CHINESE FIRST EVANGELICAL BAPTIST CHURCH", "designationCode": "C", "categoryCode": "31", "address": "1585 YONGE STREET", "city": "TORONTO", "province": "ON", "country": "CA", "postalCode": "M4T1Z9", "twitter": "None", "instagram": "None", "facebook": "None", "youtube": "None", "website": "None", "summary": "None", "logo": "None", "latitude": 43.69044499362336, "longitude": -79.39494619781917}, "891245383RR0001": {"name": "CHINESE GOSPEL BROADCASTING CENTER OF CANADA", "designationCode": "C", "categoryCode": "47", "address": "4168 FINCH AVE E", "city": "SCARBOROUGH", "province": "ON", "country": "CA", "postalCode": "M1S5H6", "twitter": "None", "instagram": "None", "facebook": "None", "youtube": "None", "website": "None", "summary": "None", "logo": "None"}, "863780912RR0001": {"name": "CHINESE GRACE CHURCH", "designationCode": "C", "categoryCode": "36", "address": "3143 KEYNES CRES.", "city": "MISSISSAUGA", "province": "ON", "country": "CA", "postalCode": "L5N2Z9", "twitter": "None", "instagram": "None", "facebook": "None", "youtube": "None", "website": "None", "summary": "None", "logo": "None", "latitude": 43.56793129557397, "longitude": -79.7502991399967}, "129286829RR0001": {"name": "CHINESE GRACE MENNONITE CHURCH", "designationCode": "C", "categoryCode": "34", "address": "1720 GRAVELEY STREET", "city": "VANCOUVER", "province": "BC", "country": "CA", "postalCode": "V5L3B1", "twitter": "None", "instagram": "None", "facebook": "None", "youtube": "None", "website": "None", "summary": "None", "logo": "None", "latitude": 49.27043453952927, "longitude": -123.06895030252755}, "838402527RR0001": {"name": "CHINESE IMMIGRANTS EMERGENCY RELIEF", "designationCode": "C", "categoryCode": "09", "address": "20 UNION ST", "city": "MARKHAM", "province": "ON", "country": "CA", "postalCode": "L3R2H5", "twitter": "None", "instagram": "None", "facebook": "None", "youtube": "None", "website": "None", "summary": "None", "logo": "None", "latitude": 43.862763960586314, "longitude": -79.31127948739095}, "896216207RR0001": {"name": "CHINESE INTERNATIONAL MISSIONS (CANADA)", "designationCode": "C", "categoryCode": "47", "address": "PO BOX 97190                  RICHMOND MAIN POST OFFICE", "city": "RICHMOND", "province": "BC", "country": "CA", "postalCode": "V6X8H3", "twitter": "None", "instagram": "None", "facebook": "None", "youtube": "None", "website": "None", "summary": "None", "logo": "None", "latitude": 49.163343000000054, "longitude": -123.13664449999993}, "118853282RR0001": {"name": "CHINESE LUTHERAN CHURCH IN MONTREAL EGLISE LUTHERIENNE CHINOISE DE MONTREAL", "designationCode": "C", "categoryCode": "32", "address": "1720 DECARIE BLVD", "city": "ST LAURENT", "province": "QC", "country": "CA", "postalCode": "H4L3N3", "twitter": "None", "instagram": "None", "facebook": "None", "youtube": "None", "website": "None", "summary": "None", "logo": "None", "latitude": 45.52006909795729, "longitude": -73.69187719888609}, "106915739RR0001": {"name": "CHINESE MANDARIN CHRISTIAN CHURCH", "designationCode": "C", "categoryCode": "39", "address": "5 CODECO COURT", "city": "NORTH YORK", "province": "ON", "country": "CA", "postalCode": "M3A1A1", "twitter": "None", "instagram": "None", "facebook": "None", "youtube": "None", "website": "None", "summary": "None", "logo": "None", "latitude": 43.735901900340615, "longitude": -79.32824884139296}, "106915754RR0001": {"name": "CHINESE OUTREACH CHRISTIAN FELLOWSHIP - EDMONTON", "designationCode": "C", "categoryCode": "47", "address": "2-9210 95 AVE NW", "city": "EDMONTON", "province": "AB", "country": "CA", "postalCode": "T6C1Z7", "twitter": "None", "instagram": "None", "facebook": "None", "youtube": "None", "website": "None", "summary": "None", "logo": "None"}, "889736567RR0001": {"name": "CHINESE OVERSEAS CHRISTIAN MISSION (CANADA)", "designationCode": "C", "categoryCode": "47", "address": "6080 GRANVILLE AVE", "city": "RICHMOND", "province": "BC", "country": "CA", "postalCode": "V7C1G1", "twitter": "None", "instagram": "None", "facebook": "None", "youtube": "None", "website": "None", "summary": "None", "logo": "None", "latitude": 49.16264950288554, "longitude": -123.15777299999999}, "106915796RR0001": {"name": "CHINESE PENTECOSTAL CHURCH", "designationCode": "C", "categoryCode": "36", "address": "2215 DOWLER PLACE", "city": "VICTORIA", "province": "BC", "country": "CA", "postalCode": "V8T4H4", "twitter": "None", "instagram": "None", "facebook": "None", "youtube": "None", "website": "None", "summary": "None", "logo": "None", "latitude": 48.43373145406545, "longitude": -123.36119140588052}, "118853324RR0001": {"name": "CHINESE PENTECOSTAL CHURCH", "designationCode": "C", "categoryCode": "36", "address": "127 2 AVE SE", "city": "CALGARY", "province": "AB", "country": "CA", "postalCode": "T2G0B2", "twitter": "None", "instagram": "None", "facebook": "None", "youtube": "None", "website": "None", "summary": "None", "logo": "None", "latitude": 51.05110505908372, "longitude": -114.06205509421201}, "807119276RR0001": {"name": "CHINESE PERFORMING ARTS SOCIETY OF CANADA", "designationCode": "C", "categoryCode": "22", "address": "5701 GRANVILLE STREET         SUITE 202", "city": "VANCOUVER", "province": "BC", "country": "CA", "postalCode": "V6M4J7", "twitter": "None", "instagram": "None", "facebook": "None", "youtube": "None", "website": "None", "summary": "None", "logo": "None", "latitude": 49.233941580904855, "longitude": -123.14047995833596}, "106915804RR0001": {"name": "CHINESE PRESBYTERIAN CHURCH", "designationCode": "C", "categoryCode": "37", "address": "177 BEVERLEY ST", "city": "TORONTO", "province": "ON", "country": "CA", "postalCode": "M5T1Y7", "twitter": "None", "instagram": "None", "facebook": "None", "youtube": "None", "website": "None", "summary": "None", "logo": "None", "latitude": 43.655505170696486, "longitude": -79.39450763555331}, "106915812RR0001": {"name": "CHINESE PRESBYTERIAN CHURCH", "designationCode": "C", "categoryCode": "37", "address": "6137 CAMBIE ST", "city": "VANCOUVER", "province": "BC", "country": "CA", "postalCode": "V5Z3B2", "twitter": "None", "instagram": "None", "facebook": "None", "youtube": "None", "website": "None", "summary": "None", "logo": "None", "latitude": 49.229137676380645, "longitude": -123.11660345063166}, "106915820RR0001": {"name": "CHINESE PRESBYTERIAN CHURCH", "designationCode": "C", "categoryCode": "37", "address": "816 NORTH PARK STREET", "city": "VICTORIA", "province": "BC", "country": "CA", "postalCode": "V8W1T1", "twitter": "None", "instagram": "None", "facebook": "None", "youtube": "None", "website": "None", "summary": "None", "logo": "None", "latitude": 48.43006242772216, "longitude": -123.3611982768481}, "886984590RR0001": {"name": "CHINESE PRESBYTERIAN CHURCH", "designationCode": "C", "categoryCode": "37", "address": "4700 WYANDOTTE ST E", "city": "WINDSOR", "province": "ON", "country": "CA", "postalCode": "N8Y1H7", "twitter": "None", "instagram": "None", "facebook": "None", "youtube": "None", "website": "None", "summary": "None", "logo": "None", "latitude": 42.3263952489756, "longitude": -82.98007725895891}, "134770221RR0001": {"name": "CHINESE RHENISH CHURCH", "designationCode": "C", "categoryCode": "39", "address": "1920 ARGYLE DR", "city": "VANCOUVER", "province": "BC", "country": "CA", "postalCode": "V5P2A8", "twitter": "None", "instagram": "None", "facebook": "None", "youtube": "None", "website": "None", "summary": "None", "logo": "None", "latitude": 49.219489301113896, "longitude": -123.06808990839069}, "889859773RR0001": {"name": "CHINESE SENIORS HEALTH & RECREATION ASSOCIATION OF ONTARIO", "designationCode": "C", "categoryCode": "09", "address": "192 MCCAUL STREET", "city": "TORONTO", "province": "ON", "country": "CA", "postalCode": "M5T1W5", "twitter": "None", "instagram": "None", "facebook": "None", "youtube": "None", "website": "None", "summary": "None", "logo": "None", "latitude": 43.65676001664842, "longitude": -79.39252425217823}, "106915879RR0001": {"name": "CHINESE SOCIAL DEVELOPMENT SOCIETY", "designationCode": "C", "categoryCode": "56", "address": "499 EAST PENDER STREET", "city": "VANCOUVER", "province": "BC", "country": "CA", "postalCode": "V6A1V2", "twitter": "None", "instagram": "None", "facebook": "None", "youtube": "None", "website": "None", "summary": "None", "logo": "None", "latitude": 49.280354136560874, "longitude": -123.09356741718167}, "119288918RR1354": {"name": "CHINESE SOUTH CONGREGATION OF JEHOVAH'S WITNESSES, VANCOUVER, BRITISH COLUMBIA", "designationCode": "C", "categoryCode": "61", "address": "11014 WESTMINSTER HIGHWAY", "city": "RICHMOND", "province": "BC", "country": "CA", "postalCode": "V6X1B3", "twitter": "None", "instagram": "None", "facebook": "None", "youtube": "None", "website": "None", "summary": "None", "logo": "None", "latitude": 49.16998138034379, "longitude": -123.10237188754874}, "894816131RR0001": {"name": "CHINESE TABERNACLE BAPTIST CHURCH", "designationCode": "C", "categoryCode": "39", "address": "22632 FRASERBANK CRESCENT", "city": "RICHMOND", "province": "BC", "country": "CA", "postalCode": "V6V2L8", "twitter": "None", "instagram": "None", "facebook": "None", "youtube": "None", "website": "None", "summary": "None", "logo": "None", "latitude": 49.178994382473, "longitude": -122.97005443078936}, "885620567RR0001": {"name": "CHINESE TAOISM KUAN-KUNG ASSOCIATION IN CANADA", "designationCode": "C", "categoryCode": "39", "address": "3426 SMITH AVE", "city": "BURNABY", "province": "BC", "country": "CA", "postalCode": "V5G2T3", "twitter": "None", "instagram": "None", "facebook": "None", "youtube": "None", "website": "None", "summary": "None", "logo": "None", "latitude": 49.25395561142464, "longitude": -123.01973671438442}, "106915903RR0001": {"name": "CHINESE UNITED CHURCH", "designationCode": "C", "categoryCode": "44", "address": "BOX 101                       120 2 AVE SW.", "city": "CALGARY", "province": "AB", "country": "CA", "postalCode": "T2P0B9", "twitter": "None", "instagram": "None", "facebook": "None", "youtube": "None", "website": "None", "summary": "None", "logo": "None", "latitude": 51.051250486005955, "longitude": -114.06375055536961}, "118853381RR0001": {"name": "CHINESE UNITED CHURCH", "designationCode": "C", "categoryCode": "44", "address": "600 BANK STREET", "city": "OTTAWA", "province": "ON", "country": "CA", "postalCode": "K1S3T6", "twitter": "None", "instagram": "None", "facebook": "None", "youtube": "None", "website": "None", "summary": "None", "logo": "None", "latitude": 45.40732470384909, "longitude": -75.69089442356722}, "118853407RR0001": {"name": "CHINESE UNITED CHURCH", "designationCode": "C", "categoryCode": "44", "address": "281 PACIFIC AVENUE", "city": "WINNIPEG", "province": "MB", "country": "CA", "postalCode": "R3B0M7", "twitter": "None", "instagram": "None", "facebook": "None", "youtube": "None", "website": "None", "summary": "None", "logo": "None", "latitude": 49.90184395366143, "longitude": -97.13903289549317}, "118853423RR0001": {"name": "CHINESE UNITED CHURCH", "designationCode": "C", "categoryCode": "44", "address": "10152 96 ST NW", "city": "EDMONTON", "province": "AB", "country": "CA", "postalCode": "T5H2G5", "twitter": "None", "instagram": "None", "facebook": "None", "youtube": "None", "website": "None", "summary": "None", "logo": "None", "latitude": 53.5442925545329, "longitude": -113.48236575523666}, "120532783RR0001": {"name": "CHING FAR TEMPLE", "designationCode": "C", "categoryCode": "39", "address": "123 MCNICOLL AVE", "city": "NORTH YORK", "province": "ON", "country": "CA", "postalCode": "M2H2B7", "twitter": "None", "instagram": "None", "facebook": "None", "youtube": "None", "website": "None", "summary": "None", "logo": "None", "latitude": 43.80051890339903, "longitude": -79.36132881698292}, "893661587RR0001": {"name": "CHINMAYA MISSION (HALTON REGION)", "designationCode": "C", "categoryCode": "39", "address": "206 LOCKE STREET SOUTH", "city": "HAMILTON", "province": "ON", "country": "CA", "postalCode": "L8P4B4", "twitter": "None", "instagram": "None", "facebook": "None", "youtube": "None", "website": "None", "summary": "None", "logo": "None", "latitude": 43.254655145161266, "longitude": -79.88602318570013}, "118853456RR0001": {"name": "CHINMAYA MISSION TORONTO", "designationCode": "C", "categoryCode": "39", "address": "8832 THE GORE RD", "city": "BRAMPTON", "province": "ON", "country": "CA", "postalCode": "L6P0B1", "twitter": "None", "instagram": "None", "facebook": "None", "youtube": "None", "website": "None", "summary": "None", "logo": "None", "latitude": 43.76897981510794, "longitude": -79.65892809942825}, "889376380RR0001": {"name": "CHINMAYA MISSION-VANCOUVER", "designationCode": "C", "categoryCode": "48", "address": "3072 EAST 56TH AVENUE", "city": "VANCOUVER", "province": "BC", "country": "CA", "postalCode": "V5S2A6", "twitter": "None", "instagram": "None", "facebook": "None", "youtube": "None", "website": "None", "summary": "None", "logo": "None", "latitude": 49.218134481245464, "longitude": -123.042071414796}, "889137972RR0001": {"name": "CHINOOK AND DISTRICT COMMUNITY CLUB", "designationCode": "C", "categoryCode": "56", "address": "BOX 908", "city": "CHINOOK", "province": "AB", "country": "CA", "postalCode": "T0J0R0", "twitter": "None", "instagram": "None", "facebook": "None", "youtube": "None", "website": "None", "summary": "None", "logo": "None", "latitude": 51.44957000000005, "longitude": -110.91905999999994}, "100952753RR0001": {"name": "CHINOOK APPLIED RESEARCH ASSOCIATION", "designationCode": "C", "categoryCode": "59", "address": "P.O. BOX 690", "city": "OYEN", "province": "AB", "country": "CA", "postalCode": "T0J2J0", "twitter": "None", "instagram": "None", "facebook": "None", "youtube": "None", "website": "None", "summary": "None", "logo": "None", "latitude": 51.366820000000075, "longitude": -110.46831999999995}, "136720232RR0001": {"name": "CHINOOK ARCH LIBRARY BOARD", "designationCode": "C", "categoryCode": "50", "address": "2902-7 AVE NORTH", "city": "LETHBRIDGE", "province": "AB", "country": "CA", "postalCode": "T1H5C6", "twitter": "None", "instagram": "None", "facebook": "None", "youtube": "None", "website": "None", "summary": "None", "logo": "None", "latitude": 49.709762469560026, "longitude": -112.79909169317328}, "867892796RR0001": {"name": "CHINOOK ARCH VICTIM'S SERVICES SOCIETY", "designationCode": "C", "categoryCode": "59", "address": "5110-65TH AVENUE", "city": "OLDS", "province": "AB", "country": "CA", "postalCode": "T4H1L8", "twitter": "None", "instagram": "None", "facebook": "None", "youtube": "None", "website": "None", "summary": "None", "logo": "None", "latitude": 51.79346949708582, "longitude": -114.13156792798196}, "885078402RR0001": {"name": "CHINOOK BIBLE CHURCH CHRISTIAN MINISTRIES", "designationCode": "C", "categoryCode": "39", "address": "BOX 1155", "city": "PINCHER CREEK", "province": "AB", "country": "CA", "postalCode": "T0K1W0", "twitter": "None", "instagram": "None", "facebook": "None", "youtube": "None", "website": "None", "summary": "None", "logo": "None", "latitude": 49.48739000000006, "longitude": -113.9366800732874}, "888449329RR0001": {"name": "CHINOOK BOOKS FOR BABIES SOCIETY", "designationCode": "C", "categoryCode": "21", "address": "2902 - 7TH AVENUE N.", "city": "LETHBRIDGE", "province": "AB", "country": "CA", "postalCode": "T1H5C6", "twitter": "None", "instagram": "None", "facebook": "None", "youtube": "None", "website": "None", "summary": "None", "logo": "None", "latitude": 49.709762469560026, "longitude": -112.79909169317328}, "890559347RR0001": {"name": "CHINOOK COUNTRY HISTORICAL SOCIETY", "designationCode": "C", "categoryCode": "52", "address": "311-223 12 AVENUE S.W.", "city": "CALGARY", "province": "AB", "country": "CA", "postalCode": "T2R0G9", "twitter": "None", "instagram": "None", "facebook": "None", "youtube": "None", "website": "None", "summary": "None", "logo": "None", "latitude": 51.04147448845882, "longitude": -114.0671642216227}, "890762941RR0001": {"name": "CHINOOK FOUNDATION", "designationCode": "B", "categoryCode": "03", "address": "P.O. BOX 5247 STN A", "city": "CALGARY", "province": "AB", "country": "CA", "postalCode": "T2H1X6", "twitter": "None", "instagram": "None", "facebook": "None", "youtube": "None", "website": "None", "summary": "None", "logo": "None", "latitude": 51.04531500000006, "longitude": -114.06301099999993}, "136939261RR0001": {"name": "CHINOOK MUSICAL SOCIETY", "designationCode": "C", "categoryCode": "22", "address": "740 CEDARILLE WAY SW", "city": "CALGARY", "province": "AB", "country": "CA", "postalCode": "T2W2G7", "twitter": "None", "instagram": "None", "facebook": "None", "youtube": "None", "website": "None", "summary": "None", "logo": "None", "latitude": 50.962740903975956, "longitude": -114.13897629990181}, "107623241RR0001": {"name": "CHINOOK REGIONAL HOSPITAL FOUNDATION", "designationCode": "A", "categoryCode": "13", "address": "960 19 STREET SOUTH", "city": "LETHBRIDGE", "province": "AB", "country": "CA", "postalCode": "T1J1W5", "twitter": "None", "instagram": "None", "facebook": "None", "youtube": "None", "website": "None", "summary": "None", "logo": "None", "latitude": 49.684873081892825, "longitude": -112.81472428068311}, "106916224RR0001": {"name": "CHINOOK REGIONAL LIBRARY", "designationCode": "C", "categoryCode": "50", "address": "1240 CHAPLIN ST W", "city": "SWIFT CURRENT", "province": "SK", "country": "CA", "postalCode": "S9H0G8", "twitter": "None", "instagram": "None", "facebook": "None", "youtube": "None", "website": "None", "summary": "None", "logo": "None", "latitude": 50.28467247345519, "longitude": -107.81756197446477}, "831174073RR0001": {"name": "CHINOOK SCHOOL DIVISION NO. 211", "designationCode": "C", "categoryCode": "20", "address": "BOX 1809", "city": "SWIFT CURRENT", "province": "SK", "country": "CA", "postalCode": "S9H4J8", "twitter": "None", "instagram": "None", "facebook": "None", "youtube": "None", "website": "None", "summary": "None", "logo": "None", "latitude": 50.292744000000056, "longitude": -107.80056349999994}, "875734816RR0001": {"name": "CHINOOK SOCIETY FOR RECOVERING ADDICTS", "designationCode": "C", "categoryCode": "11", "address": "408-13 STREET NORTH", "city": "LETHBRIDGE", "province": "AB", "country": "CA", "postalCode": "T1H2S2", "twitter": "None", "instagram": "None", "facebook": "None", "youtube": "None", "website": "None", "summary": "None", "logo": "None", "latitude": 49.70470499999999, "longitude": -112.82418348629442}}