{"107599748RR0001": {"name": "LA SOCIETE HISTORIQUE DE SAINT-BONIFACE", "designationCode": "C", "categoryCode": "50", "address": "340 BOULEVARD PROVENCHER", "city": "WINNIPEG", "province": "MB", "country": "CA", "postalCode": "R2H0G7", "twitter": "None", "instagram": "None", "facebook": "None", "youtube": "None", "website": "None", "summary": "None", "logo": "None", "latitude": 49.89396984869324, "longitude": -97.11442403133495}, "107989501RR0001": {"name": "LA SOCIETE HISTORIQUE DE ST-COME DE KENNEBEC ET DE LINIERE", "designationCode": "C", "categoryCode": "50", "address": "1555, ROUTE KENNEDY", "city": "SAINT-COME-LINIERE", "province": "QC", "country": "CA", "postalCode": "G0M1J0", "twitter": "None", "instagram": "None", "facebook": "None", "youtube": "None", "website": "None", "summary": "None", "logo": "None", "latitude": 46.06585800000006, "longitude": -70.51499449999993}, "888604592RR0001": {"name": "LA SOCIETE HISTORIQUE DU CAP-ROUGE", "designationCode": "C", "categoryCode": "50", "address": "4473, RUE SAINT-F\u00c9LIX", "city": "QU\u00c9BEC", "province": "QC", "country": "CA", "postalCode": "G1Y3A6", "twitter": "None", "instagram": "None", "facebook": "None", "youtube": "None", "website": "None", "summary": "None", "logo": "None", "latitude": 46.741389298892194, "longitude": -71.35496781995536}, "890813470RR0001": {"name": "LA SOCIETE HISTORIQUE LOUIS JOSEPH PAPINEAU INC.", "designationCode": "C", "categoryCode": "50", "address": "220 BON SECOURS               CP 1656", "city": "MONTEBELLO", "province": "QC", "country": "CA", "postalCode": "J0V1L0", "twitter": "None", "instagram": "None", "facebook": "None", "youtube": "None", "website": "None", "summary": "None", "logo": "None", "latitude": 45.65186700000005, "longitude": -74.94568099999994}, "880483706RR0001": {"name": "LA SOCIETE INTERNATIONALE ADI VAJRA SHAMBHASALEM/ADI VAJRA SHAMBHASALEM INTERNATIONAL SOCIETY", "designationCode": "C", "categoryCode": "39", "address": "7060 COLUMBIA RIVER RD        BOX 188", "city": "WASA", "province": "BC", "country": "CA", "postalCode": "V0B2K0", "twitter": "None", "instagram": "None", "facebook": "None", "youtube": "None", "website": "None", "summary": "None", "logo": "None", "latitude": 49.78983300000006, "longitude": -115.74856249999993}, "107599789RR0001": {"name": "LA SOCIETE JOSEPH BRETON", "designationCode": "C", "categoryCode": "01", "address": "1301-113E RUE", "city": "NORTH BATTLEFORD", "province": "SK", "country": "CA", "postalCode": "S9A3K1", "twitter": "None", "instagram": "None", "facebook": "None", "youtube": "None", "website": "None", "summary": "None", "logo": "None", "latitude": 52.77649800447205, "longitude": -108.27922639889736}, "119007987RR0001": {"name": "LA SOCIETE LES BLES D'OR", "designationCode": "C", "categoryCode": "22", "address": "C.P. 1452", "city": "ST-PAUL", "province": "AB", "country": "CA", "postalCode": "T0A3A0", "twitter": "None", "instagram": "None", "facebook": "None", "youtube": "None", "website": "None", "summary": "None", "logo": "None", "latitude": 53.99140200000005, "longitude": -111.29557399999993}, "872105549RR0001": {"name": "LA SOCIETE MER ET MONDE", "designationCode": "C", "categoryCode": "09", "address": "25, RUE JARRY OUEST", "city": "MONTREAL", "province": "QC", "country": "CA", "postalCode": "H2P1S6", "twitter": "None", "instagram": "None", "facebook": "None", "youtube": "None", "website": "None", "summary": "None", "logo": "None"}, "861430601RR0001": {"name": "LA SOCIETE MESS'AJE DU CANADA-CANADA MESS'AJE CORPORATION", "designationCode": "C", "categoryCode": "38", "address": "2960, BOUL. MASSON", "city": "QUEBEC", "province": "QC", "country": "CA", "postalCode": "G1P1J6", "twitter": "None", "instagram": "None", "facebook": "None", "youtube": "None", "website": "None", "summary": "None", "logo": "None", "latitude": 46.81156145741232, "longitude": -71.32159515748184}, "888606969RR0001": {"name": "LA SOCIETE MORALE DU CANADA SHIN YAT TONG (QUEBEC)/CANADA SHIN YAT TONG MORAL SOCIETY (QUEBEC)", "designationCode": "C", "categoryCode": "39", "address": "315 DE LA GAUCHETIERE O", "city": "MONTREAL", "province": "QC", "country": "CA", "postalCode": "H2Z1C7", "twitter": "None", "instagram": "None", "facebook": "None", "youtube": "None", "website": "None", "summary": "None", "logo": "None", "latitude": 45.50447326977896, "longitude": -73.56259047628245}, "107989915RR0001": {"name": "LA SOCIETE MUSEE LAURIER INC.", "designationCode": "C", "categoryCode": "50", "address": "16 RUE LAURIER OUEST", "city": "VICTORIAVILLE", "province": "QC", "country": "CA", "postalCode": "G6P6P3", "twitter": "None", "instagram": "None", "facebook": "None", "youtube": "None", "website": "None", "summary": "None", "logo": "None", "latitude": 46.038717722459424, "longitude": -71.91498027756923}, "119008027RR0001": {"name": "LA SOCIETE MUSICALE LE MOUVEMENT VIVALDI", "designationCode": "C", "categoryCode": "22", "address": "1229 AV DU CHANOINE-MOREL     BUREAU 115", "city": "QUEBEC", "province": "QC", "country": "CA", "postalCode": "G1S4B1", "twitter": "None", "instagram": "None", "facebook": "None", "youtube": "None", "website": "None", "summary": "None", "logo": "None", "latitude": 46.78552808546382, "longitude": -71.24941376412346}, "839983475RR0001": {"name": "LA SOCIETE PHILOPTOCHE DES DAMES GRECQUES ORTHODOXE DE L'EGLISE EVANGELISMOS TIS THEOTOKOU DE MONTREAL/ GREEK ORTHODOX LADIES PHILOPTOCOS SOCIETY OF EVANGELISMOS THIS THEOTOKU", "designationCode": "C", "categoryCode": "39", "address": "777 ST-ROCH STREET", "city": "MONTREAL", "province": "QC", "country": "CA", "postalCode": "H3N2K3", "twitter": "None", "instagram": "None", "facebook": "None", "youtube": "None", "website": "None", "summary": "None", "logo": "None", "latitude": 45.52819676631651, "longitude": -73.63022345729675}, "119008035RR0001": {"name": "LA SOCIETE POMMES DE REINETTE DAYCARE", "designationCode": "C", "categoryCode": "20", "address": "BUR 110                       4800, CHEM RICHARD S-O", "city": "CALGARY", "province": "AB", "country": "CA", "postalCode": "T3E6L1", "twitter": "None", "instagram": "None", "facebook": "None", "youtube": "None", "website": "None", "summary": "None", "logo": "None", "latitude": 51.01162605687018, "longitude": -114.1234316473543}, "121136915RR0001": {"name": "LA SOCIETE POUR L'EPANOUISSEMENT DES JEUNES DE ST-AMABLE", "designationCode": "C", "categoryCode": "09", "address": "915 NORMANDIE                 C.P. 194", "city": "ST-AMABLE", "province": "QC", "country": "CA", "postalCode": "J0L1N0", "twitter": "None", "instagram": "None", "facebook": "None", "youtube": "None", "website": "None", "summary": "None", "logo": "None", "latitude": 45.64944547795589, "longitude": -73.29518981311644}, "895060093RR0001": {"name": "LA SOCIETE PRE-MATERNELLE L'ARC-EN-CIEL", "designationCode": "C", "categoryCode": "20", "address": "4800 RICHARD RD SW", "city": "CALGARY", "province": "AB", "country": "CA", "postalCode": "T3E6L1", "twitter": "None", "instagram": "None", "facebook": "None", "youtube": "None", "website": "None", "summary": "None", "logo": "None", "latitude": 51.01162605687018, "longitude": -114.1234316473543}, "895709145RR0001": {"name": "LA SOCIETE PREVENTIVE DE CRUAUTE ENVERS LES ANIMAUX-LAURENTIDES-LABELLE INC.", "designationCode": "C", "categoryCode": "54", "address": "355 RUE DEMONTIGNY", "city": "SAINTE-AGATHE-DES-MONTS", "province": "QC", "country": "CA", "postalCode": "J8C2Z8", "twitter": "None", "instagram": "None", "facebook": "None", "youtube": "None", "website": "None", "summary": "None", "logo": "None", "latitude": 46.06945528893755, "longitude": -74.27592531764675}, "870719564RR0001": {"name": "LA SOCIETE PROMOTION GRAND-PRE", "designationCode": "C", "categoryCode": "50", "address": "C.P.150, 2205 GRAND-PRE ROAD", "city": "GRAND-PRE", "province": "NS", "country": "CA", "postalCode": "B0P1M0", "twitter": "None", "instagram": "None", "facebook": "None", "youtube": "None", "website": "None", "summary": "None", "logo": "None", "latitude": 45.108867532864174, "longitude": -64.30880270050129}, "119008068RR0001": {"name": "LA SOCIETE PROTECTRICE DES ANIMAUX DE LA MAURICE INC.", "designationCode": "C", "categoryCode": "54", "address": "5000 BOUL. SAINT-JEAN", "city": "TROIS-RIVIERES", "province": "QC", "country": "CA", "postalCode": "G9A5E1", "twitter": "None", "instagram": "None", "facebook": "None", "youtube": "None", "website": "None", "summary": "None", "logo": "None", "latitude": 46.34582616847478, "longitude": -72.63152040977567}, "119008076RR0001": {"name": "LA SOCIETE QUEBECOISE DE GERIATRIE", "designationCode": "C", "categoryCode": "11", "address": "375 RUE ARGYLL", "city": "SHERBROOKE", "province": "QC", "country": "CA", "postalCode": "J1J3H5", "twitter": "None", "instagram": "None", "facebook": "None", "youtube": "None", "website": "None", "summary": "None", "logo": "None", "latitude": 45.403672560004274, "longitude": -71.91336807513845}, "122453723RR0001": {"name": "LA SOCIETE SAINT-PAUL", "designationCode": "C", "categoryCode": "46", "address": "3965 BOUL HENRI-BOURASSA EST", "city": "MONTREAL-NORD", "province": "QC", "country": "CA", "postalCode": "H1H1L1", "twitter": "None", "instagram": "None", "facebook": "None", "youtube": "None", "website": "None", "summary": "None", "logo": "None", "latitude": 45.59465133057292, "longitude": -73.64371570944634}, "119008118RR0001": {"name": "LA SOCIETE SAINT-PIERRE", "designationCode": "C", "categoryCode": "21", "address": "CP 430                        15584 CABOT TRAIL", "city": "CHETICAMP", "province": "NS", "country": "CA", "postalCode": "B0E1H0", "twitter": "None", "instagram": "None", "facebook": "None", "youtube": "None", "website": "None", "summary": "None", "logo": "None", "latitude": 46.64297910684411, "longitude": -61.0016558872702}, "119008126RR0001": {"name": "LA SOCIETE SAINT-VINCENT DE PAUL DE JOLIETTE, INC.", "designationCode": "C", "categoryCode": "09", "address": "30 RANG DOUBLE", "city": "SAINT-CHARLES-BORROM\u00c9E", "province": "QC", "country": "CA", "postalCode": "J6E7Y8", "twitter": "None", "instagram": "None", "facebook": "None", "youtube": "None", "website": "None", "summary": "None", "logo": "None", "latitude": 46.06357293753259, "longitude": -73.48938772742243}, "843373671RR0001": {"name": "LA SOCIETE SAINT-VINCENT DE PAUL DE TROIS-RIVIERES", "designationCode": "C", "categoryCode": "09", "address": "2580 RUE ROYALE", "city": "TROIS-RIVI\u00c8RES", "province": "QC", "country": "CA", "postalCode": "G9A4L5", "twitter": "None", "instagram": "None", "facebook": "None", "youtube": "None", "website": "None", "summary": "None", "logo": "None", "latitude": 46.33429938885674, "longitude": -72.54925499365201}, "890603996RR0001": {"name": "LA SOCIETE SAINT-VINCENT DE PAUL-ST FRANCOIS D'ASSISE", "designationCode": "C", "categoryCode": "09", "address": "1205, RUE FISHER              C.P. 22071", "city": "NORTH BAY", "province": "ON", "country": "CA", "postalCode": "P1B2H2", "twitter": "None", "instagram": "None", "facebook": "None", "youtube": "None", "website": "None", "summary": "None", "logo": "None", "latitude": 46.311518610854826, "longitude": -79.4483615817129}, "120584040RR0001": {"name": "LA SOCIETE SCOUTE DE SAINTE-URSULE INC.", "designationCode": "C", "categoryCode": "29", "address": "3290 RUE HAMELIN", "city": "SAINTE-FOY", "province": "QC", "country": "CA", "postalCode": "G1W2W9", "twitter": "None", "instagram": "None", "facebook": "None", "youtube": "None", "website": "None", "summary": "None", "logo": "None", "latitude": 46.75541100000005, "longitude": -71.30986099999993}, "843382946RR0001": {"name": "LA SOCIETE ST-VINCENT DE PAUL, CONFERENCE ST-JOSEPH DE HULL INC.", "designationCode": "C", "categoryCode": "09", "address": "245 BOUL ST-JOSEPH", "city": "HULL", "province": "QC", "country": "CA", "postalCode": "J8Y3X5", "twitter": "None", "instagram": "None", "facebook": "None", "youtube": "None", "website": "None", "summary": "None", "logo": "None", "latitude": 45.43584435137628, "longitude": -75.73310170780155}, "141218727RR0001": {"name": "LA SOCIETE ST-VINCENT-DE-PAUL CONSEIL DE CHATEAUGUAY", "designationCode": "C", "categoryCode": "09", "address": "42 GILMOUR", "city": "CHATEAUGUAY", "province": "QC", "country": "CA", "postalCode": "J6J1K6", "twitter": "None", "instagram": "None", "facebook": "None", "youtube": "None", "website": "None", "summary": "None", "logo": "None", "latitude": 45.377127608921576, "longitude": -73.74578270053087}, "102986981RR0001": {"name": "LA SOUPAPE, MAISON DES JEUNES INC.", "designationCode": "C", "categoryCode": "09", "address": "49 RUE MERCIER", "city": "ROUYN-NORANDA", "province": "QC", "country": "CA", "postalCode": "J9X4X3", "twitter": "None", "instagram": "None", "facebook": "None", "youtube": "None", "website": "None", "summary": "None", "logo": "None", "latitude": 48.24152027699233, "longitude": -79.02508928209956}, "140259268RR0001": {"name": "LA SOUPE POPULAIRE DE CHICOUTIMI INC", "designationCode": "C", "categoryCode": "01", "address": "299 LAFONTAINE", "city": "CHICOUTIMI", "province": "QC", "country": "CA", "postalCode": "G7H4T7", "twitter": "None", "instagram": "None", "facebook": "None", "youtube": "None", "website": "None", "summary": "None", "logo": "None", "latitude": 48.42706200000005, "longitude": -71.06002549999994}, "141632695RR0001": {"name": "LA SOUPIERE DE JONQUIERE", "designationCode": "C", "categoryCode": "09", "address": "CP 22005 CSP ST-GEORGES", "city": "JONQUIERE", "province": "QC", "country": "CA", "postalCode": "G8A2K4", "twitter": "None", "instagram": "None", "facebook": "None", "youtube": "None", "website": "None", "summary": "None", "logo": "None", "latitude": 48.41346300000005, "longitude": -71.25355249999993}, "130661762RR0001": {"name": "LA SOUPIERE DE L'AMITIE DE GATINEAU INC", "designationCode": "C", "categoryCode": "09", "address": "144 RUE JEAN-RENE-MONETTE", "city": "GATINEAU", "province": "QC", "country": "CA", "postalCode": "J8P5B7", "twitter": "None", "instagram": "None", "facebook": "None", "youtube": "None", "website": "None", "summary": "None", "logo": "None", "latitude": 45.482402189566606, "longitude": -75.64810553701909}, "141030338RR0001": {"name": "LA SOUPIERE JOLIETTE-LANAUDIERE", "designationCode": "C", "categoryCode": "09", "address": "712 RUE DE LA NAUDIERE        CP 114", "city": "JOLIETTE", "province": "QC", "country": "CA", "postalCode": "J6E3Z3", "twitter": "None", "instagram": "None", "facebook": "None", "youtube": "None", "website": "None", "summary": "None", "logo": "None", "latitude": 46.02356700000006, "longitude": -73.44196099999994}, "862279221RR0001": {"name": "LA SOURCE D'EAU VIVE DE ROBERVAL INC.", "designationCode": "C", "categoryCode": "49", "address": "70 RUE GAUTHIER", "city": "SAGUENAY", "province": "QC", "country": "CA", "postalCode": "G7H5A8", "twitter": "None", "instagram": "None", "facebook": "None", "youtube": "None", "website": "None", "summary": "None", "logo": "None", "latitude": 48.46404399486842, "longitude": -70.99476516067979}, "871023610RR0001": {"name": "LA SOURCE D'ENTRAIDE INC.", "designationCode": "C", "categoryCode": "09", "address": "2252, CH. SAINTE-ANGELIQUE", "city": "SAINT-LAZARE", "province": "QC", "country": "CA", "postalCode": "J7T2H5", "twitter": "None", "instagram": "None", "facebook": "None", "youtube": "None", "website": "None", "summary": "None", "logo": "None", "latitude": 45.4015065600155, "longitude": -74.1519157511973}, "141510958RR0001": {"name": "LA SOURCE DE STE-MARIE INC.", "designationCode": "C", "categoryCode": "09", "address": "356 RUE NOTRE-DAME S", "city": "SAINTE-MARIE", "province": "QC", "country": "CA", "postalCode": "G6E2V7", "twitter": "None", "instagram": "None", "facebook": "None", "youtube": "None", "website": "None", "summary": "None", "logo": "None", "latitude": 46.434179388020034, "longitude": -71.01786199373893}, "119008209RR0001": {"name": "LA SOURCE DES FILLES DE CLAIRE INC.", "designationCode": "C", "categoryCode": "49", "address": "240 BOUL DE LA PROVIDENCE", "city": "LACHUTE", "province": "QC", "country": "CA", "postalCode": "J8H3M2", "twitter": "None", "instagram": "None", "facebook": "None", "youtube": "None", "website": "None", "summary": "None", "logo": "None", "latitude": 45.666405113537856, "longitude": -74.3566165116281}, "872722392RR0001": {"name": "LA SOURCE DES JEUNES", "designationCode": "C", "categoryCode": "09", "address": "100 DU COMMANDEUR", "city": "CANTLEY", "province": "QC", "country": "CA", "postalCode": "J8V3T5", "twitter": "None", "instagram": "None", "facebook": "None", "youtube": "None", "website": "None", "summary": "None", "logo": "None", "latitude": 45.54439675714126, "longitude": -75.76168803967349}, "892503723RR0001": {"name": "LA SOURCE DU NORD", "designationCode": "C", "categoryCode": "09", "address": "3900, RUE MURIELLE", "city": "LAVAL", "province": "QC", "country": "CA", "postalCode": "H7P1N9", "twitter": "None", "instagram": "None", "facebook": "None", "youtube": "None", "website": "None", "summary": "None", "logo": "None", "latitude": 45.57244230806747, "longitude": -73.82255149220971}, "127566107RR0001": {"name": "LA SOURCE-SOLEIL", "designationCode": "C", "categoryCode": "09", "address": "520 DOLLARD", "city": "SHERBROOKE", "province": "QC", "country": "CA", "postalCode": "J1E1W2", "twitter": "None", "instagram": "None", "facebook": "None", "youtube": "None", "website": "None", "summary": "None", "logo": "None", "latitude": 45.40935749956732, "longitude": -71.87727149999999}, "883967663RR0001": {"name": "LA STATION DE L'AVENTURE, MAISON DE LA FAMILLE", "designationCode": "C", "categoryCode": "01", "address": "540, CHEMIN DU LAC-ST-LOUIS", "city": "VILLE DE L\u00c9RY", "province": "QC", "country": "CA", "postalCode": "J6N1A3", "twitter": "None", "instagram": "None", "facebook": "None", "youtube": "None", "website": "None", "summary": "None", "logo": "None", "latitude": 45.359716995037, "longitude": -73.7849027820709}, "134692805RR0001": {"name": "LA STORTA JESUITS (SUBSIDIARY OF THE JESUIT FATHERS OF UPPER CANADA)", "designationCode": "C", "categoryCode": "46", "address": "2320 LIVERPOOL RD", "city": "PICKERING", "province": "ON", "country": "CA", "postalCode": "L1X1V4", "twitter": "None", "instagram": "None", "facebook": "None", "youtube": "None", "website": "None", "summary": "None", "logo": "None", "latitude": 43.853979982324084, "longitude": -79.09880356420669}, "865314934RR0001": {"name": "LA SYMPHONIE DES VENTS DE MONTREAL", "designationCode": "C", "categoryCode": "22", "address": "7030-9IEME AVENUE", "city": "MONTREAL", "province": "QC", "country": "CA", "postalCode": "H2A3B6", "twitter": "None", "instagram": "None", "facebook": "None", "youtube": "None", "website": "None", "summary": "None", "logo": "None", "latitude": 45.55643875823778, "longitude": -73.5966089521322}, "860134683RR0001": {"name": "LA TABLE RONDE DE SAINT-LEONARD", "designationCode": "C", "categoryCode": "09", "address": "8180 COLLERETTE               BUREAU 1234", "city": "SAINT-L\u00c9ONARD", "province": "QC", "country": "CA", "postalCode": "H1P2V5", "twitter": "None", "instagram": "None", "facebook": "None", "youtube": "None", "website": "None", "summary": "None", "logo": "None", "latitude": 45.585607727422435, "longitude": -73.59307450210613}, "863179057RR0001": {"name": "LA TABLEE DES CHEFS", "designationCode": "C", "categoryCode": "09", "address": "930 BOUL CUR\u00c9-POIRIER EST", "city": "LONGUEUIL", "province": "QC", "country": "CA", "postalCode": "J4J4X1", "twitter": "None", "instagram": "None", "facebook": "None", "youtube": "None", "website": "None", "summary": "None", "logo": "None", "latitude": 45.53932720334939, "longitude": -73.47478378325317}, "134563055RR0001": {"name": "LA TABLEE POPULAIRE", "designationCode": "C", "categoryCode": "01", "address": "132, RUE LORING", "city": "DRUMMONDVILLE", "province": "QC", "country": "CA", "postalCode": "J2C4K1", "twitter": "None", "instagram": "None", "facebook": "None", "youtube": "None", "website": "None", "summary": "None", "logo": "None", "latitude": 45.885973359137914, "longitude": -72.49223025907449}, "120524764RR0001": {"name": "LA TOURNEE DES MARMITONS DE MONTMAGNY", "designationCode": "C", "categoryCode": "09", "address": "201 - 25 BOUL TACHE O", "city": "MONTMAGNY", "province": "QC", "country": "CA", "postalCode": "G5V2Z9", "twitter": "None", "instagram": "None", "facebook": "None", "youtube": "None", "website": "None", "summary": "None", "logo": "None", "latitude": 46.96896848486307, "longitude": -70.61857551122398}, "120382668RR0001": {"name": "LA TRAVERSEE (RIVE-SUD)", "designationCode": "C", "categoryCode": "09", "address": "10 AV HICKSON", "city": "SAINT-LAMBERT", "province": "QC", "country": "CA", "postalCode": "J4R2N3", "twitter": "None", "instagram": "None", "facebook": "None", "youtube": "None", "website": "None", "summary": "None", "logo": "None", "latitude": 45.4960314893242, "longitude": -73.5130035}, "130404205RR0001": {"name": "LA TRAVERSEE 12-18 ANS INC.", "designationCode": "C", "categoryCode": "09", "address": "291, RUE BERNIER OUEST", "city": "ST-FERDINAND", "province": "QC", "country": "CA", "postalCode": "G0N1N0", "twitter": "None", "instagram": "None", "facebook": "None", "youtube": "None", "website": "None", "summary": "None", "logo": "None", "latitude": 46.10995558203003, "longitude": -71.5769554326565}, "119009355RR0001": {"name": "LA TROUPE DU THEATRE DE QUARTIER", "designationCode": "C", "categoryCode": "22", "address": "404-1908 RUE PANET", "city": "MONTREAL", "province": "QC", "country": "CA", "postalCode": "H2L3A2", "twitter": "None", "instagram": "None", "facebook": "None", "youtube": "None", "website": "None", "summary": "None", "logo": "None", "latitude": 45.52251698277466, "longitude": -73.56046463171549}, "866404163RR0001": {"name": "LA VELOROUTE DE LA CHAUDIERE SECTEUR DE LA NOUVELLE-BEAUCE", "designationCode": "C", "categoryCode": "56", "address": "700, RUE NOTRE-DAME NORD", "city": "SAINTE-MARIE", "province": "QC", "country": "CA", "postalCode": "G6E2K9", "twitter": "None", "instagram": "None", "facebook": "None", "youtube": "None", "website": "None", "summary": "None", "logo": "None", "latitude": 46.44375904825134, "longitude": -71.03282756450449}, "119009819RR0001": {"name": "LA VIE COMBL\u00c9E INC.", "designationCode": "C", "categoryCode": "39", "address": "670 MELANCON", "city": "DRUMMONDVILLE", "province": "QC", "country": "CA", "postalCode": "J2C4S3", "twitter": "None", "instagram": "None", "facebook": "None", "youtube": "None", "website": "None", "summary": "None", "logo": "None", "latitude": 45.874932004154935, "longitude": -72.49612892518334}, "119009827RR0001": {"name": "LA VIE DES ARTS", "designationCode": "C", "categoryCode": "22", "address": "5605 AVENUE DE GASP\u00c9          LOCAL 603", "city": "MONTR\u00c9AL", "province": "QC", "country": "CA", "postalCode": "H2T2A4", "twitter": "None", "instagram": "None", "facebook": "None", "youtube": "None", "website": "None", "summary": "None", "logo": "None", "latitude": 45.528012312539516, "longitude": -73.5981909323967}, "128972841RR0001": {"name": "LA VIE MONTANTE", "designationCode": "C", "categoryCode": "49", "address": "131 JACQUES M\u00c9NARDC.P.142", "city": "BOUCHERVILLE", "province": "QC", "country": "CA", "postalCode": "J4B5E6", "twitter": "None", "instagram": "None", "facebook": "None", "youtube": "None", "website": "None", "summary": "None", "logo": "None", "latitude": 45.607609863465754, "longitude": -73.45155438908787}, "861819332RR0001": {"name": "LA VILLA DU REVE", "designationCode": "C", "categoryCode": "09", "address": "428, 15 E RUE OUEST", "city": "LA GUADELOUPE BEAUCE", "province": "QC", "country": "CA", "postalCode": "G0M1G0", "twitter": "None", "instagram": "None", "facebook": "None", "youtube": "None", "website": "None", "summary": "None", "logo": "None", "latitude": 45.96818100000006, "longitude": -70.94158549999993}, "119009868RR0001": {"name": "LA VILLA LOYOLA DE SUDBURY", "designationCode": "C", "categoryCode": "38", "address": "4951 CHEMIN LONG LAKE ROAD", "city": "SUDBURY", "province": "ON", "country": "CA", "postalCode": "P3G1K9", "twitter": "None", "instagram": "None", "facebook": "None", "youtube": "None", "website": "None", "summary": "None", "logo": "None", "latitude": 46.403516408966674, "longitude": -81.00961692662564}, "119009884RR0001": {"name": "LA VILLA SORMANY INC.", "designationCode": "C", "categoryCode": "01", "address": "1289 CHEMIN ROBERTVILLE", "city": "ROBERTVILLE", "province": "NB", "country": "CA", "postalCode": "E8K2V9", "twitter": "None", "instagram": "None", "facebook": "None", "youtube": "None", "website": "None", "summary": "None", "logo": "None", "latitude": 47.69729276198962, "longitude": -65.76889770364754}, "889566329RR0001": {"name": "LA-MAR FOUNDATION", "designationCode": "B", "categoryCode": "03", "address": "LAWREMCE FRIESEN              PO BOX 2253", "city": "ABBOTSFORD", "province": "BC", "country": "CA", "postalCode": "V2T4X3", "twitter": "None", "instagram": "None", "facebook": "None", "youtube": "None", "website": "None", "summary": "None", "logo": "None", "latitude": 49.05161700000005, "longitude": -122.32930399999994}, "835016528RR0001": {"name": "LABARGE CHARITABLE FOUNDATION", "designationCode": "B", "categoryCode": "05", "address": "ROYAL BANK PLAZA, 10TH FL S   TOWER 200 BAY ST, P.O. BOX 95", "city": "TORONTO", "province": "ON", "country": "CA", "postalCode": "M5J2J2", "twitter": "None", "instagram": "None", "facebook": "None", "youtube": "None", "website": "None", "summary": "None", "logo": "None", "latitude": 43.64635885622373, "longitude": -79.37932458843532}, "118987775RR0001": {"name": "LABDARA FOUNDATION", "designationCode": "C", "categoryCode": "09", "address": "5 RESURRECTION ROAD", "city": "TORONTO", "province": "ON", "country": "CA", "postalCode": "M9A5G1", "twitter": "None", "instagram": "None", "facebook": "None", "youtube": "None", "website": "None", "summary": "None", "logo": "None", "latitude": 43.64381498779498, "longitude": -79.5311500990538}, "118987783RR0001": {"name": "LABEL BASMAN MEMORIAL SCHOLARSHIP FUND", "designationCode": "C", "categoryCode": "21", "address": "235 STRATHALLANWOOD BLVD", "city": "TORONTO", "province": "ON", "country": "CA", "postalCode": "M5N1T5", "twitter": "None", "instagram": "None", "facebook": "None", "youtube": "None", "website": "None", "summary": "None", "logo": "None", "latitude": 43.71269100000005, "longitude": -79.42214149999994}, "107581290RR0001": {"name": "LABOUR COLLEGE OF CANADA/COLL\u00c8GE SYNDICAL DU CANADA", "designationCode": "C", "categoryCode": "20", "address": "200-2841 RIVERSIDE DR", "city": "OTTAWA", "province": "ON", "country": "CA", "postalCode": "K1V8N4", "twitter": "None", "instagram": "None", "facebook": "None", "youtube": "None", "website": "None", "summary": "None", "logo": "None", "latitude": 45.37088326256561, "longitude": -75.69040566466656}, "118987874RR0001": {"name": "LABOUR COMMUNITY SERVICES OF METROPOLITAN TORONTO INC.", "designationCode": "C", "categoryCode": "09", "address": "603-15 GERVAIS DR", "city": "DON MILLS", "province": "ON", "country": "CA", "postalCode": "M3C1Y8", "twitter": "None", "instagram": "None", "facebook": "None", "youtube": "None", "website": "None", "summary": "None", "logo": "None", "latitude": 43.72230045876865, "longitude": -79.33646022072865}, "891150971RR0001": {"name": "LABOUR COMMUNITY SERVICES OF OTTAWA-CARLETON INC", "designationCode": "C", "categoryCode": "59", "address": "508 - 280 METCALFE STREET", "city": "OTTAWA", "province": "ON", "country": "CA", "postalCode": "K2P1R7", "twitter": "None", "instagram": "None", "facebook": "None", "youtube": "None", "website": "None", "summary": "None", "logo": "None", "latitude": 45.415873457931916, "longitude": -75.69139676149774}, "107581308RR0001": {"name": "LABOUR COMMUNITY SERVICES OF PEEL INC.", "designationCode": "C", "categoryCode": "59", "address": "403-989 DERRY RD E", "city": "MISSISSAUGA", "province": "ON", "country": "CA", "postalCode": "L5T2J8", "twitter": "None", "instagram": "None", "facebook": "None", "youtube": "None", "website": "None", "summary": "None", "logo": "None", "latitude": 43.665242277309446, "longitude": -79.68545315436518}, "880342761RR0001": {"name": "LABRADOR CREATIVE ARTS FESTIVAL INC", "designationCode": "C", "categoryCode": "22", "address": "P.O. BOX 591 STN C", "city": "HAPPY VALLEY GOOSE BAY", "province": "NL", "country": "CA", "postalCode": "A0P1C0", "twitter": "None", "instagram": "None", "facebook": "None", "youtube": "None", "website": "None", "summary": "None", "logo": "None", "latitude": 53.29581900000005, "longitude": -60.29593999999993}, "118987916RR0001": {"name": "LABRADOR FRIENDSHIP CENTRE", "designationCode": "C", "categoryCode": "09", "address": "BOX 767", "city": "HAPPY VALLEY-GOOSE BAY", "province": "NL", "country": "CA", "postalCode": "A0P1E0", "twitter": "None", "instagram": "None", "facebook": "None", "youtube": "None", "website": "None", "summary": "None", "logo": "None", "latitude": 53.29581900000005, "longitude": -60.29593999999993}, "870395860RR0001": {"name": "LABRADOR HERITAGE SOCIETY", "designationCode": "C", "categoryCode": "50", "address": "P.O. BOX 99", "city": "NORTH WEST RIVER", "province": "NL", "country": "CA", "postalCode": "A0P1M0", "twitter": "None", "instagram": "None", "facebook": "None", "youtube": "None", "website": "None", "summary": "None", "logo": "None", "latitude": 53.47562636528523, "longitude": -60.26854020534523}, "892566308RR0001": {"name": "LABRADOR SCHOOL BOARD TRUST FUND", "designationCode": "C", "categoryCode": "21", "address": "95 ELIZABETH AVE", "city": "ST. JOHN'S", "province": "NL", "country": "CA", "postalCode": "A1B1R6", "twitter": "None", "instagram": "None", "facebook": "None", "youtube": "None", "website": "None", "summary": "None", "logo": "None", "latitude": 47.581317106555645, "longitude": -52.71419621645815}, "890381049RR0001": {"name": "LABRADOR WEST MINISTERIAL ASSOCIATION", "designationCode": "C", "categoryCode": "47", "address": "PO BOX 256", "city": "LABRADOR CITY", "province": "NL", "country": "CA", "postalCode": "A2V2K6", "twitter": "None", "instagram": "None", "facebook": "None", "youtube": "None", "website": "None", "summary": "None", "logo": "None"}, "880896428RR0001": {"name": "LABRADOR WEST YOUNG PEOPLE'S ASSOCIATION INCORPORATED", "designationCode": "C", "categoryCode": "09", "address": "P O BOX 339", "city": "LABRADOR CITY", "province": "NL", "country": "CA", "postalCode": "A2V2K6", "twitter": "None", "instagram": "None", "facebook": "None", "youtube": "None", "website": "None", "summary": "None", "logo": "None"}, "805237492RR0001": {"name": "LAB87", "designationCode": "C", "categoryCode": "22", "address": "5272 8E AVENUE", "city": "MONTREAL", "province": "QC", "country": "CA", "postalCode": "H1Y2L2", "twitter": "None", "instagram": "None", "facebook": "None", "youtube": "None", "website": "None", "summary": "None", "logo": "None", "latitude": 45.54903217733294, "longitude": -73.57354901347443}, "886714591RR0001": {"name": "LAC BROME FOOD BANK OR BANQUE D'ALIMENTS LAC BROME", "designationCode": "C", "categoryCode": "09", "address": "64 JAMES STREET", "city": "KNOWLTON", "province": "QC", "country": "CA", "postalCode": "J0E1V0", "twitter": "None", "instagram": "None", "facebook": "None", "youtube": "None", "website": "None", "summary": "None", "logo": "None", "latitude": 45.21278696863641, "longitude": -72.52009897368538}, "132198235RR0001": {"name": "LAC CARDINAL REGIONAL PIONEER VILLAGE MUSEUM SOCIETY", "designationCode": "C", "categoryCode": "50", "address": "PO BOX 325", "city": "GRIMSHAW", "province": "AB", "country": "CA", "postalCode": "T0H1W0", "twitter": "None", "instagram": "None", "facebook": "None", "youtube": "None", "website": "None", "summary": "None", "logo": "None", "latitude": 56.191580000000044, "longitude": -117.60929999999996}, "118988088RR0001": {"name": "LAC DES ILES SUNDAY SERVICES", "designationCode": "C", "categoryCode": "39", "address": "30 CEDAR DRIVE", "city": "CALEDON", "province": "ON", "country": "CA", "postalCode": "L7K1H6", "twitter": "None", "instagram": "None", "facebook": "None", "youtube": "None", "website": "None", "summary": "None", "logo": "None", "latitude": 43.826433363812455, "longitude": -79.96976036848699}, "863293213RR0001": {"name": "LAC DU BONNET AND AREA FOOD BANK", "designationCode": "C", "categoryCode": "09", "address": "P.O. BOX 779", "city": "LAC DU BONNET", "province": "MB", "country": "CA", "postalCode": "R0E1A0", "twitter": "None", "instagram": "None", "facebook": "None", "youtube": "None", "website": "None", "summary": "None", "logo": "None", "latitude": 50.25160000000005, "longitude": -96.06180999999998}, "118988096RR0001": {"name": "LAC DU BONNET AND DISTRICT CHRISTMAS HAMPER COMMITTEE", "designationCode": "C", "categoryCode": "09", "address": "PO BOX 512", "city": "LAC DU BONNET", "province": "MB", "country": "CA", "postalCode": "R0E1A0", "twitter": "None", "instagram": "None", "facebook": "None", "youtube": "None", "website": "None", "summary": "None", "logo": "None", "latitude": 50.25160000000005, "longitude": -96.06180999999998}, "890282379RR0001": {"name": "LAC DU BONNET AND DISTRICT HISTORICAL SOCIETY INC", "designationCode": "C", "categoryCode": "50", "address": "PO BOX 658", "city": "LAC DU BONNET", "province": "MB", "country": "CA", "postalCode": "R0E1A0", "twitter": "None", "instagram": "None", "facebook": "None", "youtube": "None", "website": "None", "summary": "None", "logo": "None", "latitude": 50.25160000000005, "longitude": -96.06180999999998}, "118988112RR0001": {"name": "LAC DU BONNET CHILDREN'S CENTRE INC.", "designationCode": "C", "categoryCode": "20", "address": "BOX 338", "city": "LAC DU BONNET", "province": "MB", "country": "CA", "postalCode": "R0E1A0", "twitter": "None", "instagram": "None", "facebook": "None", "youtube": "None", "website": "None", "summary": "None", "logo": "None", "latitude": 50.25160000000005, "longitude": -96.06180999999998}, "868399361RR0001": {"name": "LAC DU BONNET COMMUNITY CENTRE INC", "designationCode": "C", "categoryCode": "56", "address": "BOX 2040", "city": "LAC DU BONNET", "province": "MB", "country": "CA", "postalCode": "R0E1A0", "twitter": "None", "instagram": "None", "facebook": "None", "youtube": "None", "website": "None", "summary": "None", "logo": "None", "latitude": 50.25160000000005, "longitude": -96.06180999999998}, "119288918RR0250": {"name": "LAC DU BONNET CONGREGATION OF JEHOVAH'S WITNESSES,", "designationCode": "C", "categoryCode": "61", "address": "BOX 463", "city": "LAC DU BONNET", "province": "MB", "country": "CA", "postalCode": "R0E1A0", "twitter": "None", "instagram": "None", "facebook": "None", "youtube": "None", "website": "None", "summary": "None", "logo": "None", "latitude": 50.25160000000005, "longitude": -96.06180999999998}, "107582876RR0001": {"name": "LAC DU BONNET REGIONAL LIBRARY", "designationCode": "C", "categoryCode": "50", "address": "PO BOX 216", "city": "LAC DU BONNET", "province": "MB", "country": "CA", "postalCode": "R0E1A0", "twitter": "None", "instagram": "None", "facebook": "None", "youtube": "None", "website": "None", "summary": "None", "logo": "None", "latitude": 50.25160000000005, "longitude": -96.06180999999998}, "857608509RR0001": {"name": "LAC DU BONNET YOUTH RECREATION CENTRE INC.", "designationCode": "C", "categoryCode": "29", "address": "BOX 1649                      55 MCARTHUR AVE", "city": "LAC DU BONNET", "province": "MB", "country": "CA", "postalCode": "R0E1A0", "twitter": "None", "instagram": "None", "facebook": "None", "youtube": "None", "website": "None", "summary": "None", "logo": "None", "latitude": 50.256405, "longitude": -96.06186499872966}, "892506247RR0001": {"name": "LAC LA BICHE ALBERTA CONGREGATION OF JEHOVAH'S WITNESSES", "designationCode": "C", "categoryCode": "61", "address": "PO BOX 1179", "city": "LAC LA BICHE", "province": "AB", "country": "CA", "postalCode": "T0A2C0", "twitter": "None", "instagram": "None", "facebook": "None", "youtube": "None", "website": "None", "summary": "None", "logo": "None", "latitude": 54.768200000000036, "longitude": -111.98244999999997}, "888598596RR0002": {"name": "LAC LA BICHE ANGLICAN PARISH", "designationCode": "C", "categoryCode": "30", "address": "BOX 242", "city": "LAC LA BICHE", "province": "AB", "country": "CA", "postalCode": "T0A2C0", "twitter": "None", "instagram": "None", "facebook": "None", "youtube": "None", "website": "None", "summary": "None", "logo": "None", "latitude": 54.768200000000036, "longitude": -111.98244999999997}, "891735227RR0001": {"name": "LAC LA BICHE BIRDING SOCIETY", "designationCode": "C", "categoryCode": "54", "address": "BOX 1977", "city": "LAC LA BICHE", "province": "AB", "country": "CA", "postalCode": "T0A2C0", "twitter": "None", "instagram": "None", "facebook": "None", "youtube": "None", "website": "None", "summary": "None", "logo": "None", "latitude": 54.768200000000036, "longitude": -111.98244999999997}, "877805788RR0001": {"name": "LAC LA BICHE CANADIAN NATIVE FRIENDSHIP CENTRE ASSOCIATION", "designationCode": "C", "categoryCode": "56", "address": "BOX 2338                      10105 CHURCHILL DR", "city": "LAC LA BICHE", "province": "AB", "country": "CA", "postalCode": "T0A2C0", "twitter": "None", "instagram": "None", "facebook": "None", "youtube": "None", "website": "None", "summary": "None", "logo": "None", "latitude": 54.77302863056164, "longitude": -111.97963556520871}, "887296226RR0001": {"name": "LAC LA BICHE HERITAGE SOCIETY", "designationCode": "C", "categoryCode": "52", "address": "PO BOX 237", "city": "LAC LA BICHE", "province": "AB", "country": "CA", "postalCode": "T0A2C0", "twitter": "None", "instagram": "None", "facebook": "None", "youtube": "None", "website": "None", "summary": "None", "logo": "None", "latitude": 54.768200000000036, "longitude": -111.98244999999997}, "118988435RR0001": {"name": "LAC LA BICHE MISSION HISTORICAL SOCIETY", "designationCode": "C", "categoryCode": "52", "address": "SITE 640 COMP 2 RR2", "city": "LAC LA BICHE", "province": "AB", "country": "CA", "postalCode": "T0A2C2", "twitter": "None", "instagram": "None", "facebook": "None", "youtube": "None", "website": "None", "summary": "None", "logo": "None", "latitude": 53.68331400000005, "longitude": -113.46717049999994}, "888498847RR0001": {"name": "LAC LA BICHE MUSLIM ASSOCIATION", "designationCode": "C", "categoryCode": "60", "address": "BOX 641", "city": "LAC LA BICHE", "province": "AB", "country": "CA", "postalCode": "T0A2C0", "twitter": "None", "instagram": "None", "facebook": "None", "youtube": "None", "website": "None", "summary": "None", "logo": "None", "latitude": 54.768200000000036, "longitude": -111.98244999999997}, "892400672RR0001": {"name": "LAC LA BICHE SOCIETY VICTIMS SERVICES UNIT", "designationCode": "C", "categoryCode": "59", "address": "PO BOX 810", "city": "LAC LA BICHE", "province": "AB", "country": "CA", "postalCode": "T0A2C0", "twitter": "None", "instagram": "None", "facebook": "None", "youtube": "None", "website": "None", "summary": "None", "logo": "None", "latitude": 54.768200000000036, "longitude": -111.98244999999997}, "107583650RR0001": {"name": "LAC LA NONNE ENHANCEMENT AND PROTECTION ASSOCIATION", "designationCode": "C", "categoryCode": "59", "address": "SITE 1, BOX 14, RR 1", "city": "GUNN", "province": "AB", "country": "CA", "postalCode": "T0E1A0", "twitter": "None", "instagram": "None", "facebook": "None", "youtube": "None", "website": "None", "summary": "None", "logo": "None", "latitude": 53.73034800000005, "longitude": -114.34036399999994}, "118988492RR0001": {"name": "LAC MAROIS UNION CHURCH", "designationCode": "C", "categoryCode": "39", "address": "132  BALLANTYNE AVE SOUTH", "city": "MONTREAL", "province": "QC", "country": "CA", "postalCode": "H4X2B3", "twitter": "None", "instagram": "None", "facebook": "None", "youtube": "None", "website": "None", "summary": "None", "logo": "None", "latitude": 45.451106582001366, "longitude": -73.63969325105306}, "118989755RR0001": {"name": "LAC QUI PARLE LUTHERAN CHURCH", "designationCode": "C", "categoryCode": "32", "address": "PO BOX 95", "city": "TORQUAY", "province": "SK", "country": "CA", "postalCode": "S0C2L0", "twitter": "None", "instagram": "None", "facebook": "None", "youtube": "None", "website": "None", "summary": "None", "logo": "None", "latitude": 49.15007000000003, "longitude": -103.50095999999996}, "877832824RR0001": {"name": "LAC STE ANNE EAST FOOD BANK SOCIETY", "designationCode": "C", "categoryCode": "09", "address": "PO BOX 300", "city": "ONOWAY", "province": "AB", "country": "CA", "postalCode": "T0E1V0", "twitter": "None", "instagram": "None", "facebook": "None", "youtube": "None", "website": "None", "summary": "None", "logo": "None", "latitude": 53.70302000000004, "longitude": -114.19152999999994}, "141160333RR0001": {"name": "LAC STE ANNE FOUNDATION", "designationCode": "C", "categoryCode": "01", "address": "BOX 299", "city": "MAYERTHORPE", "province": "AB", "country": "CA", "postalCode": "T0E1N0", "twitter": "None", "instagram": "None", "facebook": "None", "youtube": "None", "website": "None", "summary": "None", "logo": "None", "latitude": 53.952450000000056, "longitude": -115.13884999999999}, "140519307RR0001": {"name": "LAC STE ANNE HISTORICAL SOCIETY", "designationCode": "C", "categoryCode": "50", "address": "BOX 525", "city": "SANGUDO", "province": "AB", "country": "CA", "postalCode": "T0E2A0", "twitter": "None", "instagram": "None", "facebook": "None", "youtube": "None", "website": "None", "summary": "None", "logo": "None", "latitude": 53.88934000000006, "longitude": -114.90204999999997}, "889570776RR0001": {"name": "LAC STE ANNE PILGRIMAGE COMPANY", "designationCode": "C", "categoryCode": "47", "address": "PO BOX 2036", "city": "VALLEYVIEW", "province": "AB", "country": "CA", "postalCode": "T0H3N0", "twitter": "None", "instagram": "None", "facebook": "None", "youtube": "None", "website": "None", "summary": "None", "logo": "None", "latitude": 55.06844000000007, "longitude": -117.27238999999997}, "107585952RR0001": {"name": "LAC VERT ASSOCIATED GOSPEL CHURCH", "designationCode": "C", "categoryCode": "39", "address": "BOX 298", "city": "NAICAM", "province": "SK", "country": "CA", "postalCode": "S0K2Z0", "twitter": "None", "instagram": "None", "facebook": "None", "youtube": "None", "website": "None", "summary": "None", "logo": "None", "latitude": 52.42007000000007, "longitude": -104.49704999999994}, "890538788RR0001": {"name": "LAC-MAC LTD EMPLOYEES' CHARITABLE CONTRIBUTION PLAN,", "designationCode": "C", "categoryCode": "75", "address": "2-847 HIGHWAY AVE N", "city": "LONDON", "province": "ON", "country": "CA", "postalCode": "N5Y5B8", "twitter": "None", "instagram": "None", "facebook": "None", "youtube": "None", "website": "None", "summary": "None", "logo": "None", "latitude": 42.96189149999999, "longitude": -81.258957}}