{"135695922RR0001": {"name": "PAROISSE NOTRE-DAME-DE-L'ILE", "designationCode": "C", "categoryCode": "38", "address": "115, BOUL. SACRE-COEUR", "city": "HULL", "province": "QC", "country": "CA", "postalCode": "J8X1C5", "twitter": "None", "instagram": "None", "facebook": "None", "youtube": "None", "website": "None", "summary": "None", "logo": "None", "latitude": 45.43728742829908, "longitude": -75.71438591341101}, "107876476RR0011": {"name": "PAROISSE NOTRE-DAME-DE-LA-MERCI", "designationCode": "C", "categoryCode": "38", "address": "38 EDWARD AVE", "city": "CONISTON", "province": "ON", "country": "CA", "postalCode": "P0M1M0", "twitter": "None", "instagram": "None", "facebook": "None", "youtube": "None", "website": "None", "summary": "None", "logo": "None", "latitude": 46.490607167638075, "longitude": -80.8498429200761}, "130091135RR0050": {"name": "PAROISSE NOTRE-DAME-DE-LA-PAIX", "designationCode": "C", "categoryCode": "38", "address": "854 MOUNTAIN RD", "city": "MONCTON", "province": "NB", "country": "CA", "postalCode": "E1C2R8", "twitter": "None", "instagram": "None", "facebook": "None", "youtube": "None", "website": "None", "summary": "None", "logo": "None", "latitude": 46.100568889232115, "longitude": -64.80991010395856}, "130599442RR0037": {"name": "PAROISSE NOTRE-DAME-DE-LA-PAIX", "designationCode": "C", "categoryCode": "39", "address": "288, AVENUE COMMERCIAL", "city": "TIMMINS", "province": "ON", "country": "CA", "postalCode": "P4N2X7", "twitter": "None", "instagram": "None", "facebook": "None", "youtube": "None", "website": "None", "summary": "None", "logo": "None", "latitude": 48.47401454049662, "longitude": -81.34352578633107}, "107876476RR0063": {"name": "PAROISSE NOTRE-DAME-DE-LA-RIVIERE", "designationCode": "C", "categoryCode": "38", "address": "C.P. 88", "city": "WAHNAPITAE", "province": "ON", "country": "CA", "postalCode": "P0M3C0", "twitter": "None", "instagram": "None", "facebook": "None", "youtube": "None", "website": "None", "summary": "None", "logo": "None", "latitude": 46.49394300000006, "longitude": -80.75933449999994}, "119018737RR0015": {"name": "PAROISSE NOTRE-DAME-DE-LA-SALETTE", "designationCode": "C", "categoryCode": "38", "address": "C.P. 3238 SUCC BUREAU CHEF", "city": "TRACADIE-SHEILA", "province": "NB", "country": "CA", "postalCode": "E1X1G5", "twitter": "None", "instagram": "None", "facebook": "None", "youtube": "None", "website": "None", "summary": "None", "logo": "None", "latitude": 47.52130200000006, "longitude": -64.91063149999994}, "107876476RR0065": {"name": "PAROISSE NOTRE-DAME-DE-LOURDES", "designationCode": "C", "categoryCode": "38", "address": "C.P.127", "city": "ALBAN", "province": "ON", "country": "CA", "postalCode": "P0M1A0", "twitter": "None", "instagram": "None", "facebook": "None", "youtube": "None", "website": "None", "summary": "None", "logo": "None", "latitude": 46.48601118418058, "longitude": -80.86006824067452}, "119018737RR0016": {"name": "PAROISSE NOTRE-DAME-DE-LOURDES", "designationCode": "C", "categoryCode": "38", "address": "4 CENTRAL ST", "city": "CAMPBELLTON", "province": "NB", "country": "CA", "postalCode": "E3N1Z5", "twitter": "None", "instagram": "None", "facebook": "None", "youtube": "None", "website": "None", "summary": "None", "logo": "None", "latitude": 48.00584310750667, "longitude": -66.67064434014542}, "130091135RR0042": {"name": "PAROISSE NOTRE-DAME-DE-LOURDES", "designationCode": "C", "categoryCode": "38", "address": "7 CH. ABOUJAGANE", "city": "MEMRAMCOOK", "province": "NB", "country": "CA", "postalCode": "E4K3P5", "twitter": "None", "instagram": "None", "facebook": "None", "youtube": "None", "website": "None", "summary": "None", "logo": "None", "latitude": 46.010967231230666, "longitude": -64.51663785388644}, "129930228RR0005": {"name": "PAROISSE NOTRE-DAME-DES SEPT DOULEURS", "designationCode": "C", "categoryCode": "38", "address": "30 37E AVE", "city": "EDMUNDSTON", "province": "NB", "country": "CA", "postalCode": "E3V2W7", "twitter": "None", "instagram": "None", "facebook": "None", "youtube": "None", "website": "None", "summary": "None", "logo": "None", "latitude": 47.37096418513211, "longitude": -68.32481621702824}, "119122778RR0018": {"name": "PAROISSE NOTRE-DAME-DES-ANGES", "designationCode": "C", "categoryCode": "38", "address": "NOTRE-DAME DES ANGES          8 CHURCH ST., PO BOX 280", "city": "MOOSE CREEK", "province": "ON", "country": "CA", "postalCode": "K0C1W0", "twitter": "None", "instagram": "None", "facebook": "None", "youtube": "None", "website": "None", "summary": "None", "logo": "None", "latitude": 45.26043363918865, "longitude": -74.97133677200065}, "119018737RR0017": {"name": "PAROISSE NOTRE-DAME-DES-FLOTS ET ST-URBAIN", "designationCode": "C", "categoryCode": "38", "address": "CP 2039", "city": "LAMEQUE", "province": "NB", "country": "CA", "postalCode": "E8T3N4", "twitter": "None", "instagram": "None", "facebook": "None", "youtube": "None", "website": "None", "summary": "None", "logo": "None", "latitude": 47.79344400000005, "longitude": -64.65094999999994}, "107361743RR0001": {"name": "PAROISSE NOTRE-DAME-DES-NEIGES", "designationCode": "C", "categoryCode": "38", "address": "3 RUE DONAT ST-AMOUR", "city": "GATINEAU", "province": "QC", "country": "CA", "postalCode": "J8M1B6", "twitter": "None", "instagram": "None", "facebook": "None", "youtube": "None", "website": "None", "summary": "None", "logo": "None", "latitude": 45.544191442148886, "longitude": -75.41916620053087}, "119018737RR0012": {"name": "PAROISSE NOTRE-DAME-DES-NEIGES", "designationCode": "C", "categoryCode": "38", "address": "4 CENTRAL ST", "city": "CAMPBELLTON", "province": "NB", "country": "CA", "postalCode": "E3N1Z5", "twitter": "None", "instagram": "None", "facebook": "None", "youtube": "None", "website": "None", "summary": "None", "logo": "None", "latitude": 48.00584310750667, "longitude": -66.67064434014542}, "107585515RR0024": {"name": "PAROISSE NOTRE-DAME-DES-OLIVIERS", "designationCode": "C", "categoryCode": "38", "address": "LOT 18, CONCESSION 10         CP 2408", "city": "COCHRANE", "province": "ON", "country": "CA", "postalCode": "P0L1C0", "twitter": "None", "instagram": "None", "facebook": "None", "youtube": "None", "website": "None", "summary": "None", "logo": "None", "latitude": 49.68835667332222, "longitude": -83.66770227756923}, "107876476RR0017": {"name": "PAROISSE NOTRE-DAME-DES-VICTOIRES", "designationCode": "C", "categoryCode": "38", "address": "13643 CHEMIN 64", "city": "FIELD", "province": "ON", "country": "CA", "postalCode": "P0H1M0", "twitter": "None", "instagram": "None", "facebook": "None", "youtube": "None", "website": "None", "summary": "None", "logo": "None", "latitude": 46.07697300000005, "longitude": -79.34753599999993}, "130091135RR0009": {"name": "PAROISSE NOTRE-DAME-DU-CARMEL", "designationCode": "C", "categoryCode": "38", "address": "2350, ROUTE 515", "city": "STE-MARIE-DE-KENT", "province": "NB", "country": "CA", "postalCode": "E4S2E3", "twitter": "None", "instagram": "None", "facebook": "None", "youtube": "None", "website": "None", "summary": "None", "logo": "None", "latitude": 46.41523076732213, "longitude": -64.82802754275258}, "107361883RR0001": {"name": "PAROISSE NOTRE-DAME-DU-PERPETUEL-SECOURS,", "designationCode": "C", "categoryCode": "38", "address": "990, RUE H\u00c9BERT", "city": "DESBIENS", "province": "QC", "country": "CA", "postalCode": "G0W1N0", "twitter": "None", "instagram": "None", "facebook": "None", "youtube": "None", "website": "None", "summary": "None", "logo": "None", "latitude": 48.41770563056164, "longitude": -71.94880677866576}, "107876476RR0005": {"name": "PAROISSE NOTRE-DAME-DU-ROSAIRE", "designationCode": "C", "categoryCode": "38", "address": "2770-1 RUE MAIN", "city": "BLEZARD VALEY", "province": "ON", "country": "CA", "postalCode": "P0M1E0", "twitter": "None", "instagram": "None", "facebook": "None", "youtube": "None", "website": "None", "summary": "None", "logo": "None", "latitude": 46.608615000000015, "longitude": -81.05602732437269}, "119018737RR0009": {"name": "PAROISSE NOTRE-DAME-DU-ROSAIRE", "designationCode": "C", "categoryCode": "38", "address": "CP 390", "city": "BATHURST", "province": "NB", "country": "CA", "postalCode": "E2A3Z3", "twitter": "None", "instagram": "None", "facebook": "None", "youtube": "None", "website": "None", "summary": "None", "logo": "None", "latitude": 47.61677400000005, "longitude": -65.64889249999993}, "119122778RR0020": {"name": "PAROISSE NOTRE-DAME-DU-ROSAIRE", "designationCode": "C", "categoryCode": "38", "address": "27 RUE QUEEN, C.P.279", "city": "CRYSLER", "province": "ON", "country": "CA", "postalCode": "K0A1R0", "twitter": "None", "instagram": "None", "facebook": "None", "youtube": "None", "website": "None", "summary": "None", "logo": "None", "latitude": 45.21694934485919, "longitude": -75.1513505429679}, "119018737RR0028": {"name": "PAROISSE NOTRE-DAME-DU-SACRE-COEUR", "designationCode": "C", "categoryCode": "38", "address": "4 CENTRAL ST", "city": "CAMPBELLTON", "province": "NB", "country": "CA", "postalCode": "E3N1Z5", "twitter": "None", "instagram": "None", "facebook": "None", "youtube": "None", "website": "None", "summary": "None", "logo": "None", "latitude": 48.00584310750667, "longitude": -66.67064434014542}, "119083020RR0001": {"name": "PAROISSE NOTRE-DAME-PORTE-DE-L'AURORE", "designationCode": "C", "categoryCode": "38", "address": "1465, RUE DE SEVE", "city": "MONTREAL", "province": "QC", "country": "CA", "postalCode": "H4E2A8", "twitter": "None", "instagram": "None", "facebook": "None", "youtube": "None", "website": "None", "summary": "None", "logo": "None", "latitude": 45.45588547489748, "longitude": -73.58329860782504}, "119083046RR0001": {"name": "PAROISSE ORTHODOXE ST-BENOIT DE NURSIE INC.", "designationCode": "C", "categoryCode": "39", "address": "2014 RUE SAINT-URBAIN", "city": "MONTREAL", "province": "QC", "country": "CA", "postalCode": "H2X3X8", "twitter": "None", "instagram": "None", "facebook": "None", "youtube": "None", "website": "None", "summary": "None", "logo": "None", "latitude": 45.51029390285077, "longitude": -73.56835582529281}, "129930228RR0024": {"name": "PAROISSE SACRE COEUR", "designationCode": "C", "categoryCode": "38", "address": "C.P. 149 - 37 RUE PRINCIPALE", "city": "RIVIERE VERTE", "province": "NB", "country": "CA", "postalCode": "E7C2T5", "twitter": "None", "instagram": "None", "facebook": "None", "youtube": "None", "website": "None", "summary": "None", "logo": "None", "latitude": 47.314867393287805, "longitude": -68.14212966826481}, "130599442RR0022": {"name": "PAROISSE SACRE COEUR", "designationCode": "C", "categoryCode": "38", "address": "116 DYMOND CRESCENT           BOX 488", "city": "NEW LISKEARD", "province": "ON", "country": "CA", "postalCode": "P0J1P0", "twitter": "None", "instagram": "None", "facebook": "None", "youtube": "None", "website": "None", "summary": "None", "logo": "None", "latitude": 47.506637723833485, "longitude": -79.67831558641133}, "128967353RR0073": {"name": "PAROISSE SACRE COEUR DE BOURGET", "designationCode": "C", "categoryCode": "38", "address": "3765, RUE CHAMPLAIN", "city": "BOURGET", "province": "ON", "country": "CA", "postalCode": "K0A1E0", "twitter": "None", "instagram": "None", "facebook": "None", "youtube": "None", "website": "None", "summary": "None", "logo": "None", "latitude": 45.435514620318536, "longitude": -75.15833385400201}, "107876476RR0041": {"name": "PAROISSE SACRE-COEUR", "designationCode": "C", "categoryCode": "38", "address": "144 MAIN", "city": "STURGEON FALLS", "province": "ON", "country": "CA", "postalCode": "P2B1N7", "twitter": "None", "instagram": "None", "facebook": "None", "youtube": "None", "website": "None", "summary": "None", "logo": "None", "latitude": 46.37039877922673, "longitude": -79.9281875986259}, "119110450RR0007": {"name": "PAROISSE SACRE-COEUR", "designationCode": "C", "categoryCode": "38", "address": "39 GUELPH ST", "city": "GEORGETOWN", "province": "ON", "country": "CA", "postalCode": "L7G3Z3", "twitter": "None", "instagram": "None", "facebook": "None", "youtube": "None", "website": "None", "summary": "None", "logo": "None", "latitude": 43.65141527319443, "longitude": -79.92510517229887}, "122418601RR0020": {"name": "PAROISSE SAINT ANNE", "designationCode": "C", "categoryCode": "38", "address": "7317 HIGHWAY 3", "city": "STE-ANNE-DU-RUISSEAU", "province": "NS", "country": "CA", "postalCode": "B0W2X0", "twitter": "None", "instagram": "None", "facebook": "None", "youtube": "None", "website": "None", "summary": "None", "logo": "None", "latitude": 43.83780361156535, "longitude": -65.93523982560652}, "122418601RR0019": {"name": "PAROISSE SAINT BERNARD", "designationCode": "C", "categoryCode": "38", "address": "CP 68", "city": "ANSE DES BELLIVEAU", "province": "NS", "country": "CA", "postalCode": "B0W1J0", "twitter": "None", "instagram": "None", "facebook": "None", "youtube": "None", "website": "None", "summary": "None", "logo": "None", "latitude": 44.40232653731331, "longitude": -66.02927484346321}, "129930228RR0012": {"name": "PAROISSE SAINT FRANCOIS XAVIER", "designationCode": "C", "categoryCode": "38", "address": "2016 RUE COMMERCIALE", "city": "SAINT-FRANCOIS", "province": "NB", "country": "CA", "postalCode": "E7A1B2", "twitter": "None", "instagram": "None", "facebook": "None", "youtube": "None", "website": "None", "summary": "None", "logo": "None", "latitude": 47.24318067837926, "longitude": -68.70288056199276}, "122418601RR0024": {"name": "PAROISSE SAINT JOSEPH", "designationCode": "C", "categoryCode": "38", "address": "17 WEYMOUTH FALLS RD.         P.O. BOX 94", "city": "WEYMOUTH", "province": "NS", "country": "CA", "postalCode": "B0W3T0", "twitter": "None", "instagram": "None", "facebook": "None", "youtube": "None", "website": "None", "summary": "None", "logo": "None", "latitude": 44.40484448384158, "longitude": -65.99713389898429}, "130091135RR0045": {"name": "PAROISSE SAINT JOSEPH", "designationCode": "C", "categoryCode": "38", "address": "3177 ROUTE 117", "city": "POINTE-SAPIN", "province": "NB", "country": "CA", "postalCode": "E9A1T1", "twitter": "None", "instagram": "None", "facebook": "None", "youtube": "None", "website": "None", "summary": "None", "logo": "None", "latitude": 46.958708566283796, "longitude": -64.83895101691955}, "122418601RR0003": {"name": "PAROISSE SAINT MICHEL", "designationCode": "C", "categoryCode": "38", "address": "FR ALBENI D'ENTREMONT, PRIEST P.O. BOX 327", "city": "WEDGEPORT", "province": "NS", "country": "CA", "postalCode": "B0W3P0", "twitter": "None", "instagram": "None", "facebook": "None", "youtube": "None", "website": "None", "summary": "None", "logo": "None", "latitude": 43.73135700000006, "longitude": -65.98042099999994}, "130091135RR0048": {"name": "PAROISSE SAINT-ANTOINE-DE-PADOUE", "designationCode": "C", "categoryCode": "38", "address": "3794 ROUTE 505", "city": "RICHIBOUCTOU-VILLAGE", "province": "NB", "country": "CA", "postalCode": "E4W1R2", "twitter": "None", "instagram": "None", "facebook": "None", "youtube": "None", "website": "None", "summary": "None", "logo": "None", "latitude": 46.655394519380756, "longitude": -64.74990192722444}, "119018737RR0018": {"name": "PAROISSE SAINT-BENOIT", "designationCode": "C", "categoryCode": "38", "address": "C.P. 5187", "city": "DALHOUSIE", "province": "NB", "country": "CA", "postalCode": "E8C1L5", "twitter": "None", "instagram": "None", "facebook": "None", "youtube": "None", "website": "None", "summary": "None", "logo": "None", "latitude": 48.06277800000005, "longitude": -66.36639949999993}, "128967353RR0081": {"name": "PAROISSE SAINT-BONAVENTURE", "designationCode": "C", "categoryCode": "38", "address": "1359, AVE CHATELAIN", "city": "OTTAWA", "province": "ON", "country": "CA", "postalCode": "K1Z8A6", "twitter": "None", "instagram": "None", "facebook": "None", "youtube": "None", "website": "None", "summary": "None", "logo": "None", "latitude": 45.37797810104438, "longitude": -75.7340138802584}, "130091135RR0026": {"name": "PAROISSE SAINT-CHARLES-BORROMEE", "designationCode": "C", "categoryCode": "38", "address": "1225 CH SAINT-CHARLES SUD", "city": "SAINT-CHARLES", "province": "NB", "country": "CA", "postalCode": "E4W4W1", "twitter": "None", "instagram": "None", "facebook": "None", "youtube": "None", "website": "None", "summary": "None", "logo": "None", "latitude": 46.669476991527915, "longitude": -64.97395353660771}, "129930228RR0031": {"name": "PAROISSE SAINT-COEUR-DE-MARIE", "designationCode": "C", "categoryCode": "38", "address": "3785 RUE PRINCIPALE", "city": "BAKER BROOK", "province": "NB", "country": "CA", "postalCode": "E7A2A1", "twitter": "None", "instagram": "None", "facebook": "None", "youtube": "None", "website": "None", "summary": "None", "logo": "None", "latitude": 47.298681049165864, "longitude": -68.51658953416222}, "119083418RR0001": {"name": "PAROISSE SAINT-EUSTACHE PARISH", "designationCode": "C", "categoryCode": "38", "address": "PO BOX 144", "city": "ELIE", "province": "MB", "country": "CA", "postalCode": "R0H0H0", "twitter": "None", "instagram": "None", "facebook": "None", "youtube": "None", "website": "None", "summary": "None", "logo": "None", "latitude": 49.90010894942103, "longitude": -97.75774884595309}, "890947740RR0001": {"name": "PAROISSE SAINT-FRANCOIS-XAVIER DE PREVOST", "designationCode": "C", "categoryCode": "38", "address": "994, RUE PRINCIPALE", "city": "PREVOST", "province": "QC", "country": "CA", "postalCode": "J0R1T0", "twitter": "None", "instagram": "None", "facebook": "None", "youtube": "None", "website": "None", "summary": "None", "logo": "None", "latitude": 45.86002675549647, "longitude": -74.07372090005214}, "118908532RR0001": {"name": "PAROISSE SAINT-GABRIEL-LALEMANT DE FERLAND-BOILLEAU", "designationCode": "C", "categoryCode": "38", "address": "460 ROUTE 381", "city": "FERLAND-BOILLEAU", "province": "QC", "country": "CA", "postalCode": "G0V1H0", "twitter": "None", "instagram": "None", "facebook": "None", "youtube": "None", "website": "None", "summary": "None", "logo": "None", "latitude": 48.18145420702184, "longitude": -70.84624673965091}, "119018737RR0051": {"name": "PAROISSE SAINT-GEORGES", "designationCode": "C", "categoryCode": "38", "address": "738, RUE PRINCIPALE", "city": "NEGUAC", "province": "NB", "country": "CA", "postalCode": "E9G1N5", "twitter": "None", "instagram": "None", "facebook": "None", "youtube": "None", "website": "None", "summary": "None", "logo": "None", "latitude": 47.24668719054302, "longitude": -65.07892040349515}, "128967353RR0110": {"name": "PAROISSE SAINT-GREGOIRE-DE-NAZIANZE", "designationCode": "C", "categoryCode": "38", "address": "C.P. 63 137 RUE HIGGINSON", "city": "VANKLEEK HILL", "province": "ON", "country": "CA", "postalCode": "K0B1R0", "twitter": "None", "instagram": "None", "facebook": "None", "youtube": "None", "website": "None", "summary": "None", "logo": "None", "latitude": 45.52037568443786, "longitude": -74.64699076782463}, "130091135RR0038": {"name": "PAROISSE SAINT-HENRI DE BARACHOIS", "designationCode": "C", "categoryCode": "38", "address": "1356 ROUTE 133", "city": "GRAND-BARACHOIS", "province": "NB", "country": "CA", "postalCode": "E4P8G7", "twitter": "None", "instagram": "None", "facebook": "None", "youtube": "None", "website": "None", "summary": "None", "logo": "None", "latitude": 46.22442769415386, "longitude": -64.42172097221919}, "119122778RR0010": {"name": "PAROISSE SAINT-JACQUES", "designationCode": "C", "categoryCode": "38", "address": "ST. JAMES                     PO BOX 159", "city": "MAXVILLE", "province": "ON", "country": "CA", "postalCode": "K0C1T0", "twitter": "None", "instagram": "None", "facebook": "None", "youtube": "None", "website": "None", "summary": "None", "logo": "None", "latitude": 45.285718499999994, "longitude": -74.85268500000001}, "130091135RR0029": {"name": "PAROISSE SAINT-JACQUES LE MAJEUR", "designationCode": "C", "categoryCode": "39", "address": "3091, ROUTE 132", "city": "SCOUDOUC", "province": "NB", "country": "CA", "postalCode": "E4P3R7", "twitter": "None", "instagram": "None", "facebook": "None", "youtube": "None", "website": "None", "summary": "None", "logo": "None", "latitude": 46.13641929721205, "longitude": -64.56982739749151}, "119015220RR0003": {"name": "PAROISSE SAINT-JEAN-BAPTISTE", "designationCode": "C", "categoryCode": "38", "address": "96 AVE EMPRESS", "city": "OTTAWA", "province": "ON", "country": "CA", "postalCode": "K1R7G3", "twitter": "None", "instagram": "None", "facebook": "None", "youtube": "None", "website": "None", "summary": "None", "logo": "None", "latitude": 45.411189077702204, "longitude": -75.70929188902963}, "130091135RR0040": {"name": "PAROISSE SAINT-JEAN-BAPTISTE", "designationCode": "C", "categoryCode": "38", "address": "19 IRVING BLVD", "city": "BOUCTOUCHE", "province": "NB", "country": "CA", "postalCode": "E4S3J4", "twitter": "None", "instagram": "None", "facebook": "None", "youtube": "None", "website": "None", "summary": "None", "logo": "None", "latitude": 46.47261952087907, "longitude": -64.72021721703294}, "119109791RR0022": {"name": "PAROISSE SAINT-JEAN-DE-BREBEUF, PORT COLBORNE", "designationCode": "C", "categoryCode": "38", "address": "300 EST, RUE KILLALY", "city": "PORT COLBORNE", "province": "ON", "country": "CA", "postalCode": "L3K1N9", "twitter": "None", "instagram": "None", "facebook": "None", "youtube": "None", "website": "None", "summary": "None", "logo": "None", "latitude": 42.891761479369535, "longitude": -79.23814127699232}, "128967353RR0114": {"name": "PAROISSE SAINT-JOSEPH", "designationCode": "C", "categoryCode": "38", "address": "2757 BOUL ST-JOSEPH", "city": "ORLEANS", "province": "ON", "country": "CA", "postalCode": "K1C1G4", "twitter": "None", "instagram": "None", "facebook": "None", "youtube": "None", "website": "None", "summary": "None", "logo": "None", "latitude": 45.47276931426869, "longitude": -75.5217775902648}, "130091135RR0022": {"name": "PAROISSE SAINT-JOSEPH", "designationCode": "C", "categoryCode": "38", "address": "413 MAIN ST", "city": "SHEDIAC", "province": "NB", "country": "CA", "postalCode": "E4P2B6", "twitter": "None", "instagram": "None", "facebook": "None", "youtube": "None", "website": "None", "summary": "None", "logo": "None", "latitude": 46.219814405488954, "longitude": -64.53697547560884}, "119018737RR0056": {"name": "PAROISSE SAINT-LOUIS", "designationCode": "C", "categoryCode": "38", "address": "PO BOX 3238 STN MAIN", "city": "TRACADIE-SHEILA", "province": "NB", "country": "CA", "postalCode": "E1X1G5", "twitter": "None", "instagram": "None", "facebook": "None", "youtube": "None", "website": "None", "summary": "None", "logo": "None", "latitude": 47.52130200000006, "longitude": -64.91063149999994}, "130091135RR0034": {"name": "PAROISSE SAINT-LOUIS DE FRANCE", "designationCode": "C", "categoryCode": "38", "address": "854 MOUNTAIN RD", "city": "MONCTON", "province": "NB", "country": "CA", "postalCode": "E1C2R8", "twitter": "None", "instagram": "None", "facebook": "None", "youtube": "None", "website": "None", "summary": "None", "logo": "None", "latitude": 46.100568889232115, "longitude": -64.80991010395856}, "128967353RR0070": {"name": "PAROISSE SAINT-LOUIS-MARIE-DE-MONTFORT", "designationCode": "C", "categoryCode": "38", "address": "749 AVENUE TROJAN", "city": "OTTAWA", "province": "ON", "country": "CA", "postalCode": "K1K2P5", "twitter": "None", "instagram": "None", "facebook": "None", "youtube": "None", "website": "None", "summary": "None", "logo": "None", "latitude": 45.4375628154537, "longitude": -75.64003908188579}, "118993757RR0001": {"name": "PAROISSE SAINT-MAURICE-DE-DUVERNAY", "designationCode": "C", "categoryCode": "38", "address": "1961 RUE IRVY", "city": "LAVAL", "province": "QC", "country": "CA", "postalCode": "H7G1S9", "twitter": "None", "instagram": "None", "facebook": "None", "youtube": "None", "website": "None", "summary": "None", "logo": "None", "latitude": 45.57831900000005, "longitude": -73.67422399999994}, "122418601RR0016": {"name": "PAROISSE SAINT-PIERRE", "designationCode": "C", "categoryCode": "38", "address": "CP 59", "city": "MIDDLE WEST PUBNICO", "province": "NS", "country": "CA", "postalCode": "B0W2M0", "twitter": "None", "instagram": "None", "facebook": "None", "youtube": "None", "website": "None", "summary": "None", "logo": "None", "latitude": 43.638690000000054, "longitude": -65.80170999999996}, "130091135RR0012": {"name": "PAROISSE SAINT-PIERRE CURE", "designationCode": "C", "categoryCode": "39", "address": "2000 ROUTE 535", "city": "COCAGNE", "province": "NB", "country": "CA", "postalCode": "E4R3H5", "twitter": "None", "instagram": "None", "facebook": "None", "youtube": "None", "website": "None", "summary": "None", "logo": "None", "latitude": 46.34738529723035, "longitude": -64.61403189810784}, "128967353RR0126": {"name": "PAROISSE SAINT-PIERRE-APOTRE", "designationCode": "C", "categoryCode": "39", "address": "470 MAIN ST E", "city": "HAWKESBURY", "province": "ON", "country": "CA", "postalCode": "K6A1A9", "twitter": "None", "instagram": "None", "facebook": "None", "youtube": "None", "website": "None", "summary": "None", "logo": "None", "latitude": 45.61038560616596, "longitude": -74.60389856922644}, "118794593RR0001": {"name": "PAROISSE SAINT-SAUVEUR (CATHEDRALE)", "designationCode": "C", "categoryCode": "38", "address": "10025 BOUL. DE L'ACADIE", "city": "MONTREAL", "province": "QC", "country": "CA", "postalCode": "H4N2S1", "twitter": "None", "instagram": "None", "facebook": "None", "youtube": "None", "website": "None", "summary": "None", "logo": "None", "latitude": 45.5347652023772, "longitude": -73.67196864920064}, "128967353RR0106": {"name": "PAROISSE SAINT-SEBASTIEN", "designationCode": "C", "categoryCode": "38", "address": "1000 RUE FRANCES", "city": "OTTAWA", "province": "ON", "country": "CA", "postalCode": "K1K3L5", "twitter": "None", "instagram": "None", "facebook": "None", "youtube": "None", "website": "None", "summary": "None", "logo": "None", "latitude": 45.426843703012366, "longitude": -75.64759927759789}, "107876476RR0067": {"name": "PAROISSE SAINT-SEBASTIEN PARISH", "designationCode": "C", "categoryCode": "38", "address": "CP 370", "city": "SPANISH", "province": "ON", "country": "CA", "postalCode": "P0P2A0", "twitter": "None", "instagram": "None", "facebook": "None", "youtube": "None", "website": "None", "summary": "None", "logo": "None", "latitude": 46.18876017634285, "longitude": -82.33714063287171}, "119018737RR0025": {"name": "PAROISSE SAINT-THEOPHILE", "designationCode": "C", "categoryCode": "38", "address": "4 CENTRAL ST", "city": "CAMPBELLTON", "province": "NB", "country": "CA", "postalCode": "E3N1Z5", "twitter": "None", "instagram": "None", "facebook": "None", "youtube": "None", "website": "None", "summary": "None", "logo": "None", "latitude": 48.00584310750667, "longitude": -66.67064434014542}, "130091135RR0043": {"name": "PAROISSE SAINT-THOMAS", "designationCode": "C", "categoryCode": "38", "address": "576 RUE CENTRALE", "city": "MEMRAMCOOK", "province": "NB", "country": "CA", "postalCode": "E4K3S7", "twitter": "None", "instagram": "None", "facebook": "None", "youtube": "None", "website": "None", "summary": "None", "logo": "None", "latitude": 45.97494287786062, "longitude": -64.56542577132997}, "107876476RR0085": {"name": "PAROISSE SAINT-VINCENT-DE-PAUL", "designationCode": "C", "categoryCode": "38", "address": "1265 WYLD ST", "city": "NORTH BAY", "province": "ON", "country": "CA", "postalCode": "P1B2A9", "twitter": "None", "instagram": "None", "facebook": "None", "youtube": "None", "website": "None", "summary": "None", "logo": "None", "latitude": 46.31232248124544, "longitude": -79.45402080391251}, "119110385RR0005": {"name": "PAROISSE SAINTE ANNE", "designationCode": "C", "categoryCode": "38", "address": "P.O. BOX 160", "city": "MATTAWA", "province": "ON", "country": "CA", "postalCode": "P0H1V0", "twitter": "None", "instagram": "None", "facebook": "None", "youtube": "None", "website": "None", "summary": "None", "logo": "None", "latitude": 46.352402765527096, "longitude": -78.81283329813716}, "888534591RR0002": {"name": "PAROISSE SAINTE ANNE", "designationCode": "C", "categoryCode": "38", "address": "ST-ANNE PARISH BOX 90", "city": "JOUSSARD", "province": "AB", "country": "CA", "postalCode": "T0G1J0", "twitter": "None", "instagram": "None", "facebook": "None", "youtube": "None", "website": "None", "summary": "None", "logo": "None", "latitude": 55.39786800000006, "longitude": -115.95023449999994}, "131850984RR0001": {"name": "PAROISSE SAINTE LINA", "designationCode": "C", "categoryCode": "38", "address": "4609 50 AVE", "city": "ST PAUL", "province": "AB", "country": "CA", "postalCode": "T0A3A3", "twitter": "None", "instagram": "None", "facebook": "None", "youtube": "None", "website": "None", "summary": "None", "logo": "None", "latitude": 53.99135148730496, "longitude": -111.28695202553523}, "122418601RR0014": {"name": "PAROISSE SAINTE MARIE", "designationCode": "C", "categoryCode": "38", "address": "CP 28", "city": "CHURCH POINT", "province": "NS", "country": "CA", "postalCode": "B0W1M0", "twitter": "None", "instagram": "None", "facebook": "None", "youtube": "None", "website": "None", "summary": "None", "logo": "None", "latitude": 43.5538787746264, "longitude": -65.44380164305512}, "130752694RR0001": {"name": "PAROISSE SAINTE VALERIE", "designationCode": "C", "categoryCode": "38", "address": "981 CHEMIN MASKINONGE", "city": "BOILEAU-NAMUR", "province": "QC", "country": "CA", "postalCode": "J0V1N0", "twitter": "None", "instagram": "None", "facebook": "None", "youtube": "None", "website": "None", "summary": "None", "logo": "None", "latitude": 45.90181117984308, "longitude": -74.773422311443}, "107585515RR0014": {"name": "PAROISSE SAINTE-AGNES DE FAUQUIER", "designationCode": "C", "categoryCode": "38", "address": "22, RUE DOYON                 C.P. 10", "city": "FAUQUIER", "province": "ON", "country": "CA", "postalCode": "P0L1G0", "twitter": "None", "instagram": "None", "facebook": "None", "youtube": "None", "website": "None", "summary": "None", "logo": "None", "latitude": 49.3087710626346, "longitude": -82.03601422513665}, "107366148RR0001": {"name": "PAROISSE SAINTE-ANGELIQUE", "designationCode": "C", "categoryCode": "38", "address": "292 PAPINEAU", "city": "PAPINEAUVILLE", "province": "QC", "country": "CA", "postalCode": "J0V1R0", "twitter": "None", "instagram": "None", "facebook": "None", "youtube": "None", "website": "None", "summary": "None", "logo": "None", "latitude": 45.61720650937682, "longitude": -75.01900271011017}, "119083236RR0001": {"name": "PAROISSE SAINTE-ANNE", "designationCode": "C", "categoryCode": "38", "address": "C.P. 298", "city": "FALHER", "province": "AB", "country": "CA", "postalCode": "T0H1M0", "twitter": "None", "instagram": "None", "facebook": "None", "youtube": "None", "website": "None", "summary": "None", "logo": "None", "latitude": 55.711423917541296, "longitude": -116.90440843416899}, "130091135RR0011": {"name": "PAROISSE SAINTE-ANNE", "designationCode": "C", "categoryCode": "38", "address": "5351 ROUTE 117", "city": "BAIE-SAINTE-ANNE", "province": "NB", "country": "CA", "postalCode": "E9A1E4", "twitter": "None", "instagram": "None", "facebook": "None", "youtube": "None", "website": "None", "summary": "None", "logo": "None", "latitude": 47.0482857013983, "longitude": -64.96361481723368}, "119083095RR0001": {"name": "PAROISSE SAINTE-ANNE DE BEAUPRE", "designationCode": "C", "categoryCode": "38", "address": "10018 AVENUE ROYALE", "city": "SAINTE-ANNE-DE-BEAUPR\u00c9", "province": "QC", "country": "CA", "postalCode": "G0A3C0", "twitter": "None", "instagram": "None", "facebook": "None", "youtube": "None", "website": "None", "summary": "None", "logo": "None", "latitude": 47.025011014946315, "longitude": -70.92776782093631}, "130091135RR0025": {"name": "PAROISSE SAINTE-ANNE-DE-KENT", "designationCode": "C", "categoryCode": "38", "address": "19 IRVING BLVD", "city": "BOUCTOUCHE", "province": "NB", "country": "CA", "postalCode": "E4S3J4", "twitter": "None", "instagram": "None", "facebook": "None", "youtube": "None", "website": "None", "summary": "None", "logo": "None", "latitude": 46.47261952087907, "longitude": -64.72021721703294}, "107020331RR0043": {"name": "PAROISSE SAINTE-ANNE-DES-PAYS-BAS", "designationCode": "C", "categoryCode": "38", "address": "715 PRIESTMAN STREET", "city": "FREDERICTON", "province": "NB", "country": "CA", "postalCode": "E3B5W7", "twitter": "None", "instagram": "None", "facebook": "None", "youtube": "None", "website": "None", "summary": "None", "logo": "None", "latitude": 45.93991948349581, "longitude": -66.65361315791455}, "119122778RR0028": {"name": "PAROISSE SAINTE-CROIX", "designationCode": "C", "categoryCode": "38", "address": "620 GLENGARRY BLVD", "city": "CORNWALL", "province": "ON", "country": "CA", "postalCode": "K6H6E7", "twitter": "None", "instagram": "None", "facebook": "None", "youtube": "None", "website": "None", "summary": "None", "logo": "None", "latitude": 45.02932693559935, "longitude": -74.70437243181978}, "119018737RR0008": {"name": "PAROISSE SAINTE-FAMILLE", "designationCode": "C", "categoryCode": "38", "address": "430 ST. PETER AVENUE", "city": "BATHURST", "province": "NB", "country": "CA", "postalCode": "E2A2Y2", "twitter": "None", "instagram": "None", "facebook": "None", "youtube": "None", "website": "None", "summary": "None", "logo": "None", "latitude": 47.628634182102196, "longitude": -65.66469407107802}, "128967353RR0115": {"name": "PAROISSE SAINTE-FELICITE", "designationCode": "C", "categoryCode": "38", "address": "1646, RUE LANDRY C.P. 99", "city": "CLARENCE CREEK", "province": "ON", "country": "CA", "postalCode": "K0A1N0", "twitter": "None", "instagram": "None", "facebook": "None", "youtube": "None", "website": "None", "summary": "None", "logo": "None", "latitude": 45.509130749301896, "longitude": -75.21998040047107}, "119018737RR0063": {"name": "PAROISSE SAINTE-MARGUERITE BOURGEOYS", "designationCode": "C", "categoryCode": "38", "address": "4 CENTRAL ST", "city": "CAMPBELLTON", "province": "NB", "country": "CA", "postalCode": "E3N1Z5", "twitter": "None", "instagram": "None", "facebook": "None", "youtube": "None", "website": "None", "summary": "None", "logo": "None", "latitude": 48.00584310750667, "longitude": -66.67064434014542}, "119018737RR0026": {"name": "PAROISSE SAINTE-MARIA-GORETTI", "designationCode": "C", "categoryCode": "38", "address": "4 CENTRAL ST", "city": "CAMPBELLTON", "province": "NB", "country": "CA", "postalCode": "E3N1Z5", "twitter": "None", "instagram": "None", "facebook": "None", "youtube": "None", "website": "None", "summary": "None", "logo": "None", "latitude": 48.00584310750667, "longitude": -66.67064434014542}, "107876476RR0015": {"name": "PAROISSE SAINTE-MARIE", "designationCode": "C", "categoryCode": "38", "address": "130 NORD, PROM. HILLSIDE", "city": "ELLIOT LAKE", "province": "ON", "country": "CA", "postalCode": "P5A1X7", "twitter": "None", "instagram": "None", "facebook": "None", "youtube": "None", "website": "None", "summary": "None", "logo": "None", "latitude": 46.3837645150739, "longitude": -82.65896193906408}, "128967353RR0057": {"name": "PAROISSE SAINTE-MARIE", "designationCode": "C", "categoryCode": "38", "address": "4831 CHEMIN INNES", "city": "ORLEANS", "province": "ON", "country": "CA", "postalCode": "K4A4B3", "twitter": "None", "instagram": "None", "facebook": "None", "youtube": "None", "website": "None", "summary": "None", "logo": "None", "latitude": 45.46617700920394, "longitude": -75.47081133668976}, "107876476RR0038": {"name": "PAROISSE SAINTE-MARIE-DU-SAULT", "designationCode": "C", "categoryCode": "38", "address": "847 RUE TRUNK", "city": "SAULT STE MARIE", "province": "ON", "country": "CA", "postalCode": "P6A3T3", "twitter": "None", "instagram": "None", "facebook": "None", "youtube": "None", "website": "None", "summary": "None", "logo": "None", "latitude": 46.52537066134835, "longitude": -84.265800457355}, "119018737RR0003": {"name": "PAROISSE SAINTE-ROSE DE LIMA", "designationCode": "C", "categoryCode": "38", "address": "4 CENTRAL ST", "city": "CAMPBELLTON", "province": "NB", "country": "CA", "postalCode": "E3N1Z5", "twitter": "None", "instagram": "None", "facebook": "None", "youtube": "None", "website": "None", "summary": "None", "logo": "None", "latitude": 48.00584310750667, "longitude": -66.67064434014542}, "107876476RR0083": {"name": "PAROISSE SAINTE-ROSE-DE-LIMA", "designationCode": "C", "categoryCode": "38", "address": "152 HWY 539A", "city": "RIVER VALLEY", "province": "ON", "country": "CA", "postalCode": "P0H2C0", "twitter": "None", "instagram": "None", "facebook": "None", "youtube": "None", "website": "None", "summary": "None", "logo": "None", "latitude": 46.588945174734135, "longitude": -80.18366529897624}, "130091135RR0049": {"name": "PAROISSE SAINTE-THERESE D'AVILA", "designationCode": "C", "categoryCode": "38", "address": "1 - 2648 CH ACADIE", "city": "CAP-PELE", "province": "NB", "country": "CA", "postalCode": "E4N1E4", "twitter": "None", "instagram": "None", "facebook": "None", "youtube": "None", "website": "None", "summary": "None", "logo": "None", "latitude": 46.215320208631596, "longitude": -64.27098598822965}, "119122778RR0029": {"name": "PAROISSE SAINTE-THERESE-DE-LISIEUX", "designationCode": "C", "categoryCode": "38", "address": "1304 LISIEUX ST", "city": "CORNWALL", "province": "ON", "country": "CA", "postalCode": "K6J4Z4", "twitter": "None", "instagram": "None", "facebook": "None", "youtube": "None", "website": "None", "summary": "None", "logo": "None", "latitude": 45.03111541075663, "longitude": -74.7495361443532}, "119018737RR0023": {"name": "PAROISSE SAINTE-TRINITE", "designationCode": "C", "categoryCode": "38", "address": "PO BOX 5187 STN MAIN", "city": "DALHOUSIE", "province": "NB", "country": "CA", "postalCode": "E8C3B9", "twitter": "None", "instagram": "None", "facebook": "None", "youtube": "None", "website": "None", "summary": "None", "logo": "None", "latitude": 48.03472100336684, "longitude": -66.37459785483613}, "119083533RR0001": {"name": "PAROISSE SAINTS-PIERRE ET PAUL", "designationCode": "C", "categoryCode": "38", "address": "1161 NORTH RIVER ROAD", "city": "OTTAWA", "province": "ON", "country": "CA", "postalCode": "K1K3W5", "twitter": "None", "instagram": "None", "facebook": "None", "youtube": "None", "website": "None", "summary": "None", "logo": "None", "latitude": 45.420428615644, "longitude": -75.66394182913156}, "852285568RR0001": {"name": "PAROISSE SERBE ORTHODOXE SAINT-SIMEON MIROTOCIVI / SRPSKA PRAVOSLAVNA PAROHIJA SVETI SIMEON MIROTOCIVI", "designationCode": "C", "categoryCode": "39", "address": "205 RUE ALBERT-DION", "city": "SHERBROOKE", "province": "QC", "country": "CA", "postalCode": "J1N3J8", "twitter": "None", "instagram": "None", "facebook": "None", "youtube": "None", "website": "None", "summary": "None", "logo": "None", "latitude": 45.33628415044137, "longitude": -72.04867754198116}, "119018737RR0061": {"name": "PAROISSE SS-SIMON ET JUDE", "designationCode": "C", "categoryCode": "38", "address": "1195 RUE DES FONDATEURS", "city": "PAQUETVILLE", "province": "NB", "country": "CA", "postalCode": "E8R1A9", "twitter": "None", "instagram": "None", "facebook": "None", "youtube": "None", "website": "None", "summary": "None", "logo": "None", "latitude": 47.66881544742231, "longitude": -65.10562454111455}, "128967353RR0031": {"name": "PAROISSE ST ALBERT", "designationCode": "C", "categoryCode": "38", "address": "CP 90", "city": "ST-ALBERT", "province": "ON", "country": "CA", "postalCode": "K0A3C0", "twitter": "None", "instagram": "None", "facebook": "None", "youtube": "None", "website": "None", "summary": "None", "logo": "None", "latitude": 45.3095777691332, "longitude": -75.08883879035014}, "130382948RR0001": {"name": "PAROISSE ST ALEXANDRE", "designationCode": "C", "categoryCode": "38", "address": "1 CH. DES ERABLES", "city": "GATINEAU", "province": "QC", "country": "CA", "postalCode": "J8V1C1", "twitter": "None", "instagram": "None", "facebook": "None", "youtube": "None", "website": "None", "summary": "None", "logo": "None", "latitude": 45.493282729384326, "longitude": -75.75289304013484}, "122418601RR0018": {"name": "PAROISSE ST ALPHONSE", "designationCode": "C", "categoryCode": "38", "address": "C.P. 159", "city": "METEGHAN", "province": "NS", "country": "CA", "postalCode": "B0W2J0", "twitter": "None", "instagram": "None", "facebook": "None", "youtube": "None", "website": "None", "summary": "None", "logo": "None", "latitude": 44.17500446384011, "longitude": -66.1688141761654}, "129930228RR0020": {"name": "PAROISSE ST ANTOINE DE PADOUE", "designationCode": "C", "categoryCode": "38", "address": "C.P. 2181", "city": "ST-LEONARD", "province": "NB", "country": "CA", "postalCode": "E7E2M7", "twitter": "None", "instagram": "None", "facebook": "None", "youtube": "None", "website": "None", "summary": "None", "logo": "None", "latitude": 47.16648600000005, "longitude": -67.91989399999993}, "128967353RR0017": {"name": "PAROISSE ST BENOIT LABRE", "designationCode": "C", "categoryCode": "38", "address": "C.P. 160", "city": "PLANTAGENET", "province": "ON", "country": "CA", "postalCode": "K0B1L0", "twitter": "None", "instagram": "None", "facebook": "None", "youtube": "None", "website": "None", "summary": "None", "logo": "None", "latitude": 45.53710800000006, "longitude": -75.02829199999994}, "128967353RR0020": {"name": "PAROISSE ST BERNARD", "designationCode": "C", "categoryCode": "38", "address": "1720 ST BERNARD ST", "city": "GLOUCESTER", "province": "ON", "country": "CA", "postalCode": "K1T1K8", "twitter": "None", "instagram": "None", "facebook": "None", "youtube": "None", "website": "None", "summary": "None", "logo": "None", "latitude": 45.35145727500176, "longitude": -75.62615191753729}}