{"107951618RR0590": {"name": "The Salvation Army Beaver Creek Camp", "designationCode": "C", "categoryCode": "56", "address": "204-290 VAUGHAN ST.", "city": "WINNIPEG", "province": "MB", "country": "CA", "postalCode": "R3B2N8", "twitter": "None", "instagram": "None", "facebook": "None", "youtube": "None", "website": "None", "summary": "None", "logo": "None", "latitude": 49.892284315248084, "longitude": -97.15005359617908}, "107951618RR0504": {"name": "The Salvation Army Caring Place", "designationCode": "C", "categoryCode": "40", "address": "22188 LOUGHEED HWY", "city": "MAPLE RIDGE", "province": "BC", "country": "CA", "postalCode": "V2X2S8", "twitter": "None", "instagram": "None", "facebook": "None", "youtube": "None", "website": "None", "summary": "None", "logo": "None", "latitude": 49.21685254284748, "longitude": -122.60760236081134}, "107951618RR0130": {"name": "The Salvation Army Community Services (Calgary)", "designationCode": "C", "categoryCode": "01", "address": "420-9TH AVE SE", "city": "CALGARY", "province": "AB", "country": "CA", "postalCode": "T2G0R9", "twitter": "None", "instagram": "None", "facebook": "None", "youtube": "None", "website": "None", "summary": "None", "logo": "None", "latitude": 51.04439348211082, "longitude": -114.05425094018698}, "892912163RR0001": {"name": "The Salvation Army Eglise Communautaire de l'Outaouais", "designationCode": "C", "categoryCode": "40", "address": "157 BOUL GREBER", "city": "GATINEAU", "province": "QC", "country": "CA", "postalCode": "J8T3R1", "twitter": "None", "instagram": "None", "facebook": "None", "youtube": "None", "website": "None", "summary": "None", "logo": "None", "latitude": 45.470082583126555, "longitude": -75.70075410641141}, "107951618RR0093": {"name": "The Salvation Army Faith and Hope Corps (Marystown)", "designationCode": "C", "categoryCode": "40", "address": "PO BOX 430", "city": "BURIN BAY ARM", "province": "NL", "country": "CA", "postalCode": "A0E1G0", "twitter": "None", "instagram": "None", "facebook": "None", "youtube": "None", "website": "None", "summary": "None", "logo": "None", "latitude": 47.06177100000005, "longitude": -55.176600499999935}, "107951618RR0596": {"name": "The Salvation Army Forest Lawn Mission", "designationCode": "C", "categoryCode": "09", "address": "9618 101A AVE NW", "city": "EDMONTON", "province": "AB", "country": "CA", "postalCode": "T5H0C7", "twitter": "None", "instagram": "None", "facebook": "None", "youtube": "None", "website": "None", "summary": "None", "logo": "None", "latitude": 53.54365034722136, "longitude": -113.48311703733621}, "107951618RR0169": {"name": "The Salvation Army Gateway of Hope", "designationCode": "C", "categoryCode": "40", "address": "5787 LANGLEY BYPASS", "city": "LANGLEY", "province": "BC", "country": "CA", "postalCode": "V3A0A9", "twitter": "None", "instagram": "None", "facebook": "None", "youtube": "None", "website": "None", "summary": "None", "logo": "None", "latitude": 49.107521117759994, "longitude": -122.64296708427142}, "107951618RR0586": {"name": "The Salvation Army Kate Booth House", "designationCode": "C", "categoryCode": "09", "address": "PO BOX 38048                  RPO KING EDWARD MAL", "city": "VANCOUVER", "province": "BC", "country": "CA", "postalCode": "V5Z4L9", "twitter": "None", "instagram": "None", "facebook": "None", "youtube": "None", "website": "None", "summary": "None", "logo": "None", "latitude": 49.249051535048615, "longitude": -123.11541268621689}, "107951618RR0598": {"name": "The Salvation Army Kindersley Rural Extension Unit", "designationCode": "C", "categoryCode": "09", "address": "P.O. BOX 994", "city": "KINDERSLEY", "province": "SK", "country": "CA", "postalCode": "S0L1S0", "twitter": "None", "instagram": "None", "facebook": "None", "youtube": "None", "website": "None", "summary": "None", "logo": "None", "latitude": 51.46791900000005, "longitude": -109.15522999999993}, "107951618RR0600": {"name": "The Salvation Army Light of Hope Family Church (lumiere d'espoir", "designationCode": "C", "categoryCode": "09", "address": "1875 RUE PANAMA", "city": "BROSSARD", "province": "QC", "country": "CA", "postalCode": "J4W2S8", "twitter": "None", "instagram": "None", "facebook": "None", "youtube": "None", "website": "None", "summary": "None", "logo": "None", "latitude": 45.46800152120739, "longitude": -73.47019205551385}, "107951618RR0599": {"name": "The Salvation Army Living Hope Community Church", "designationCode": "C", "categoryCode": "09", "address": "51 MORROW AVENUE", "city": "WINNIPEG", "province": "MB", "country": "CA", "postalCode": "R2M1A5", "twitter": "None", "instagram": "None", "facebook": "None", "youtube": "None", "website": "None", "summary": "None", "logo": "None", "latitude": 49.85346986320595, "longitude": -97.09907166628174}, "107951618RR0597": {"name": "The Salvation Army Mt.Waddington Community Ministries", "designationCode": "C", "categoryCode": "09", "address": "116 - 280 MIDPARK WAY SE", "city": "CALGARY", "province": "AB", "country": "CA", "postalCode": "T2X1J6", "twitter": "None", "instagram": "None", "facebook": "None", "youtube": "None", "website": "None", "summary": "None", "logo": "None", "latitude": 50.910016432136906, "longitude": -114.06351266154988}, "107951618RR0387": {"name": "The Salvation Army North East Circuit.", "designationCode": "C", "categoryCode": "40", "address": "P.O. BOX 549", "city": "MELFORT", "province": "SK", "country": "CA", "postalCode": "S0E1A0", "twitter": "None", "instagram": "None", "facebook": "None", "youtube": "None", "website": "None", "summary": "None", "logo": "None", "latitude": 52.85637, "longitude": -104.63436225000001}, "107951618RR0217": {"name": "The Salvation Army Saskatoon Community Services", "designationCode": "C", "categoryCode": "01", "address": "339 AVENUE C SOUTH", "city": "SASKATOON", "province": "SK", "country": "CA", "postalCode": "S7M1N5", "twitter": "None", "instagram": "None", "facebook": "None", "youtube": "None", "website": "None", "summary": "None", "logo": "None", "latitude": 52.124851257285485, "longitude": -106.67359624219492}, "107951618RR0553": {"name": "The Salvation Army Stan Hagen Centre for Families", "designationCode": "C", "categoryCode": "09", "address": "2695 QUADRA ST", "city": "VICTORIA", "province": "BC", "country": "CA", "postalCode": "V8T4E3", "twitter": "None", "instagram": "None", "facebook": "None", "youtube": "None", "website": "None", "summary": "None", "logo": "None", "latitude": 48.43921308243406, "longitude": -123.35906509489888}, "107951618RR0593": {"name": "The Salvation Army The Willows", "designationCode": "C", "categoryCode": "40", "address": "21081 72 AVE", "city": "LANGLEY", "province": "BC", "country": "CA", "postalCode": "V2Y2R5", "twitter": "None", "instagram": "None", "facebook": "None", "youtube": "None", "website": "None", "summary": "None", "logo": "None", "latitude": 49.13337748052337, "longitude": -122.6379015}, "107951618RR0013": {"name": "The Salvation Army Vancouver Southview Heights and Terrace", "designationCode": "C", "categoryCode": "01", "address": "7252 KERR ST", "city": "VANCOUVER", "province": "BC", "country": "CA", "postalCode": "V5S3V2", "twitter": "None", "instagram": "None", "facebook": "None", "youtube": "None", "website": "None", "summary": "None", "logo": "None", "latitude": 49.21758164593684, "longitude": -123.04138463621338}, "107951618RR0587": {"name": "The Salvation Army Warehouse Mission", "designationCode": "C", "categoryCode": "09", "address": "201-476 PARLIAMENT ST", "city": "TORONTO", "province": "ON", "country": "CA", "postalCode": "M4X1P2", "twitter": "None", "instagram": "None", "facebook": "None", "youtube": "None", "website": "None", "summary": "None", "logo": "None", "latitude": 43.66447262891686, "longitude": -79.3680932184487}, "119134161RR0001": {"name": "The Salvation Army William and Catherine Booth University College/ Coll\u00e8ge universitaire William et Catherine Booth de l'Arm\u00e9e du Salut", "designationCode": "C", "categoryCode": "20", "address": "447 WEBB PLACE", "city": "WINNIPEG", "province": "MB", "country": "CA", "postalCode": "R3B2P2", "twitter": "None", "instagram": "None", "facebook": "None", "youtube": "None", "website": "None", "summary": "None", "logo": "None", "latitude": 49.892880099659386, "longitude": -97.15140053318127}, "107951618RR0549": {"name": "The Salvation Army-Toronto Harbour Light Ministries", "designationCode": "C", "categoryCode": "40", "address": "160 JARVIS STREET", "city": "TORONTO", "province": "ON", "country": "CA", "postalCode": "M5B2E1", "twitter": "None", "instagram": "None", "facebook": "None", "youtube": "None", "website": "None", "summary": "None", "logo": "None", "latitude": 43.65510582930351, "longitude": -79.37383438998191}, "107951618RR0595": {"name": "The Salvation Army, Camp Mountainview", "designationCode": "C", "categoryCode": "56", "address": "16585 16 HWY W", "city": "HOUSTON", "province": "BC", "country": "CA", "postalCode": "V0J1Z1", "twitter": "None", "instagram": "None", "facebook": "None", "youtube": "None", "website": "None", "summary": "None", "logo": "None", "latitude": 54.39942000000008, "longitude": -126.65040999999997}, "843093295RR0001": {"name": "The Samara Project", "designationCode": "C", "categoryCode": "21", "address": "33 PRINCE ARTHUR AVENUE", "city": "TORONTO", "province": "ON", "country": "CA", "postalCode": "M5R1B2", "twitter": "None", "instagram": "None", "facebook": "None", "youtube": "None", "website": "None", "summary": "None", "logo": "None", "latitude": 43.669396834843454, "longitude": -79.39695826366211}, "805440625RR0001": {"name": "The Samaritan Foundation", "designationCode": "C", "categoryCode": "09", "address": "P.O. BOX 21003, NORTHTOWN     POSTAL OUTLET", "city": "WELLAND", "province": "ON", "country": "CA", "postalCode": "L3C7E6", "twitter": "None", "instagram": "None", "facebook": "None", "youtube": "None", "website": "None", "summary": "None", "logo": "None", "latitude": 42.99349200000006, "longitude": -79.23902299999993}, "845966886RR0001": {"name": "The Samuel Jess Johnson Foundation", "designationCode": "B", "categoryCode": "03", "address": "4009 WELLINGTON DR", "city": "VERNON", "province": "BC", "country": "CA", "postalCode": "V1T9H7", "twitter": "None", "instagram": "None", "facebook": "None", "youtube": "None", "website": "None", "summary": "None", "logo": "None", "latitude": 50.27299820425312, "longitude": -119.24541969732822}, "824024418RR0001": {"name": "The Sanctuary Church of Milton", "designationCode": "C", "categoryCode": "31", "address": "PO BOX 613-420 MAIN ST. E.", "city": "MILTON", "province": "ON", "country": "CA", "postalCode": "L9T5G3", "twitter": "None", "instagram": "None", "facebook": "None", "youtube": "None", "website": "None", "summary": "None", "logo": "None", "latitude": 43.51784021896831, "longitude": -79.87805026377768}, "852832609RR0001": {"name": "The Sanctuary Church of Mississauga", "designationCode": "C", "categoryCode": "31", "address": "251 QUEEN STREET SOUTH        SUITE 131", "city": "MISSISSAUGA", "province": "ON", "country": "CA", "postalCode": "L5M1L7", "twitter": "None", "instagram": "None", "facebook": "None", "youtube": "None", "website": "None", "summary": "None", "logo": "None", "latitude": 43.58011933694957, "longitude": -79.7115449085349}, "892655960RR0001": {"name": "The Sandman Hotel Group Foundation", "designationCode": "A", "categoryCode": "15", "address": "310-1755 WEST BROADWAY", "city": "VANCOUVER", "province": "BC", "country": "CA", "postalCode": "V6J4S5", "twitter": "None", "instagram": "None", "facebook": "None", "youtube": "None", "website": "None", "summary": "None", "logo": "None", "latitude": 49.2637214787926, "longitude": -123.1446912485429}, "763233699RR0001": {"name": "The Sandwich Foundation of Canada", "designationCode": "C", "categoryCode": "09", "address": "80 DEERPATH RD SE", "city": "CALGARY", "province": "AB", "country": "CA", "postalCode": "T2J6K8", "twitter": "None", "instagram": "None", "facebook": "None", "youtube": "None", "website": "None", "summary": "None", "logo": "None", "latitude": 50.92354489869584, "longitude": -114.0248740387212}, "843653155RR0001": {"name": "The Sanford McFarlane Family Foundation", "designationCode": "B", "categoryCode": "03", "address": "P.O BOX 538                   385 SUNSET BOULEVARD", "city": "THORNBURY", "province": "ON", "country": "CA", "postalCode": "N0H2P0", "twitter": "None", "instagram": "None", "facebook": "None", "youtube": "None", "website": "None", "summary": "None", "logo": "None", "latitude": 44.58412710132137, "longitude": -80.48872838634426}, "823390042RR0001": {"name": "The Sashbear Foundation", "designationCode": "C", "categoryCode": "11", "address": "25 HARTFIELD ROAD", "city": "ETOBICOKE", "province": "ON", "country": "CA", "postalCode": "M9A3C8", "twitter": "None", "instagram": "None", "facebook": "None", "youtube": "None", "website": "None", "summary": "None", "logo": "None", "latitude": 43.66614656838271, "longitude": -79.52318775852622}, "846948602RR0001": {"name": "The Saskatchewan Indian Institute of Technologies Foundation Inc.", "designationCode": "A", "categoryCode": "03", "address": "118-335 PACKHAM AVE.          ASIMAKANISEEKAN ASKIY RESERVE", "city": "SASKATOON", "province": "SK", "country": "CA", "postalCode": "S7N4S1", "twitter": "None", "instagram": "None", "facebook": "None", "youtube": "None", "website": "None", "summary": "None", "logo": "None", "latitude": 52.129930779329605, "longitude": -106.58791846381855}, "899896161RR0001": {"name": "The Saul and Claribel Simkin Centre Foundation Inc.", "designationCode": "A", "categoryCode": "03", "address": "1 FALCON RIDGE DRIVE", "city": "WINNIPEG", "province": "MB", "country": "CA", "postalCode": "R3Y1V9", "twitter": "None", "instagram": "None", "facebook": "None", "youtube": "None", "website": "None", "summary": "None", "logo": "None", "latitude": 49.82252091485332, "longitude": -97.19209889707969}, "107958159RR0001": {"name": "The Sault College of Applied Arts and Technology", "designationCode": "C", "categoryCode": "20", "address": "443 NORTHERN AVE E", "city": "SAULT STE. MARIE", "province": "ON", "country": "CA", "postalCode": "P6B4J3", "twitter": "None", "instagram": "None", "facebook": "None", "youtube": "None", "website": "None", "summary": "None", "logo": "None", "latitude": 46.53403895187866, "longitude": -84.31217774999999}, "846183051RR0001": {"name": "The Saviour Baptist Church", "designationCode": "C", "categoryCode": "31", "address": "2534 KIPLING AVE", "city": "ETOBICOKE", "province": "ON", "country": "CA", "postalCode": "M9V3A9", "twitter": "None", "instagram": "None", "facebook": "None", "youtube": "None", "website": "None", "summary": "None", "logo": "None", "latitude": 43.744832141814385, "longitude": -79.58286460052477}, "138250006RR0001": {"name": "The Savoy Foundation Inc./La fondation Savoy Inc.", "designationCode": "B", "categoryCode": "13", "address": "230 RUE FOCH", "city": "SAINT-JEAN-SUR-RICHELIEU", "province": "QC", "country": "CA", "postalCode": "J3B2B2", "twitter": "None", "instagram": "None", "facebook": "None", "youtube": "None", "website": "None", "summary": "None", "logo": "None", "latitude": 45.30915649899038, "longitude": -73.2626235}, "846047603RR0001": {"name": "The Savvas Chamberlain Family Foundation", "designationCode": "B", "categoryCode": "03", "address": "54 ACADEMY CRESCENT", "city": "WATERLOO", "province": "ON", "country": "CA", "postalCode": "N2L5H7", "twitter": "None", "instagram": "None", "facebook": "None", "youtube": "None", "website": "None", "summary": "None", "logo": "None", "latitude": 43.46740206076531, "longitude": -80.55456857314321}, "825931629RR0001": {"name": "The Scarborough Concert Band", "designationCode": "C", "categoryCode": "22", "address": "138 VALLEY STREAM DR", "city": "SCARBOROUGH", "province": "ON", "country": "CA", "postalCode": "M1V2A5", "twitter": "None", "instagram": "None", "facebook": "None", "youtube": "None", "website": "None", "summary": "None", "logo": "None", "latitude": 43.82183648681403, "longitude": -79.26340716737826}, "823425061RR0001": {"name": "The Schneider Male Chorus", "designationCode": "C", "categoryCode": "22", "address": "P.O. BOX 37042                STANLEY PARK MALL P.O.", "city": "KITCHENER", "province": "ON", "country": "CA", "postalCode": "N2A4A7", "twitter": "None", "instagram": "None", "facebook": "None", "youtube": "None", "website": "None", "summary": "None", "logo": "None", "latitude": 43.45123200000006, "longitude": -80.49304249999993}, "815252796RR0001": {"name": "The Schwenger Family Foundation", "designationCode": "B", "categoryCode": "03", "address": "840 WALKERS LINE", "city": "BURLINGTON", "province": "ON", "country": "CA", "postalCode": "L7R3X9", "twitter": "None", "instagram": "None", "facebook": "None", "youtube": "None", "website": "None", "summary": "None", "logo": "None", "latitude": 43.362502036557764, "longitude": -79.78274164014}, "852600410RR0001": {"name": "The Scotlyn Foundation", "designationCode": "B", "categoryCode": "05", "address": "4244 BRITANNIA DR SW", "city": "CALGARY", "province": "AB", "country": "CA", "postalCode": "T2S1J3", "twitter": "None", "instagram": "None", "facebook": "None", "youtube": "None", "website": "None", "summary": "None", "logo": "None", "latitude": 51.01603277655963, "longitude": -114.08288443559935}, "846033835RR0001": {"name": "The Scott Nelson Family Foundation", "designationCode": "B", "categoryCode": "03", "address": "105 - 190 CARLETON DR", "city": "ST. ALBERT", "province": "AB", "country": "CA", "postalCode": "T8N6W2", "twitter": "None", "instagram": "None", "facebook": "None", "youtube": "None", "website": "None", "summary": "None", "logo": "None", "latitude": 53.64937017017491, "longitude": -113.5714706021895}, "849114053RR0001": {"name": "The Scottish Church Trust of Canada", "designationCode": "C", "categoryCode": "39", "address": "5800 - 40 KING ST W", "city": "TORONTO", "province": "ON", "country": "CA", "postalCode": "M5H3S1", "twitter": "None", "instagram": "None", "facebook": "None", "youtube": "None", "website": "None", "summary": "None", "logo": "None", "latitude": 43.64813467004466, "longitude": -79.38254906728791}, "823043666RR0001": {"name": "The Scottish Rite Charitable Foundation Learning Centre - Valley of Barrie", "designationCode": "C", "categoryCode": "20", "address": "99 MORROW ROAD,", "city": "BARRIE", "province": "ON", "country": "CA", "postalCode": "L4N3V7", "twitter": "None", "instagram": "None", "facebook": "None", "youtube": "None", "website": "None", "summary": "None", "logo": "None", "latitude": 44.36390141329544, "longitude": -79.70504852677597}, "846229326RR0001": {"name": "The Scottish Rite Charitable Foundation Learning Centre for Calgary", "designationCode": "C", "categoryCode": "23", "address": "#103-2915 21 STREET NE", "city": "CALGARY", "province": "AB", "country": "CA", "postalCode": "T2E7T1", "twitter": "None", "instagram": "None", "facebook": "None", "youtube": "None", "website": "None", "summary": "None", "logo": "None", "latitude": 51.078564251457095, "longitude": -114.00914622857626}, "801367905RR0001": {"name": "The Scottish Rite Charitable Foundation Learning Centre for Edmonton", "designationCode": "C", "categoryCode": "20", "address": "10318 100 AVE NW", "city": "EDMONTON", "province": "AB", "country": "CA", "postalCode": "T5J0A2", "twitter": "None", "instagram": "None", "facebook": "None", "youtube": "None", "website": "None", "summary": "None", "logo": "None", "latitude": 53.538862471579236, "longitude": -113.49810047155059}, "753984129RR0001": {"name": "The Scottish Rite Charitable Foundation Learning Centre for Hamilton", "designationCode": "C", "categoryCode": "21", "address": "148 GEORGE ST", "city": "HAMILTON", "province": "ON", "country": "CA", "postalCode": "L8P1E5", "twitter": "None", "instagram": "None", "facebook": "None", "youtube": "None", "website": "None", "summary": "None", "logo": "None", "latitude": 43.258843706099476, "longitude": -79.88021265124944}, "804179059RR0001": {"name": "The Scottish Rite Charitable Foundation Learning Centre for London", "designationCode": "C", "categoryCode": "20", "address": "453 DUFFERIN AVE", "city": "LONDON", "province": "ON", "country": "CA", "postalCode": "N6B1Z7", "twitter": "None", "instagram": "None", "facebook": "None", "youtube": "None", "website": "None", "summary": "None", "logo": "None", "latitude": 42.98947514458435, "longitude": -81.23911606604543}, "813271657RR0001": {"name": "The Scottish Rite Charitable Foundation Learning Centre for Moncton, Inc.", "designationCode": "C", "categoryCode": "20", "address": "P.O. BOX 7045", "city": "RIVERVIEW", "province": "NB", "country": "CA", "postalCode": "E1B4T8", "twitter": "None", "instagram": "None", "facebook": "None", "youtube": "None", "website": "None", "summary": "None", "logo": "None", "latitude": 46.05759600000006, "longitude": -64.80031399999993}, "854317914RR0001": {"name": "The Scottish Rite Charitable Foundation Learning Centre for Windsor Inc.", "designationCode": "C", "categoryCode": "20", "address": "986 OUELLETTE AVENUE,", "city": "WINDSOR", "province": "ON", "country": "CA", "postalCode": "N9A1C6", "twitter": "None", "instagram": "None", "facebook": "None", "youtube": "None", "website": "None", "summary": "None", "logo": "None", "latitude": 42.30933615266309, "longitude": -83.03369213817903}, "838413854RR0001": {"name": "The Scottish Rite Charitable Foundation Learning Centre For Halifax Inc.", "designationCode": "C", "categoryCode": "20", "address": "51 BOLAND RD", "city": "DARTMOUTH", "province": "NS", "country": "CA", "postalCode": "B3A3G7", "twitter": "None", "instagram": "None", "facebook": "None", "youtube": "None", "website": "None", "summary": "None", "logo": "None", "latitude": 44.67271507245073, "longitude": -63.580784006405295}, "829014869RR0001": {"name": "The Scottish Rite Charitable Foundation Learning Centres for B.C.", "designationCode": "C", "categoryCode": "20", "address": "200-1687 BROADWAY WEST", "city": "VANCOUVER", "province": "BC", "country": "CA", "postalCode": "V6J1X2", "twitter": "None", "instagram": "None", "facebook": "None", "youtube": "None", "website": "None", "summary": "None", "logo": "None", "latitude": 49.26370551154119, "longitude": -123.14294932944775}, "832919195RR0001": {"name": "The Seedhouse Family Foundation", "designationCode": "B", "categoryCode": "03", "address": "121 ANNE ST S", "city": "BARRIE", "province": "ON", "country": "CA", "postalCode": "L4N7B6", "twitter": "None", "instagram": "None", "facebook": "None", "youtube": "None", "website": "None", "summary": "None", "logo": "None", "latitude": 44.37466429392919, "longitude": -79.69850869190387}, "823043484RR0001": {"name": "The Sela Family Foundation/La fondation familiale Sela", "designationCode": "B", "categoryCode": "03", "address": "215 VIVIAN AVENUE", "city": "MOUNT-ROYAL", "province": "QC", "country": "CA", "postalCode": "H3P1N9", "twitter": "None", "instagram": "None", "facebook": "None", "youtube": "None", "website": "None", "summary": "None", "logo": "None", "latitude": 45.52172946517395, "longitude": -73.6388553855385}, "119002533RR0001": {"name": "The Selwyn Public Library Board", "designationCode": "C", "categoryCode": "50", "address": "P.O. BOX 270", "city": "BRIDGENORTH", "province": "ON", "country": "CA", "postalCode": "K0L1H0", "twitter": "None", "instagram": "None", "facebook": "None", "youtube": "None", "website": "None", "summary": "None", "logo": "None", "latitude": 44.385020000000054, "longitude": -78.38415999999995}, "895583227RR0001": {"name": "The Sensible Foundation Inc.", "designationCode": "B", "categoryCode": "03", "address": "1504-201 PORTAGE AVE", "city": "WINNIPEG", "province": "MB", "country": "CA", "postalCode": "R3B3K6", "twitter": "None", "instagram": "None", "facebook": "None", "youtube": "None", "website": "None", "summary": "None", "logo": "None", "latitude": 49.895359615067065, "longitude": -97.13919299627776}, "889136040RR0001": {"name": "The Serbian Orthodox Church-School Congregation Holy Trinity", "designationCode": "C", "categoryCode": "39", "address": "349 MELVILLE AVE", "city": "WESTMOUNT", "province": "QC", "country": "CA", "postalCode": "H3Z2J7", "twitter": "None", "instagram": "None", "facebook": "None", "youtube": "None", "website": "None", "summary": "None", "logo": "None", "latitude": 45.48237322872049, "longitude": -73.59649082304244}, "889084364RR0001": {"name": "The Serenity Free Will Baptist Church and Ministries of Fredericton, New Brunswick, Canada", "designationCode": "C", "categoryCode": "31", "address": "260 SERENITY LANE", "city": "FREDERICTON", "province": "NB", "country": "CA", "postalCode": "E3B7T4", "twitter": "None", "instagram": "None", "facebook": "None", "youtube": "None", "website": "None", "summary": "None", "logo": "None", "latitude": 45.94881634554792, "longitude": -66.6995255923018}, "864634035RR0001": {"name": "The Servants of Hope Society", "designationCode": "C", "categoryCode": "57", "address": "125 - 2109 ROWLAND ST", "city": "PORT COQUITLAM", "province": "BC", "country": "CA", "postalCode": "V3C6J4", "twitter": "None", "instagram": "None", "facebook": "None", "youtube": "None", "website": "None", "summary": "None", "logo": "None", "latitude": 49.25528891035259, "longitude": -122.78535507109441}, "851378455RR0001": {"name": "The Shalem Foundation Canada", "designationCode": "C", "categoryCode": "21", "address": "155 WELLINGTON ST W", "city": "TORONTO", "province": "ON", "country": "CA", "postalCode": "M5V3J7", "twitter": "None", "instagram": "None", "facebook": "None", "youtube": "None", "website": "None", "summary": "None", "logo": "None", "latitude": 43.64596585316531, "longitude": -79.38574575644876}, "807486329RR0001": {"name": "The Shane Daye and Keith Nash Memorial Foundation", "designationCode": "C", "categoryCode": "21", "address": "481 ESTATE DRIVE", "city": "SHERWOOD PARK", "province": "AB", "country": "CA", "postalCode": "T8B1M2", "twitter": "None", "instagram": "None", "facebook": "None", "youtube": "None", "website": "None", "summary": "None", "logo": "None", "latitude": 53.50678740550516, "longitude": -113.28545835192455}, "819964412RR0001": {"name": "The Shanti Uganda Society", "designationCode": "C", "categoryCode": "09", "address": "1900 BOWMAN AVE", "city": "COQUITLAM", "province": "BC", "country": "CA", "postalCode": "V3J6E3", "twitter": "None", "instagram": "None", "facebook": "None", "youtube": "None", "website": "None", "summary": "None", "logo": "None", "latitude": 49.26508555395598, "longitude": -122.84080230391251}, "858464969RR0001": {"name": "The Share Foundation Corporation", "designationCode": "C", "categoryCode": "19", "address": "318 BRIDGE STREET", "city": "BURLINGTON", "province": "NL", "country": "CA", "postalCode": "A0K1S0", "twitter": "None", "instagram": "None", "facebook": "None", "youtube": "None", "website": "None", "summary": "None", "logo": "None", "latitude": 49.74807623149999, "longitude": -56.00721666158618}, "863238515RR0001": {"name": "The Sharing Farm Society", "designationCode": "C", "categoryCode": "09", "address": "2771 WESTMINSTER HWY", "city": "RICHMOND", "province": "BC", "country": "CA", "postalCode": "V7C1A8", "twitter": "None", "instagram": "None", "facebook": "None", "youtube": "None", "website": "None", "summary": "None", "logo": "None", "latitude": 49.170241396118314, "longitude": -123.19446332892142}, "850630039RR0001": {"name": "The Sharing Foundation", "designationCode": "B", "categoryCode": "03", "address": "SUITE 102                     1 GLENPARK AVENUE", "city": "TORONTO", "province": "ON", "country": "CA", "postalCode": "M6B4M5", "twitter": "None", "instagram": "None", "facebook": "None", "youtube": "None", "website": "None", "summary": "None", "logo": "None", "latitude": 43.713132874805375, "longitude": -79.42871523521269}, "738654094RR0001": {"name": "The Sharon Azrieli Foundation For The Arts La Fondation Sharon Azrieli Pour Les Arts", "designationCode": "A", "categoryCode": "03", "address": "3219 THE BOULEVARD", "city": "WESTMOUNT", "province": "QC", "country": "CA", "postalCode": "H3Y1S4", "twitter": "None", "instagram": "None", "facebook": "None", "youtube": "None", "website": "None", "summary": "None", "logo": "None", "latitude": 45.49087852236123, "longitude": -73.59966452293816}, "803241587RR0001": {"name": "The Sharon Francis Institute for Regenerative Medicine", "designationCode": "C", "categoryCode": "11", "address": "150 YORK STREET, SUITE 500", "city": "TORONTO", "province": "ON", "country": "CA", "postalCode": "M5H3S5", "twitter": "None", "instagram": "None", "facebook": "None", "youtube": "None", "website": "None", "summary": "None", "logo": "None", "latitude": 43.64973143574359, "longitude": -79.3843565691325}, "829414705RR0001": {"name": "The Shawana Foundation", "designationCode": "B", "categoryCode": "03", "address": "900-630 3 AVE SW", "city": "CALGARY", "province": "AB", "country": "CA", "postalCode": "T2P4L4", "twitter": "None", "instagram": "None", "facebook": "None", "youtube": "None", "website": "None", "summary": "None", "logo": "None", "latitude": 51.05065546826101, "longitude": -114.07541302553523}, "852238260RR0001": {"name": "The Shayam Kaushal Charitable Foundation", "designationCode": "B", "categoryCode": "03", "address": "261 SHEPPARD AVE W", "city": "TORONTO", "province": "ON", "country": "CA", "postalCode": "M2N1N4", "twitter": "None", "instagram": "None", "facebook": "None", "youtube": "None", "website": "None", "summary": "None", "logo": "None", "latitude": 43.75866889312725, "longitude": -79.42355645392121}, "808522411RR0001": {"name": "The Sheldon Inwentash and Lynn Factor Charitable Foundation", "designationCode": "B", "categoryCode": "03", "address": "SUITE 403 322-11 AVE SW", "city": "CALGARY", "province": "AB", "country": "CA", "postalCode": "T2R0C5", "twitter": "None", "instagram": "None", "facebook": "None", "youtube": "None", "website": "None", "summary": "None", "logo": "None", "latitude": 51.042551467684106, "longitude": -114.0685795269202}, "819134180RR0001": {"name": "The Shelley Gautier Para-Sport Foundation", "designationCode": "C", "categoryCode": "11", "address": "507 - 701 KING ST W", "city": "TORONTO", "province": "ON", "country": "CA", "postalCode": "M5V2W7", "twitter": "None", "instagram": "None", "facebook": "None", "youtube": "None", "website": "None", "summary": "None", "logo": "None", "latitude": 43.64361177540579, "longitude": -79.40402691629653}, "776372492RR0001": {"name": "The Shelter Movers of Toronto", "designationCode": "B", "categoryCode": "09", "address": "29 STRATHCONA AVE", "city": "TORONTO", "province": "ON", "country": "CA", "postalCode": "M4K1K6", "twitter": "None", "instagram": "None", "facebook": "None", "youtube": "None", "website": "None", "summary": "None", "logo": "None", "latitude": 43.67560586037866, "longitude": -79.34455462155927}, "119251791RR0001": {"name": "The Shelter Reformed Church of Edmonton", "designationCode": "C", "categoryCode": "37", "address": "11920 129 ST NW", "city": "EDMONTON", "province": "AB", "country": "CA", "postalCode": "T5L1G6", "twitter": "None", "instagram": "None", "facebook": "None", "youtube": "None", "website": "None", "summary": "None", "logo": "None", "latitude": 53.57219316180968, "longitude": -113.54458873261564}, "826635534RR0001": {"name": "The Shen Family Charitable Foundation", "designationCode": "B", "categoryCode": "05", "address": "59 ELGIN AVE", "city": "TORONTO", "province": "ON", "country": "CA", "postalCode": "M5R1G5", "twitter": "None", "instagram": "None", "facebook": "None", "youtube": "None", "website": "None", "summary": "None", "logo": "None", "latitude": 43.67129678766815, "longitude": -79.39797594962205}, "774925697RR0001": {"name": "The Shenker Family Foundation / La fondation familiale Shenker", "designationCode": "B", "categoryCode": "03", "address": "ROYAL BANK PLAZA SOUTH TOWER  3800-200 BAY STREET", "city": "TORONTO", "province": "ON", "country": "CA", "postalCode": "M5J2Z4", "twitter": "None", "instagram": "None", "facebook": "None", "youtube": "None", "website": "None", "summary": "None", "logo": "None", "latitude": 43.64868300000006, "longitude": -79.38544399999994}, "858745458RR0001": {"name": "The Shepody Cemetery Trust", "designationCode": "C", "categoryCode": "59", "address": "20 GRUB ROAD", "city": "HOPEWELL CAPE", "province": "NB", "country": "CA", "postalCode": "E4H3G8", "twitter": "None", "instagram": "None", "facebook": "None", "youtube": "None", "website": "None", "summary": "None", "logo": "None", "latitude": 45.847973398602434, "longitude": -64.57866908725637}, "107976565RR0002": {"name": "The Sheridan College Institute of Technology and Advanced Learning", "designationCode": "C", "categoryCode": "20", "address": "1430 TRAFALGAR RD", "city": "OAKVILLE", "province": "ON", "country": "CA", "postalCode": "L6H2L1", "twitter": "None", "instagram": "None", "facebook": "None", "youtube": "None", "website": "None", "summary": "None", "logo": "None", "latitude": 43.472126852827735, "longitude": -79.69787885506648}, "839760899RR0001": {"name": "The Sherry Taylor Drew Foundation", "designationCode": "B", "categoryCode": "05", "address": "11B - 1 SAINT THOMAS ST", "city": "TORONTO", "province": "ON", "country": "CA", "postalCode": "M5S3M5", "twitter": "None", "instagram": "None", "facebook": "None", "youtube": "None", "website": "None", "summary": "None", "logo": "None", "latitude": 43.66864320859641, "longitude": -79.3906622034795}, "810609313RR0001": {"name": "The Sherwood Cemetery Company", "designationCode": "C", "categoryCode": "59", "address": "PO BOX 1691 STN CENTRAL", "city": "CHARLOTTETOWN", "province": "PE", "country": "CA", "postalCode": "C1A7N4", "twitter": "None", "instagram": "None", "facebook": "None", "youtube": "None", "website": "None", "summary": "None", "logo": "None", "latitude": 46.23659700000006, "longitude": -63.12815449999994}, "827433095RR0001": {"name": "The Shewan Foundation", "designationCode": "B", "categoryCode": "03", "address": "111 20434 64 AVENUE", "city": "LANGLEY", "province": "BC", "country": "CA", "postalCode": "V2Y1N4", "twitter": "None", "instagram": "None", "facebook": "None", "youtube": "None", "website": "None", "summary": "None", "logo": "None", "latitude": 49.11876272307974, "longitude": -122.65627100336503}, "810760694RR0001": {"name": "The Shields and Woodrow Foundation", "designationCode": "B", "categoryCode": "25", "address": "1402 - 1 KING ST W", "city": "HAMILTON", "province": "ON", "country": "CA", "postalCode": "L8P1A4", "twitter": "None", "instagram": "None", "facebook": "None", "youtube": "None", "website": "None", "summary": "None", "logo": "None", "latitude": 43.26019321073324, "longitude": -79.88135629363086}, "789649316RR0001": {"name": "The Shields Foundation", "designationCode": "B", "categoryCode": "03", "address": "310-10991 SHELLBRIDGE WAY", "city": "RICHMOND", "province": "BC", "country": "CA", "postalCode": "V6X3C6", "twitter": "None", "instagram": "None", "facebook": "None", "youtube": "None", "website": "None", "summary": "None", "logo": "None", "latitude": 49.187491453008526, "longitude": -123.10298164912395}, "854939113RR0001": {"name": "The Shindleman Foundation Inc.", "designationCode": "B", "categoryCode": "03", "address": "200-1355 TAYLOR AVENUE", "city": "WINNIPEG", "province": "MB", "country": "CA", "postalCode": "R3M3Y9", "twitter": "None", "instagram": "None", "facebook": "None", "youtube": "None", "website": "None", "summary": "None", "logo": "None", "latitude": 49.85135427471499, "longitude": -97.18026656821061}, "835452145RR0001": {"name": "The Shirdi Sai Mandir and Cultural Centre", "designationCode": "C", "categoryCode": "48", "address": "2721 MARKHAM RD               UNITS 7&8", "city": "TORONTO", "province": "ON", "country": "CA", "postalCode": "M1X1L5", "twitter": "None", "instagram": "None", "facebook": "None", "youtube": "None", "website": "None", "summary": "None", "logo": "None", "latitude": 43.82053436363863, "longitude": -79.24616945354771}, "880625827RR0001": {"name": "The Shirveish Trust", "designationCode": "B", "categoryCode": "45", "address": "3 ELTON PLACE", "city": "ST. JOHN'S", "province": "NL", "country": "CA", "postalCode": "A1A5B8", "twitter": "None", "instagram": "None", "facebook": "None", "youtube": "None", "website": "None", "summary": "None", "logo": "None", "latitude": 47.6085054987306, "longitude": -52.71726258286673}, "833095045RR0001": {"name": "The Shoebox Project for Shelters / Operation boite a chaussures pour refuges", "designationCode": "C", "categoryCode": "09", "address": "720 BATHURST ST", "city": "TORONTO", "province": "ON", "country": "CA", "postalCode": "M5S2R4", "twitter": "None", "instagram": "None", "facebook": "None", "youtube": "None", "website": "None", "summary": "None", "logo": "None", "latitude": 43.66323143574358, "longitude": -79.41047606191914}, "809175441RR0001": {"name": "The Shuswap Outdoor Learning Foundation", "designationCode": "C", "categoryCode": "29", "address": "PO BOX 152", "city": "CANOE", "province": "BC", "country": "CA", "postalCode": "V0E1K0", "twitter": "None", "instagram": "None", "facebook": "None", "youtube": "None", "website": "None", "summary": "None", "logo": "None", "latitude": 52.00880716373645, "longitude": -118.56760579231016}, "816472963RR0001": {"name": "The Sid and Denise Levin Charitable Foundation", "designationCode": "B", "categoryCode": "03", "address": "6 STORMONT AVENUE", "city": "TORONTO", "province": "ON", "country": "CA", "postalCode": "M5N2B8", "twitter": "None", "instagram": "None", "facebook": "None", "youtube": "None", "website": "None", "summary": "None", "logo": "None", "latitude": 43.71990415072983, "longitude": -79.4227664222978}, "847757655RR0001": {"name": "The Sidney Crosby Foundation", "designationCode": "B", "categoryCode": "03", "address": "900-1959 UPPER WATER STREET   P.O. BOX 997", "city": "HALIFAX", "province": "NS", "country": "CA", "postalCode": "B3J2X2", "twitter": "None", "instagram": "None", "facebook": "None", "youtube": "None", "website": "None", "summary": "None", "logo": "None", "latitude": 44.65116830396986, "longitude": -63.57483644359211}, "843049578RR0001": {"name": "The Sidney Greenberg Family Foundation", "designationCode": "B", "categoryCode": "03", "address": "400-3333, BOULEVARD GRAHAM", "city": "MONTREAL", "province": "QC", "country": "CA", "postalCode": "H3R3L5", "twitter": "None", "instagram": "None", "facebook": "None", "youtube": "None", "website": "None", "summary": "None", "logo": "None", "latitude": 45.50871247685936, "longitude": -73.6610015145996}, "133013755RR0001": {"name": "The Siebens-Drake Medical Research Institute", "designationCode": "C", "categoryCode": "21", "address": "IPB ROOM 5320                 SUPPORT SERVICES BUILDING", "city": "LONDON", "province": "ON", "country": "CA", "postalCode": "N6A5B8", "twitter": "None", "instagram": "None", "facebook": "None", "youtube": "None", "website": "None", "summary": "None", "logo": "None", "latitude": 43.00933200000006, "longitude": -81.26167399999993}, "770738920RR0001": {"name": "The Silver Hotel Group Ruparell Foundation", "designationCode": "C", "categoryCode": "03", "address": "5830 CAMPUS ROAD              SUITE 100", "city": "MISSISSAUGA", "province": "ON", "country": "CA", "postalCode": "L4V1G2", "twitter": "None", "instagram": "None", "facebook": "None", "youtube": "None", "website": "None", "summary": "None", "logo": "None", "latitude": 43.68847401800474, "longitude": -79.60435971114937}, "859607756RR0001": {"name": "The Simon and Maral Hasserjian Foundation", "designationCode": "B", "categoryCode": "03", "address": "32 MATTA LANE", "city": "THORNHILL", "province": "ON", "country": "CA", "postalCode": "L3T7L5", "twitter": "None", "instagram": "None", "facebook": "None", "youtube": "None", "website": "None", "summary": "None", "logo": "None", "latitude": 43.80560009634119, "longitude": -79.39465021761198}, "805222759RR0001": {"name": "The Sinneave Family Foundation", "designationCode": "C", "categoryCode": "13", "address": "300, 3820 24TH AVE NW", "city": "CALGARY", "province": "AB", "country": "CA", "postalCode": "T3B2X9", "twitter": "None", "instagram": "None", "facebook": "None", "youtube": "None", "website": "None", "summary": "None", "logo": "None", "latitude": 51.07442462436771, "longitude": -114.14213848460615}, "834291262RR0001": {"name": "The Sir Christopher Ondaatje Theatre Foundation", "designationCode": "A", "categoryCode": "05", "address": "22 PLEASANT STREET", "city": "CHESTER", "province": "NS", "country": "CA", "postalCode": "B0J1J0", "twitter": "None", "instagram": "None", "facebook": "None", "youtube": "None", "website": "None", "summary": "None", "logo": "None", "latitude": 44.53824750764604, "longitude": -64.2407519701656}, "810145649RR0001": {"name": "The Sir William Top Hat Society", "designationCode": "C", "categoryCode": "01", "address": "34 BUELL ST                   SUITE 243", "city": "BROCKVILLE", "province": "ON", "country": "CA", "postalCode": "K6V5V5", "twitter": "None", "instagram": "None", "facebook": "None", "youtube": "None", "website": "None", "summary": "None", "logo": "None", "latitude": 44.58963467998732, "longitude": -75.68714246295224}, "815712955RR0001": {"name": "The Sir Winston Churchill Society of Calgary", "designationCode": "C", "categoryCode": "29", "address": "1328 17 AVE SW", "city": "CALGARY", "province": "AB", "country": "CA", "postalCode": "T2T0C3", "twitter": "None", "instagram": "None", "facebook": "None", "youtube": "None", "website": "None", "summary": "None", "logo": "None", "latitude": 51.03784546378896, "longitude": -114.093243}, "816109417RR0001": {"name": "The Sitka Foundation", "designationCode": "B", "categoryCode": "03", "address": "1550-625 HOWE ST", "city": "VANCOUVER", "province": "BC", "country": "CA", "postalCode": "V6C2T6", "twitter": "None", "instagram": "None", "facebook": "None", "youtube": "None", "website": "None", "summary": "None", "logo": "None", "latitude": 49.284090135177934, "longitude": -123.11775909244602}, "856831227RR0001": {"name": "The Slaight Family Foundation", "designationCode": "B", "categoryCode": "03", "address": "22 ST. CLAIR AVENUE EAST      SUITE 1100", "city": "TORONTO", "province": "ON", "country": "CA", "postalCode": "M4T2S3", "twitter": "None", "instagram": "None", "facebook": "None", "youtube": "None", "website": "None", "summary": "None", "logo": "None", "latitude": 43.68832509965939, "longitude": -79.39305889967677}, "811799402RR0001": {"name": "The Small Wonders Charitable Organization", "designationCode": "C", "categoryCode": "11", "address": "3845 BATHURST STREET,         SUITE 103", "city": "TORONTO", "province": "ON", "country": "CA", "postalCode": "M3H3N2", "twitter": "None", "instagram": "None", "facebook": "None", "youtube": "None", "website": "None", "summary": "None", "logo": "None", "latitude": 43.74047087039064, "longitude": -79.43473796055765}, "817053531RR0001": {"name": "The Smile Mission Oral Health Outreach Society", "designationCode": "C", "categoryCode": "11", "address": "206-310 HUDSON AVENUE NE      BOX 39", "city": "SALMON ARM", "province": "BC", "country": "CA", "postalCode": "V1E4N2", "twitter": "None", "instagram": "None", "facebook": "None", "youtube": "None", "website": "None", "summary": "None", "logo": "None", "latitude": 50.701921234291184, "longitude": -119.28166581141448}}