{"896541455RR0001": {"name": "FONDATION VICTOR CLOUTIER INC.", "designationCode": "A", "categoryCode": "03", "address": "12427 1E AVENUE SUITE 317", "city": "SAINT-GEORGES", "province": "QC", "country": "CA", "postalCode": "G5Y2E3", "twitter": "None", "instagram": "None", "facebook": "None", "youtube": "None", "website": "None", "summary": "None", "logo": "None", "latitude": 46.11837431060628, "longitude": -70.66947754339573}, "887756468RR0001": {"name": "FONDATION VICTORIN GERMAIN,", "designationCode": "C", "categoryCode": "09", "address": "67 RUE SAINTE-URSULE", "city": "QUEBEC", "province": "QC", "country": "CA", "postalCode": "G1R4E7", "twitter": "None", "instagram": "None", "facebook": "None", "youtube": "None", "website": "None", "summary": "None", "logo": "None", "latitude": 46.81035163364874, "longitude": -71.20890343822508}, "846695278RR0001": {"name": "FONDATION VILLA DES PLATEAUX", "designationCode": "C", "categoryCode": "09", "address": "187 RUE PRINCIPALE C.P.130", "city": "SAINT-ALEXIS-DE-MATAPEDIA", "province": "QC", "country": "CA", "postalCode": "G0J2E0", "twitter": "None", "instagram": "None", "facebook": "None", "youtube": "None", "website": "None", "summary": "None", "logo": "None", "latitude": 47.968890012781934, "longitude": -67.05225045340161}, "890549744RR0001": {"name": "FONDATION VILLA IGNATIA INC.", "designationCode": "A", "categoryCode": "03", "address": "165-2480 CHEMIN STE-FOY", "city": "QU\u00c9BEC", "province": "QC", "country": "CA", "postalCode": "G1V1T6", "twitter": "None", "instagram": "None", "facebook": "None", "youtube": "None", "website": "None", "summary": "None", "logo": "None", "latitude": 46.78397219126872, "longitude": -71.28824731975288}, "866751530RR0001": {"name": "FONDATION VILLA MARIA", "designationCode": "C", "categoryCode": "23", "address": "4245 BOULEVARD DECARIE", "city": "MONTREAL", "province": "QC", "country": "CA", "postalCode": "H4A3K4", "twitter": "None", "instagram": "None", "facebook": "None", "youtube": "None", "website": "None", "summary": "None", "logo": "None", "latitude": 45.47928588390119, "longitude": -73.61966197420027}, "876491275RR0001": {"name": "FONDATION VILLA STE-MARCELLINE", "designationCode": "C", "categoryCode": "21", "address": "815 UPPER BELMONT", "city": "WESTMOUNT", "province": "QC", "country": "CA", "postalCode": "H3Y1K5", "twitter": "None", "instagram": "None", "facebook": "None", "youtube": "None", "website": "None", "summary": "None", "logo": "None", "latitude": 45.48931432364803, "longitude": -73.61772286591858}, "131441362RR0001": {"name": "FONDATION VILLA-NOTRE-DAME-DE-GRACE", "designationCode": "A", "categoryCode": "03", "address": "1001 RUE LENOIR", "city": "MONTREAL", "province": "QC", "country": "CA", "postalCode": "H4C2Z6", "twitter": "None", "instagram": "None", "facebook": "None", "youtube": "None", "website": "None", "summary": "None", "logo": "None", "latitude": 45.47701380630713, "longitude": -73.59315707337436}, "891626657RR0001": {"name": "FONDATION VINCENT SPAIN INC.", "designationCode": "B", "categoryCode": "23", "address": "516, DU COTEAU", "city": "LA TUQUE", "province": "QC", "country": "CA", "postalCode": "G9X2A6", "twitter": "None", "instagram": "None", "facebook": "None", "youtube": "None", "website": "None", "summary": "None", "logo": "None", "latitude": 47.44060159227314, "longitude": -72.77237263803481}, "131081861RR0001": {"name": "FONDATION VINCENT-D'INDY", "designationCode": "C", "categoryCode": "22", "address": "628 CH COTE-SAINTE-CATHERINE", "city": "OUTREMONT", "province": "QC", "country": "CA", "postalCode": "H2V2C5", "twitter": "None", "instagram": "None", "facebook": "None", "youtube": "None", "website": "None", "summary": "None", "logo": "None", "latitude": 45.51262297830261, "longitude": -73.61377079442015}, "890835176RR0001": {"name": "FONDATION VIPASSANA DE L'EST DU CANADA/EASTERN CANADA VIPASSANA FOUNDATION", "designationCode": "C", "categoryCode": "39", "address": "810 COTE AZELIE", "city": "NOTRE-DAME-DE-BONSECOUR", "province": "QC", "country": "CA", "postalCode": "J0V1L0", "twitter": "None", "instagram": "None", "facebook": "None", "youtube": "None", "website": "None", "summary": "None", "logo": "None", "latitude": 45.69907193005943, "longitude": -74.92911514279533}, "118924224RR0001": {"name": "FONDATION VITAE - VITAE FOUNDATION", "designationCode": "A", "categoryCode": "09", "address": "375 RUE ARGYLL", "city": "SHERBROOKE", "province": "QC", "country": "CA", "postalCode": "J1J3H5", "twitter": "None", "instagram": "None", "facebook": "None", "youtube": "None", "website": "None", "summary": "None", "logo": "None", "latitude": 45.403672560004274, "longitude": -71.91336807513845}, "877265215RR0001": {"name": "FONDATION VIVA MUSICAL'PHA", "designationCode": "A", "categoryCode": "21", "address": "334 RUE ACADEMIE", "city": "ROSEMERE", "province": "QC", "country": "CA", "postalCode": "J7A3R9", "twitter": "None", "instagram": "None", "facebook": "None", "youtube": "None", "website": "None", "summary": "None", "logo": "None", "latitude": 45.63818906771886, "longitude": -73.79305410115994}, "888448057RR0001": {"name": "FONDATION VIVIER", "designationCode": "C", "categoryCode": "22", "address": "7400 MARIE VICTORIN", "city": "CONTRECOEUR", "province": "QC", "country": "CA", "postalCode": "J0L1C0", "twitter": "None", "instagram": "None", "facebook": "None", "youtube": "None", "website": "None", "summary": "None", "logo": "None", "latitude": 45.90248516264642, "longitude": -73.20712952184164}, "840216188RR0001": {"name": "FONDATION VIVO CUORE / VIVO CUORE FOUNDATION", "designationCode": "C", "categoryCode": "11", "address": "814 RUE JULIEN", "city": "LAVAL", "province": "QC", "country": "CA", "postalCode": "H7X2M4", "twitter": "None", "instagram": "None", "facebook": "None", "youtube": "None", "website": "None", "summary": "None", "logo": "None", "latitude": 45.527752363292855, "longitude": -73.80760966140565}, "837759976RR0001": {"name": "FONDATION YEMBA CANADA", "designationCode": "C", "categoryCode": "09", "address": "C.P. 1193 MONTR\u00c9AL DESJARDINS", "city": "MONTREAL", "province": "QC", "country": "CA", "postalCode": "H5B1C3", "twitter": "None", "instagram": "None", "facebook": "None", "youtube": "None", "website": "None", "summary": "None", "logo": "None"}, "118925494RR0001": {"name": "FONDATION YVAN L BOUSQUET", "designationCode": "A", "categoryCode": "55", "address": "2540 BOUL. DANIEL-JOHNSON     BUREAU 610", "city": "LAVAL", "province": "QC", "country": "CA", "postalCode": "H7T2S3", "twitter": "None", "instagram": "None", "facebook": "None", "youtube": "None", "website": "None", "summary": "None", "logo": "None", "latitude": 45.567061785446434, "longitude": -73.75546153915388}, "118925486RR0001": {"name": "FONDATION YVAN LAURIN INC.", "designationCode": "C", "categoryCode": "11", "address": "CP 244", "city": "MONT-LAURIER", "province": "QC", "country": "CA", "postalCode": "J9L3N7", "twitter": "None", "instagram": "None", "facebook": "None", "youtube": "None", "website": "None", "summary": "None", "logo": "None", "latitude": 46.55214600000005, "longitude": -75.49647199999994}, "890328370RR0001": {"name": "FONDATION YVAN MORIN", "designationCode": "B", "categoryCode": "23", "address": "1002 - 1130 BOUL MATTAWA", "city": "LAVAL", "province": "QC", "country": "CA", "postalCode": "H7P0H6", "twitter": "None", "instagram": "None", "facebook": "None", "youtube": "None", "website": "None", "summary": "None", "logo": "None", "latitude": 45.59090165416365, "longitude": -73.81778029785299}, "119000560RR0001": {"name": "FONDATION YVES POULIN", "designationCode": "C", "categoryCode": "53", "address": "4375 RUE ONTARIO EST", "city": "MONTREAL", "province": "QC", "country": "CA", "postalCode": "H1V1K5", "twitter": "None", "instagram": "None", "facebook": "None", "youtube": "None", "website": "None", "summary": "None", "logo": "None", "latitude": 45.553633457700776, "longitude": -73.53911170255009}, "891535361RR0001": {"name": "FONDATION YVES PRATTE / YVES PRATTE FOUNDATION", "designationCode": "C", "categoryCode": "21", "address": "900-1000 DE LA GAUCHETIERE W", "city": "MONTREAL", "province": "QC", "country": "CA", "postalCode": "H3B5H4", "twitter": "None", "instagram": "None", "facebook": "None", "youtube": "None", "website": "None", "summary": "None", "logo": "None", "latitude": 45.49862215677963, "longitude": -73.56690186894203}, "118925502RR0001": {"name": "FONDATION YVON BOULANGER", "designationCode": "B", "categoryCode": "21", "address": "1706-100 AVE. DES SOMMETS", "city": "VERDUN", "province": "QC", "country": "CA", "postalCode": "H3E1Z8", "twitter": "None", "instagram": "None", "facebook": "None", "youtube": "None", "website": "None", "summary": "None", "logo": "None", "latitude": 45.45107764389185, "longitude": -73.54823532330225}, "101837367RR0001": {"name": "FONDATION YVON LAMARRE", "designationCode": "A", "categoryCode": "03", "address": "8000 RUE NOTRE-DAME", "city": "LACHINE", "province": "QC", "country": "CA", "postalCode": "H8R1H2", "twitter": "None", "instagram": "None", "facebook": "None", "youtube": "None", "website": "None", "summary": "None", "logo": "None", "latitude": 45.449349384356026, "longitude": -73.6326238124822}, "889481057RR0001": {"name": "FONDATION ZENON ALARY INC", "designationCode": "C", "categoryCode": "50", "address": "1425 CLAUDE GREGOIRE          C.P. 91", "city": "STE ADELE", "province": "QC", "country": "CA", "postalCode": "J8B1E9", "twitter": "None", "instagram": "None", "facebook": "None", "youtube": "None", "website": "None", "summary": "None", "logo": "None", "latitude": 45.94172736358131, "longitude": -74.12238961919334}, "892556150RR0001": {"name": "FONDATION 18-30 ANS INC.", "designationCode": "A", "categoryCode": "13", "address": "4430 RUE SAINT-JACQUES OUEST", "city": "MONTREAL", "province": "QC", "country": "CA", "postalCode": "H4C1K2", "twitter": "None", "instagram": "None", "facebook": "None", "youtube": "None", "website": "None", "summary": "None", "logo": "None", "latitude": 45.475839556466134, "longitude": -73.59037163959268}, "892990367RR0001": {"name": "FONDATION 3% - TIERS-MONDE", "designationCode": "B", "categoryCode": "09", "address": "817 RUE DE BELLEVUE", "city": "SAINTE-FOY", "province": "QC", "country": "CA", "postalCode": "G1V2R6", "twitter": "None", "instagram": "None", "facebook": "None", "youtube": "None", "website": "None", "summary": "None", "logo": "None", "latitude": 46.788832162098146, "longitude": -71.26529347250286}, "118925544RR0001": {"name": "FONDATION 500 BALMORAL INC.", "designationCode": "C", "categoryCode": "09", "address": "80, RUE NOTRE-DAME #5", "city": "LA PRAIRIE", "province": "QC", "country": "CA", "postalCode": "J5R1M1", "twitter": "None", "instagram": "None", "facebook": "None", "youtube": "None", "website": "None", "summary": "None", "logo": "None", "latitude": 45.420111753823036, "longitude": -73.4910416594724}, "887359958RR0001": {"name": "FONDATION-JEUNESSE DE LA COTE-SUD", "designationCode": "A", "categoryCode": "03", "address": "425 8E RUE", "city": "LA POCATIERE", "province": "QC", "country": "CA", "postalCode": "G0R1Z0", "twitter": "None", "instagram": "None", "facebook": "None", "youtube": "None", "website": "None", "summary": "None", "logo": "None", "latitude": 47.36021100000005, "longitude": -70.05913099999994}, "863736658RR0001": {"name": "FONDATION, FESTIVAL DU LAC MASSAWIPPI INC.", "designationCode": "A", "categoryCode": "03", "address": "330-1335 KING WEST", "city": "SHERBROOKE", "province": "QC", "country": "CA", "postalCode": "J1J2B8", "twitter": "None", "instagram": "None", "facebook": "None", "youtube": "None", "website": "None", "summary": "None", "logo": "None", "latitude": 45.398793290574076, "longitude": -71.90956758759978}, "896396447RR0001": {"name": "FONDATION: \u00c9COLE SAINT-\u00c9TIENNE", "designationCode": "C", "categoryCode": "09", "address": "5959 CHRISTOPHE-COLOMB", "city": "MONTREAL", "province": "QC", "country": "CA", "postalCode": "H2S2G3", "twitter": "None", "instagram": "None", "facebook": "None", "youtube": "None", "website": "None", "summary": "None", "logo": "None", "latitude": 45.535721309221316, "longitude": -73.59681246125015}, "892257767RR0001": {"name": "FONDAZIONE ITALIANA DI BENEVOLENZA PRINCIPE DI PIEMONTE", "designationCode": "A", "categoryCode": "25", "address": "2252 FALCONCREST DR", "city": "THUNDER BAY", "province": "ON", "country": "CA", "postalCode": "P7J1H5", "twitter": "None", "instagram": "None", "facebook": "None", "youtube": "None", "website": "None", "summary": "None", "logo": "None", "latitude": 48.32133832113787, "longitude": -89.35668481124145}, "118926468RR0001": {"name": "FONDS \u00c9COLOGIQUE ANNE VALL\u00c9E", "designationCode": "C", "categoryCode": "21", "address": "706 RUE ROUTHIER", "city": "QUEBEC", "province": "QC", "country": "CA", "postalCode": "G1X3J9", "twitter": "None", "instagram": "None", "facebook": "None", "youtube": "None", "website": "None", "summary": "None", "logo": "None", "latitude": 46.77215428391722, "longitude": -71.3261906281088}, "807157029RR0001": {"name": "FONDS ADZIRE-DOUCET", "designationCode": "C", "categoryCode": "49", "address": "900 BOUL DE LA C\u00d4TE-VERTU", "city": "MONTREAL", "province": "QC", "country": "CA", "postalCode": "H4L4T9", "twitter": "None", "instagram": "None", "facebook": "None", "youtube": "None", "website": "None", "summary": "None", "logo": "None", "latitude": 45.51667897916799, "longitude": -73.6746147693176}, "804313070RR0001": {"name": "FONDS AIDE ASIE DU SUD-EST (FAASE) / SOUTH-EAST ASIAN AID FUND (SEAAF)", "designationCode": "C", "categoryCode": "09", "address": "5932 AVENUE MCSHANE", "city": "MONTREAL", "province": "QC", "country": "CA", "postalCode": "H3S2G3", "twitter": "None", "instagram": "None", "facebook": "None", "youtube": "None", "website": "None", "summary": "None", "logo": "None", "latitude": 45.504043545357625, "longitude": -73.62691156898828}, "845167949RR0001": {"name": "FONDS ALEXANDRE-BOUILLON", "designationCode": "C", "categoryCode": "43", "address": "13 RUE DU FOYER               C.P.310", "city": "LAC-AU-SAUMON", "province": "QC", "country": "CA", "postalCode": "G0J1M0", "twitter": "None", "instagram": "None", "facebook": "None", "youtube": "None", "website": "None", "summary": "None", "logo": "None", "latitude": 48.421710990354185, "longitude": -67.35066302470948}, "892526567RR0001": {"name": "FONDS ALINE COURANT", "designationCode": "C", "categoryCode": "49", "address": "575 RUE ALLEN", "city": "SHERBROOKE", "province": "QC", "country": "CA", "postalCode": "J1G1Z1", "twitter": "None", "instagram": "None", "facebook": "None", "youtube": "None", "website": "None", "summary": "None", "logo": "None", "latitude": 45.394665504327826, "longitude": -71.87444061226844}, "854685906RR0001": {"name": "FONDS ALPHONSE-DE-LIGUORI", "designationCode": "C", "categoryCode": "49", "address": "10018 AVENUE ROYALE", "city": "SAINTE-ANNE-DE-BEAUPRE", "province": "QC", "country": "CA", "postalCode": "G0A3C0", "twitter": "None", "instagram": "None", "facebook": "None", "youtube": "None", "website": "None", "summary": "None", "logo": "None", "latitude": 47.025011014946315, "longitude": -70.92776782093631}, "118925585RR0001": {"name": "FONDS AM\u00c9LIE-FRISTEL", "designationCode": "C", "categoryCode": "09", "address": "434 ST-CHARLES BORROMEE", "city": "JOLIETTE", "province": "QC", "country": "CA", "postalCode": "J6E4R7", "twitter": "None", "instagram": "None", "facebook": "None", "youtube": "None", "website": "None", "summary": "None", "logo": "None", "latitude": 46.03417873578962, "longitude": -73.44111871960348}, "118926138RR0001": {"name": "FONDS AMJ-1873", "designationCode": "C", "categoryCode": "09", "address": "A1 AVENUE DU SACRE-COEUR", "city": "QUEBEC", "province": "QC", "country": "CA", "postalCode": "G1N2W1", "twitter": "None", "instagram": "None", "facebook": "None", "youtube": "None", "website": "None", "summary": "None", "logo": "None", "latitude": 46.81143332639782, "longitude": -71.24460661007792}, "898785522RR0001": {"name": "FONDS ANNE-ROLLET", "designationCode": "C", "categoryCode": "03", "address": "2281 CHEMIN DE LA CANARDI\u00c8RE", "city": "QUEBEC", "province": "QC", "country": "CA", "postalCode": "G1J0B8", "twitter": "None", "instagram": "None", "facebook": "None", "youtube": "None", "website": "None", "summary": "None", "logo": "None", "latitude": 46.84230286011887, "longitude": -71.21999381378028}, "803829548RR0001": {"name": "FONDS ANNE-VICTOIRE", "designationCode": "C", "categoryCode": "46", "address": "2281 CH.DE LA CANARDI\u00c8RE A-007", "city": "QUEBEC", "province": "QC", "country": "CA", "postalCode": "G1J0B8", "twitter": "None", "instagram": "None", "facebook": "None", "youtube": "None", "website": "None", "summary": "None", "logo": "None", "latitude": 46.84230286011887, "longitude": -71.21999381378028}, "862578184RR0001": {"name": "FONDS ANTOINETTE-FAGE", "designationCode": "C", "categoryCode": "49", "address": "4D-5655 RUE SALABERRY", "city": "MONTREAL", "province": "QC", "country": "CA", "postalCode": "H4J1J5", "twitter": "None", "instagram": "None", "facebook": "None", "youtube": "None", "website": "None", "summary": "None", "logo": "None", "latitude": 45.528873699753234, "longitude": -73.71145253699511}, "891914160RR0001": {"name": "FONDS ANTOINETTE-GIROUX", "designationCode": "C", "categoryCode": "43", "address": "4730, BOUL. LEVESQUE OUEST", "city": "LAVAL", "province": "QC", "country": "CA", "postalCode": "H7W2R4", "twitter": "None", "instagram": "None", "facebook": "None", "youtube": "None", "website": "None", "summary": "None", "logo": "None", "latitude": 45.52747419285618, "longitude": -73.76023804821452}, "867874547RR0001": {"name": "FONDS ARTHUR-BONENFANT", "designationCode": "C", "categoryCode": "03", "address": "270 RUE NORMANDIE", "city": "LONGUEUIL", "province": "QC", "country": "CA", "postalCode": "J4H3P2", "twitter": "None", "instagram": "None", "facebook": "None", "youtube": "None", "website": "None", "summary": "None", "logo": "None", "latitude": 45.542622039673496, "longitude": -73.50295892189378}, "859109746RR0001": {"name": "FONDS ARTHUR-CARON", "designationCode": "C", "categoryCode": "43", "address": "751, CHEMIN DES PATRIOTES EST", "city": "SAINT-JEAN-SUR-RICHELIEU", "province": "QC", "country": "CA", "postalCode": "J2X4J3", "twitter": "None", "instagram": "None", "facebook": "None", "youtube": "None", "website": "None", "summary": "None", "logo": "None", "latitude": 45.380582927549284, "longitude": -73.24656745856616}, "838063063RR0001": {"name": "FONDS AZULA / AZULA FUND", "designationCode": "C", "categoryCode": "09", "address": "8400 2E AV", "city": "MONTREAL", "province": "QC", "country": "CA", "postalCode": "H1Z4M6", "twitter": "None", "instagram": "None", "facebook": "None", "youtube": "None", "website": "None", "summary": "None", "logo": "None", "latitude": 45.56262351419652, "longitude": -73.61665028362876}, "855576120RR0001": {"name": "FONDS BASILE-MOREAU", "designationCode": "C", "categoryCode": "49", "address": "4901 RUE PIEDMONT", "city": "MONTREAL", "province": "QC", "country": "CA", "postalCode": "H3V1E3", "twitter": "None", "instagram": "None", "facebook": "None", "youtube": "None", "website": "None", "summary": "None", "logo": "None", "latitude": 45.49437641078528, "longitude": -73.61616300470321}, "859964942RR0001": {"name": "FONDS BEDFORD / BEDFORD FUND", "designationCode": "C", "categoryCode": "43", "address": "751, CHEMIN DES PATRIOTES EST", "city": "SAINT-JEAN-SUR-RICHELIEU", "province": "QC", "country": "CA", "postalCode": "J2X4J3", "twitter": "None", "instagram": "None", "facebook": "None", "youtube": "None", "website": "None", "summary": "None", "logo": "None", "latitude": 45.380582927549284, "longitude": -73.24656745856616}, "891000580RR0001": {"name": "FONDS CANADIEN D'AIDE AUX VICTIMES DE TCHERNOBYL EN BIELORUSSIE/CANADIAN RELIEF FUND FOR CHERNOBYL VICTIMS IN BYELORUSSI", "designationCode": "C", "categoryCode": "09", "address": "5 OXFORD CRES.", "city": "MOUNT PEARL", "province": "NL", "country": "CA", "postalCode": "A1N2X6", "twitter": "None", "instagram": "None", "facebook": "None", "youtube": "None", "website": "None", "summary": "None", "logo": "None", "latitude": 47.50988765114697, "longitude": -52.81261934866571}, "823521927RR0001": {"name": "FONDS CASOT", "designationCode": "C", "categoryCode": "49", "address": "25, RUE JARRY OUEST", "city": "MONTREAL", "province": "QC", "country": "CA", "postalCode": "H2P1S6", "twitter": "None", "instagram": "None", "facebook": "None", "youtube": "None", "website": "None", "summary": "None", "logo": "None", "latitude": 45.53849931447277, "longitude": -73.63160199685467}, "864841580RR0001": {"name": "FONDS COMMUNAUTAIRE D'ACC\u00c8S AU MICRO-CR\u00c9DIT", "designationCode": "C", "categoryCode": "59", "address": "96 RUE TURGEON                BUREAU 200", "city": "STE THERESE", "province": "QC", "country": "CA", "postalCode": "J7E3H9", "twitter": "None", "instagram": "None", "facebook": "None", "youtube": "None", "website": "None", "summary": "None", "logo": "None", "latitude": 45.636665345519255, "longitude": -73.83802080062296}, "870064185RR0001": {"name": "FONDS COMMUNAUTAIRE D'EMPRUNT DE LA MAURICIE", "designationCode": "C", "categoryCode": "59", "address": "743 BOUL SAINT MAURICE", "city": "TROIS RIVIERES", "province": "QC", "country": "CA", "postalCode": "G9A3P5", "twitter": "None", "instagram": "None", "facebook": "None", "youtube": "None", "website": "None", "summary": "None", "logo": "None", "latitude": 46.35226655508117, "longitude": -72.54575476268117}, "118925627RR0001": {"name": "FONDS COMMUNAUTAIRES DES CHENAUX", "designationCode": "C", "categoryCode": "09", "address": "44 RIVIERE A VEILLETTE", "city": "STE-GENEVIEVE-DE-BATISCAN", "province": "QC", "country": "CA", "postalCode": "G0X2R0", "twitter": "None", "instagram": "None", "facebook": "None", "youtube": "None", "website": "None", "summary": "None", "logo": "None", "latitude": 46.539452032200316, "longitude": -72.34180426236405}, "837097526RR0001": {"name": "FONDS CURATTEAU", "designationCode": "C", "categoryCode": "49", "address": "116, RUE NOTRE-DAME OUEST", "city": "MONTREAL", "province": "QC", "country": "CA", "postalCode": "H2Y1T2", "twitter": "None", "instagram": "None", "facebook": "None", "youtube": "None", "website": "None", "summary": "None", "logo": "None", "latitude": 45.50420998831457, "longitude": -73.55711405182119}, "873538243RR0001": {"name": "FONDS D'ACTION SAINT-LAURENT", "designationCode": "A", "categoryCode": "53", "address": "870 AVENUE DE SALABERRY       BUREAU 105", "city": "QUEBEC", "province": "QC", "country": "CA", "postalCode": "G1R2T9", "twitter": "None", "instagram": "None", "facebook": "None", "youtube": "None", "website": "None", "summary": "None", "logo": "None", "latitude": 46.80589182679337, "longitude": -71.22672208246271}, "858581440RR0001": {"name": "FONDS D'AIDE A L'EDUCATION EDUCAIDE / EDUCAID EDUCATION AID FUND", "designationCode": "C", "categoryCode": "21", "address": "1035 AV WILFRID-PELLETIER     BUREAU 500", "city": "QUEBEC", "province": "QC", "country": "CA", "postalCode": "G1W0C5", "twitter": "None", "instagram": "None", "facebook": "None", "youtube": "None", "website": "None", "summary": "None", "logo": "None", "latitude": 46.76874013713985, "longitude": -71.30358486588993}, "139394472RR0001": {"name": "FONDS D'AIDE AUX ENFANTS DU CAMP MARISTE", "designationCode": "C", "categoryCode": "01", "address": "8082 CH DU LAC-MORGAN", "city": "RAWDON", "province": "QC", "country": "CA", "postalCode": "J0K1S0", "twitter": "None", "instagram": "None", "facebook": "None", "youtube": "None", "website": "None", "summary": "None", "logo": "None", "latitude": 46.138912323619365, "longitude": -73.73549954483804}, "118925643RR0001": {"name": "FONDS D'AIDE AUX MISSIONS", "designationCode": "C", "categoryCode": "09", "address": "3245 RUE DE CADILLAC", "city": "MONTREAL", "province": "QC", "country": "CA", "postalCode": "H1N2V9", "twitter": "None", "instagram": "None", "facebook": "None", "youtube": "None", "website": "None", "summary": "None", "logo": "None", "latitude": 45.57638078602335, "longitude": -73.54506244364943}, "863400743RR0001": {"name": "FONDS D'AIDE AUX VICTIMES D'ERREURS MEDICALES (FAVEM) INC.", "designationCode": "C", "categoryCode": "11", "address": "4255 SAINT ZOTIQUE EST        APP #2", "city": "MONTREAL", "province": "QC", "country": "CA", "postalCode": "H1T1L2", "twitter": "None", "instagram": "None", "facebook": "None", "youtube": "None", "website": "None", "summary": "None", "logo": "None", "latitude": 45.56497200196191, "longitude": -73.5824254020427}, "884032723RR0001": {"name": "FONDS D'AIDE DES POLICIERS ET POLICIERES DE MIRABEL", "designationCode": "C", "categoryCode": "09", "address": "14 113 ST-JEAN", "city": "MARIBEL", "province": "QC", "country": "CA", "postalCode": "J7J1Y4", "twitter": "None", "instagram": "None", "facebook": "None", "youtube": "None", "website": "None", "summary": "None", "logo": "None", "latitude": 45.66337800000005, "longitude": -74.00321449999993}, "892981267RR0001": {"name": "FONDS D'AIDE DESJARDINS EN MILIEU SCOLAIRE DU SECTEUR LAC ST-JEAN EST INC", "designationCode": "C", "categoryCode": "09", "address": "1285 AV BEAUVOIR", "city": "ALMA", "province": "QC", "country": "CA", "postalCode": "G8B6G3", "twitter": "None", "instagram": "None", "facebook": "None", "youtube": "None", "website": "None", "summary": "None", "logo": "None", "latitude": 48.53095067998732, "longitude": -71.64555619135561}, "101837748RR0001": {"name": "FONDS D'AIDE SACERDOTALE INC.", "designationCode": "B", "categoryCode": "43", "address": "3719 EST BOUL. GOUIN", "city": "MONTREAL", "province": "QC", "country": "CA", "postalCode": "H1H5L8", "twitter": "None", "instagram": "None", "facebook": "None", "youtube": "None", "website": "None", "summary": "None", "logo": "None", "latitude": 45.593507702752575, "longitude": -73.64833820959058}, "104635966RR0001": {"name": "FONDS D'AIDE SOCIALE DU ROTARY CLUB DE WESTMOUNT / THE ROTARY CLUB OF WESTMOUNT WELFARE FUND", "designationCode": "C", "categoryCode": "09", "address": "4646 SHERBROOKE STREET WEST", "city": "MONTR\u00c9AL", "province": "QC", "country": "CA", "postalCode": "H3Z2Z8", "twitter": "None", "instagram": "None", "facebook": "None", "youtube": "None", "website": "None", "summary": "None", "logo": "None", "latitude": 45.48116860612294, "longitude": -73.60091342596273}, "850114786RR0001": {"name": "FONDS D'AIDES \u00c0 LA R\u00c9USSITE DE LA JONQUI\u00c8RE", "designationCode": "C", "categoryCode": "21", "address": "3644 RUE ST-JULES             C.P.1600", "city": "JONQUI\u00c8RE", "province": "QC", "country": "CA", "postalCode": "G7X7X4", "twitter": "None", "instagram": "None", "facebook": "None", "youtube": "None", "website": "None", "summary": "None", "logo": "None", "latitude": 48.417700387760206, "longitude": -71.23532627961805}, "118925684RR0001": {"name": "FONDS D'ASSISTANCE DU CLUB LIONS INTERNATIONAL DE TROIS-RIVIERES INC.", "designationCode": "C", "categoryCode": "65", "address": "CASE POSTALE 342", "city": "TROIS-RIVIERES", "province": "QC", "country": "CA", "postalCode": "G9A5G4", "twitter": "None", "instagram": "None", "facebook": "None", "youtube": "None", "website": "None", "summary": "None", "logo": "None", "latitude": 46.34016900000006, "longitude": -72.54503449999993}, "872108964RR0001": {"name": "FONDS D'EMPRUNT \u00c9CONOMIQUE COMMUNAUTAIRE (QUEBEC)", "designationCode": "C", "categoryCode": "59", "address": "120-155 BOUL. CHAREST E.", "city": "QU\u00c9BEC", "province": "QC", "country": "CA", "postalCode": "G1K3G6", "twitter": "None", "instagram": "None", "facebook": "None", "youtube": "None", "website": "None", "summary": "None", "logo": "None", "latitude": 46.81378741621033, "longitude": -71.22362575136904}, "871637062RR0001": {"name": "FONDS D'EMPRUNT COMMUNAUTAIRE F\u00c9MININ", "designationCode": "C", "categoryCode": "09", "address": "508, RUE PRINCIPALE", "city": "LACHUTE", "province": "QC", "country": "CA", "postalCode": "J8H1Y3", "twitter": "None", "instagram": "None", "facebook": "None", "youtube": "None", "website": "None", "summary": "None", "logo": "None", "latitude": 45.65681976155599, "longitude": -74.33454489035728}, "889078366RR0001": {"name": "FONDS D'ENTRAIDE COMMUNAUTAIRE INC.", "designationCode": "C", "categoryCode": "59", "address": "240 RUE BOSSE", "city": "CHICOUTIMI", "province": "QC", "country": "CA", "postalCode": "G7J1L9", "twitter": "None", "instagram": "None", "facebook": "None", "youtube": "None", "website": "None", "summary": "None", "logo": "None", "latitude": 48.42445073933899, "longitude": -71.07656699639332}, "889944260RR0001": {"name": "FONDS D'ENTRAIDE DE GRANDE-ENTREE", "designationCode": "C", "categoryCode": "09", "address": "8, CHEMIN DE L'EGLISE", "city": "GRANDE-ENTREE", "province": "QC", "country": "CA", "postalCode": "G4T7C3", "twitter": "None", "instagram": "None", "facebook": "None", "youtube": "None", "website": "None", "summary": "None", "logo": "None", "latitude": 47.56212464141035, "longitude": -61.524650494027384}, "119015352RR0001": {"name": "FONDS D'ENTRAIDE DE L'ANCIEN S\u00c9MINAIRE DE JOLIETTE", "designationCode": "C", "categoryCode": "20", "address": "450 AVENUE QUERBES", "city": "OUTREMONT", "province": "QC", "country": "CA", "postalCode": "H2V3W5", "twitter": "None", "instagram": "None", "facebook": "None", "youtube": "None", "website": "None", "summary": "None", "logo": "None", "latitude": 45.52068359253296, "longitude": -73.60496308301097}, "892982760RR0001": {"name": "FONDS D'ENTRAIDE DE L'ARCHEVEQUE POUR LES PAROISSES DE L'ARCHIDIOCESE DE MONTREAL", "designationCode": "C", "categoryCode": "49", "address": "2000 RUE SHERBROOKE OUEST", "city": "MONTREAL", "province": "QC", "country": "CA", "postalCode": "H3H1G4", "twitter": "None", "instagram": "None", "facebook": "None", "youtube": "None", "website": "None", "summary": "None", "logo": "None", "latitude": 45.49368344489018, "longitude": -73.5842704953837}, "101837862RR0001": {"name": "FONDS D'ENTRAIDE LA POCATIERE INC.", "designationCode": "C", "categoryCode": "09", "address": "203 4 IEME AVENUE", "city": "LA POCATIERE", "province": "QC", "country": "CA", "postalCode": "G0R1Z0", "twitter": "None", "instagram": "None", "facebook": "None", "youtube": "None", "website": "None", "summary": "None", "logo": "None", "latitude": 47.36021100000005, "longitude": -70.05913099999994}, "889019998RR0001": {"name": "FONDS DAVE TREMBLAY", "designationCode": "C", "categoryCode": "01", "address": "33 DE LA VILLA", "city": "RIVIERE BLEUE", "province": "QC", "country": "CA", "postalCode": "G0L2B0", "twitter": "None", "instagram": "None", "facebook": "None", "youtube": "None", "website": "None", "summary": "None", "logo": "None", "latitude": 47.43183995141105, "longitude": -69.03985595960536}, "118828375RR0001": {"name": "FONDS DE BIENFAISANCE DES EMPLOYES DE MONTREAL, BOMBARDIER AERONAUTIQUE", "designationCode": "B", "categoryCode": "75", "address": "C.P.6087, SUCC A", "city": "MONTREAL", "province": "QC", "country": "CA", "postalCode": "H3C3G9", "twitter": "None", "instagram": "None", "facebook": "None", "youtube": "None", "website": "None", "summary": "None", "logo": "None", "latitude": 45.49833600000005, "longitude": -73.55148649999994}, "894247923RR0001": {"name": "FONDS DE BIENFAISANCE DES POMPIERS DE MONTREAL", "designationCode": "C", "categoryCode": "03", "address": "2600 BLVD SAINT-JOSEPH EST    BUREAU 200", "city": "MONTREAL", "province": "QC", "country": "CA", "postalCode": "H1Y2A4", "twitter": "None", "instagram": "None", "facebook": "None", "youtube": "None", "website": "None", "summary": "None", "logo": "None", "latitude": 45.543765333314234, "longitude": -73.57167213177374}, "889008835RR0001": {"name": "FONDS DE BIENFAISANCE DU CLUB LION DE RIMOUSKI", "designationCode": "A", "categoryCode": "65", "address": "C.P. 335", "city": "RIMOUSKI", "province": "QC", "country": "CA", "postalCode": "G5L7C3", "twitter": "None", "instagram": "None", "facebook": "None", "youtube": "None", "website": "None", "summary": "None", "logo": "None", "latitude": 48.44933700000006, "longitude": -68.52474349999993}, "887259398RR0001": {"name": "FONDS DE BIENFAISANCE DU PERSONNEL PRATT & WHITNEY CANADA PRATT & WHITNEY CANADA EMPLOYEE BENEVOLENT FUND", "designationCode": "C", "categoryCode": "05", "address": "1000 MARIE VICTORIN", "city": "LONGUEUIL", "province": "QC", "country": "CA", "postalCode": "J4G1A1", "twitter": "None", "instagram": "None", "facebook": "None", "youtube": "None", "website": "None", "summary": "None", "logo": "None", "latitude": 45.55649332722144, "longitude": -73.49633528364878}, "118925726RR0001": {"name": "FONDS DE BIENFAISANCE-SOEURS DE SAINTE-CROIX", "designationCode": "C", "categoryCode": "09", "address": "905 RUE BASILE-MOREAU", "city": "ST-LAURENT", "province": "QC", "country": "CA", "postalCode": "H4L4A1", "twitter": "None", "instagram": "None", "facebook": "None", "youtube": "None", "website": "None", "summary": "None", "logo": "None", "latitude": 45.51541700750182, "longitude": -73.67714713639002}, "866252745RR0001": {"name": "FONDS DE BIENVEILLANCE ET SECOURS DE MONTR\u00c9AL/MONTR\u00c9AL BENEVOLENT AND RELIEF FUND", "designationCode": "C", "categoryCode": "09", "address": "20600 AV CLARK-GRAHAM", "city": "BAIE-D'URFE", "province": "QC", "country": "CA", "postalCode": "H9X4B6", "twitter": "None", "instagram": "None", "facebook": "None", "youtube": "None", "website": "None", "summary": "None", "logo": "None", "latitude": 45.41821026582652, "longitude": -73.92588929190998}, "898896048RR0001": {"name": "FONDS DE BOURSE BOREAL HEARST INC.", "designationCode": "C", "categoryCode": "21", "address": "P.O. BOX 818, 64 9TH STREET", "city": "VILLE DE HEARST", "province": "ON", "country": "CA", "postalCode": "P0L1N0", "twitter": "None", "instagram": "None", "facebook": "None", "youtube": "None", "website": "None", "summary": "None", "logo": "None", "latitude": 49.68427352262103, "longitude": -83.6660732929769}, "889475240RR0001": {"name": "FONDS DE BOURSE DES ANCIENS(NES)-CDJ INC", "designationCode": "C", "categoryCode": "21", "address": "25, AVENUE DES ORMES", "city": "EDMUNDSTON", "province": "NB", "country": "CA", "postalCode": "E3V4J8", "twitter": "None", "instagram": "None", "facebook": "None", "youtube": "None", "website": "None", "summary": "None", "logo": "None", "latitude": 47.408191995816416, "longitude": -68.33421468065114}, "889233664RR0001": {"name": "FONDS DE BOURSES D'ETUDES KRISTY PARADIS DE L'ECOLE GRANDE RIVIERE INC", "designationCode": "C", "categoryCode": "21", "address": "40 RUE DE L'ECOLE", "city": "ST LEONARD", "province": "NB", "country": "CA", "postalCode": "E7E1Y6", "twitter": "None", "instagram": "None", "facebook": "None", "youtube": "None", "website": "None", "summary": "None", "logo": "None", "latitude": 47.163316534084515, "longitude": -67.92587447908494}, "887080653RR0001": {"name": "FONDS DE CHARIT\u00c9 DES EMPLOY\u00c9S DE BOMBARDIER GRANBY", "designationCode": "A", "categoryCode": "03", "address": "1001, J.A. BOMBARDIER", "city": "GRANBY", "province": "QC", "country": "CA", "postalCode": "J2J1E9", "twitter": "None", "instagram": "None", "facebook": "None", "youtube": "None", "website": "None", "summary": "None", "logo": "None", "latitude": 45.38716400777971, "longitude": -72.77554850006042}, "118925767RR0001": {"name": "FONDS DE CHARITE CLUB RICHELIEU BUCKINGHAM INC.", "designationCode": "C", "categoryCode": "65", "address": "C.P.2812", "city": "GATINEAU", "province": "QC", "country": "CA", "postalCode": "J8L2X1", "twitter": "None", "instagram": "None", "facebook": "None", "youtube": "None", "website": "None", "summary": "None", "logo": "None"}, "893191775RR0001": {"name": "FONDS DE CHARITE DE LA COMMISSION SCOLAIRE DE MONTREAL", "designationCode": "A", "categoryCode": "75", "address": "3737 RUE SHERBROOKE EST", "city": "MONTREAL", "province": "QC", "country": "CA", "postalCode": "H1X3B3", "twitter": "None", "instagram": "None", "facebook": "None", "youtube": "None", "website": "None", "summary": "None", "logo": "None", "latitude": 45.550213092705846, "longitude": -73.55503882941815}, "890229446RR0001": {"name": "FONDS DE CHARITE DE LA TABLE RONDE DES ORGANISMES VOLONTAIRES D'EDUCATION POPULAIRE DE L'ESTRIE", "designationCode": "C", "categoryCode": "21", "address": "187 RUE LAURIER, LOCAL 313", "city": "SHERBROOKE", "province": "QC", "country": "CA", "postalCode": "J1H4Z4", "twitter": "None", "instagram": "None", "facebook": "None", "youtube": "None", "website": "None", "summary": "None", "logo": "None", "latitude": 45.39807958728149, "longitude": -71.8894612958911}, "118831130RR0001": {"name": "FONDS DE CHARITE DE LA 3E ESCADRE BAGOTVILLE", "designationCode": "C", "categoryCode": "05", "address": "C.P. 5000, SUCC. BUREAU-CHEF", "city": "ALOUETTE", "province": "QC", "country": "CA", "postalCode": "G0V1A0", "twitter": "None", "instagram": "None", "facebook": "None", "youtube": "None", "website": "None", "summary": "None", "logo": "None", "latitude": 48.33830400000005, "longitude": -70.98872299999994}, "118925858RR0001": {"name": "FONDS DE CHARITE DES EMPLOYES DE L'USINE DE GOODYEAR VALLEYFIELD", "designationCode": "B", "categoryCode": "05", "address": "2600 BLVD LANGLOIS", "city": "VALLEYFIELD", "province": "QC", "country": "CA", "postalCode": "J6S5G6", "twitter": "None", "instagram": "None", "facebook": "None", "youtube": "None", "website": "None", "summary": "None", "logo": "None", "latitude": 45.27197081265206, "longitude": -74.10371940653339}, "118900646RR0001": {"name": "FONDS DE CHARITE DES EMPLOYES DU GROUPE SNC-LAVALIN INC.", "designationCode": "B", "categoryCode": "75", "address": "455 BOUL RENE-LEVESQUE OUEST", "city": "MONTREAL", "province": "QC", "country": "CA", "postalCode": "H2Z1Z3", "twitter": "None", "instagram": "None", "facebook": "None", "youtube": "None", "website": "None", "summary": "None", "logo": "None", "latitude": 45.504532791015016, "longitude": -73.56538614920063}, "118925916RR0001": {"name": "FONDS DE CHARITE DU CLUB KIWANIS DE QUEBEC", "designationCode": "A", "categoryCode": "65", "address": "3075, CH DES QUATRE-BOURGEOIS BUREAU 200", "city": "QUEBEC", "province": "QC", "country": "CA", "postalCode": "G1W5C4", "twitter": "None", "instagram": "None", "facebook": "None", "youtube": "None", "website": "None", "summary": "None", "logo": "None", "latitude": 46.77017295527754, "longitude": -71.30573554088558}, "136582590RR0001": {"name": "FONDS DE CHARITE DU CLUB KIWANIS DE THETFORD MINES INC", "designationCode": "C", "categoryCode": "65", "address": "CP 54 SUCC. BUREAU-CHEF", "city": "THETFORD-MINES", "province": "QC", "country": "CA", "postalCode": "G6G5R9", "twitter": "None", "instagram": "None", "facebook": "None", "youtube": "None", "website": "None", "summary": "None", "logo": "None", "latitude": 46.09057200000005, "longitude": -71.29926349999994}, "890159288RR0001": {"name": "FONDS DE CHARITE DU MOUVEMENT D'EDUCATION POPULAIRE ET D'ACTION COMMUNAUTAIRE DU QUEBEC", "designationCode": "C", "categoryCode": "21", "address": "1600, AVENUE DE LORIMIER #396", "city": "MONTREAL", "province": "QC", "country": "CA", "postalCode": "H2K3W5", "twitter": "None", "instagram": "None", "facebook": "None", "youtube": "None", "website": "None", "summary": "None", "logo": "None", "latitude": 45.52597796055766, "longitude": -73.55291510286204}, "118925759RR0001": {"name": "FONDS DE CHARITE, CLUB KINSMEN DE SHERBROOKE INC.", "designationCode": "C", "categoryCode": "65", "address": "C.P 1053 SUCC PL DE LA CITE", "city": "SHERBROOKE", "province": "QC", "country": "CA", "postalCode": "J1H5L3", "twitter": "None", "instagram": "None", "facebook": "None", "youtube": "None", "website": "None", "summary": "None", "logo": "None", "latitude": 45.39993924181269, "longitude": -71.89518081045317}, "107931396RR0001": {"name": "FONDS DE COQUELICOT DE LA LEGION ROYALE CANADIENNE, BRANCHE 52", "designationCode": "C", "categoryCode": "09", "address": "141 RUE PRINCIPALE", "city": "SAINTE-ANNE-DE-MADAWASKA", "province": "NB", "country": "CA", "postalCode": "E7E1B1", "twitter": "None", "instagram": "None", "facebook": "None", "youtube": "None", "website": "None", "summary": "None", "logo": "None", "latitude": 47.25043555942384, "longitude": -68.03252721693202}, "839541349RR0001": {"name": "FONDS DE COQUELICOT, LEGION ROYALE CANADIENNE \"QUEBEC NORTH SHORE\" NO. 003", "designationCode": "C", "categoryCode": "09", "address": "CASE POSTALE 6118", "city": "BAIE-COMEAU", "province": "QC", "country": "CA", "postalCode": "G5C0B7", "twitter": "None", "instagram": "None", "facebook": "None", "youtube": "None", "website": "None", "summary": "None", "logo": "None", "latitude": 49.22134800000006, "longitude": -68.15048299999994}, "118925940RR0001": {"name": "FONDS DE DEPANNAGE ETUDIANT DU P.W.D.", "designationCode": "C", "categoryCode": "09", "address": "850 AVE. BEGIN S.", "city": "ALMA", "province": "QC", "country": "CA", "postalCode": "G8B2X6", "twitter": "None", "instagram": "None", "facebook": "None", "youtube": "None", "website": "None", "summary": "None", "logo": "None", "latitude": 48.53954478058311, "longitude": -71.65186839087269}, "854348042RR0001": {"name": "FONDS DE DEPANNAGE RIVE-SUD", "designationCode": "C", "categoryCode": "09", "address": "CASIER POSTAL 46067           GALERIES CHAGNON", "city": "LEVIS", "province": "QC", "country": "CA", "postalCode": "G6V8S3", "twitter": "None", "instagram": "None", "facebook": "None", "youtube": "None", "website": "None", "summary": "None", "logo": "None", "latitude": 46.80283200000005, "longitude": -71.17698049999993}, "119001444RR0001": {"name": "FONDS DE DEVELOPPEMENT VANGUARD/VANGUARD DEVELOPMENT FUND", "designationCode": "A", "categoryCode": "03", "address": "5935, CHEMIN DE COTE-DE-LIESSE", "city": "SAINT-LAURENT", "province": "QC", "country": "CA", "postalCode": "H4T1C3", "twitter": "None", "instagram": "None", "facebook": "None", "youtube": "None", "website": "None", "summary": "None", "logo": "None", "latitude": 45.490810667291356, "longitude": -73.68321281617486}, "101837847RR0001": {"name": "FONDS DE DOTATION DE L'H\u00d4PITAL D'ARGENTEUIL INC.", "designationCode": "A", "categoryCode": "13", "address": "145, AVENUE DE LA PROVIDENCE", "city": "LACHUTE", "province": "QC", "country": "CA", "postalCode": "J8H4C7", "twitter": "None", "instagram": "None", "facebook": "None", "youtube": "None", "website": "None", "summary": "None", "logo": "None", "latitude": 45.662432771545035, "longitude": -74.3510467127379}, "865319891RR0001": {"name": "FONDS DE DOTATION DE L'UNION MONDIALE DES ORGANISATIONS FEMININES CATHOLIQUES (UMOFC)/WORLD UNION OF CATHOLIC WOMEN'S ORGANIZATION (WUCWO) ENDOWMENT FUND", "designationCode": "C", "categoryCode": "09", "address": "UNIT C - 702 SCOTLAND AVE", "city": "WINNIPEG", "province": "MB", "country": "CA", "postalCode": "R3M1X5", "twitter": "None", "instagram": "None", "facebook": "None", "youtube": "None", "website": "None", "summary": "None", "logo": "None", "latitude": 49.86545307908717, "longitude": -97.148754037596}, "118925981RR0001": {"name": "FONDS DE DOTATION DU CENTRE HOSPITALIER JONQUIERE INC.", "designationCode": "A", "categoryCode": "13", "address": "2230 RUE DE L'HOPITAL", "city": "JONQUIERE", "province": "QC", "country": "CA", "postalCode": "G7X7X2", "twitter": "None", "instagram": "None", "facebook": "None", "youtube": "None", "website": "None", "summary": "None", "logo": "None", "latitude": 48.41357439800333, "longitude": -71.23504751915858}}