{"854673373RR0001": {"name": "JAMA CANADA", "designationCode": "C", "categoryCode": "39", "address": "UNIT 305                      1210 SHEPPARD AVENUE EAST", "city": "TORONTO", "province": "ON", "country": "CA", "postalCode": "M2K1E3", "twitter": "None", "instagram": "None", "facebook": "None", "youtube": "None", "website": "None", "summary": "None", "logo": "None", "latitude": 43.771516917225334, "longitude": -79.36759564765778}, "891528143RR0001": {"name": "JAMAATUL AL-MUMI-NOON ISLAM OF ONTARIO", "designationCode": "C", "categoryCode": "49", "address": "246 BROCKPORT DR              UNIT 28", "city": "ETOBICOKE", "province": "ON", "country": "CA", "postalCode": "M9W6W2", "twitter": "None", "instagram": "None", "facebook": "None", "youtube": "None", "website": "None", "summary": "None", "logo": "None", "latitude": 43.70419600188838, "longitude": -79.59005915211482}, "869102772RR0001": {"name": "JAMAICA VISIONARIES ASSOCIATION", "designationCode": "C", "categoryCode": "03", "address": "33 JAY STREET", "city": "BRAMPTON", "province": "ON", "country": "CA", "postalCode": "L6Z3V5", "twitter": "None", "instagram": "None", "facebook": "None", "youtube": "None", "website": "None", "summary": "None", "logo": "None", "latitude": 43.71981520901367, "longitude": -79.78679625895892}, "897337150RR0001": {"name": "JAMAICAN SELF-HELP ORGANIZATION FOR THE RELIEF OF POVERTY", "designationCode": "C", "categoryCode": "09", "address": "494 ST LUKE'S RD", "city": "LINDSAY", "province": "ON", "country": "CA", "postalCode": "K9V4R5", "twitter": "None", "instagram": "None", "facebook": "None", "youtube": "None", "website": "None", "summary": "None", "logo": "None", "latitude": 44.37646091173943, "longitude": -78.57566353525968}, "137152815RR0001": {"name": "JAMAT-E-ISLAHUL MUSLEMIN OF MISSISSAUGA", "designationCode": "C", "categoryCode": "60", "address": "983 MISSISSAUGA HEIGHTS DR", "city": "MISSISSAUGA", "province": "ON", "country": "CA", "postalCode": "L5C4S4", "twitter": "None", "instagram": "None", "facebook": "None", "youtube": "None", "website": "None", "summary": "None", "logo": "None", "latitude": 43.552325921749556, "longitude": -79.63077264504568}, "888227261RR0001": {"name": "JAMBOR FOUNDATION", "designationCode": "B", "categoryCode": "13", "address": "700-4980 KINGSWAY", "city": "BURNABY", "province": "BC", "country": "CA", "postalCode": "V5H4K7", "twitter": "None", "instagram": "None", "facebook": "None", "youtube": "None", "website": "None", "summary": "None", "logo": "None", "latitude": 49.22612463227306, "longitude": -122.99267874251223}, "874183106RR0001": {"name": "JAMES AND HILDA WARWICK SCHOLARSHIP(S)", "designationCode": "B", "categoryCode": "25", "address": "155 WELLINGTON ST W           20TH FLOOR", "city": "TORONTO", "province": "ON", "country": "CA", "postalCode": "M5V3K7", "twitter": "None", "instagram": "None", "facebook": "None", "youtube": "None", "website": "None", "summary": "None", "logo": "None", "latitude": 43.64596585316531, "longitude": -79.38574575644876}, "885537746RR0001": {"name": "JAMES ARDIEL PARENT ADVISORY COUNCIL SOCIETY", "designationCode": "C", "categoryCode": "21", "address": "13751 - 112 AVENUE", "city": "SURREY", "province": "BC", "country": "CA", "postalCode": "V3R2G4", "twitter": "None", "instagram": "None", "facebook": "None", "youtube": "None", "website": "None", "summary": "None", "logo": "None", "latitude": 49.2061464865829, "longitude": -122.84113105536962}, "886474592RR0001": {"name": "JAMES B WALLACE FOUNDATION", "designationCode": "B", "categoryCode": "53", "address": "15445 36 AVE", "city": "SURREY", "province": "BC", "country": "CA", "postalCode": "V3Z0G9", "twitter": "None", "instagram": "None", "facebook": "None", "youtube": "None", "website": "None", "summary": "None", "logo": "None", "latitude": 49.0673644565756, "longitude": -122.79450086081135}, "890048192RR0001": {"name": "JAMES BARRIERE FOUNDATION FOR THE UNDERPRIVILEGED / LA FONDATION JAMES BARRIERE POUR LES NECESSITEUX", "designationCode": "B", "categoryCode": "03", "address": "SUITE 123                     300 RUE ST-SACREMENT", "city": "MONTREAL", "province": "QC", "country": "CA", "postalCode": "H2Y3X4", "twitter": "None", "instagram": "None", "facebook": "None", "youtube": "None", "website": "None", "summary": "None", "logo": "None", "latitude": 45.502092902014056, "longitude": -73.55716874935096}, "119045888RR0001": {"name": "JAMES BAY ASSOCIATION FOR COMMUNITY LIVING", "designationCode": "C", "categoryCode": "11", "address": "18 FOURTH STREET              P O BOX 460", "city": "MOOSONEE", "province": "ON", "country": "CA", "postalCode": "P0L1Y0", "twitter": "None", "instagram": "None", "facebook": "None", "youtube": "None", "website": "None", "summary": "None", "logo": "None", "latitude": 51.27575762083979, "longitude": -80.63640381426724}, "118972694RR0001": {"name": "JAMES BAY CHILD CARE SOCIETY", "designationCode": "C", "categoryCode": "01", "address": "149 MONTREAL STREET", "city": "VICTORIA", "province": "BC", "country": "CA", "postalCode": "V8V1Y9", "twitter": "None", "instagram": "None", "facebook": "None", "youtube": "None", "website": "None", "summary": "None", "logo": "None", "latitude": 48.4182066433436, "longitude": -123.38221021368818}, "118972702RR0001": {"name": "JAMES BAY HEALTH AND COMMUNITY SERVICES SOCIETY", "designationCode": "C", "categoryCode": "59", "address": "547 MICHIGAN ST", "city": "VICTORIA", "province": "BC", "country": "CA", "postalCode": "V8V1S5", "twitter": "None", "instagram": "None", "facebook": "None", "youtube": "None", "website": "None", "summary": "None", "logo": "None", "latitude": 48.416952532315904, "longitude": -123.37130799555659}, "118972728RR0001": {"name": "JAMES BAY NEW HORIZONS SOCIETY", "designationCode": "C", "categoryCode": "09", "address": "234 MENZIES", "city": "VICTORIA", "province": "BC", "country": "CA", "postalCode": "V8V2G7", "twitter": "None", "instagram": "None", "facebook": "None", "youtube": "None", "website": "None", "summary": "None", "logo": "None", "latitude": 48.41614791563272, "longitude": -123.37354394771745}, "107521569RR0001": {"name": "JAMES BAY UNITED CHURCH", "designationCode": "C", "categoryCode": "44", "address": "511 MICHIGAN ST.", "city": "VICTORIA", "province": "BC", "country": "CA", "postalCode": "V8V1S1", "twitter": "None", "instagram": "None", "facebook": "None", "youtube": "None", "website": "None", "summary": "None", "logo": "None", "latitude": 48.41690048124544, "longitude": -123.37253122009349}, "118972744RR0001": {"name": "JAMES CHILD CARE INC.", "designationCode": "C", "categoryCode": "01", "address": "1226 WALLER AVENUE", "city": "WINNIPEG", "province": "MB", "country": "CA", "postalCode": "R3T1P6", "twitter": "None", "instagram": "None", "facebook": "None", "youtube": "None", "website": "None", "summary": "None", "logo": "None", "latitude": 49.83706117011958, "longitude": -97.1598228487219}, "809468119RR0001": {"name": "JAMES D. CHAPLIN FAMILY FOUNDATION", "designationCode": "B", "categoryCode": "03", "address": "1004 CRUICKSTON PARK LANE", "city": "CAMBRIDGE", "province": "ON", "country": "CA", "postalCode": "N1R5S3", "twitter": "None", "instagram": "None", "facebook": "None", "youtube": "None", "website": "None", "summary": "None", "logo": "None", "latitude": 43.37989452853539, "longitude": -80.36379300132765}, "890812977RR0001": {"name": "JAMES GILMORE ELEMENTARY SCHOOL PARENT ADVISORY COUNCIL", "designationCode": "C", "categoryCode": "21", "address": "8380 ELSMORE RD", "city": "RICHMOND", "province": "BC", "country": "CA", "postalCode": "V7C2A1", "twitter": "None", "instagram": "None", "facebook": "None", "youtube": "None", "website": "None", "summary": "None", "logo": "None", "latitude": 49.15178061377298, "longitude": -123.18865977904514}, "107522773RR0001": {"name": "JAMES HORNELL BOYS AND GIRLS CLUB", "designationCode": "C", "categoryCode": "59", "address": "BOX 188", "city": "BUCHANS", "province": "NL", "country": "CA", "postalCode": "A0H1G0", "twitter": "None", "instagram": "None", "facebook": "None", "youtube": "None", "website": "None", "summary": "None", "logo": "None", "latitude": 48.85679101387903, "longitude": -56.2484015768264}, "102572245RR0001": {"name": "JAMES IV ASSOCIATION OF SURGEONS", "designationCode": "C", "categoryCode": "11", "address": "UNIVERSITY HOSPITAL           339 WINDERMERE RD", "city": "LONDON", "province": "ON", "country": "CA", "postalCode": "N6A5A5", "twitter": "None", "instagram": "None", "facebook": "None", "youtube": "None", "website": "None", "summary": "None", "logo": "None", "latitude": 43.012500000000045, "longitude": -81.27436999999998}, "118972751RR0001": {"name": "JAMES L. ARNOTT FIRE PREVENTION FOUNDATION", "designationCode": "C", "categoryCode": "59", "address": "440 LAURIER AVENUE            SUITE 200", "city": "OTTAWA", "province": "ON", "country": "CA", "postalCode": "K1R7X6", "twitter": "None", "instagram": "None", "facebook": "None", "youtube": "None", "website": "None", "summary": "None", "logo": "None", "latitude": 45.416885596428095, "longitude": -75.70299045363275}, "887937043RR0001": {"name": "JAMES N. ALLAN FAMILY FOUNDATION", "designationCode": "B", "categoryCode": "03", "address": "SCOTT ALLAN                   10 ASHORD CT.", "city": "AURORA", "province": "ON", "country": "CA", "postalCode": "L4G5M2", "twitter": "None", "instagram": "None", "facebook": "None", "youtube": "None", "website": "None", "summary": "None", "logo": "None", "latitude": 43.99029148600596, "longitude": -79.49126042671256}, "118972777RR0001": {"name": "JAMES PENDERGAST MEMORIAL SCHOLARSHIP TRUST FUND", "designationCode": "C", "categoryCode": "21", "address": "9 MACNEILL LANE, P.O. BOX 741", "city": "ALBERTON", "province": "PE", "country": "CA", "postalCode": "C0B1B0", "twitter": "None", "instagram": "None", "facebook": "None", "youtube": "None", "website": "None", "summary": "None", "logo": "None", "latitude": 46.81103425345885, "longitude": -64.06225830992878}, "873826978RR0001": {"name": "JAMES RAYMOND COWLING FOUNDATION", "designationCode": "B", "categoryCode": "05", "address": "42 CRESCENT ROAD", "city": "TORONTO", "province": "ON", "country": "CA", "postalCode": "M4W1S9", "twitter": "None", "instagram": "None", "facebook": "None", "youtube": "None", "website": "None", "summary": "None", "logo": "None", "latitude": 43.677447169051696, "longitude": -79.38725578019496}, "863410346RR0001": {"name": "JAMES RAYMOND MCCALL MEMORIAL FUND", "designationCode": "B", "categoryCode": "25", "address": "PO BOX 10085                  LCD PACIFIC CENTRE", "city": "VANCOUVER", "province": "BC", "country": "CA", "postalCode": "V7Y1B6", "twitter": "None", "instagram": "None", "facebook": "None", "youtube": "None", "website": "None", "summary": "None", "logo": "None", "latitude": 49.28299000000004, "longitude": -123.11890999999997}, "135549418RR0001": {"name": "JAMES STREET GOSPEL TABERNACLE", "designationCode": "C", "categoryCode": "39", "address": "103 JAMES STREET", "city": "LONG BRANCH", "province": "ON", "country": "CA", "postalCode": "M8W1L7", "twitter": "None", "instagram": "None", "facebook": "None", "youtube": "None", "website": "None", "summary": "None", "logo": "None", "latitude": 43.58960298084141, "longitude": -79.54250552469851}, "899152318RR0001": {"name": "JAMES VALLEY CHARITABLE TRUST", "designationCode": "A", "categoryCode": "39", "address": "780 SASKATCHEWAN AVE W", "city": "PORTAGE LA PRAIRIE", "province": "MB", "country": "CA", "postalCode": "R1N0M7", "twitter": "None", "instagram": "None", "facebook": "None", "youtube": "None", "website": "None", "summary": "None", "logo": "None", "latitude": 49.97373494820344, "longitude": -98.30132080652011}, "886820398RR0001": {"name": "JAMES W COCHRANE ENDOWMENT", "designationCode": "B", "categoryCode": "15", "address": "130 KING STREET WEST 20TH FL  BOX 430, STN FIRST CANADIAN PL", "city": "TORONTO", "province": "ON", "country": "CA", "postalCode": "M5X1K1", "twitter": "None", "instagram": "None", "facebook": "None", "youtube": "None", "website": "None", "summary": "None", "logo": "None", "latitude": 43.64826932503962, "longitude": -79.38190945606182}, "118972801RR0001": {"name": "JAMES WALLACE MCCUTCHEON FOUNDATION", "designationCode": "B", "categoryCode": "13", "address": "STE.2150,120 ADELAIDE ST WEST", "city": "TORONTO", "province": "ON", "country": "CA", "postalCode": "M5H1T1", "twitter": "None", "instagram": "None", "facebook": "None", "youtube": "None", "website": "None", "summary": "None", "logo": "None", "latitude": 43.649477136880044, "longitude": -79.38292947726339}, "889166955RR0001": {"name": "JAMIA ISLAMIA CANADA LTD.", "designationCode": "C", "categoryCode": "60", "address": "2380 TEDLO ST", "city": "MISSISSAUGA", "province": "ON", "country": "CA", "postalCode": "L5A3V3", "twitter": "None", "instagram": "None", "facebook": "None", "youtube": "None", "website": "None", "summary": "None", "logo": "None", "latitude": 43.58759389892697, "longitude": -79.59736975985295}, "860562651RR0001": {"name": "JAMIA TALIMUL ISLAM", "designationCode": "C", "categoryCode": "60", "address": "1100 BIRCHMOUNT ROAD", "city": "TORONTO", "province": "ON", "country": "CA", "postalCode": "M1K5H9", "twitter": "None", "instagram": "None", "facebook": "None", "youtube": "None", "website": "None", "summary": "None", "logo": "None", "latitude": 43.73570254841605, "longitude": -79.28008418353575}, "820307973RR0001": {"name": "JAMIAH QASIMUL ULOOM", "designationCode": "C", "categoryCode": "20", "address": "1970 FAYLEE CRESCENT,", "city": "PICKERING", "province": "ON", "country": "CA", "postalCode": "L1V2V6", "twitter": "None", "instagram": "None", "facebook": "None", "youtube": "None", "website": "None", "summary": "None", "logo": "None", "latitude": 43.84283581628172, "longitude": -79.0909854147296}, "892881566RR0001": {"name": "JAMIAT-UL-ANSAR OF BRAMPTON", "designationCode": "C", "categoryCode": "39", "address": "291 GREAT LAKES DR", "city": "BRAMPTON", "province": "ON", "country": "CA", "postalCode": "L6R2Z4", "twitter": "None", "instagram": "None", "facebook": "None", "youtube": "None", "website": "None", "summary": "None", "logo": "None", "latitude": 43.73704820927346, "longitude": -79.76954594226444}, "891590176RR0001": {"name": "JAMIATUL MUSLEMEEN OF OTTAWA-CARLETON", "designationCode": "C", "categoryCode": "49", "address": "572 MOODIE DR", "city": "NEPEAN", "province": "ON", "country": "CA", "postalCode": "K2H6P6", "twitter": "None", "instagram": "None", "facebook": "None", "youtube": "None", "website": "None", "summary": "None", "logo": "None", "latitude": 45.31191014207418, "longitude": -75.82735315649997}, "118972835RR0001": {"name": "JAMIE'S PRE-SCHOOL SOCIETY", "designationCode": "C", "categoryCode": "20", "address": "3303 CAPITOL HILL CRES NW", "city": "CALGARY", "province": "AB", "country": "CA", "postalCode": "T2M2R2", "twitter": "None", "instagram": "None", "facebook": "None", "youtube": "None", "website": "None", "summary": "None", "logo": "None", "latitude": 51.08158548542906, "longitude": -114.12264141618097}, "118972843RR0001": {"name": "JAMIYYATU FALAHI AL-MUSLIMIN", "designationCode": "C", "categoryCode": "60", "address": "861 DES ROSELINS", "city": "LONGUEUIL", "province": "QC", "country": "CA", "postalCode": "J4G2P5", "twitter": "None", "instagram": "None", "facebook": "None", "youtube": "None", "website": "None", "summary": "None", "logo": "None", "latitude": 45.556992608921554, "longitude": -73.48129617499566}, "885931311RR0001": {"name": "JANAK KHENDRY DANCE COMPANY", "designationCode": "C", "categoryCode": "22", "address": "436 DUFFERIN ST", "city": "TORONTO", "province": "ON", "country": "CA", "postalCode": "M6K2A3", "twitter": "None", "instagram": "None", "facebook": "None", "youtube": "None", "website": "None", "summary": "None", "logo": "None", "latitude": 43.64405090590919, "longitude": -79.42934491883535}, "898859970RR0001": {"name": "JANE ROWAN SOCIETY", "designationCode": "C", "categoryCode": "20", "address": "4195 ALEXANDRA STREET", "city": "VANCOUVER", "province": "BC", "country": "CA", "postalCode": "V6J4C6", "twitter": "None", "instagram": "None", "facebook": "None", "youtube": "None", "website": "None", "summary": "None", "logo": "None", "latitude": 49.24840523036527, "longitude": -123.14155348063892}, "814878344RR0001": {"name": "JANE SILVERSTONE FOUNDATION / FONDATION JANE SILVERSTONE", "designationCode": "B", "categoryCode": "03", "address": "105 BOUL MARCEL-LAURIN", "city": "SAINT-LAURENT", "province": "QC", "country": "CA", "postalCode": "H4N2M3", "twitter": "None", "instagram": "None", "facebook": "None", "youtube": "None", "website": "None", "summary": "None", "logo": "None", "latitude": 45.50341548990111, "longitude": -73.67111852830519}, "892421967RR0001": {"name": "JANE STREET CHURCH OF GOD", "designationCode": "C", "categoryCode": "39", "address": "238 ROSEMOUNT AVE", "city": "SCARBOROUGH", "province": "ON", "country": "CA", "postalCode": "M6H2N3", "twitter": "None", "instagram": "None", "facebook": "None", "youtube": "None", "website": "None", "summary": "None", "logo": "None", "latitude": 43.67536512129948, "longitude": -79.44689596225976}, "874889223RR0001": {"name": "JANE-FINCH COMMUNITY MINISTRY", "designationCode": "C", "categoryCode": "44", "address": "107-36 MARSH GRASS WAY", "city": "NORTH YORK", "province": "ON", "country": "CA", "postalCode": "M3N2X4", "twitter": "None", "instagram": "None", "facebook": "None", "youtube": "None", "website": "None", "summary": "None", "logo": "None", "latitude": 43.75146659700501, "longitude": -79.51839796751122}, "847549920RR0001": {"name": "JANE-FINCH'S CARING VILLAGE", "designationCode": "C", "categoryCode": "21", "address": "106-2065 FINCH AVENUE WEST", "city": "TORONTO", "province": "ON", "country": "CA", "postalCode": "M3N2V7", "twitter": "None", "instagram": "None", "facebook": "None", "youtube": "None", "website": "None", "summary": "None", "logo": "None", "latitude": 43.756105885336986, "longitude": -79.52339764028517}, "118972868RR0001": {"name": "JANE/FINCH COMMUNITY AND FAMILY CENTRE", "designationCode": "C", "categoryCode": "56", "address": "108-4400 JANE STREET", "city": "TORONTO", "province": "ON", "country": "CA", "postalCode": "M3N2K4", "twitter": "None", "instagram": "None", "facebook": "None", "youtube": "None", "website": "None", "summary": "None", "logo": "None", "latitude": 43.76527085844542, "longitude": -79.51956940804396}, "861677615RR0001": {"name": "JANE'S FUND", "designationCode": "C", "categoryCode": "25", "address": "32 BROWNING AVE.", "city": "TORONTO", "province": "ON", "country": "CA", "postalCode": "M4K1V7", "twitter": "None", "instagram": "None", "facebook": "None", "youtube": "None", "website": "None", "summary": "None", "logo": "None", "latitude": 43.68144416515658, "longitude": -79.35549876187311}, "118972876RR0001": {"name": "JANET AND MARGRETA SNELL SCHOLARSHIP FUND", "designationCode": "B", "categoryCode": "25", "address": "1402 - 1 KING ST W", "city": "HAMILTON", "province": "ON", "country": "CA", "postalCode": "L8P1A4", "twitter": "None", "instagram": "None", "facebook": "None", "youtube": "None", "website": "None", "summary": "None", "logo": "None", "latitude": 43.26019321073324, "longitude": -79.88135629363086}, "118972900RR0001": {"name": "JANET THOMSON GROUP OF KERRISDALE PRESBYTERIAN CHURCH", "designationCode": "C", "categoryCode": "47", "address": "2733 WEST 41ST AVENUE", "city": "VANCOUVER", "province": "BC", "country": "CA", "postalCode": "V6N3C5", "twitter": "None", "instagram": "None", "facebook": "None", "youtube": "None", "website": "None", "summary": "None", "logo": "None", "latitude": 49.23477251990839, "longitude": -123.16667094601536}, "131834830RR0001": {"name": "JANETVILLE PASTORAL CHARGE,", "designationCode": "C", "categoryCode": "44", "address": "712 JANETVILLE RD", "city": "JANETVILLE", "province": "ON", "country": "CA", "postalCode": "L0B1K0", "twitter": "None", "instagram": "None", "facebook": "None", "youtube": "None", "website": "None", "summary": "None", "logo": "None", "latitude": 44.21651806477807, "longitude": -78.7262480321518}, "131767816RR0001": {"name": "JANEWAY CHILDREN'S HEALTH AND REHABILITATION CENTRE AUXILIARY", "designationCode": "C", "categoryCode": "19", "address": "15 WINNIPEG ST.", "city": "ST. JOHN'S", "province": "NL", "country": "CA", "postalCode": "A1A2R1", "twitter": "None", "instagram": "None", "facebook": "None", "youtube": "None", "website": "None", "summary": "None", "logo": "None", "latitude": 47.596503228403364, "longitude": -52.71536495807616}, "889737961RR0001": {"name": "JANTA SEWAK SOCIETY", "designationCode": "C", "categoryCode": "01", "address": "11623 90TH AVE", "city": "DELTA", "province": "BC", "country": "CA", "postalCode": "V4C3H5", "twitter": "None", "instagram": "None", "facebook": "None", "youtube": "None", "website": "None", "summary": "None", "logo": "None", "latitude": 49.16689047879262, "longitude": -122.9008407485429}, "889704144RR0001": {"name": "JANUS ACADEMY SOCIETY", "designationCode": "C", "categoryCode": "20", "address": "2223 SPILLER ROAD SE", "city": "CALGARY", "province": "AB", "country": "CA", "postalCode": "T2G4G9", "twitter": "None", "instagram": "None", "facebook": "None", "youtube": "None", "website": "None", "summary": "None", "logo": "None", "latitude": 51.03296009853422, "longitude": -114.04531992674121}, "118972959RR0001": {"name": "JAPANESE ALLIANCE CHURCH", "designationCode": "C", "categoryCode": "39", "address": "305-81 ROSLYN ROAD", "city": "WINNIPEG", "province": "MB", "country": "CA", "postalCode": "R3L0G3", "twitter": "None", "instagram": "None", "facebook": "None", "youtube": "None", "website": "None", "summary": "None", "logo": "None", "latitude": 49.87994023126265, "longitude": -97.14801569058075}, "118972967RR0001": {"name": "JAPANESE CANADIAN CULTURAL CENTRE OF TORONTO", "designationCode": "C", "categoryCode": "22", "address": "6 GARAMOND COURT", "city": "TORONTO", "province": "ON", "country": "CA", "postalCode": "M3C1Z5", "twitter": "None", "instagram": "None", "facebook": "None", "youtube": "None", "website": "None", "summary": "None", "logo": "None", "latitude": 43.725981709129236, "longitude": -79.33380878700429}, "107526246RR0001": {"name": "JAPANESE COMMUNITY VOLUNTEERS ASSOCIATION", "designationCode": "C", "categoryCode": "59", "address": "101-42 WEST 8TH AVE", "city": "VANCOUVER", "province": "BC", "country": "CA", "postalCode": "V5Y1M7", "twitter": "None", "instagram": "None", "facebook": "None", "youtube": "None", "website": "None", "summary": "None", "logo": "None", "latitude": 49.26375548124545, "longitude": -123.10594030252754}, "119288918RR1381": {"name": "JAPANESE CONGREGATION OF JEHOVAH'S WITNESSES, VANCOUVER, BRITISH COLUMBIA", "designationCode": "C", "categoryCode": "61", "address": "3024 - 52ND AVENUE EAST", "city": "VANCOUVER", "province": "BC", "country": "CA", "postalCode": "V5S1T6", "twitter": "None", "instagram": "None", "facebook": "None", "youtube": "None", "website": "None", "summary": "None", "logo": "None", "latitude": 49.22166546681874, "longitude": -123.04232388634658}, "856386834RR0001": {"name": "JAPANESE GARDEN SOCIETY OF SALT SPRING ISLAND", "designationCode": "C", "categoryCode": "50", "address": "P.O. BOX 657                  GANGES P.O.", "city": "SALT SPRING ISLAND", "province": "BC", "country": "CA", "postalCode": "V8K2W3", "twitter": "None", "instagram": "None", "facebook": "None", "youtube": "None", "website": "None", "summary": "None", "logo": "None", "latitude": 48.85312235658836, "longitude": -123.46678846442953}, "882759715RR0001": {"name": "JAPANESE GOSPEL CHURCH OF TORONTO", "designationCode": "C", "categoryCode": "39", "address": "301 SILVER STAR BLVD", "city": "TORONTO", "province": "ON", "country": "CA", "postalCode": "M1V0B6", "twitter": "None", "instagram": "None", "facebook": "None", "youtube": "None", "website": "None", "summary": "None", "logo": "None", "latitude": 43.81268179851684, "longitude": -79.29438137587324}, "133388710RR0001": {"name": "JAPANESE SOCIAL SERVICES", "designationCode": "C", "categoryCode": "59", "address": "6 GARAMOND COURT", "city": "TORONTO", "province": "ON", "country": "CA", "postalCode": "M3C1Z5", "twitter": "None", "instagram": "None", "facebook": "None", "youtube": "None", "website": "None", "summary": "None", "logo": "None", "latitude": 43.725981709129236, "longitude": -79.33380878700429}, "118973015RR0001": {"name": "JAPANESE UNITED CHURCH", "designationCode": "C", "categoryCode": "44", "address": "8122, AVE CHAMPAGNEUR", "city": "MONTR\u00c9AL", "province": "QC", "country": "CA", "postalCode": "H3N2K6", "twitter": "None", "instagram": "None", "facebook": "None", "youtube": "None", "website": "None", "summary": "None", "logo": "None", "latitude": 45.53036398159502, "longitude": -73.63673924804706}, "876820218RR0001": {"name": "JARDIN COMMUNAUTAIRE RUISSEAU BOIS-JOLI", "designationCode": "C", "categoryCode": "56", "address": "C.P. 571", "city": "SEPT-\u00ceLES", "province": "QC", "country": "CA", "postalCode": "G4R4K7", "twitter": "None", "instagram": "None", "facebook": "None", "youtube": "None", "website": "None", "summary": "None", "logo": "None", "latitude": 50.209593000000055, "longitude": -66.38952049999993}, "124756172RR0001": {"name": "JARDIN D'ENFANTS DE SUTTON", "designationCode": "C", "categoryCode": "20", "address": "7, RUE ACADEMY", "city": "SUTTON", "province": "QC", "country": "CA", "postalCode": "J0E2K0", "twitter": "None", "instagram": "None", "facebook": "None", "youtube": "None", "website": "None", "summary": "None", "logo": "None"}, "866369853RR0001": {"name": "JARDIN D'ENFANTS SOLEILLERIE INC.", "designationCode": "C", "categoryCode": "01", "address": "20 RUE FORT", "city": "SAINT-LAMBERT", "province": "QC", "country": "CA", "postalCode": "J4P3T2", "twitter": "None", "instagram": "None", "facebook": "None", "youtube": "None", "website": "None", "summary": "None", "logo": "None", "latitude": 45.49841648932421, "longitude": -73.51409272009349}, "122020803RR0001": {"name": "JARDINS COMM\u00c9MORATIFS SAINT-GERMAIN", "designationCode": "C", "categoryCode": "59", "address": "280, 2E RUE EST               CP 225 SUCC BUREAU-CHEF", "city": "RIMOUSKI", "province": "QC", "country": "CA", "postalCode": "G5L7C1", "twitter": "None", "instagram": "None", "facebook": "None", "youtube": "None", "website": "None", "summary": "None", "logo": "None", "latitude": 48.438272515306856, "longitude": -68.52755193638932}, "828249946RR0001": {"name": "JARISLOWSKY FRASER DONOR ADVISED FOUNDATION / FONDATION DES DONATEURS JARISLOWSKY FRASER", "designationCode": "A", "categoryCode": "03", "address": "1010 SHERBROOKE STREET WEST   SUITE 2005", "city": "MONTREAL", "province": "QC", "country": "CA", "postalCode": "H3A2R7", "twitter": "None", "instagram": "None", "facebook": "None", "youtube": "None", "website": "None", "summary": "None", "logo": "None", "latitude": 45.5023064815339, "longitude": -73.57605998485214}, "118973114RR0001": {"name": "JARRATT WILLIS PRESBYTERIAN CHURCH", "designationCode": "C", "categoryCode": "37", "address": "76 ARMEDA CLOW CRES", "city": "ANGUS", "province": "ON", "country": "CA", "postalCode": "L0M1B2", "twitter": "None", "instagram": "None", "facebook": "None", "youtube": "None", "website": "None", "summary": "None", "logo": "None", "latitude": 44.326913866783954, "longitude": -79.89302981040473}, "840676720RR0001": {"name": "JARVIS CARING CUPBOARD FOOD BANK", "designationCode": "C", "categoryCode": "09", "address": "3012 LAKESHORE RD RR#9", "city": "DUNNVILLE", "province": "ON", "country": "CA", "postalCode": "N1A2W8", "twitter": "None", "instagram": "None", "facebook": "None", "youtube": "None", "website": "None", "summary": "None", "logo": "None", "latitude": 42.86076236190786, "longitude": -79.6961234587973}, "124565268RR0001": {"name": "JARVIS COLLEGIATE ALUMNI ASSOCIATION", "designationCode": "C", "categoryCode": "21", "address": "663 RHODES AVENUE", "city": "TORONTO", "province": "ON", "country": "CA", "postalCode": "M4J4X5", "twitter": "None", "instagram": "None", "facebook": "None", "youtube": "None", "website": "None", "summary": "None", "logo": "None", "latitude": 43.681193538721196, "longitude": -79.32392889090553}, "129878815RR0001": {"name": "JARVIS DISTRICT CHRISTIAN SCHOOL", "designationCode": "C", "categoryCode": "20", "address": "P.O. BOX 520", "city": "JARVIS", "province": "ON", "country": "CA", "postalCode": "N0A1J0", "twitter": "None", "instagram": "None", "facebook": "None", "youtube": "None", "website": "None", "summary": "None", "logo": "None", "latitude": 42.885110000000054, "longitude": -80.11368999999996}, "108197542RR0001": {"name": "JARVIS PASTORAL CHARGE", "designationCode": "C", "categoryCode": "44", "address": "1640 HWY #3                   RR#5", "city": "SIMCOE", "province": "ON", "country": "CA", "postalCode": "N3Y4K4", "twitter": "None", "instagram": "None", "facebook": "None", "youtube": "None", "website": "None", "summary": "None", "logo": "None", "latitude": 42.84863841867217, "longitude": -80.29055880574012}, "107527038RR0001": {"name": "JARVIS STREET BAPTIST CHURCH", "designationCode": "C", "categoryCode": "31", "address": "130 GERRARD STREET EAST", "city": "TORONTO", "province": "ON", "country": "CA", "postalCode": "M5A3T4", "twitter": "None", "instagram": "None", "facebook": "None", "youtube": "None", "website": "None", "summary": "None", "logo": "None", "latitude": 43.66058426008411, "longitude": -79.37525678449413}, "845676568RR0001": {"name": "JAS KHANGURA VISION INTERNATIONAL SOCIETY", "designationCode": "C", "categoryCode": "11", "address": "7544 EDMONDS STREET", "city": "BURNABY", "province": "BC", "country": "CA", "postalCode": "V3N1B4", "twitter": "None", "instagram": "None", "facebook": "None", "youtube": "None", "website": "None", "summary": "None", "logo": "None", "latitude": 49.222334976892945, "longitude": -122.94413596194856}, "846663474RR0001": {"name": "JASPER COMMUNITY TEAM SOCIETY", "designationCode": "C", "categoryCode": "11", "address": "PO BOX 1090                   627 PATRICIA STREET", "city": "JASPER", "province": "AB", "country": "CA", "postalCode": "T0E1E0", "twitter": "None", "instagram": "None", "facebook": "None", "youtube": "None", "website": "None", "summary": "None", "logo": "None", "latitude": 52.87439505271523, "longitude": -118.08247817355335}, "118973221RR0001": {"name": "JASPER CULTURAL AND HISTORICAL BOARD 1986 INC.", "designationCode": "C", "categoryCode": "50", "address": "PO BOX 1504", "city": "MAPLE CREEK", "province": "SK", "country": "CA", "postalCode": "S0N1N0", "twitter": "None", "instagram": "None", "facebook": "None", "youtube": "None", "website": "None", "summary": "None", "logo": "None", "latitude": 49.91416000000004, "longitude": -109.46959999999996}, "887061851RR0001": {"name": "JASPER FOOD BANK SOCIETY", "designationCode": "C", "categoryCode": "09", "address": "P.O. BOX 3035", "city": "JASPER", "province": "AB", "country": "CA", "postalCode": "T0E1E0", "twitter": "None", "instagram": "None", "facebook": "None", "youtube": "None", "website": "None", "summary": "None", "logo": "None", "latitude": 52.877214088900075, "longitude": -118.08111710055249}, "889791174RR0001": {"name": "JASPER FRIENDS OF THE LIBRARY SOCIETY", "designationCode": "C", "categoryCode": "50", "address": "BOX 1170", "city": "JASPER", "province": "AB", "country": "CA", "postalCode": "T0E1E0", "twitter": "None", "instagram": "None", "facebook": "None", "youtube": "None", "website": "None", "summary": "None", "logo": "None", "latitude": 52.877214088900075, "longitude": -118.08111710055249}, "864688122RR0001": {"name": "JASPER HEALTHCARE FOUNDATION", "designationCode": "A", "categoryCode": "13", "address": "BOX 235", "city": "JASPER", "province": "AB", "country": "CA", "postalCode": "T0E1E0", "twitter": "None", "instagram": "None", "facebook": "None", "youtube": "None", "website": "None", "summary": "None", "logo": "None", "latitude": 52.877214088900075, "longitude": -118.08111710055249}, "141105544RR0001": {"name": "JASPER LUTHERAN CHURCH", "designationCode": "C", "categoryCode": "39", "address": "BOX 204", "city": "JASPER", "province": "AB", "country": "CA", "postalCode": "T0E1E0", "twitter": "None", "instagram": "None", "facebook": "None", "youtube": "None", "website": "None", "summary": "None", "logo": "None", "latitude": 52.877214088900075, "longitude": -118.08111710055249}, "842020745RR0001": {"name": "JASPER PARK BAPTIST FELLOWSHIP", "designationCode": "C", "categoryCode": "31", "address": "PO BOX 748                    300 PATRICIA STREET", "city": "JASPER", "province": "AB", "country": "CA", "postalCode": "T0E1E0", "twitter": "None", "instagram": "None", "facebook": "None", "youtube": "None", "website": "None", "summary": "None", "logo": "None", "latitude": 52.8805350627272, "longitude": -118.08024394090813}, "875389629RR0001": {"name": "JASPER PENTECOSTAL CHURCH", "designationCode": "C", "categoryCode": "36", "address": "P O BOX 397", "city": "JASPER", "province": "AB", "country": "CA", "postalCode": "T0E1E0", "twitter": "None", "instagram": "None", "facebook": "None", "youtube": "None", "website": "None", "summary": "None", "logo": "None", "latitude": 52.877214088900075, "longitude": -118.08111710055249}, "107527285RR0001": {"name": "JASPER PLACE BAPTIST CHURCH", "designationCode": "C", "categoryCode": "31", "address": "8801-163 STREET", "city": "EDMONTON", "province": "AB", "country": "CA", "postalCode": "T5R2N8", "twitter": "None", "instagram": "None", "facebook": "None", "youtube": "None", "website": "None", "summary": "None", "logo": "None", "latitude": 53.52284700000001, "longitude": -113.60259781845481}, "107527319RR0001": {"name": "JASPER PLACE CHILD AND FAMILY RESOURCE SOCIETY", "designationCode": "C", "categoryCode": "01", "address": "MAIN FLOOR, 16811-88 AVE NW", "city": "EDMONTON", "province": "AB", "country": "CA", "postalCode": "T5R5Y6", "twitter": "None", "instagram": "None", "facebook": "None", "youtube": "None", "website": "None", "summary": "None", "logo": "None", "latitude": 53.523666936278225, "longitude": -113.61241856527704}, "889548970RR0001": {"name": "JASPER PLACE WELLNESS CENTRE", "designationCode": "B", "categoryCode": "09", "address": "15210 STONY PLAIN RD NW", "city": "EDMONTON", "province": "AB", "country": "CA", "postalCode": "T5P3Y5", "twitter": "None", "instagram": "None", "facebook": "None", "youtube": "None", "website": "None", "summary": "None", "logo": "None", "latitude": 53.54130951875457, "longitude": -113.5837935}, "892409160RR0001": {"name": "JASPER RIGHT TO READ SOCIETY", "designationCode": "C", "categoryCode": "21", "address": "PO BOX 1891", "city": "JASPER", "province": "AB", "country": "CA", "postalCode": "T0E1E0", "twitter": "None", "instagram": "None", "facebook": "None", "youtube": "None", "website": "None", "summary": "None", "logo": "None", "latitude": 52.877214088900075, "longitude": -118.08111710055249}, "118973304RR0001": {"name": "JASPER UNITED CHURCH", "designationCode": "C", "categoryCode": "44", "address": "PO BOX 967", "city": "JASPER", "province": "AB", "country": "CA", "postalCode": "T0E1E0", "twitter": "None", "instagram": "None", "facebook": "None", "youtube": "None", "website": "None", "summary": "None", "logo": "None", "latitude": 52.877214088900075, "longitude": -118.08111710055249}, "118973312RR0001": {"name": "JASPER-YELLOWHEAD HISTORICAL SOCIETY", "designationCode": "C", "categoryCode": "50", "address": "P.O. BOX 42", "city": "JASPER", "province": "AB", "country": "CA", "postalCode": "T0E1E0", "twitter": "None", "instagram": "None", "facebook": "None", "youtube": "None", "website": "None", "summary": "None", "logo": "None", "latitude": 52.877214088900075, "longitude": -118.08111710055249}, "835171711RR0001": {"name": "JAX Foundation", "designationCode": "C", "categoryCode": "20", "address": "167 DAWLISH AVENUE", "city": "TORONTO", "province": "ON", "country": "CA", "postalCode": "M4M1H6", "twitter": "None", "instagram": "None", "facebook": "None", "youtube": "None", "website": "None", "summary": "None", "logo": "None", "latitude": 43.72201780209486, "longitude": -79.39187653774025}, "131916975RR0001": {"name": "JAYCEES BRANTFORD NON-PROFIT HOMES CORPORATION", "designationCode": "C", "categoryCode": "09", "address": "73 PEARL STREET", "city": "BRANTFORD", "province": "ON", "country": "CA", "postalCode": "N3T3N8", "twitter": "None", "instagram": "None", "facebook": "None", "youtube": "None", "website": "None", "summary": "None", "logo": "None", "latitude": 43.144435285273936, "longitude": -80.26986659891992}, "890847189RR0001": {"name": "JAYS CARE FOUNDATION", "designationCode": "A", "categoryCode": "03", "address": "1 BLUE JAYS WAY               STE 3200", "city": "TORONTO", "province": "ON", "country": "CA", "postalCode": "M5V1J1", "twitter": "None", "instagram": "None", "facebook": "None", "youtube": "None", "website": "None", "summary": "None", "logo": "None", "latitude": 43.64210892838598, "longitude": -79.39071947723474}, "888819190RR0001": {"name": "JAZZ EAST RISING ASSOCIATION", "designationCode": "C", "categoryCode": "22", "address": "PO BOX 33043 RPO QUINPOOL CENTQUINPOOL / QUINPOOL ROAD", "city": "HALIFAX", "province": "NS", "country": "CA", "postalCode": "B3L4T6", "twitter": "None", "instagram": "None", "facebook": "None", "youtube": "None", "website": "None", "summary": "None", "logo": "None", "latitude": 44.64085500000001, "longitude": -63.6113745}, "125835660RR0001": {"name": "JAZZ WINNIPEG INC", "designationCode": "C", "categoryCode": "22", "address": "100 ARTHUR STREET             ROOM 007", "city": "WINNIPEG", "province": "MB", "country": "CA", "postalCode": "R3B1H3", "twitter": "None", "instagram": "None", "facebook": "None", "youtube": "None", "website": "None", "summary": "None", "logo": "None", "latitude": 49.89786075688144, "longitude": -97.14044701780226}, "865111694RR0001": {"name": "JAZZ YUKON", "designationCode": "C", "categoryCode": "22", "address": "PO BOX 31307", "city": "WHITEHORSE", "province": "YT", "country": "CA", "postalCode": "Y1A5P7", "twitter": "None", "instagram": "None", "facebook": "None", "youtube": "None", "website": "None", "summary": "None", "logo": "None", "latitude": 60.72084600000005, "longitude": -135.05323399999992}, "118864826RR0001": {"name": "JAZZ.FM91 INC.", "designationCode": "C", "categoryCode": "21", "address": "4 PARDEE AVE, UNIT 100", "city": "TORONTO", "province": "ON", "country": "CA", "postalCode": "M6K3H5", "twitter": "None", "instagram": "None", "facebook": "None", "youtube": "None", "website": "None", "summary": "None", "logo": "None", "latitude": 43.63698855894764, "longitude": -79.42251710909446}, "825093586RR0001": {"name": "JB Heart to Heart Foundation", "designationCode": "C", "categoryCode": "09", "address": "204A 22259-48 AVENUE", "city": "LANGLEY", "province": "BC", "country": "CA", "postalCode": "V3A3N4", "twitter": "None", "instagram": "None", "facebook": "None", "youtube": "None", "website": "None", "summary": "None", "logo": "None", "latitude": 49.08941049653755, "longitude": -122.60793052553522}, "879131308RR0001": {"name": "JBS FOUNDATION INC.", "designationCode": "B", "categoryCode": "03", "address": "15461 YONGE ST, PO BOX 71542", "city": "AURORA", "province": "ON", "country": "CA", "postalCode": "L4G6S9", "twitter": "None", "instagram": "None", "facebook": "None", "youtube": "None", "website": "None", "summary": "None", "logo": "None", "latitude": 44.005337999451754, "longitude": -79.46890488046088}, "855969473RR0001": {"name": "JDF REGIONAL PARK WATCH SOCIETY", "designationCode": "C", "categoryCode": "52", "address": "6188 CALVERT RD               PO BOX 511", "city": "SOOKE", "province": "BC", "country": "CA", "postalCode": "V9Z1H5", "twitter": "None", "instagram": "None", "facebook": "None", "youtube": "None", "website": "None", "summary": "None", "logo": "None", "latitude": 48.396899016622115, "longitude": -123.7011860162551}, "812584068RR0001": {"name": "JDRF Canadian Clinical Trial Network", "designationCode": "C", "categoryCode": "11", "address": "600 - 235 YORKLAND BLVD", "city": "NORTH YORK", "province": "ON", "country": "CA", "postalCode": "M2J1T1", "twitter": "None", "instagram": "None", "facebook": "None", "youtube": "None", "website": "None", "summary": "None", "logo": "None", "latitude": 43.77226327335698, "longitude": -79.33600522814264}, "894882695RR0001": {"name": "JE PASSE PARTOUT SERVICES DE SOUTIEN SCOLAIRE ET D'INTERVENTION FAMILIALE", "designationCode": "C", "categoryCode": "20", "address": "3577, RUE SAINTE-CATHERINE EST", "city": "MONTR\u00c9AL", "province": "QC", "country": "CA", "postalCode": "H1W2E6", "twitter": "None", "instagram": "None", "facebook": "None", "youtube": "None", "website": "None", "summary": "None", "logo": "None", "latitude": 45.54319436026308, "longitude": -73.53871020624368}, "863526620RR0001": {"name": "JE REUSSIS", "designationCode": "C", "categoryCode": "20", "address": "12125 NOTRE-DAME EST          LOCAL 171", "city": "MONTREAL", "province": "QC", "country": "CA", "postalCode": "H1B2Y9", "twitter": "None", "instagram": "None", "facebook": "None", "youtube": "None", "website": "None", "summary": "None", "logo": "None", "latitude": 45.64067987705574, "longitude": -73.49013857836508}, "819372442RR0001": {"name": "JEAN BEAUMONT FOUNDATION", "designationCode": "B", "categoryCode": "03", "address": "3229 7TH AVE W", "city": "VANCOUVER", "province": "BC", "country": "CA", "postalCode": "V6K2A3", "twitter": "None", "instagram": "None", "facebook": "None", "youtube": "None", "website": "None", "summary": "None", "logo": "None", "latitude": 49.266013156835605, "longitude": -123.17635545509422}, "891687444RR0001": {"name": "JEAN CLARK MEMORIAL SCHOLARSHIP SOCIETY", "designationCode": "C", "categoryCode": "21", "address": "PO BOX 1087", "city": "LAC LA BICHE", "province": "AB", "country": "CA", "postalCode": "T0A2C0", "twitter": "None", "instagram": "None", "facebook": "None", "youtube": "None", "website": "None", "summary": "None", "logo": "None", "latitude": 54.768200000000036, "longitude": -111.98244999999997}, "119098812RR0001": {"name": "JEAN GORDON AUXILIARY", "designationCode": "C", "categoryCode": "47", "address": "406 - 443 CENTENNIAL FOREST DR", "city": "MILTON", "province": "ON", "country": "CA", "postalCode": "L9T6A1", "twitter": "None", "instagram": "None", "facebook": "None", "youtube": "None", "website": "None", "summary": "None", "logo": "None", "latitude": 43.51167660170822, "longitude": -79.86631901817762}}