{"137544292RR0001": {"name": "LA FONDATION DES AMIS DE VAL BOIS\u00c9 INC.", "designationCode": "C", "categoryCode": "21", "address": "1500 BOUL MI-VALLON", "city": "ROCK FOREST", "province": "QC", "country": "CA", "postalCode": "J1N3Y5", "twitter": "None", "instagram": "None", "facebook": "None", "youtube": "None", "website": "None", "summary": "None", "logo": "None", "latitude": 45.38301748568885, "longitude": -71.9847338198102}, "119000578RR0001": {"name": "LA FONDATION DES AMIS DU COLL\u00c8GE CHAMPAGNEUR", "designationCode": "C", "categoryCode": "21", "address": "3713 RUE QUEEN", "city": "RAWDON", "province": "QC", "country": "CA", "postalCode": "J0K1S0", "twitter": "None", "instagram": "None", "facebook": "None", "youtube": "None", "website": "None", "summary": "None", "logo": "None", "latitude": 46.044320075163384, "longitude": -73.70993034603792}, "119000594RR0001": {"name": "LA FONDATION DES AMIS DU MUS\u00c9E R\u00c9GIONAL DE KAMOURASKA INC.", "designationCode": "C", "categoryCode": "52", "address": "64 MOREL", "city": "KAMOURASKA", "province": "QC", "country": "CA", "postalCode": "G0L1M0", "twitter": "None", "instagram": "None", "facebook": "None", "youtube": "None", "website": "None", "summary": "None", "logo": "None", "latitude": 47.56638653318128, "longitude": -69.8669235}, "889174793RR0001": {"name": "LA FONDATION DES ANCIENS EN GENIE DE L'UNIVERSITE DE SHERBROOKE INC", "designationCode": "B", "categoryCode": "23", "address": "2500 BOUL DE L'UNIVERSITE", "city": "SHERBROOKE", "province": "QC", "country": "CA", "postalCode": "J1K2R1", "twitter": "None", "instagram": "None", "facebook": "None", "youtube": "None", "website": "None", "summary": "None", "logo": "None", "latitude": 45.381356656245536, "longitude": -71.93111333807403}, "894213743RR0001": {"name": "LA FONDATION DES ARCHES DU QUEBEC", "designationCode": "A", "categoryCode": "03", "address": "2715 DE LA C\u00d4TE-STE-CATHERINE", "city": "MONTR\u00c9AL", "province": "QC", "country": "CA", "postalCode": "H3T1B6", "twitter": "None", "instagram": "None", "facebook": "None", "youtube": "None", "website": "None", "summary": "None", "logo": "None", "latitude": 45.50668659703366, "longitude": -73.62023772932606}, "118923267RR0001": {"name": "LA FONDATION DES CENTRES DE LA JEUNESSE ET DE LA FAMILLE BATSHAW / BATSHAW YOUTH AND FAMILY CENTRES FOUNDATION", "designationCode": "C", "categoryCode": "23", "address": "5, RUE WERDALE PARK", "city": "WESTMOUNT", "province": "QC", "country": "CA", "postalCode": "H3Z1Y5", "twitter": "None", "instagram": "None", "facebook": "None", "youtube": "None", "website": "None", "summary": "None", "logo": "None", "latitude": 45.487158170696475, "longitude": -73.58310282985177}, "862323557RR0001": {"name": "LA FONDATION DES CHOISIS DE J\u00c9SUS", "designationCode": "C", "categoryCode": "39", "address": "C.P. 22019", "city": "SHERBROOKE", "province": "QC", "country": "CA", "postalCode": "J1E4B4", "twitter": "None", "instagram": "None", "facebook": "None", "youtube": "None", "website": "None", "summary": "None", "logo": "None", "latitude": 45.403251000000054, "longitude": -71.88894349999994}, "101835585RR0001": {"name": "LA FONDATION DES EQUIPES NOTRE-DAME INC.", "designationCode": "C", "categoryCode": "49", "address": "968 RUE DE DIJON", "city": "QUEBEC", "province": "QC", "country": "CA", "postalCode": "G1W2M8", "twitter": "None", "instagram": "None", "facebook": "None", "youtube": "None", "website": "None", "summary": "None", "logo": "None", "latitude": 46.760583949218024, "longitude": -71.31601786262901}, "815450879RR0001": {"name": "LA FONDATION DES FOYERS ANGELE", "designationCode": "C", "categoryCode": "09", "address": "1801-158 B MCARTHUR AVE", "city": "VANIER", "province": "ON", "country": "CA", "postalCode": "K1L8C9", "twitter": "None", "instagram": "None", "facebook": "None", "youtube": "None", "website": "None", "summary": "None", "logo": "None", "latitude": 45.4310884989904, "longitude": -75.66325969594325}, "890843949RR0001": {"name": "LA FONDATION DES ING\u00c9NIEURS MUNICIPAUX DU QU\u00c9BEC", "designationCode": "C", "categoryCode": "21", "address": "1555 RUE CARRIE-DERICK", "city": "MONTREAL", "province": "QC", "country": "CA", "postalCode": "H3C6W2", "twitter": "None", "instagram": "None", "facebook": "None", "youtube": "None", "website": "None", "summary": "None", "logo": "None", "latitude": 45.480522948669766, "longitude": -73.53957612346292}, "876842279RR0001": {"name": "LA FONDATION DES JEUNES DE LA SOURCE VIVE", "designationCode": "C", "categoryCode": "21", "address": "125 RUE DU COLLEGE", "city": "ASCOT CORNER", "province": "QC", "country": "CA", "postalCode": "J0B1A0", "twitter": "None", "instagram": "None", "facebook": "None", "youtube": "None", "website": "None", "summary": "None", "logo": "None", "latitude": 45.45082567635198, "longitude": -71.76865530171948}, "869883678RR0001": {"name": "LA FONDATION DES JEUNES MAMANS DU QU\u00c9BEC", "designationCode": "B", "categoryCode": "50", "address": "1555 PRINCIPALE", "city": "POHENEGAMOOK", "province": "QC", "country": "CA", "postalCode": "G0L1J0", "twitter": "None", "instagram": "None", "facebook": "None", "youtube": "None", "website": "None", "summary": "None", "logo": "None", "latitude": 47.47111867723904, "longitude": -69.25335007863525}, "139274799RR0001": {"name": "LA FONDATION DES JEUX DE L'ACADIE INC", "designationCode": "A", "categoryCode": "53", "address": "702 RUE PRINCIPALE            BUREAU 210", "city": "PETIT-ROCHER", "province": "NB", "country": "CA", "postalCode": "E8J1V1", "twitter": "None", "instagram": "None", "facebook": "None", "youtube": "None", "website": "None", "summary": "None", "logo": "None", "latitude": 47.77393212261475, "longitude": -65.71558934337072}, "891403545RR0001": {"name": "LA FONDATION DES JUMELLES COUD\u00c9", "designationCode": "A", "categoryCode": "13", "address": "1207 RUE DE DIEPPE", "city": "BOUCHERVILLE", "province": "QC", "country": "CA", "postalCode": "J4B7Z6", "twitter": "None", "instagram": "None", "facebook": "None", "youtube": "None", "website": "None", "summary": "None", "logo": "None", "latitude": 45.57942213656293, "longitude": -73.4272437167466}, "130003148RR0001": {"name": "LA FONDATION DES MUTINS INC", "designationCode": "C", "categoryCode": "22", "address": "733 RUE ST-JEAN", "city": "LONGUEUIL", "province": "QC", "country": "CA", "postalCode": "J4H2Y8", "twitter": "None", "instagram": "None", "facebook": "None", "youtube": "None", "website": "None", "summary": "None", "logo": "None", "latitude": 45.53317362949379, "longitude": -73.50095339687815}, "119000693RR0001": {"name": "LA FONDATION DES OEUVRES ACADIENNES DE L'ILE-DU-PRINCE-EDOUARD INC.", "designationCode": "C", "categoryCode": "21", "address": "5 AVE MARIS STELLA", "city": "SUMMERSIDE", "province": "PE", "country": "CA", "postalCode": "C1N6M9", "twitter": "None", "instagram": "None", "facebook": "None", "youtube": "None", "website": "None", "summary": "None", "logo": "None", "latitude": 46.41903009463906, "longitude": -63.80898949734561}, "140711185RR0001": {"name": "LA FONDATION DES OEUVRES DE L'HOTEL-DIEU DE SAINT-BASILE INC.", "designationCode": "A", "categoryCode": "13", "address": "429 RUE PRINCIPALE", "city": "SAINT-BASILE", "province": "NB", "country": "CA", "postalCode": "E7C1J2", "twitter": "None", "instagram": "None", "facebook": "None", "youtube": "None", "website": "None", "summary": "None", "logo": "None", "latitude": 47.357848274571495, "longitude": -68.2356930623015}, "119000701RR0001": {"name": "LA FONDATION DES OEUVRES DU CONSEIL 2756 DE JONQUIERE INC.", "designationCode": "C", "categoryCode": "63", "address": "2316 RUE PELLETIER", "city": "JONQUIERE", "province": "QC", "country": "CA", "postalCode": "G7X6C3", "twitter": "None", "instagram": "None", "facebook": "None", "youtube": "None", "website": "None", "summary": "None", "logo": "None", "latitude": 48.4088993849616, "longitude": -71.25382015422095}, "894826486RR0001": {"name": "LA FONDATION DES OEUVRES MISSIONNAIRES DES CLAR\u00c9TAINS", "designationCode": "C", "categoryCode": "49", "address": "2030 RUE GALT EST", "city": "SHERBROOKE", "province": "QC", "country": "CA", "postalCode": "J1G3J1", "twitter": "None", "instagram": "None", "facebook": "None", "youtube": "None", "website": "None", "summary": "None", "logo": "None", "latitude": 45.40733664019649, "longitude": -71.85205917785167}, "102933868RR0001": {"name": "LA FONDATION DES POLICIERS MUNICIPAUX DE QU\u00c9BEC", "designationCode": "A", "categoryCode": "63", "address": "275 RUE DE LA MARECHAUSSEE", "city": "QUEBEC", "province": "QC", "country": "CA", "postalCode": "G1K2L3", "twitter": "None", "instagram": "None", "facebook": "None", "youtube": "None", "website": "None", "summary": "None", "logo": "None", "latitude": 46.8171648753823, "longitude": -71.23137727477061}, "118929306RR0001": {"name": "LA FONDATION DES SERVICES COMMUNAUTAIRES CATHOLIQUES INC./ FOUNDATION OF CATHOLIC COMMUNITY SERVICES INC.", "designationCode": "A", "categoryCode": "05", "address": "1857 DE MAISONNEUVE BLVD W    SUITE 210", "city": "MONTREAL", "province": "QC", "country": "CA", "postalCode": "H3H1J9", "twitter": "None", "instagram": "None", "facebook": "None", "youtube": "None", "website": "None", "summary": "None", "logo": "None", "latitude": 45.49389958979164, "longitude": -73.58138263878462}, "886701556RR0001": {"name": "LA FONDATION DES SERVICES DE SANTE DE LA MRC DE L'ISLET", "designationCode": "A", "categoryCode": "13", "address": "430 RUE JEAN-LECLERC", "city": "ST JEAN PORT JOLI", "province": "QC", "country": "CA", "postalCode": "G0R3G0", "twitter": "None", "instagram": "None", "facebook": "None", "youtube": "None", "website": "None", "summary": "None", "logo": "None", "latitude": 47.20977502428349, "longitude": -70.25764923053941}, "131894172RR0001": {"name": "LA FONDATION DES SOURDS DU QUEBEC (F.S.Q.) INC", "designationCode": "C", "categoryCode": "09", "address": "3348 BOUL MGR GAUTHIER", "city": "QU\u00c9BEC", "province": "QC", "country": "CA", "postalCode": "G1E2W2", "twitter": "None", "instagram": "None", "facebook": "None", "youtube": "None", "website": "None", "summary": "None", "logo": "None", "latitude": 46.85100963307181, "longitude": -71.2078091622137}, "889566972RR0001": {"name": "LA FONDATION DES TALMUD TORAHS UNIS DE MONTREAL INC", "designationCode": "A", "categoryCode": "23", "address": "4840 ST. KEVIN, SUITE 210", "city": "MONTREAL", "province": "QC", "country": "CA", "postalCode": "H3W1P2", "twitter": "None", "instagram": "None", "facebook": "None", "youtube": "None", "website": "None", "summary": "None", "logo": "None", "latitude": 45.49066642186513, "longitude": -73.63137971022574}, "139529648RR0001": {"name": "LA FONDATION DES TOXICOMANES DU QUEBEC INC", "designationCode": "A", "categoryCode": "03", "address": "4450 RUE ST-JACQUES OUEST     SUITE 710", "city": "MONTR\u00c9AL", "province": "QC", "country": "CA", "postalCode": "H4C3L4", "twitter": "None", "instagram": "None", "facebook": "None", "youtube": "None", "website": "None", "summary": "None", "logo": "None", "latitude": 45.475649330544265, "longitude": -73.5908426411219}, "867360620RR0001": {"name": "LA FONDATION DES TRAUMATIS\u00c9S CRANIO-C\u00c9R\u00c9BRAUX MAURICIE BOIS-FRANCS INC.", "designationCode": "C", "categoryCode": "09", "address": "39, RUE BELLERIVE", "city": "TROIS-RIVIERES", "province": "QC", "country": "CA", "postalCode": "G8T6J4", "twitter": "None", "instagram": "None", "facebook": "None", "youtube": "None", "website": "None", "summary": "None", "logo": "None", "latitude": 46.360832280599, "longitude": -72.51229795268047}, "859827305RR0001": {"name": "LA FONDATION DES VILLAS DES RIVI\u00c8RES", "designationCode": "C", "categoryCode": "09", "address": "32 ST JOSEPH", "city": "BEDFORD", "province": "QC", "country": "CA", "postalCode": "J0J1A0", "twitter": "None", "instagram": "None", "facebook": "None", "youtube": "None", "website": "None", "summary": "None", "logo": "None", "latitude": 45.12495902775694, "longitude": -72.98285003667239}, "119000743RR0001": {"name": "LA FONDATION DOCTEUR CAMILLE MARCOUX", "designationCode": "C", "categoryCode": "09", "address": "C.P. 130", "city": "LOURDES-DE-BLANC-SABLON", "province": "QC", "country": "CA", "postalCode": "G0G1W0", "twitter": "None", "instagram": "None", "facebook": "None", "youtube": "None", "website": "None", "summary": "None", "logo": "None", "latitude": 51.41719500000005, "longitude": -57.20170849999994}, "888756269RR0001": {"name": "LA FONDATION DONAT PREVOST INC", "designationCode": "B", "categoryCode": "03", "address": "240 RUE DES VOILIERS", "city": "SAINT-ZOTIQUE", "province": "QC", "country": "CA", "postalCode": "J0P1Z0", "twitter": "None", "instagram": "None", "facebook": "None", "youtube": "None", "website": "None", "summary": "None", "logo": "None", "latitude": 45.258369326164434, "longitude": -74.22505877090695}, "899003040RR0001": {"name": "LA FONDATION DU C.L.S.C. JEAN-OLIVIER CHENIER", "designationCode": "C", "categoryCode": "09", "address": "29 CHEMIN OKA", "city": "ST-EUSTACHE", "province": "QC", "country": "CA", "postalCode": "J7R1K6", "twitter": "None", "instagram": "None", "facebook": "None", "youtube": "None", "website": "None", "summary": "None", "logo": "None", "latitude": 45.55102488591388, "longitude": -73.89295268670973}, "139720437RR0001": {"name": "LA FONDATION DU C\u00c9GEP A JOLIETTE", "designationCode": "C", "categoryCode": "21", "address": "20 RUE ST-CHARLES BORROMEE SUD", "city": "JOLIETTE", "province": "QC", "country": "CA", "postalCode": "J6E4T1", "twitter": "None", "instagram": "None", "facebook": "None", "youtube": "None", "website": "None", "summary": "None", "logo": "None", "latitude": 46.02611159006534, "longitude": -73.4378227121386}, "890520851RR0001": {"name": "LA FONDATION DU C\u00c9GEP DE BAIE-COMEAU INC.", "designationCode": "A", "categoryCode": "23", "address": "537 BOUL BLANCHE", "city": "BAIE-COMEAU", "province": "QC", "country": "CA", "postalCode": "G5C2B2", "twitter": "None", "instagram": "None", "facebook": "None", "youtube": "None", "website": "None", "summary": "None", "logo": "None", "latitude": 49.18625999285453, "longitude": -68.25894403458886}, "891616047RR0001": {"name": "LA FONDATION DU C\u00c9GEP DE GRANBY-HAUTE-YAMASKA INC.", "designationCode": "C", "categoryCode": "21", "address": "235 SAINT-JACQUES             C.P. 7000", "city": "GRANBY", "province": "QC", "country": "CA", "postalCode": "J2G3N1", "twitter": "None", "instagram": "None", "facebook": "None", "youtube": "None", "website": "None", "summary": "None", "logo": "None", "latitude": 45.39851640002255, "longitude": -72.73038642073995}, "893058958RR0001": {"name": "LA FONDATION DU C\u00c9GEP DE RIMOUSKI", "designationCode": "C", "categoryCode": "21", "address": "60 RUE DE L'EVECHE O", "city": "RIMOUSKI", "province": "QC", "country": "CA", "postalCode": "G5L4H6", "twitter": "None", "instagram": "None", "facebook": "None", "youtube": "None", "website": "None", "summary": "None", "logo": "None", "latitude": 48.44732425877617, "longitude": -68.52640246029172}, "867617821RR0001": {"name": "LA FONDATION DU C\u00c9GEP DE SAINT-F\u00c9LICIEN", "designationCode": "C", "categoryCode": "21", "address": "1105 BLVD HAMEL               CP 7300", "city": "SAINT-FELICIEN", "province": "QC", "country": "CA", "postalCode": "G8K2R8", "twitter": "None", "instagram": "None", "facebook": "None", "youtube": "None", "website": "None", "summary": "None", "logo": "None", "latitude": 48.65135494756242, "longitude": -72.4579759303885}, "118922293RR0001": {"name": "LA FONDATION DU C\u00c9GEP DE SAINTE-FOY", "designationCode": "A", "categoryCode": "23", "address": "2410 CHEMIN SAINTE-FOY", "city": "QU\u00c9BEC", "province": "QC", "country": "CA", "postalCode": "G1V1T3", "twitter": "None", "instagram": "None", "facebook": "None", "youtube": "None", "website": "None", "summary": "None", "logo": "None", "latitude": 46.78537358869306, "longitude": -71.28405324182565}, "134963933RR0001": {"name": "LA FONDATION DU C\u00c9GEP DU VIEUX MONTR\u00c9AL", "designationCode": "A", "categoryCode": "23", "address": "255 RUE ONTARIO EST           4 IEME ETAGE", "city": "MONTREAL", "province": "QC", "country": "CA", "postalCode": "H2X1X6", "twitter": "None", "instagram": "None", "facebook": "None", "youtube": "None", "website": "None", "summary": "None", "logo": "None", "latitude": 45.51430967167743, "longitude": -73.56577688934674}, "854369089RR0001": {"name": "LA FONDATION DU CAMP MUSICAL DES LAURENTIDES", "designationCode": "C", "categoryCode": "56", "address": "4011, AVENUE GREY", "city": "MONTREAL", "province": "QC", "country": "CA", "postalCode": "H4A3N9", "twitter": "None", "instagram": "None", "facebook": "None", "youtube": "None", "website": "None", "summary": "None", "logo": "None", "latitude": 45.479708275895796, "longitude": -73.61331205285946}, "140684325RR0001": {"name": "LA FONDATION DU CANCER DU SEIN DU QUEBEC/QUEBEC BREAST CANCER FOUNDATION", "designationCode": "A", "categoryCode": "13", "address": "305 - 279 RUE SHERBROOKE O", "city": "MONTREAL", "province": "QC", "country": "CA", "postalCode": "H2X1Y1", "twitter": "None", "instagram": "None", "facebook": "None", "youtube": "None", "website": "None", "summary": "None", "logo": "None", "latitude": 45.51040718720737, "longitude": -73.57037177691113}, "846333169RR0001": {"name": "LA FONDATION DU CENTRE CASA", "designationCode": "A", "categoryCode": "03", "address": "4965 RUE LIONEL-GROULX", "city": "SAINT-AUGUSTIN-DE-DESMAURES", "province": "QC", "country": "CA", "postalCode": "G3A1V3", "twitter": "None", "instagram": "None", "facebook": "None", "youtube": "None", "website": "None", "summary": "None", "logo": "None", "latitude": 46.74326486955394, "longitude": -71.38933030197927}, "129253811RR0001": {"name": "LA FONDATION DU CENTRE D'ACCUEIL CHAMPLAIN", "designationCode": "C", "categoryCode": "09", "address": "5050 PLACE NOGENT", "city": "BROSSARD", "province": "QC", "country": "CA", "postalCode": "J4Y2K3", "twitter": "None", "instagram": "None", "facebook": "None", "youtube": "None", "website": "None", "summary": "None", "logo": "None", "latitude": 45.44699180824036, "longitude": -73.45334388438467}, "874809122RR0001": {"name": "LA FONDATION DU CENTRE D'ACCUEIL ST-JOSEPH DE L\u00c9VIS", "designationCode": "C", "categoryCode": "19", "address": "5445, RUE SAINT-LOUIS", "city": "LEVIS", "province": "QC", "country": "CA", "postalCode": "G6V4G9", "twitter": "None", "instagram": "None", "facebook": "None", "youtube": "None", "website": "None", "summary": "None", "logo": "None", "latitude": 46.79932124006014, "longitude": -71.18775608543422}, "835593542RR0001": {"name": "LA FONDATION DU CENTRE DE FORMATION POUR ADULTES SAINT-MICHEL", "designationCode": "C", "categoryCode": "21", "address": "135 RUE KING OUEST", "city": "SHERBROOKE", "province": "QC", "country": "CA", "postalCode": "J1H1P4", "twitter": "None", "instagram": "None", "facebook": "None", "youtube": "None", "website": "None", "summary": "None", "logo": "None", "latitude": 45.40109618109746, "longitude": -71.89107253030596}, "865969984RR0001": {"name": "LA FONDATION DU CENTRE DE PREVENTION DU SUICIDE DE QUEBEC", "designationCode": "A", "categoryCode": "09", "address": "1310 1RE AV", "city": "QUEBEC", "province": "QC", "country": "CA", "postalCode": "G1L3L1", "twitter": "None", "instagram": "None", "facebook": "None", "youtube": "None", "website": "None", "summary": "None", "logo": "None", "latitude": 46.82729410796929, "longitude": -71.235016135986}, "119000867RR0001": {"name": "LA FONDATION DU CENTRE DE SANT\u00c9 DE LA MRC-DE-COATICOOK INC.", "designationCode": "A", "categoryCode": "13", "address": "138 RUE JEANNE-MANCE", "city": "COATICOOK", "province": "QC", "country": "CA", "postalCode": "J1A1W3", "twitter": "None", "instagram": "None", "facebook": "None", "youtube": "None", "website": "None", "summary": "None", "logo": "None", "latitude": 45.13494651318597, "longitude": -71.81162962787766}, "136305331RR0001": {"name": "LA FONDATION DU CENTRE DE SANT\u00c9 DES NORD-C\u00d4TIERS", "designationCode": "A", "categoryCode": "13", "address": "4 RUE DE L'HOPITAL", "city": "LES ESCOUMINS", "province": "QC", "country": "CA", "postalCode": "G0T1K0", "twitter": "None", "instagram": "None", "facebook": "None", "youtube": "None", "website": "None", "summary": "None", "logo": "None", "latitude": 48.3517547369148, "longitude": -69.40750534883747}, "130514532RR0001": {"name": "LA FONDATION DU CENTRE HOSPITALIER R\u00c9GIONAL DE SEPT-\u00ceLES INC", "designationCode": "A", "categoryCode": "13", "address": "45 RUE PERE-DIVET", "city": "SEPT-ILES", "province": "QC", "country": "CA", "postalCode": "G4R3N7", "twitter": "None", "instagram": "None", "facebook": "None", "youtube": "None", "website": "None", "summary": "None", "logo": "None", "latitude": 50.209502414404135, "longitude": -66.3831412819377}, "101835171RR0001": {"name": "LA FONDATION DU CENTRE HOSPITALIER ST-JOSEPH DE LA MALBAIE INC.", "designationCode": "A", "categoryCode": "11", "address": "303 RUE SAINT-ETIENNE", "city": "LA MALBAIE", "province": "QC", "country": "CA", "postalCode": "G5A1T1", "twitter": "None", "instagram": "None", "facebook": "None", "youtube": "None", "website": "None", "summary": "None", "logo": "None", "latitude": 47.65589287318927, "longitude": -70.15220459723615}, "890519135RR0001": {"name": "LA FONDATION DU CENTRE JEUNESSE DE L'ESTRIE INC.", "designationCode": "A", "categoryCode": "01", "address": "594, BOULEVARD QUEEN-VICTORIA", "city": "SHERBROOKE", "province": "QC", "country": "CA", "postalCode": "J1H3R7", "twitter": "None", "instagram": "None", "facebook": "None", "youtube": "None", "website": "None", "summary": "None", "logo": "None", "latitude": 45.40759064862372, "longitude": -71.90149532884217}, "886118793RR0001": {"name": "LA FONDATION DU CLSC-CHSLD DE L'ERABLE", "designationCode": "A", "categoryCode": "09", "address": "1331 RUE SAINT-CALIXTE", "city": "PLESSISVILLE", "province": "QC", "country": "CA", "postalCode": "G6L1P4", "twitter": "None", "instagram": "None", "facebook": "None", "youtube": "None", "website": "None", "summary": "None", "logo": "None", "latitude": 46.21558193868643, "longitude": -71.77756869556788}, "887649614RR0001": {"name": "LA FONDATION DU CLUB ROTARY DE VALLEYFIELD INC.", "designationCode": "A", "categoryCode": "03", "address": "171 BOULEVARD DU HAVRE", "city": "VALLEYFIELD", "province": "QC", "country": "CA", "postalCode": "J6S1R6", "twitter": "None", "instagram": "None", "facebook": "None", "youtube": "None", "website": "None", "summary": "None", "logo": "None", "latitude": 45.25889433417961, "longitude": -74.14451267014822}, "120524533RR0001": {"name": "LA FONDATION DU COLL\u00c8GE LAFL\u00c8CHE INC.", "designationCode": "A", "categoryCode": "23", "address": "1687, BOUL. DU CARMEL", "city": "TROIS-RIVIERES", "province": "QC", "country": "CA", "postalCode": "G8Z3R8", "twitter": "None", "instagram": "None", "facebook": "None", "youtube": "None", "website": "None", "summary": "None", "logo": "None", "latitude": 46.35107932574366, "longitude": -72.55786104847745}, "881729560RR0001": {"name": "LA FONDATION DU COLL\u00c8GE M\u00c9RICI", "designationCode": "C", "categoryCode": "21", "address": "755 GRANDE ALL\u00c9E OUEST", "city": "QU\u00c9BEC", "province": "QC", "country": "CA", "postalCode": "G1S1C1", "twitter": "None", "instagram": "None", "facebook": "None", "youtube": "None", "website": "None", "summary": "None", "logo": "None", "latitude": 46.795814299728924, "longitude": -71.23462857144112}, "898217849RR0001": {"name": "LA FONDATION DU COLL\u00c8GE MONT-SAINT-LOUIS", "designationCode": "A", "categoryCode": "23", "address": "1700 BOUL HENRI-BOURASSA E", "city": "MONTR\u00c9AL", "province": "QC", "country": "CA", "postalCode": "H2C1J3", "twitter": "None", "instagram": "None", "facebook": "None", "youtube": "None", "website": "None", "summary": "None", "logo": "None", "latitude": 45.568804044953616, "longitude": -73.65906205658172}, "102934049RR0001": {"name": "LA FONDATION DU COLLEGE CLARETAIN DE VICTORIAVILLE", "designationCode": "C", "categoryCode": "23", "address": "663 BOUL. GAMACHE", "city": "VICTORIAVILLE", "province": "QC", "country": "CA", "postalCode": "G6P6R8", "twitter": "None", "instagram": "None", "facebook": "None", "youtube": "None", "website": "None", "summary": "None", "logo": "None", "latitude": 46.04180170507647, "longitude": -71.96518056396033}, "860478270RR0001": {"name": "LA FONDATION DU COLLEGE DE BATHURST INC.", "designationCode": "A", "categoryCode": "23", "address": "CASE POSTALE 266", "city": "BATHURST", "province": "NB", "country": "CA", "postalCode": "E2A3Z2", "twitter": "None", "instagram": "None", "facebook": "None", "youtube": "None", "website": "None", "summary": "None", "logo": "None", "latitude": 47.61677400000005, "longitude": -65.64889249999993}, "128966454RR0001": {"name": "LA FONDATION DU COLLEGE DE BOIS-DE-BOULOGNE", "designationCode": "C", "categoryCode": "21", "address": "10555 AV DE BOIS-DE-BOULOGNE  LOCAL B155", "city": "MONTR\u00c9AL", "province": "QC", "country": "CA", "postalCode": "H4N1L4", "twitter": "None", "instagram": "None", "facebook": "None", "youtube": "None", "website": "None", "summary": "None", "logo": "None", "latitude": 45.53739597703225, "longitude": -73.67658325474666}, "876308677RR0001": {"name": "LA FONDATION DU COLLEGE RACHEL INC.", "designationCode": "A", "categoryCode": "22", "address": "1000 BOUL. DE L'AVENIR", "city": "LAVAL", "province": "QC", "country": "CA", "postalCode": "H7N6J6", "twitter": "None", "instagram": "None", "facebook": "None", "youtube": "None", "website": "None", "summary": "None", "logo": "None", "latitude": 45.56044156867116, "longitude": -73.72152678550374}, "888444437RR0001": {"name": "LA FONDATION DU DIOC\u00c8SE DE GASP\u00c9", "designationCode": "A", "categoryCode": "43", "address": "172, RUE JACQUES-CARTIER", "city": "GASPE", "province": "QC", "country": "CA", "postalCode": "G4X1M9", "twitter": "None", "instagram": "None", "facebook": "None", "youtube": "None", "website": "None", "summary": "None", "logo": "None", "latitude": 48.8305935135428, "longitude": -64.4873937729059}, "119000925RR0001": {"name": "LA FONDATION DU DIOC\u00c8SE DE SAINT-HYACINTHE", "designationCode": "C", "categoryCode": "43", "address": "1900 RUE GIROUARD             CP 190 SUCC. BUREAU-CHEF", "city": "SAINT-HYACINTHE", "province": "QC", "country": "CA", "postalCode": "J2S7B4", "twitter": "None", "instagram": "None", "facebook": "None", "youtube": "None", "website": "None", "summary": "None", "logo": "None", "latitude": 45.62391797590707, "longitude": -72.94864985033708}, "119000941RR0001": {"name": "LA FONDATION DU FLAMBEAU DU COEUR", "designationCode": "C", "categoryCode": "47", "address": "787, RUE JEAN-PLOUF", "city": "BOUCHERVILLE", "province": "QC", "country": "CA", "postalCode": "J4B3G7", "twitter": "None", "instagram": "None", "facebook": "None", "youtube": "None", "website": "None", "summary": "None", "logo": "None", "latitude": 45.618674615875136, "longitude": -73.44410877604003}, "891075749RR0001": {"name": "LA FONDATION DU FOYER WALES/THE WALES HOME FOUNDATION", "designationCode": "A", "categoryCode": "13", "address": "506 ROUTE 243 NORTH", "city": "RICHMOND", "province": "QC", "country": "CA", "postalCode": "J0B2H0", "twitter": "None", "instagram": "None", "facebook": "None", "youtube": "None", "website": "None", "summary": "None", "logo": "None", "latitude": 45.66701909414856, "longitude": -72.14764427257587}, "881979124RR0001": {"name": "LA FONDATION DU GRAND MONTREAL/THE FOUNDATION OF GREATER MONTREAL", "designationCode": "A", "categoryCode": "03", "address": "1000-505, BOUL.REN\u00c9-L\u00c9VESQUE O", "city": "MONTR\u00c9AL", "province": "QC", "country": "CA", "postalCode": "H2Z1Y7", "twitter": "None", "instagram": "None", "facebook": "None", "youtube": "None", "website": "None", "summary": "None", "logo": "None", "latitude": 45.50392864891217, "longitude": -73.56588739344436}, "862424991RR0001": {"name": "LA FONDATION DU JARDIN-DES-LACS", "designationCode": "C", "categoryCode": "21", "address": "1050, RUE ALFRED-LESSARD      C.P. 150", "city": "ST-DENIS DE BROMPTON", "province": "QC", "country": "CA", "postalCode": "J0B2P0", "twitter": "None", "instagram": "None", "facebook": "None", "youtube": "None", "website": "None", "summary": "None", "logo": "None", "latitude": 45.452881368082025, "longitude": -72.0819317828207}, "119000958RR0001": {"name": "LA FONDATION DU LAC POUCE INC.", "designationCode": "A", "categoryCode": "53", "address": "6939 BOUL TALBOT", "city": "LATERRIERE", "province": "QC", "country": "CA", "postalCode": "G7N1W2", "twitter": "None", "instagram": "None", "facebook": "None", "youtube": "None", "website": "None", "summary": "None", "logo": "None", "latitude": 48.29476992741618, "longitude": -71.15692472961184}, "119000966RR0001": {"name": "LA FONDATION DU MONT NOTRE-DAME DE SHERBROOKE INC.", "designationCode": "A", "categoryCode": "23", "address": "114 DE LA CATHEDRALE", "city": "SHERBROOKE", "province": "QC", "country": "CA", "postalCode": "J1H4M1", "twitter": "None", "instagram": "None", "facebook": "None", "youtube": "None", "website": "None", "summary": "None", "logo": "None", "latitude": 45.4012619278664, "longitude": -71.89280493525357}, "865211148RR0001": {"name": "LA FONDATION DU MONT ST-BRUNO", "designationCode": "C", "categoryCode": "52", "address": "C P 172", "city": "ST-BRUNO-DE-MONTARVILLE", "province": "QC", "country": "CA", "postalCode": "J3V4P9", "twitter": "None", "instagram": "None", "facebook": "None", "youtube": "None", "website": "None", "summary": "None", "logo": "None", "latitude": 45.52679400000005, "longitude": -73.34480599999993}, "857238307RR0001": {"name": "LA FONDATION DU MOUVEMENT CONTRE LE VIOL ET L'INCESTE", "designationCode": "A", "categoryCode": "09", "address": "1657 ST-JOSEPH EST", "city": "MONTREAL", "province": "QC", "country": "CA", "postalCode": "H2J1N1", "twitter": "None", "instagram": "None", "facebook": "None", "youtube": "None", "website": "None", "summary": "None", "logo": "None", "latitude": 45.534664015551904, "longitude": -73.58015454651147}, "889105557RR0001": {"name": "LA FONDATION DU MOUVEMENT KODIAK", "designationCode": "A", "categoryCode": "21", "address": "850, 1RE RUE EST", "city": "AMOS", "province": "QC", "country": "CA", "postalCode": "J9T2H8", "twitter": "None", "instagram": "None", "facebook": "None", "youtube": "None", "website": "None", "summary": "None", "logo": "None", "latitude": 48.57864692559606, "longitude": -78.11349314345692}, "137003927RR0001": {"name": "LA FONDATION DU PATRIMOINE JEAN-DE-BREBEUF", "designationCode": "A", "categoryCode": "21", "address": "3200, COTE STE-CATHERINE", "city": "MONTREAL", "province": "QC", "country": "CA", "postalCode": "H3T1C1", "twitter": "None", "instagram": "None", "facebook": "None", "youtube": "None", "website": "None", "summary": "None", "logo": "None", "latitude": 45.50212326661807, "longitude": -73.62422173074884}, "119001006RR0001": {"name": "LA FONDATION DU PENSIONNAT DU SAINT NOM DE MARIE", "designationCode": "A", "categoryCode": "23", "address": "628, DE LA COTE STE-CATHERINE", "city": "OUTREMONT", "province": "QC", "country": "CA", "postalCode": "H2V2C5", "twitter": "None", "instagram": "None", "facebook": "None", "youtube": "None", "website": "None", "summary": "None", "logo": "None", "latitude": 45.51262297830261, "longitude": -73.61377079442015}, "119001014RR0001": {"name": "LA FONDATION DU PRET D'HONNEUR", "designationCode": "C", "categoryCode": "21", "address": "82, RUE SHERBROOKE OUEST", "city": "MONTREAL", "province": "QC", "country": "CA", "postalCode": "H2X1X3", "twitter": "None", "instagram": "None", "facebook": "None", "youtube": "None", "website": "None", "summary": "None", "logo": "None", "latitude": 45.511338604766635, "longitude": -73.56993002230392}, "101835841RR0001": {"name": "LA FONDATION DU REFUGE POUR FEMMES CHEZ DORIS INC.-CHEZ DORIS THE WOMEN'S SHELTER FOUND INC.", "designationCode": "C", "categoryCode": "57", "address": "1430 RUE CHOMEDEY", "city": "MONTREAL", "province": "QC", "country": "CA", "postalCode": "H3H2A7", "twitter": "None", "instagram": "None", "facebook": "None", "youtube": "None", "website": "None", "summary": "None", "logo": "None", "latitude": 45.491291299728935, "longitude": -73.58326684903902}, "867891145RR0001": {"name": "LA FONDATION DU S\u00c9MINAIRE DE SHERBROOKE", "designationCode": "A", "categoryCode": "23", "address": "195 RUE MARQUETTE", "city": "SHERBROOKE", "province": "QC", "country": "CA", "postalCode": "J1H1L6", "twitter": "None", "instagram": "None", "facebook": "None", "youtube": "None", "website": "None", "summary": "None", "logo": "None", "latitude": 45.40273998170681, "longitude": -71.89359966703155}, "138127105RR0001": {"name": "LA FONDATION DU SANCTUAIRE MARIE-REINE-DES-COEURS DE MONTREAL", "designationCode": "A", "categoryCode": "13", "address": "4000 BOSSUET", "city": "MONTREAL", "province": "QC", "country": "CA", "postalCode": "H1M2M2", "twitter": "None", "instagram": "None", "facebook": "None", "youtube": "None", "website": "None", "summary": "None", "logo": "None", "latitude": 45.57656620618638, "longitude": -73.54801174329144}, "141406744RR0001": {"name": "LA FONDATION DU SEMINAIRE SALESIEN DE SHERBROOKE INC", "designationCode": "C", "categoryCode": "21", "address": "135, RUE DON BOSCO NORD", "city": "SHERBROOKE", "province": "QC", "country": "CA", "postalCode": "J1L1E5", "twitter": "None", "instagram": "None", "facebook": "None", "youtube": "None", "website": "None", "summary": "None", "logo": "None", "latitude": 45.398836946859596, "longitude": -71.95052486197717}, "119001055RR0001": {"name": "LA FONDATION DU TH\u00c9\u00c2TRE DU TRIDENT INC.", "designationCode": "A", "categoryCode": "22", "address": "269 BOUL RENE-LEVESQUE EST", "city": "QUEBEC", "province": "QC", "country": "CA", "postalCode": "G1R2B3", "twitter": "None", "instagram": "None", "facebook": "None", "youtube": "None", "website": "None", "summary": "None", "logo": "None", "latitude": 46.80651293807555, "longitude": -71.22246997222109}, "102934072RR0001": {"name": "LA FONDATION DU THEATRE DU NOUVEAU MONDE", "designationCode": "C", "categoryCode": "22", "address": "84 RUE STE-CATHERINE OUEST", "city": "MONTREAL", "province": "QC", "country": "CA", "postalCode": "H2X1Z6", "twitter": "None", "instagram": "None", "facebook": "None", "youtube": "None", "website": "None", "summary": "None", "logo": "None", "latitude": 45.508902476253795, "longitude": -73.56458751647554}, "892516360RR0001": {"name": "LA FONDATION DU YWCA DE MONTREAL/YWCA FOUNDATION OF MONTREAL", "designationCode": "A", "categoryCode": "43", "address": "1355 BOUL RENE-LEVESQUE O", "city": "MONTREAL", "province": "QC", "country": "CA", "postalCode": "H3G1T3", "twitter": "None", "instagram": "None", "facebook": "None", "youtube": "None", "website": "None", "summary": "None", "logo": "None", "latitude": 45.496119194298466, "longitude": -73.57293467516854}, "119001808RR0001": {"name": "LA FONDATION E.C.S. ECS FOUNDATION INC.", "designationCode": "A", "categoryCode": "23", "address": "525 MOUNT PLEASANT AVE", "city": "WESTMOUNT", "province": "QC", "country": "CA", "postalCode": "H3Y3H6", "twitter": "None", "instagram": "None", "facebook": "None", "youtube": "None", "website": "None", "summary": "None", "logo": "None", "latitude": 45.49105621761199, "longitude": -73.59691999887482}, "891853152RR0001": {"name": "LA FONDATION ECOLE AKIVA", "designationCode": "A", "categoryCode": "23", "address": "450 AV KENSINGTON", "city": "WESTMOUNT", "province": "QC", "country": "CA", "postalCode": "H3Y3A2", "twitter": "None", "instagram": "None", "facebook": "None", "youtube": "None", "website": "None", "summary": "None", "logo": "None", "latitude": 45.4849769866698, "longitude": -73.59726301846608}, "810822478RR0001": {"name": "LA FONDATION EN ENVIRONNEMENT ET D\u00c9VELOPPEMENT DURABLE", "designationCode": "A", "categoryCode": "03", "address": "870 AVE DE SALABERRY          BUREAU 203", "city": "QUEBEC", "province": "QC", "country": "CA", "postalCode": "G1R2T9", "twitter": "None", "instagram": "None", "facebook": "None", "youtube": "None", "website": "None", "summary": "None", "logo": "None", "latitude": 46.80589182679337, "longitude": -71.22672208246271}, "831265343RR0001": {"name": "LA FONDATION EVANGELIUM VITAE/THE EVANGELIUM VITAE FOUNDATION", "designationCode": "C", "categoryCode": "49", "address": "15 RUE PIERRE-BOUCHER", "city": "BOUCHERVILLE", "province": "QC", "country": "CA", "postalCode": "J4B5A5", "twitter": "None", "instagram": "None", "facebook": "None", "youtube": "None", "website": "None", "summary": "None", "logo": "None", "latitude": 45.61005248932418, "longitude": -73.45524113336026}, "835955162RR0001": {"name": "LA FONDATION F. CATANIA/THE F. CATANIA FOUNDATION", "designationCode": "B", "categoryCode": "03", "address": "9975 RUE DE CHATEAUNEUF       LOCAL S", "city": "BROSSARD", "province": "QC", "country": "CA", "postalCode": "J4Z3V6", "twitter": "None", "instagram": "None", "facebook": "None", "youtube": "None", "website": "None", "summary": "None", "logo": "None", "latitude": 45.45878100000006, "longitude": -73.44348199999993}, "857178248RR0001": {"name": "LA FONDATION FABRIQUE DE SAYABEC (MAURICE FOURNIER)", "designationCode": "A", "categoryCode": "43", "address": "1, RUE MARCHETERRE", "city": "SAYABEC", "province": "QC", "country": "CA", "postalCode": "G0J3K0", "twitter": "None", "instagram": "None", "facebook": "None", "youtube": "None", "website": "None", "summary": "None", "logo": "None", "latitude": 48.5647297857349, "longitude": -67.68495009224448}, "864059340RR0001": {"name": "LA FONDATION FAMILIALE VINESH SAXENA / THE VINESH SAXENA FAMILY FOUNDATION", "designationCode": "B", "categoryCode": "09", "address": "261 ST-HILAIRE", "city": "LONGUEUIL", "province": "QC", "country": "CA", "postalCode": "J4J2P4", "twitter": "None", "instagram": "None", "facebook": "None", "youtube": "None", "website": "None", "summary": "None", "logo": "None", "latitude": 45.53103830474924, "longitude": -73.47603313310046}, "886075803RR0001": {"name": "LA FONDATION FERNAND R. BIBEAU / THE FERNAND R. BIBEAU FOUNDATION", "designationCode": "B", "categoryCode": "03", "address": "430 BOULEVARD ARTHUR-SAUVE    BUREAU 6010", "city": "SAINT-EUSTACHE", "province": "QC", "country": "CA", "postalCode": "J7R6V6", "twitter": "None", "instagram": "None", "facebook": "None", "youtube": "None", "website": "None", "summary": "None", "logo": "None", "latitude": 45.5655864559987, "longitude": -73.90610450793451}, "894236066RR0001": {"name": "LA FONDATION FOYER DE LA P\u00c9RADE INC.", "designationCode": "C", "categoryCode": "19", "address": "60 RUE DE LA FABRIQUE", "city": "STE-ANNE DE LA PERADE CHAM", "province": "QC", "country": "CA", "postalCode": "G0X2J0", "twitter": "None", "instagram": "None", "facebook": "None", "youtube": "None", "website": "None", "summary": "None", "logo": "None", "latitude": 46.573831940850816, "longitude": -72.20423340989124}, "140450495RR0001": {"name": "LA FONDATION FRANCAISE POUR LES ANCIENS COMBATTANTS ET VICTIMES DE GUERRE", "designationCode": "C", "categoryCode": "09", "address": "1665 EST AVE LAURIER", "city": "MONTREAL", "province": "QC", "country": "CA", "postalCode": "H2J1J3", "twitter": "None", "instagram": "None", "facebook": "None", "youtube": "None", "website": "None", "summary": "None", "logo": "None", "latitude": 45.535527764094816, "longitude": -73.58186399114186}, "120495296RR0001": {"name": "LA FONDATION FRANCOIS LAMY, INC", "designationCode": "C", "categoryCode": "52", "address": "2485 CH ROYAL", "city": "SAINTE-FAMILLE", "province": "QC", "country": "CA", "postalCode": "G0A3P0", "twitter": "None", "instagram": "None", "facebook": "None", "youtube": "None", "website": "None", "summary": "None", "logo": "None", "latitude": 46.973197175215915, "longitude": -70.96267925071177}, "120515002RR0001": {"name": "LA FONDATION FRANCOIS-BOURRIN INC", "designationCode": "A", "categoryCode": "23", "address": "50 AV DES CASCADES", "city": "QUEBEC", "province": "QC", "country": "CA", "postalCode": "G1E2J7", "twitter": "None", "instagram": "None", "facebook": "None", "youtube": "None", "website": "None", "summary": "None", "logo": "None", "latitude": 46.86261587148717, "longitude": -71.19601668818161}, "119001113RR0001": {"name": "LA FONDATION GABRIELLE ROY", "designationCode": "C", "categoryCode": "22", "address": "3492, AVENUE LAVAL", "city": "MONTR\u00c9AL", "province": "QC", "country": "CA", "postalCode": "H3X2C8", "twitter": "None", "instagram": "None", "facebook": "None", "youtube": "None", "website": "None", "summary": "None", "logo": "None", "latitude": 45.515935782388006, "longitude": -73.57005391730614}, "872454103RR0001": {"name": "LA FONDATION GEA INTIAMISTAD", "designationCode": "C", "categoryCode": "11", "address": "6768 RUE SAINT-DENIS", "city": "MONTR\u00c9AL", "province": "QC", "country": "CA", "postalCode": "H2S2S2", "twitter": "None", "instagram": "None", "facebook": "None", "youtube": "None", "website": "None", "summary": "None", "logo": "None", "latitude": 45.53602079681473, "longitude": -73.60955437734421}, "887906121RR0001": {"name": "LA FONDATION GENERATIONS/THE GENERATIONS FOUNDATION", "designationCode": "C", "categoryCode": "09", "address": "C.P. ELYSEE 89023", "city": "LAVAL", "province": "QC", "country": "CA", "postalCode": "H7W5K1", "twitter": "None", "instagram": "None", "facebook": "None", "youtube": "None", "website": "None", "summary": "None", "logo": "None", "latitude": 45.527066448766604, "longitude": -73.75691294163757}, "126854249RR0001": {"name": "LA FONDATION GERARD DELAGE", "designationCode": "C", "categoryCode": "59", "address": "2580 BOUL. ST-JOSEPH", "city": "LACHINE", "province": "QC", "country": "CA", "postalCode": "H8S2N9", "twitter": "None", "instagram": "None", "facebook": "None", "youtube": "None", "website": "None", "summary": "None", "logo": "None", "latitude": 45.434174321686136, "longitude": -73.68702804454956}, "119001154RR0001": {"name": "LA FONDATION GOLDSTEIN", "designationCode": "B", "categoryCode": "43", "address": "1010 DE LA GAUCHETIERE W      SUITE 200", "city": "MONTREAL", "province": "QC", "country": "CA", "postalCode": "H3B2S1", "twitter": "None", "instagram": "None", "facebook": "None", "youtube": "None", "website": "None", "summary": "None", "logo": "None", "latitude": 45.497931329159286, "longitude": -73.56733633345844}, "861283133RR0001": {"name": "LA FONDATION GUY CHARRON", "designationCode": "B", "categoryCode": "23", "address": "202 - 7665 BOUL SAINT-LAURENT", "city": "MONTREAL", "province": "QC", "country": "CA", "postalCode": "H2R1W9", "twitter": "None", "instagram": "None", "facebook": "None", "youtube": "None", "website": "None", "summary": "None", "logo": "None", "latitude": 45.53693994644805, "longitude": -73.62429503329685}, "888782539RR0001": {"name": "LA FONDATION GUY ET SHEILA GAGNE (2000) INC.", "designationCode": "B", "categoryCode": "09", "address": "2830 ROUTE 115", "city": "IRISHTOWN", "province": "NB", "country": "CA", "postalCode": "E1H2N2", "twitter": "None", "instagram": "None", "facebook": "None", "youtube": "None", "website": "None", "summary": "None", "logo": "None", "latitude": 46.198860850115615, "longitude": -64.7951659250578}, "135671337RR0001": {"name": "LA FONDATION HEBERGEMENT ST-AUGUSTIN", "designationCode": "A", "categoryCode": "13", "address": "2135, DE LA TERRASSE-CADIEUX", "city": "QUEBEC", "province": "QC", "country": "CA", "postalCode": "G1C1Z2", "twitter": "None", "instagram": "None", "facebook": "None", "youtube": "None", "website": "None", "summary": "None", "logo": "None", "latitude": 46.87713339044726, "longitude": -71.16238460729315}, "899577944RR0001": {"name": "LA FONDATION HUMANITAS POUR LES HUMANITES GREGO-LATINES AU QUEBEC", "designationCode": "C", "categoryCode": "21", "address": "1319 RUE BLIER", "city": "L'ANCIENNE-LORETTE", "province": "QC", "country": "CA", "postalCode": "G2E2T3", "twitter": "None", "instagram": "None", "facebook": "None", "youtube": "None", "website": "None", "summary": "None", "logo": "None", "latitude": 46.799442501269404, "longitude": -71.34253587950857}}