{"118780352RR0001": {"name": "AVIATION ALBERTA ASSOCIATION", "designationCode": "C", "categoryCode": "59", "address": "3715 56TH AVE E", "city": "EDMONTON", "province": "AB", "country": "CA", "postalCode": "T9E0V4", "twitter": "None", "instagram": "None", "facebook": "None", "youtube": "None", "website": "None", "summary": "None", "logo": "None", "latitude": 53.32364850991196, "longitude": -113.57049766239153}, "118797455RR0001": {"name": "AVIATION INTERFAITH MINISTRY (CALGARY) SOCIETY", "designationCode": "C", "categoryCode": "39", "address": "P.O. BOX 132                  2000 AIRPORT ROAD N.E.", "city": "CALGARY", "province": "AB", "country": "CA", "postalCode": "T2E6W5", "twitter": "None", "instagram": "None", "facebook": "None", "youtube": "None", "website": "None", "summary": "None", "logo": "None", "latitude": 51.13361025417518, "longitude": -114.01110687642536}, "897182267RR0001": {"name": "AVIATION INTERFAITH MINISTRY (HALIFAX)", "designationCode": "C", "categoryCode": "49", "address": "316 - 556 BEDFORD HWY", "city": "HALIFAX", "province": "NS", "country": "CA", "postalCode": "B3M4X7", "twitter": "None", "instagram": "None", "facebook": "None", "youtube": "None", "website": "None", "summary": "None", "logo": "None", "latitude": 44.69385994113929, "longitude": -63.66086951015528}, "118797471RR0001": {"name": "AVIATION INTERFAITH MINISTRY (TORONTO)", "designationCode": "C", "categoryCode": "49", "address": "PO BOX 232", "city": "TORONTO", "province": "ON", "country": "CA", "postalCode": "L5P1B1", "twitter": "None", "instagram": "None", "facebook": "None", "youtube": "None", "website": "None", "summary": "None", "logo": "None", "latitude": 43.648690000000045, "longitude": -79.38543999999996}, "886391598RR0001": {"name": "AVIATION INTERFAITH MINISTRY (WINNIPEG), INC", "designationCode": "C", "categoryCode": "47", "address": "2535-1970 WELLINGTON AVE", "city": "WINNIPEG", "province": "MB", "country": "CA", "postalCode": "R3H0E3", "twitter": "None", "instagram": "None", "facebook": "None", "youtube": "None", "website": "None", "summary": "None", "logo": "None", "latitude": 49.90519522848936, "longitude": -97.22375447068521}, "131920332RR0001": {"name": "AVICARE BIRD REHABILITATION CENTRE", "designationCode": "C", "categoryCode": "54", "address": "157 MINTWOOD DR", "city": "TORONTO", "province": "ON", "country": "CA", "postalCode": "M2M3A6", "twitter": "None", "instagram": "None", "facebook": "None", "youtube": "None", "website": "None", "summary": "None", "logo": "None", "latitude": 43.80602692174956, "longitude": -79.38080321285148}, "133747964RR0001": {"name": "AVIF (ACTION SUR LA VIOLENCE ET INTERVENTION FAMILIALE)", "designationCode": "C", "categoryCode": "59", "address": "330 BOULEVARD PIERRE-BOURSIER SUITE 1200", "city": "CHATEAUGUAY", "province": "QC", "country": "CA", "postalCode": "J6J4Z2", "twitter": "None", "instagram": "None", "facebook": "None", "youtube": "None", "website": "None", "summary": "None", "logo": "None", "latitude": 45.348327431011725, "longitude": -73.70111551105119}, "891609448RR0001": {"name": "AVOCA RIVINGTON BAPTIST CHURCH", "designationCode": "C", "categoryCode": "31", "address": "236 PRINCIPLE ST APT 24", "city": "GRENVILLE", "province": "QC", "country": "CA", "postalCode": "J0V1J0", "twitter": "None", "instagram": "None", "facebook": "None", "youtube": "None", "website": "None", "summary": "None", "logo": "None", "latitude": 45.62918658505978, "longitude": -74.60233128890889}, "888043809RR0001": {"name": "AVOCATS SANS FRONTIERES QUEBEC / LAWYERS WITHOUT BORDERS QUEBEC", "designationCode": "C", "categoryCode": "29", "address": "230-825 ST-JOSEPH", "city": "QU\u00c9BEC", "province": "QC", "country": "CA", "postalCode": "G1K3C8", "twitter": "None", "instagram": "None", "facebook": "None", "youtube": "None", "website": "None", "summary": "None", "logo": "None", "latitude": 46.816031232298506, "longitude": -71.21876388536562}, "119709764RR0001": {"name": "AVON CO-OPERATIVE NURSERY SCHOOL INCORPORATED", "designationCode": "C", "categoryCode": "20", "address": "P.O. BOX 21008                BLOWES POSTAL OUTLET", "city": "STRATFORD", "province": "ON", "country": "CA", "postalCode": "N5A7V4", "twitter": "None", "instagram": "None", "facebook": "None", "youtube": "None", "website": "None", "summary": "None", "logo": "None", "latitude": 43.37013300000005, "longitude": -80.98191349999993}, "891083149RR0001": {"name": "AVON FOUNDATION FOR WOMEN, CANADA/FONDATION AVON POUR LES FEMMES, CANADA", "designationCode": "C", "categoryCode": "11", "address": "5500,AUTOROUTE TRANSCANADIENNE", "city": "POINT-CLAIRE", "province": "QC", "country": "CA", "postalCode": "H9R1B6", "twitter": "None", "instagram": "None", "facebook": "None", "youtube": "None", "website": "None", "summary": "None", "logo": "None", "latitude": 45.4688277987127, "longitude": -73.81517487864079}, "873591564RR0001": {"name": "AVON MAITLAND DISTRICT SCHOOL BOARD", "designationCode": "C", "categoryCode": "20", "address": "62 CHALK ST N", "city": "SEAFORTH", "province": "ON", "country": "CA", "postalCode": "N0K1W0", "twitter": "None", "instagram": "None", "facebook": "None", "youtube": "None", "website": "None", "summary": "None", "logo": "None", "latitude": 43.554866766897575, "longitude": -81.38881906389746}, "129871208RR0001": {"name": "AVON MENNONITE CHURCH", "designationCode": "C", "categoryCode": "34", "address": "90 GREENWOOD DRIVE", "city": "STRATFORD", "province": "ON", "country": "CA", "postalCode": "N5A7W5", "twitter": "None", "instagram": "None", "facebook": "None", "youtube": "None", "website": "None", "summary": "None", "logo": "None", "latitude": 43.382770472111766, "longitude": -80.97597668259006}, "119300150RR0001": {"name": "AVON VIEW / WEST HANTS BAND PARENTS ASSOCIATION", "designationCode": "C", "categoryCode": "22", "address": "BOX 2502", "city": "WINDSOR", "province": "NS", "country": "CA", "postalCode": "B0N2T0", "twitter": "None", "instagram": "None", "facebook": "None", "youtube": "None", "website": "None", "summary": "None", "logo": "None", "latitude": 44.990170000000035, "longitude": -64.12904999999995}, "106740244RR0001": {"name": "AVON/PUTNAM PASTORAL CHARGE", "designationCode": "C", "categoryCode": "44", "address": "MRS JOYCE PAVEY               254 KENSINGTON AVE", "city": "INGERSOLL", "province": "ON", "country": "CA", "postalCode": "N5C2B3", "twitter": "None", "instagram": "None", "facebook": "None", "youtube": "None", "website": "None", "summary": "None", "logo": "None", "latitude": 43.049169324456095, "longitude": -80.88425976045946}, "890760994RR0001": {"name": "AVONDALE COMMUNITY CLUB", "designationCode": "C", "categoryCode": "56", "address": "159 AVONDALE ROAD RR2", "city": "NEWPORT", "province": "NS", "country": "CA", "postalCode": "B0N2A0", "twitter": "None", "instagram": "None", "facebook": "None", "youtube": "None", "website": "None", "summary": "None", "logo": "None", "latitude": 45.018480863205944, "longitude": -64.12391317580372}, "893336172RR0001": {"name": "AVONDALE HERITAGE AND CONSERVATION FOUNDATION INC.", "designationCode": "C", "categoryCode": "50", "address": "AVONDALE RAILWAY STATION PO   BOX 100", "city": "AVONDALE", "province": "NL", "country": "CA", "postalCode": "A0A1B0", "twitter": "None", "instagram": "None", "facebook": "None", "youtube": "None", "website": "None", "summary": "None", "logo": "None", "latitude": 47.42335000000003, "longitude": -53.19659999999993}, "118797547RR0001": {"name": "AVONDALE UNITED CHURCH", "designationCode": "C", "categoryCode": "44", "address": "60 HARVEY ST", "city": "TILLSONBURG", "province": "ON", "country": "CA", "postalCode": "N4G5V8", "twitter": "None", "instagram": "None", "facebook": "None", "youtube": "None", "website": "None", "summary": "None", "logo": "None", "latitude": 42.86179824268759, "longitude": -80.726910536025}, "871489944RR0001": {"name": "AVONHURST PENTECOSTAL ASSEMBLY", "designationCode": "C", "categoryCode": "36", "address": "3200 AVONHURST DRIVE", "city": "REGINA", "province": "SK", "country": "CA", "postalCode": "S4R3J7", "twitter": "None", "instagram": "None", "facebook": "None", "youtube": "None", "website": "None", "summary": "None", "logo": "None", "latitude": 50.47244240163867, "longitude": -104.62704602645886}, "106740152RR0001": {"name": "AVONLEA FREE METHODIST CHURCH", "designationCode": "C", "categoryCode": "39", "address": "PO BOX 184", "city": "AVONLEA", "province": "SK", "country": "CA", "postalCode": "S0H0C0", "twitter": "None", "instagram": "None", "facebook": "None", "youtube": "None", "website": "None", "summary": "None", "logo": "None", "latitude": 50.016770000000065, "longitude": -105.06780999999995}, "891255945RR0001": {"name": "AVONLEA TRUST", "designationCode": "B", "categoryCode": "03", "address": "P.O. BOX 98", "city": "UXBRIDGE", "province": "ON", "country": "CA", "postalCode": "L9P1M6", "twitter": "None", "instagram": "None", "facebook": "None", "youtube": "None", "website": "None", "summary": "None", "logo": "None", "latitude": 44.10619800000005, "longitude": -79.12382299999993}, "118797562RR0001": {"name": "AVONLEA UNITED CHURCH", "designationCode": "C", "categoryCode": "44", "address": "BOX 74", "city": "DOMAIN", "province": "MB", "country": "CA", "postalCode": "R0G0M0", "twitter": "None", "instagram": "None", "facebook": "None", "youtube": "None", "website": "None", "summary": "None", "logo": "None", "latitude": 49.617170000000044, "longitude": -97.32210999999995}, "890041049RR0001": {"name": "AVONLEA UNITED CHURCH", "designationCode": "C", "categoryCode": "44", "address": "BOX 64", "city": "AVONLEA", "province": "SK", "country": "CA", "postalCode": "S0H0C0", "twitter": "None", "instagram": "None", "facebook": "None", "youtube": "None", "website": "None", "summary": "None", "logo": "None", "latitude": 50.016770000000065, "longitude": -105.06780999999995}, "138656749RR0001": {"name": "AVONMORE CHRISTIAN FELLOWSHIP INC", "designationCode": "C", "categoryCode": "47", "address": "313 MARVEN RD", "city": "NORTON", "province": "NB", "country": "CA", "postalCode": "E5T1J7", "twitter": "None", "instagram": "None", "facebook": "None", "youtube": "None", "website": "None", "summary": "None", "logo": "None", "latitude": 45.67893478230794, "longitude": -65.74515703005501}, "118797612RR0001": {"name": "AVONMORE FINCH PASTORAL CHARGE", "designationCode": "C", "categoryCode": "44", "address": "16412 CENTENNIAL DRIVE RR#1", "city": "AVONMORE", "province": "ON", "country": "CA", "postalCode": "K0C1C0", "twitter": "None", "instagram": "None", "facebook": "None", "youtube": "None", "website": "None", "summary": "None", "logo": "None", "latitude": 45.17134582431186, "longitude": -74.95911516541636}, "135215622RR0001": {"name": "AVONPORT UNITED BAPTIST CHURCH", "designationCode": "C", "categoryCode": "31", "address": "508 OAK ISLAND ROAD", "city": "AVONPORT", "province": "NS", "country": "CA", "postalCode": "B0P1B0", "twitter": "None", "instagram": "None", "facebook": "None", "youtube": "None", "website": "None", "summary": "None", "logo": "None", "latitude": 45.1022377126395, "longitude": -64.25712016975217}, "132931833RR0001": {"name": "AVONTON PRESBYTERIAN CHURCH,", "designationCode": "C", "categoryCode": "37", "address": "3401 PERTH RD. 130            RR 2", "city": "ST PAULS", "province": "ON", "country": "CA", "postalCode": "N0K1V0", "twitter": "None", "instagram": "None", "facebook": "None", "youtube": "None", "website": "None", "summary": "None", "logo": "None", "latitude": 43.51877700000006, "longitude": -79.71154999999993}, "118797679RR0001": {"name": "AVRAHAM AND CHIPAH SURAH TANENBAUM FOUNDATION", "designationCode": "B", "categoryCode": "23", "address": "1051 TAPSCOTT ROAD", "city": "SCARBOROUGH", "province": "ON", "country": "CA", "postalCode": "M1X1A1", "twitter": "None", "instagram": "None", "facebook": "None", "youtube": "None", "website": "None", "summary": "None", "logo": "None", "latitude": 43.82487783461231, "longitude": -79.24262752622865}, "857949598RR0001": {"name": "AVREICHIM TORAH INSTITUTE", "designationCode": "C", "categoryCode": "39", "address": "2100 BARCLAY", "city": "MONTREAL", "province": "QC", "country": "CA", "postalCode": "H3S1J3", "twitter": "None", "instagram": "None", "facebook": "None", "youtube": "None", "website": "None", "summary": "None", "logo": "None", "latitude": 45.5138632359052, "longitude": -73.62533656714194}, "843642166RR0001": {"name": "AWA Canada", "designationCode": "C", "categoryCode": "47", "address": "2280 SHANNON HILLS DR", "city": "WEST KELOWNA", "province": "BC", "country": "CA", "postalCode": "V4T2P1", "twitter": "None", "instagram": "None", "facebook": "None", "youtube": "None", "website": "None", "summary": "None", "logo": "None", "latitude": 49.87099650207748, "longitude": -119.6105594106124}, "898182340RR0001": {"name": "AWAC - AN ASSOCIATION ADVOCATING FOR WOMEN AND CHILDREN", "designationCode": "C", "categoryCode": "01", "address": "144 GEORGE ST", "city": "PRINCE GEORGE", "province": "BC", "country": "CA", "postalCode": "V2L1P9", "twitter": "None", "instagram": "None", "facebook": "None", "youtube": "None", "website": "None", "summary": "None", "logo": "None", "latitude": 53.917485507069124, "longitude": -122.74156307851024}, "864137583RR0001": {"name": "AWAKEN SOULS MINISTRY FOR MEN", "designationCode": "C", "categoryCode": "49", "address": "110 RIVIERA DRIVE, UNIT 6A", "city": "MARKHAM", "province": "ON", "country": "CA", "postalCode": "L3R5M1", "twitter": "None", "instagram": "None", "facebook": "None", "youtube": "None", "website": "None", "summary": "None", "logo": "None", "latitude": 43.83264215130678, "longitude": -79.34088728700429}, "728009697RR0001": {"name": "AWAKEN THE NATIONS FELLOWSHIP SOCIETY", "designationCode": "C", "categoryCode": "39", "address": "34 GALE AVE", "city": "SHERWOOD PARK", "province": "AB", "country": "CA", "postalCode": "T8A2K8", "twitter": "None", "instagram": "None", "facebook": "None", "youtube": "None", "website": "None", "summary": "None", "logo": "None", "latitude": 53.53701854342441, "longitude": -113.293431}, "899662522RR0001": {"name": "AWAKENING EVANGELICAL MINISTRIES", "designationCode": "C", "categoryCode": "45", "address": "20 HUNTINGTON AVENUE", "city": "TORONTO", "province": "ON", "country": "CA", "postalCode": "M1K4K7", "twitter": "None", "instagram": "None", "facebook": "None", "youtube": "None", "website": "None", "summary": "None", "logo": "None", "latitude": 43.72876960338165, "longitude": -79.25297473677057}, "890987647RR0001": {"name": "AWAKENING MINISTRIES", "designationCode": "C", "categoryCode": "47", "address": "PO BOX 1", "city": "DON MILLS", "province": "ON", "country": "CA", "postalCode": "M3C2R6", "twitter": "None", "instagram": "None", "facebook": "None", "youtube": "None", "website": "None", "summary": "None", "logo": "None", "latitude": 43.70566232484685, "longitude": -79.33386344904338}, "118797695RR0001": {"name": "AWARDS TRUST FUND OF THE THUNDER BAY CATHOLIC DISTRICT SCHOOL BOARD", "designationCode": "C", "categoryCode": "21", "address": "459 VICTORIA AVENUE WEST", "city": "THUNDER BAY", "province": "ON", "country": "CA", "postalCode": "P7C0A4", "twitter": "None", "instagram": "None", "facebook": "None", "youtube": "None", "website": "None", "summary": "None", "logo": "None", "latitude": 48.38414351543634, "longitude": -89.28804141618096}, "886712991RR0001": {"name": "AWASIS CHILD CARE CO-OPERATIVE LTD", "designationCode": "C", "categoryCode": "01", "address": "3737 WASCANA PARKWAY          UNIVERSITY OF REGINA", "city": "REGINA", "province": "SK", "country": "CA", "postalCode": "S4S0A2", "twitter": "None", "instagram": "None", "facebook": "None", "youtube": "None", "website": "None", "summary": "None", "logo": "None", "latitude": 50.419710000000066, "longitude": -104.59363999999994}, "819088873RR0001": {"name": "AWE (Ageing With Ease in Rural Communities) Society", "designationCode": "C", "categoryCode": "09", "address": "1601 SEYMOUR ARM BAY ROAD     BOX 71,RR2", "city": "SEYMOUR ARM", "province": "BC", "country": "CA", "postalCode": "V0E2V2", "twitter": "None", "instagram": "None", "facebook": "None", "youtube": "None", "website": "None", "summary": "None", "logo": "None", "latitude": 51.24003302790201, "longitude": -118.9099599792467}, "849966460RR0001": {"name": "AWERES VOLUNTEER FIRE AND RESCUE AND LOCAL SERVICES BOARD AUXILIARY", "designationCode": "C", "categoryCode": "59", "address": "89 BIRCHGROVE ROAD", "city": "AWERES TWP.", "province": "ON", "country": "CA", "postalCode": "P6A0E4", "twitter": "None", "instagram": "None", "facebook": "None", "youtube": "None", "website": "None", "summary": "None", "logo": "None", "latitude": 46.63263781470504, "longitude": -84.29486400433608}, "119881985RR0001": {"name": "AWESOME BEGINNINGS CO-OPERATIVE NURSERY SCHOOL INC.", "designationCode": "C", "categoryCode": "20", "address": "1496 CENTRE RD", "city": "CARLISLE", "province": "ON", "country": "CA", "postalCode": "L0R1H2", "twitter": "None", "instagram": "None", "facebook": "None", "youtube": "None", "website": "None", "summary": "None", "logo": "None", "latitude": 43.39580253124805, "longitude": -79.98310273645346}, "127624443RR0001": {"name": "AWHL-ASSAULTED WOMEN'S HELPLINE", "designationCode": "C", "categoryCode": "09", "address": "PO BOX 369 STATION B", "city": "TORONTO", "province": "ON", "country": "CA", "postalCode": "M5T2W2", "twitter": "None", "instagram": "None", "facebook": "None", "youtube": "None", "website": "None", "summary": "None", "logo": "None", "latitude": 43.64868300000006, "longitude": -79.38544399999994}, "820867497RR0001": {"name": "AWHSS African Women's Health Services Society", "designationCode": "C", "categoryCode": "11", "address": "4535 KINGSWAY", "city": "BURNABY", "province": "BC", "country": "CA", "postalCode": "V5H0E5", "twitter": "None", "instagram": "None", "facebook": "None", "youtube": "None", "website": "None", "summary": "None", "logo": "None", "latitude": 49.230000634742886, "longitude": -123.00389546011387}, "888999265RR0001": {"name": "AWIC COMMUNITY AND SOCIAL SERVICES", "designationCode": "C", "categoryCode": "20", "address": "340 - 2900 WARDEN AVE", "city": "SCARBOROUGH", "province": "ON", "country": "CA", "postalCode": "M1W2S8", "twitter": "None", "instagram": "None", "facebook": "None", "youtube": "None", "website": "None", "summary": "None", "logo": "None", "latitude": 43.79846671998633, "longitude": -79.31660975219654}, "139571863RR0001": {"name": "AWO TAAN HEALING LODGE SOCIETY", "designationCode": "C", "categoryCode": "09", "address": "BOX 6084                      STATION A", "city": "CALGARY", "province": "AB", "country": "CA", "postalCode": "T2H2L3", "twitter": "None", "instagram": "None", "facebook": "None", "youtube": "None", "website": "None", "summary": "None", "logo": "None", "latitude": 51.04531500000006, "longitude": -114.06301099999993}, "868886003RR0001": {"name": "AWPA Aboriginal Women's Professional Association", "designationCode": "C", "categoryCode": "59", "address": "PO BOX 2035 STN MAIN", "city": "EDMONTON", "province": "AB", "country": "CA", "postalCode": "T5J2P4", "twitter": "None", "instagram": "None", "facebook": "None", "youtube": "None", "website": "None", "summary": "None", "logo": "None", "latitude": 53.54623500000005, "longitude": -113.49037249999994}, "106893076RR0001": {"name": "AXE NEO 7", "designationCode": "C", "categoryCode": "22", "address": "80 RUE HANSON", "city": "GATINEAU", "province": "QC", "country": "CA", "postalCode": "J8Y3M5", "twitter": "None", "instagram": "None", "facebook": "None", "youtube": "None", "website": "None", "summary": "None", "logo": "None", "latitude": 45.428747102140896, "longitude": -75.72828524672522}, "118797760RR0001": {"name": "AXIS THEATRE SOCIETY", "designationCode": "C", "categoryCode": "22", "address": "2ND FLOOR                     1405 ANDERSON ST", "city": "VANCOUVER", "province": "BC", "country": "CA", "postalCode": "V6H3R5", "twitter": "None", "instagram": "None", "facebook": "None", "youtube": "None", "website": "None", "summary": "None", "logo": "None", "latitude": 49.271285565566785, "longitude": -123.13529005940113}, "129129078RR0001": {"name": "AY ALTERNATIVES FOR YOUTH HAMILTON", "designationCode": "C", "categoryCode": "49", "address": "38 JAMES ST S", "city": "HAMILTON", "province": "ON", "country": "CA", "postalCode": "L8P4W6", "twitter": "None", "instagram": "None", "facebook": "None", "youtube": "None", "website": "None", "summary": "None", "logo": "None", "latitude": 43.255717702021755, "longitude": -79.86960884968082}, "118797786RR0001": {"name": "AYDELU INCORPORATED AYDELU INCORPOREE", "designationCode": "C", "categoryCode": "56", "address": "94 DU PATRIMOINE              BOX 250", "city": "AYLMER", "province": "QC", "country": "CA", "postalCode": "J9H5E6", "twitter": "None", "instagram": "None", "facebook": "None", "youtube": "None", "website": "None", "summary": "None", "logo": "None", "latitude": 45.39407452510253, "longitude": -75.84390918872988}, "118797794RR0001": {"name": "AYEMEL FAMILY FOUNDATION /FONDATION DE LA FAMILLE AYEMEL", "designationCode": "B", "categoryCode": "03", "address": "4175 ST. CATHERINE ST W #1201", "city": "WESTMOUNT", "province": "QC", "country": "CA", "postalCode": "H3Z3C9", "twitter": "None", "instagram": "None", "facebook": "None", "youtube": "None", "website": "None", "summary": "None", "logo": "None", "latitude": 45.4867417621329, "longitude": -73.58814852037067}, "118797802RR0001": {"name": "AYER'S CLIFF CEMETARY ASSOCIATION", "designationCode": "C", "categoryCode": "59", "address": "950 AMY", "city": "AYER'S CLIFF", "province": "QC", "country": "CA", "postalCode": "J0B1C0", "twitter": "None", "instagram": "None", "facebook": "None", "youtube": "None", "website": "None", "summary": "None", "logo": "None", "latitude": 45.16652978766813, "longitude": -72.04011675644875}, "118797828RR0001": {"name": "AYLESBURY CEMETARY COMMITTEE", "designationCode": "C", "categoryCode": "59", "address": "PO BOX 148", "city": "AYLESBURY", "province": "SK", "country": "CA", "postalCode": "S0G0B0", "twitter": "None", "instagram": "None", "facebook": "None", "youtube": "None", "website": "None", "summary": "None", "logo": "None", "latitude": 50.93336000000005, "longitude": -105.68446999999998}, "118797851RR0001": {"name": "AYLESFORD DISTRICT FIRE COMMISSIONERS", "designationCode": "C", "categoryCode": "59", "address": "PO BOX 293", "city": "AYLESFORD", "province": "NS", "country": "CA", "postalCode": "B0P1C0", "twitter": "None", "instagram": "None", "facebook": "None", "youtube": "None", "website": "None", "summary": "None", "logo": "None", "latitude": 44.92391100000006, "longitude": -64.69257049999993}, "118797869RR0001": {"name": "AYLESFORD PASTORAL CHARGE", "designationCode": "C", "categoryCode": "44", "address": "P O BOX 180", "city": "AYLESFORD", "province": "NS", "country": "CA", "postalCode": "B0P1C0", "twitter": "None", "instagram": "None", "facebook": "None", "youtube": "None", "website": "None", "summary": "None", "logo": "None", "latitude": 44.92391100000006, "longitude": -64.69257049999993}, "118797877RR0001": {"name": "AYLESFORD UNITED BAPTIST CHURCH", "designationCode": "C", "categoryCode": "31", "address": "2543 HIGHWAY 1 PO BOX 120", "city": "AYLESFORD", "province": "NS", "country": "CA", "postalCode": "B0P1C0", "twitter": "None", "instagram": "None", "facebook": "None", "youtube": "None", "website": "None", "summary": "None", "logo": "None", "latitude": 45.02348109273519, "longitude": -64.84333937465897}, "106740871RR0001": {"name": "AYLESFORD UNITED CHURCH", "designationCode": "C", "categoryCode": "44", "address": "PO BOX 180", "city": "AYLESFORD", "province": "NS", "country": "CA", "postalCode": "B0P1C0", "twitter": "None", "instagram": "None", "facebook": "None", "youtube": "None", "website": "None", "summary": "None", "logo": "None", "latitude": 44.92391100000006, "longitude": -64.69257049999993}, "106740897RR0001": {"name": "AYLMER AREA CHRISTIAN COMMUNITY ASSOCIATION INC.", "designationCode": "C", "categoryCode": "09", "address": "26 - 110 CAVERLY RD", "city": "AYLMER", "province": "ON", "country": "CA", "postalCode": "N5H2P4", "twitter": "None", "instagram": "None", "facebook": "None", "youtube": "None", "website": "None", "summary": "None", "logo": "None", "latitude": 42.76810415362348, "longitude": -80.99568209795171}, "894150259RR0001": {"name": "AYLMER AREA COMMUNITY FOUNDATION", "designationCode": "A", "categoryCode": "53", "address": "51 TALBOT ST E", "city": "AYLMER", "province": "ON", "country": "CA", "postalCode": "N5H1H3", "twitter": "None", "instagram": "None", "facebook": "None", "youtube": "None", "website": "None", "summary": "None", "logo": "None", "latitude": 42.773059681470095, "longitude": -80.98184443518569}, "106740905RR0001": {"name": "AYLMER BAPTIST CHURCH", "designationCode": "C", "categoryCode": "31", "address": "153 JOHN STREET SOUTH", "city": "AYLMER", "province": "ON", "country": "CA", "postalCode": "N5H2C6", "twitter": "None", "instagram": "None", "facebook": "None", "youtube": "None", "website": "None", "summary": "None", "logo": "None", "latitude": 42.771117487853466, "longitude": -80.98295285571744}, "107354565RR0001": {"name": "AYLMER EVANGELICAL MENNONITE MISSION CHURCH", "designationCode": "C", "categoryCode": "34", "address": "PO BOX 234", "city": "AYLMER WEST", "province": "ON", "country": "CA", "postalCode": "N5H2R9", "twitter": "None", "instagram": "None", "facebook": "None", "youtube": "None", "website": "None", "summary": "None", "logo": "None", "latitude": 42.773010000000056, "longitude": -80.98362349999994}, "888260213RR0001": {"name": "AYLMER EVANGELICAL MISSIONARY CHURCH", "designationCode": "C", "categoryCode": "39", "address": "600 TALBOT ST W", "city": "AYLMER", "province": "ON", "country": "CA", "postalCode": "N5H2T8", "twitter": "None", "instagram": "None", "facebook": "None", "youtube": "None", "website": "None", "summary": "None", "logo": "None", "latitude": 42.773329678280575, "longitude": -81.00794718099549}, "872079892RR0001": {"name": "AYLMER FULL GOSPEL CHURCH", "designationCode": "C", "categoryCode": "39", "address": "344 TALBOT EAST", "city": "AYLMER", "province": "ON", "country": "CA", "postalCode": "N5H1J2", "twitter": "None", "instagram": "None", "facebook": "None", "youtube": "None", "website": "None", "summary": "None", "logo": "None", "latitude": 42.7728136735029, "longitude": -80.97452229710828}, "868710708RR0001": {"name": "AYLMER GRIEF SUPPORT", "designationCode": "C", "categoryCode": "09", "address": "336 TALBOT STREET EAST", "city": "AYLMER", "province": "ON", "country": "CA", "postalCode": "N5H1J2", "twitter": "None", "instagram": "None", "facebook": "None", "youtube": "None", "website": "None", "summary": "None", "logo": "None", "latitude": 42.772820174399136, "longitude": -80.9749951636152}, "119288918RR0077": {"name": "AYLMER ONTARIO, CONGREGATION OF JEHOVAH'S WITNESSES", "designationCode": "C", "categoryCode": "61", "address": "97 ANNE STREET", "city": "AYLMER", "province": "ON", "country": "CA", "postalCode": "N5H3A1", "twitter": "None", "instagram": "None", "facebook": "None", "youtube": "None", "website": "None", "summary": "None", "logo": "None", "latitude": 42.76714888590645, "longitude": -80.99362919819508}, "875252710RR0001": {"name": "AYLMER PERFORMING ARTS COUNCIL", "designationCode": "C", "categoryCode": "22", "address": "PO BOX 291", "city": "AYLMER", "province": "ON", "country": "CA", "postalCode": "N5H2R9", "twitter": "None", "instagram": "None", "facebook": "None", "youtube": "None", "website": "None", "summary": "None", "logo": "None", "latitude": 42.773010000000056, "longitude": -80.98362349999994}, "106740996RR0001": {"name": "AYLMER UNITED CHURCH", "designationCode": "C", "categoryCode": "44", "address": "164 RUE PRINCIPALE", "city": "GATINEAU", "province": "QC", "country": "CA", "postalCode": "J9H3M8", "twitter": "None", "instagram": "None", "facebook": "None", "youtube": "None", "website": "None", "summary": "None", "logo": "None", "latitude": 45.39528152120739, "longitude": -75.83886069164407}, "866461627RR0001": {"name": "AYLMER-MALAHIDE MUSEUM AND ARCHIVES", "designationCode": "C", "categoryCode": "50", "address": "14 EAST ST", "city": "AYLMER", "province": "ON", "country": "CA", "postalCode": "N5H1W2", "twitter": "None", "instagram": "None", "facebook": "None", "youtube": "None", "website": "None", "summary": "None", "logo": "None", "latitude": 42.77257761307467, "longitude": -80.97280966304541}, "118797943RR0001": {"name": "AYLSHAM AND DISTRICTS DONORS CHOICE APPEAL", "designationCode": "A", "categoryCode": "05", "address": "BOX 54", "city": "AYLSHAM", "province": "SK", "country": "CA", "postalCode": "S0E0C0", "twitter": "None", "instagram": "None", "facebook": "None", "youtube": "None", "website": "None", "summary": "None", "logo": "None", "latitude": 53.200060000000065, "longitude": -103.81761999999998}, "118797950RR0001": {"name": "AYLSHAM MEMORIAL CHURCH", "designationCode": "C", "categoryCode": "44", "address": "PO BOX 202", "city": "AYLSHAM", "province": "SK", "country": "CA", "postalCode": "S0E0C0", "twitter": "None", "instagram": "None", "facebook": "None", "youtube": "None", "website": "None", "summary": "None", "logo": "None", "latitude": 53.200060000000065, "longitude": -103.81761999999998}, "118797976RR0001": {"name": "AYR AND DISTRICT CITIZENS ASSOCIATION", "designationCode": "C", "categoryCode": "01", "address": "191 STANLEY ST", "city": "AYR", "province": "ON", "country": "CA", "postalCode": "N0B1E0", "twitter": "None", "instagram": "None", "facebook": "None", "youtube": "None", "website": "None", "summary": "None", "logo": "None", "latitude": 43.28581256116935, "longitude": -80.44683020315661}, "894155464RR0001": {"name": "AYR CEMETERY COMPANY", "designationCode": "C", "categoryCode": "59", "address": "355 STANLEY ST", "city": "AYR", "province": "ON", "country": "CA", "postalCode": "N0B1E0", "twitter": "None", "instagram": "None", "facebook": "None", "youtube": "None", "website": "None", "summary": "None", "logo": "None", "latitude": 43.285641422959046, "longitude": -80.44430581892215}, "893743666RR0001": {"name": "AYR HORTICULTURAL SOCIETY", "designationCode": "C", "categoryCode": "52", "address": "623 BRANT-WATERLOO RD         RR#3", "city": "AYR", "province": "ON", "country": "CA", "postalCode": "N0B1E0", "twitter": "None", "instagram": "None", "facebook": "None", "youtube": "None", "website": "None", "summary": "None", "logo": "None", "latitude": 43.282451290091394, "longitude": -80.37971467612083}, "130710916RR0001": {"name": "AYR PARIS BAND", "designationCode": "C", "categoryCode": "22", "address": "29 PIPER ST", "city": "AYR", "province": "ON", "country": "CA", "postalCode": "N0B1E0", "twitter": "None", "instagram": "None", "facebook": "None", "youtube": "None", "website": "None", "summary": "None", "logo": "None", "latitude": 43.28450509639384, "longitude": -80.45327627698127}, "107576019RR0001": {"name": "AYR PASTORAL CHARGE", "designationCode": "C", "categoryCode": "44", "address": "92 NORTHUMBERLAND ST", "city": "AYR", "province": "ON", "country": "CA", "postalCode": "N0B1E0", "twitter": "None", "instagram": "None", "facebook": "None", "youtube": "None", "website": "None", "summary": "None", "logo": "None", "latitude": 43.28813391702223, "longitude": -80.4536021331679}, "871453148RR0001": {"name": "AYTON PENTECOSTAL TABERNACLE", "designationCode": "C", "categoryCode": "36", "address": "BOX 111", "city": "AYTON", "province": "ON", "country": "CA", "postalCode": "N0G1C0", "twitter": "None", "instagram": "None", "facebook": "None", "youtube": "None", "website": "None", "summary": "None", "logo": "None", "latitude": 43.954613052160035, "longitude": -80.89639667867361}, "118798008RR0001": {"name": "AZILDA BAPTIST MISSION", "designationCode": "C", "categoryCode": "31", "address": "294 NOTRE DAME STREET EAST", "city": "AZILDA", "province": "ON", "country": "CA", "postalCode": "P0M1B0", "twitter": "None", "instagram": "None", "facebook": "None", "youtube": "None", "website": "None", "summary": "None", "logo": "None", "latitude": 46.55026168056424, "longitude": -81.10391421091823}, "896066644RR0001": {"name": "AZIMUT NORD", "designationCode": "C", "categoryCode": "09", "address": "3277 RUE RICHARD", "city": "SHERBROOKE", "province": "QC", "country": "CA", "postalCode": "J1L2R9", "twitter": "None", "instagram": "None", "facebook": "None", "youtube": "None", "website": "None", "summary": "None", "logo": "None", "latitude": 45.40990873868613, "longitude": -71.94918686217221}, "132071036RR0001": {"name": "AZIMUTH THEATRE ASSOCIATION", "designationCode": "C", "categoryCode": "22", "address": "PO BOX 2182 STN MAIN", "city": "EDMONTON", "province": "AB", "country": "CA", "postalCode": "T5J2P4", "twitter": "None", "instagram": "None", "facebook": "None", "youtube": "None", "website": "None", "summary": "None", "logo": "None", "latitude": 53.54623500000005, "longitude": -113.49037249999994}, "118798016RR0001": {"name": "AZIZ TABAH FOUNDATION", "designationCode": "B", "categoryCode": "21", "address": "107-4655 BONAVISTA", "city": "MONTREAL", "province": "QC", "country": "CA", "postalCode": "H3W2C6", "twitter": "None", "instagram": "None", "facebook": "None", "youtube": "None", "website": "None", "summary": "None", "logo": "None", "latitude": 45.48426994451481, "longitude": -73.6176490218999}, "132276551RR0001": {"name": "AZZAHRA INTERNATIONAL FOUNDATION INC./FONDATION INTERNATIONALE AZZAHRA INC.", "designationCode": "C", "categoryCode": "60", "address": "3642 RUE FLEURY E.", "city": "MONTREAL-NORD", "province": "QC", "country": "CA", "postalCode": "H1H2S4", "twitter": "None", "instagram": "None", "facebook": "None", "youtube": "None", "website": "None", "summary": "None", "logo": "None", "latitude": 45.582829167349615, "longitude": -73.6391550607653}, "807719943RR0001": {"name": "A440 FOUNDATION", "designationCode": "B", "categoryCode": "03", "address": "800-650 GEORGIA STREET WEST   PO BOX 11588", "city": "VANCOUVER", "province": "BC", "country": "CA", "postalCode": "V6B4N8", "twitter": "None", "instagram": "None", "facebook": "None", "youtube": "None", "website": "None", "summary": "None", "logo": "None", "latitude": 49.282095217179936, "longitude": -123.11767129779695}, "873211163RR0001": {"name": "B & B Foundation for the Theatrical & Musical Arts of Alberta", "designationCode": "A", "categoryCode": "23", "address": "2002-9929 SASKATCHEWAN DRIVE", "city": "EDMONTON", "province": "AB", "country": "CA", "postalCode": "T6E5J9", "twitter": "None", "instagram": "None", "facebook": "None", "youtube": "None", "website": "None", "summary": "None", "logo": "None", "latitude": 53.52679254203942, "longitude": -113.48739882832257}, "816214621RR0001": {"name": "B & M Poulin Charitable Foundation", "designationCode": "B", "categoryCode": "03", "address": "1 STONESHIRE CLOSE", "city": "SPRUCE GROVE", "province": "AB", "country": "CA", "postalCode": "T7X3E1", "twitter": "None", "instagram": "None", "facebook": "None", "youtube": "None", "website": "None", "summary": "None", "logo": "None", "latitude": 53.55931253952925, "longitude": -113.8998105}, "812585461RR0001": {"name": "B A(nd) K Relief of Poverty Foundation", "designationCode": "A", "categoryCode": "03", "address": "SUITE 1165                    5328 CALGARY TRAIL NW", "city": "EDMONTON", "province": "AB", "country": "CA", "postalCode": "T6H4J8", "twitter": "None", "instagram": "None", "facebook": "None", "youtube": "None", "website": "None", "summary": "None", "logo": "None", "latitude": 53.49123769080735, "longitude": -113.49539595798925}, "886803592RR0001": {"name": "B C A M R T FOUNDATION", "designationCode": "C", "categoryCode": "21", "address": "313-55-8TH AVE", "city": "NEW WESTMINSTER", "province": "BC", "country": "CA", "postalCode": "V3L0E8", "twitter": "None", "instagram": "None", "facebook": "None", "youtube": "None", "website": "None", "summary": "None", "logo": "None", "latitude": 49.22101489267704, "longitude": -122.91482284618829}, "871434478RR0001": {"name": "B C ABORIGINAL CHILD CARE SOCIETY", "designationCode": "C", "categoryCode": "01", "address": "102 - 100 PARK ROYAL SOUTH", "city": "WEST VANCOUVER", "province": "BC", "country": "CA", "postalCode": "V7T1A2", "twitter": "None", "instagram": "None", "facebook": "None", "youtube": "None", "website": "None", "summary": "None", "logo": "None"}, "872026075RR0001": {"name": "B C ABORIGINAL FOUNDATION", "designationCode": "A", "categoryCode": "03", "address": "551 CHATHAM ST.", "city": "VICTORIA", "province": "BC", "country": "CA", "postalCode": "V8T1E1", "twitter": "None", "instagram": "None", "facebook": "None", "youtube": "None", "website": "None", "summary": "None", "logo": "None", "latitude": 48.43099852510253, "longitude": -123.36775183236193}, "883457327RR0001": {"name": "B C BALANCE AND DIZZINESS DISORDERS SOCIETY", "designationCode": "C", "categoryCode": "11", "address": "325 - 5525 WEST BOULEVARD", "city": "VANCOUVER", "province": "BC", "country": "CA", "postalCode": "V6M3W6", "twitter": "None", "instagram": "None", "facebook": "None", "youtube": "None", "website": "None", "summary": "None", "logo": "None", "latitude": 49.23618429704238, "longitude": -123.15559426785543}, "132321621RR0001": {"name": "B C CAMPING AND RECREATION GUILD FOR CHRISTIAN SCIENTISTS", "designationCode": "C", "categoryCode": "56", "address": "871 GREEN ROAD", "city": "BOWEN ISLAND", "province": "BC", "country": "CA", "postalCode": "V0N1G2", "twitter": "None", "instagram": "None", "facebook": "None", "youtube": "None", "website": "None", "summary": "None", "logo": "None", "latitude": 49.38203702519066, "longitude": -123.36229544809905}, "871767356RR0001": {"name": "B C CHINESE MUSIC ASSOCIATION", "designationCode": "C", "categoryCode": "22", "address": "303-8495 ONTARIO ST", "city": "VANCOUVER", "province": "BC", "country": "CA", "postalCode": "V5X3E8", "twitter": "None", "instagram": "None", "facebook": "None", "youtube": "None", "website": "None", "summary": "None", "logo": "None", "latitude": 49.20699792048758, "longitude": -123.10688366078413}, "889779799RR0001": {"name": "B C COAST & ISLANDS DISTRICT OF THE APOSTOLIC CHURCH OF PENTECOST OF CANADA", "designationCode": "C", "categoryCode": "39", "address": "18330 CLAYTONHILL DRIVE", "city": "SURREY", "province": "BC", "country": "CA", "postalCode": "V3S7N4", "twitter": "None", "instagram": "None", "facebook": "None", "youtube": "None", "website": "None", "summary": "None", "logo": "None", "latitude": 49.12109858589651, "longitude": -122.71515322413286}, "130484587RR0001": {"name": "B C INTERIOR DISTRICT OF PACIFIC NORTHWEST CONFERENCE OF FREE METHODIST CHURCH", "designationCode": "C", "categoryCode": "39", "address": "975 WINDBREAK ST", "city": "KAMLOOPS", "province": "BC", "country": "CA", "postalCode": "V2B5P5", "twitter": "None", "instagram": "None", "facebook": "None", "youtube": "None", "website": "None", "summary": "None", "logo": "None", "latitude": 50.70493699417162, "longitude": -120.40428061723145}, "890918972RR0001": {"name": "B C LAND SURVEYORS FOUNDATION", "designationCode": "C", "categoryCode": "50", "address": "#301-2400 BEVAN AVENUE", "city": "SIDNEY", "province": "BC", "country": "CA", "postalCode": "V8L1W1", "twitter": "None", "instagram": "None", "facebook": "None", "youtube": "None", "website": "None", "summary": "None", "logo": "None", "latitude": 48.64774084272146, "longitude": -123.40022243095395}, "890792427RR0001": {"name": "B C LIFE BUILDERS REHABILITATION SOCIETY", "designationCode": "C", "categoryCode": "01", "address": "2473 ETHEL STREET", "city": "KELOWNA", "province": "BC", "country": "CA", "postalCode": "V1Y3A4", "twitter": "None", "instagram": "None", "facebook": "None", "youtube": "None", "website": "None", "summary": "None", "logo": "None", "latitude": 49.8696990110784, "longitude": -119.48271986454915}, "887586469RR0001": {"name": "B C LUPUS SOCIETY", "designationCode": "C", "categoryCode": "09", "address": "210-888 8TH AVE W", "city": "VANCOUVER", "province": "BC", "country": "CA", "postalCode": "V5Z3Y1", "twitter": "None", "instagram": "None", "facebook": "None", "youtube": "None", "website": "None", "summary": "None", "logo": "None", "latitude": 49.26422453952926, "longitude": -123.12350405398465}, "890824345RR0001": {"name": "B C MARINE PARKS FOREVER SOCIETY", "designationCode": "C", "categoryCode": "56", "address": "400 NEWCASTLE AVE", "city": "NANAIMO", "province": "BC", "country": "CA", "postalCode": "V9S4J1", "twitter": "None", "instagram": "None", "facebook": "None", "youtube": "None", "website": "None", "summary": "None", "logo": "None", "latitude": 49.176937458335026, "longitude": -123.94266621827674}, "892245895RR0001": {"name": "B C MULTICULTURAL HEALTH SERVICES SOCIETY", "designationCode": "C", "categoryCode": "11", "address": "UNIT 1                        630B CARNARVON STREET", "city": "NEW WESTMINSTER", "province": "BC", "country": "CA", "postalCode": "V3M1E5", "twitter": "None", "instagram": "None", "facebook": "None", "youtube": "None", "website": "None", "summary": "None", "logo": "None", "latitude": 49.20353234449314, "longitude": -122.9097035281033}, "888414042RR0001": {"name": "B C ORIGINAL MINDS ASSOCIATION", "designationCode": "C", "categoryCode": "21", "address": "7375 KINGSWAY", "city": "BURNABY", "province": "BC", "country": "CA", "postalCode": "V3N3B5", "twitter": "None", "instagram": "None", "facebook": "None", "youtube": "None", "website": "None", "summary": "None", "logo": "None", "latitude": 49.21807108521666, "longitude": -122.94899653024194}, "867459935RR0001": {"name": "B CURRENT PERFORMING ARTS CO", "designationCode": "C", "categoryCode": "22", "address": "601 CHRISTIE ST, STUDIO 251", "city": "TORONTO", "province": "ON", "country": "CA", "postalCode": "M6G4C7", "twitter": "None", "instagram": "None", "facebook": "None", "youtube": "None", "website": "None", "summary": "None", "logo": "None", "latitude": 43.67978587067912, "longitude": -79.42488115174038}, "859754582RR0001": {"name": "B J HUGHES FOUNDATION FOR THE DEVELOPMENT OF ENTREPRENEURIAL WOMEN", "designationCode": "B", "categoryCode": "21", "address": "#1302 837 2ND AVE SW", "city": "CALGARY", "province": "AB", "country": "CA", "postalCode": "T2P0E6", "twitter": "None", "instagram": "None", "facebook": "None", "youtube": "None", "website": "None", "summary": "None", "logo": "None", "latitude": 51.0515013325693, "longitude": -114.0727646124211}}