{"119156909RR0001": {"name": "SOUTH AND CENTRAL HEALTH FOUNDATION", "designationCode": "A", "categoryCode": "13", "address": "P.O. BOX 739", "city": "GRAND FALLS", "province": "NL", "country": "CA", "postalCode": "A2A2K2", "twitter": "None", "instagram": "None", "facebook": "None", "youtube": "None", "website": "None", "summary": "None", "logo": "None", "latitude": 48.927786000000054, "longitude": -55.65881149999993}, "121824163RR0001": {"name": "SOUTH ARM COMMUNITY ASSOCIATION", "designationCode": "C", "categoryCode": "56", "address": "8880 WILLIAMS RD", "city": "RICHMOND", "province": "BC", "country": "CA", "postalCode": "V7A1G6", "twitter": "None", "instagram": "None", "facebook": "None", "youtube": "None", "website": "None", "summary": "None", "logo": "None", "latitude": 49.1407243830772, "longitude": -123.12763376461243}, "107994816RR0001": {"name": "SOUTH ARM UNITED CHURCH", "designationCode": "C", "categoryCode": "44", "address": "11051 NO 3 RD", "city": "RICHMOND", "province": "BC", "country": "CA", "postalCode": "V7A1X3", "twitter": "None", "instagram": "None", "facebook": "None", "youtube": "None", "website": "None", "summary": "None", "logo": "None", "latitude": 49.132133832361944, "longitude": -123.13670600343285}, "140489329RR0001": {"name": "SOUTH ASIA PARTNERSHIP - CANADA/SOCIETE ASIATIQUE DES PARTENAIRES - CANADA", "designationCode": "C", "categoryCode": "09", "address": "877 SHEFFORD ROAD", "city": "OTTAWA", "province": "ON", "country": "CA", "postalCode": "K1J8H9", "twitter": "None", "instagram": "None", "facebook": "None", "youtube": "None", "website": "None", "summary": "None", "logo": "None", "latitude": 45.453738760488136, "longitude": -75.59023040919875}, "867568644RR0001": {"name": "SOUTH ASIAN BIBLE CHURCH", "designationCode": "C", "categoryCode": "39", "address": "PO BOX 36024 980 CENTRE PARK  DRIVE", "city": "BRAMPTON", "province": "ON", "country": "CA", "postalCode": "L6S3L7", "twitter": "None", "instagram": "None", "facebook": "None", "youtube": "None", "website": "None", "summary": "None", "logo": "None", "latitude": 43.738336264117564, "longitude": -79.73831621261841}, "132414210RR0001": {"name": "SOUTH ASIAN CENTRE OF WINDSOR", "designationCode": "C", "categoryCode": "09", "address": "P.O.OFFICE BOX 31019          RPO ROSELAND", "city": "WINDSOR", "province": "ON", "country": "CA", "postalCode": "N9A5X1", "twitter": "None", "instagram": "None", "facebook": "None", "youtube": "None", "website": "None", "summary": "None", "logo": "None", "latitude": 42.313092000000054, "longitude": -83.03952049999994}, "870802485RR0001": {"name": "SOUTH ASIAN EVANGELICAL CHRISTIAN FELLOWSHIP", "designationCode": "C", "categoryCode": "47", "address": "4633 CROSSCREEK COURT", "city": "MISSISSAUGA", "province": "ON", "country": "CA", "postalCode": "L5V1G5", "twitter": "None", "instagram": "None", "facebook": "None", "youtube": "None", "website": "None", "summary": "None", "logo": "None", "latitude": 43.58449212075122, "longitude": -79.67647755118603}, "866956857RR0001": {"name": "SOUTH ASIAN HUMANITARIAN AID AND RESETTLEMENT ASSOCIATION (THE SAHAARA)", "designationCode": "C", "categoryCode": "59", "address": "9338 34 AVE", "city": "EDMONTON", "province": "AB", "country": "CA", "postalCode": "T6E5X8", "twitter": "None", "instagram": "None", "facebook": "None", "youtube": "None", "website": "None", "summary": "None", "logo": "None", "latitude": 53.46626402752579, "longitude": -113.47596314677739}, "833274962RR0001": {"name": "SOUTH ASIAN WELCOME CENTRE INC.", "designationCode": "C", "categoryCode": "09", "address": "100 QUEEN ST W", "city": "BRAMPTON", "province": "ON", "country": "CA", "postalCode": "L6X1A4", "twitter": "None", "instagram": "None", "facebook": "None", "youtube": "None", "website": "None", "summary": "None", "logo": "None", "latitude": 43.68398318180499, "longitude": -79.76206447795587}, "129426425RR0001": {"name": "SOUTH ASIAN WOMEN'S CENTRE", "designationCode": "C", "categoryCode": "09", "address": "800 LANSDOWNE AVENUE          UNIT 1", "city": "TORONTO", "province": "ON", "country": "CA", "postalCode": "M6H4K3", "twitter": "None", "instagram": "None", "facebook": "None", "youtube": "None", "website": "None", "summary": "None", "logo": "None", "latitude": 43.665068242570285, "longitude": -79.44583695646003}, "888621547RR0001": {"name": "SOUTH BAR AND DISTRICT FIRE DEPARTMENT", "designationCode": "C", "categoryCode": "59", "address": "2148 HIGHWAY 28", "city": "SOUTH BAR", "province": "NS", "country": "CA", "postalCode": "B1N3H7", "twitter": "None", "instagram": "None", "facebook": "None", "youtube": "None", "website": "None", "summary": "None", "logo": "None", "latitude": 46.19334527074373, "longitude": -60.2006448031535}, "119156933RR0001": {"name": "SOUTH BAY UNITED CHURCH", "designationCode": "C", "categoryCode": "44", "address": "BOX 102", "city": "MILFORD", "province": "ON", "country": "CA", "postalCode": "K0K2P0", "twitter": "None", "instagram": "None", "facebook": "None", "youtube": "None", "website": "None", "summary": "None", "logo": "None", "latitude": 40.171460000000025, "longitude": -120.37221999999997}, "892900473RR0001": {"name": "SOUTH BEND CHARITABLE TRUST", "designationCode": "B", "categoryCode": "39", "address": "3425 2 AVE S", "city": "LETHBRIDGE", "province": "AB", "country": "CA", "postalCode": "T1J4V1", "twitter": "None", "instagram": "None", "facebook": "None", "youtube": "None", "website": "None", "summary": "None", "logo": "None", "latitude": 49.696839530439966, "longitude": -112.78914308381903}, "858504178RR0001": {"name": "SOUTH BROOKFIELD UNION CEMETERY INC.", "designationCode": "C", "categoryCode": "59", "address": "R.R. #1                       SOUTH BROOKFIELD", "city": "QUEENS CO.", "province": "NS", "country": "CA", "postalCode": "B0T1X0", "twitter": "None", "instagram": "None", "facebook": "None", "youtube": "None", "website": "None", "summary": "None", "logo": "None", "latitude": 44.41368948916023, "longitude": -64.92431947832044}, "867385999RR0001": {"name": "SOUTH BRUCE GREY HEALTH CENTRE", "designationCode": "A", "categoryCode": "10", "address": "21 MCGIVERN STREET            PO BOX 1300", "city": "WALKERTON", "province": "ON", "country": "CA", "postalCode": "N0G2V0", "twitter": "None", "instagram": "None", "facebook": "None", "youtube": "None", "website": "None", "summary": "None", "logo": "None", "latitude": 44.12484805058364, "longitude": -81.14991627479334}, "133327882RR0001": {"name": "SOUTH BRUCE GREY HEALTH CENTRE (S.B.G.H.C.) - KINCARDINE AUXILIARY", "designationCode": "C", "categoryCode": "11", "address": "PO BOX 4000", "city": "KINCARDINE", "province": "ON", "country": "CA", "postalCode": "N2Z2Z2", "twitter": "None", "instagram": "None", "facebook": "None", "youtube": "None", "website": "None", "summary": "None", "logo": "None", "latitude": 44.18160900000005, "longitude": -81.63174049999994}, "119156982RR0001": {"name": "SOUTH BUXTON PASTORAL CHARGE", "designationCode": "C", "categoryCode": "44", "address": "106 BLAKE ST", "city": "MERLIN", "province": "ON", "country": "CA", "postalCode": "N0P1W0", "twitter": "None", "instagram": "None", "facebook": "None", "youtube": "None", "website": "None", "summary": "None", "logo": "None", "latitude": 42.2414243735933, "longitude": -82.22826820901363}, "137328720RR0001": {"name": "SOUTH CALGARY CHINESE EVANGELICAL FREE CHURCH", "designationCode": "C", "categoryCode": "39", "address": "340 39 AVE SE", "city": "CALGARY", "province": "AB", "country": "CA", "postalCode": "T2G1X6", "twitter": "None", "instagram": "None", "facebook": "None", "youtube": "None", "website": "None", "summary": "None", "logo": "None", "latitude": 51.01796505969744, "longitude": -114.0604052808588}, "107994923RR0001": {"name": "SOUTH CALGARY COMMUNITY CHURCH A CONGREGATION OF THE NORTH AMERICAN BAPTIST GENERAL CONFERENCE", "designationCode": "C", "categoryCode": "31", "address": "2900 CEDARBRAE DR SW", "city": "CALGARY", "province": "AB", "country": "CA", "postalCode": "T2W3S9", "twitter": "None", "instagram": "None", "facebook": "None", "youtube": "None", "website": "None", "summary": "None", "logo": "None", "latitude": 50.95725300000001, "longitude": -114.12952040963144}, "122236771RR0001": {"name": "SOUTH CALGARY FULL GOSPEL CHURCH", "designationCode": "C", "categoryCode": "39", "address": "343 QUEEN CHARLOTTE DRIVE SE", "city": "CALGARY", "province": "AB", "country": "CA", "postalCode": "T2J4H1", "twitter": "None", "instagram": "None", "facebook": "None", "youtube": "None", "website": "None", "summary": "None", "logo": "None", "latitude": 50.93397060782505, "longitude": -114.02342993104038}, "128094943RR0001": {"name": "SOUTH CALGARY ROTARY CLUB - COMMUNITY SERVICE FUND", "designationCode": "C", "categoryCode": "65", "address": "120 - 200 RIVERCREST DR SE", "city": "CALGARY", "province": "AB", "country": "CA", "postalCode": "T2C2X5", "twitter": "None", "instagram": "None", "facebook": "None", "youtube": "None", "website": "None", "summary": "None", "logo": "None", "latitude": 50.97834900000001, "longitude": -114.01279685856099}, "119157022RR0001": {"name": "SOUTH CARADOC UNITED CHURCH", "designationCode": "C", "categoryCode": "44", "address": "21488 BURWELL RD              RR #5", "city": "MT BRYDGES", "province": "ON", "country": "CA", "postalCode": "N0L1W0", "twitter": "None", "instagram": "None", "facebook": "None", "youtube": "None", "website": "None", "summary": "None", "logo": "None", "latitude": 42.86463418893049, "longitude": -81.44919564294142}, "873808323RR0001": {"name": "SOUTH CARIBOO ARTS & CULTURE SOCIETY", "designationCode": "C", "categoryCode": "22", "address": "BOX 1210                      401 CEDAR AVE.", "city": "100 MILE HOUSE", "province": "BC", "country": "CA", "postalCode": "V0K2E0", "twitter": "None", "instagram": "None", "facebook": "None", "youtube": "None", "website": "None", "summary": "None", "logo": "None", "latitude": 51.64256502709575, "longitude": -121.29417487414557}, "825762271RR0001": {"name": "SOUTH CARIBOO COMMUNITY FELLOWSHIP", "designationCode": "C", "categoryCode": "49", "address": "PO BOX 224                    2404 WILLOW DR", "city": "70 MILE HOUSE", "province": "BC", "country": "CA", "postalCode": "V0K2K0", "twitter": "None", "instagram": "None", "facebook": "None", "youtube": "None", "website": "None", "summary": "None", "logo": "None", "latitude": 51.317407733268766, "longitude": -121.39376739481611}, "107994964RR0001": {"name": "SOUTH CARIBOO ELIZABETH FRY SOCIETY", "designationCode": "C", "categoryCode": "59", "address": "BOX 603", "city": "ASHCROFT", "province": "BC", "country": "CA", "postalCode": "V0K1A0", "twitter": "None", "instagram": "None", "facebook": "None", "youtube": "None", "website": "None", "summary": "None", "logo": "None", "latitude": 50.7271758075652, "longitude": -121.28212858201184}, "857949531RR0001": {"name": "SOUTH CARIBOO HEALTH FOUNDATION", "designationCode": "A", "categoryCode": "03", "address": "BAG 399", "city": "100 MILE HOUSE", "province": "BC", "country": "CA", "postalCode": "V0K2E0", "twitter": "None", "instagram": "None", "facebook": "None", "youtube": "None", "website": "None", "summary": "None", "logo": "None", "latitude": 51.642130000000066, "longitude": -121.29735}, "889215513RR0001": {"name": "SOUTH CARIBOO SEARCH & RESCUE SOCIETY", "designationCode": "C", "categoryCode": "59", "address": "BOX 1268", "city": "100 MILE HOUSE", "province": "BC", "country": "CA", "postalCode": "V0K2E0", "twitter": "None", "instagram": "None", "facebook": "None", "youtube": "None", "website": "None", "summary": "None", "logo": "None", "latitude": 51.62931000000003, "longitude": -121.30063999999999}, "886296391RR0001": {"name": "SOUTH CAYUGA BAPTIST CHURCH,", "designationCode": "C", "categoryCode": "31", "address": "600 RIVER ROAD", "city": "DUNNVILLE", "province": "ON", "country": "CA", "postalCode": "N1A2W3", "twitter": "None", "instagram": "None", "facebook": "None", "youtube": "None", "website": "None", "summary": "None", "logo": "None", "latitude": 42.91856245501954, "longitude": -79.6892616531943}, "896796406RR0001": {"name": "SOUTH CENTRAL CANCER RESOURCE INC.", "designationCode": "C", "categoryCode": "19", "address": "400 - 34 STEPHEN ST", "city": "MORDEN", "province": "MB", "country": "CA", "postalCode": "R6M2G3", "twitter": "None", "instagram": "None", "facebook": "None", "youtube": "None", "website": "None", "summary": "None", "logo": "None", "latitude": 49.18988228987848, "longitude": -98.10232054737634}, "107995052RR0001": {"name": "SOUTH CENTRAL COMMITTEE ON FAMILY VIOLENCE INC.", "designationCode": "C", "categoryCode": "09", "address": "PO BOX 389", "city": "WINKLER", "province": "MB", "country": "CA", "postalCode": "R6W4A6", "twitter": "None", "instagram": "None", "facebook": "None", "youtube": "None", "website": "None", "summary": "None", "logo": "None", "latitude": 49.17773400000006, "longitude": -97.93841299999994}, "130929953RR0001": {"name": "SOUTH CENTRAL REGIONAL LIBRARY", "designationCode": "C", "categoryCode": "50", "address": "BOX 1540", "city": "WINKLER", "province": "MB", "country": "CA", "postalCode": "R6W4B4", "twitter": "None", "instagram": "None", "facebook": "None", "youtube": "None", "website": "None", "summary": "None", "logo": "None", "latitude": 49.17773400000006, "longitude": -97.93841299999994}, "860884337RR0001": {"name": "SOUTH COAST SPECIAL NEEDS KIDS INC.", "designationCode": "C", "categoryCode": "09", "address": "46 BERKLEY CRES", "city": "SIMCOE", "province": "ON", "country": "CA", "postalCode": "N3Y2K5", "twitter": "None", "instagram": "None", "facebook": "None", "youtube": "None", "website": "None", "summary": "None", "logo": "None", "latitude": 42.843322174014716, "longitude": -80.29523839301167}, "107995151RR0001": {"name": "SOUTH COCHRANE ADDICTIONS SERVICES INC.", "designationCode": "C", "categoryCode": "57", "address": "85 PINE ST. SOUTH             SUITE 2", "city": "TIMMINS", "province": "ON", "country": "CA", "postalCode": "P4N2K1", "twitter": "None", "instagram": "None", "facebook": "None", "youtube": "None", "website": "None", "summary": "None", "logo": "None", "latitude": 48.47488770659887, "longitude": -81.32834129340114}, "869054585RR0001": {"name": "SOUTH COLUMBIA SEARCH AND RESCUE SOCIETY", "designationCode": "C", "categoryCode": "59", "address": "BOX 697", "city": "FRUITVALE", "province": "BC", "country": "CA", "postalCode": "V0G1L0", "twitter": "None", "instagram": "None", "facebook": "None", "youtube": "None", "website": "None", "summary": "None", "logo": "None", "latitude": 49.115270000000066, "longitude": -117.54598999999996}, "119288918RR0854": {"name": "SOUTH CONGREGATION OF JEHOVAH'S WITNESSES", "designationCode": "C", "categoryCode": "61", "address": "1581 DINGWALL", "city": "COURTENAY", "province": "BC", "country": "CA", "postalCode": "V9N3S8", "twitter": "None", "instagram": "None", "facebook": "None", "youtube": "None", "website": "None", "summary": "None", "logo": "None", "latitude": 49.706247963875875, "longitude": -124.98403623030796}, "119288918RR0480": {"name": "SOUTH CONGREGATION OF JEHOVAH'S WITNESSES, AMHERSTBURG, ONTRIO", "designationCode": "C", "categoryCode": "61", "address": "1 REYNOLDS CRT", "city": "AMHERSTBURG", "province": "ON", "country": "CA", "postalCode": "N9V3X8", "twitter": "None", "instagram": "None", "facebook": "None", "youtube": "None", "website": "None", "summary": "None", "logo": "None", "latitude": 42.10371900000001, "longitude": -83.08697004858895}, "119288918RR0361": {"name": "SOUTH CONGREGATION OF JEHOVAH'S WITNESSES, CHILLIWACK, BRITISH COLUMBIA", "designationCode": "C", "categoryCode": "61", "address": "205 - 9060 BIRCH ST", "city": "CHILLIWACK", "province": "BC", "country": "CA", "postalCode": "V2P4N4", "twitter": "None", "instagram": "None", "facebook": "None", "youtube": "None", "website": "None", "summary": "None", "logo": "None", "latitude": 49.16578729996116, "longitude": -121.95558833913134}, "119288918RR0558": {"name": "SOUTH CONGREGATION OF JEHOVAH'S WITNESSES, LISTOWEL, ONTARIO", "designationCode": "C", "categoryCode": "61", "address": "PO BOX 145                    1022 MAIN ST.", "city": "WROXETER", "province": "ON", "country": "CA", "postalCode": "N0G2X0", "twitter": "None", "instagram": "None", "facebook": "None", "youtube": "None", "website": "None", "summary": "None", "logo": "None", "latitude": 43.86178219758802, "longitude": -81.15215071215897}, "119288918RR1345": {"name": "SOUTH CONGREGATION OF JEHOVAH'S WITNESSES, MARKHAM, ONTARIO", "designationCode": "C", "categoryCode": "61", "address": "55 13 8205 MCCOWAN RD", "city": "MARKHAM", "province": "ON", "country": "CA", "postalCode": "L3P3J3", "twitter": "None", "instagram": "None", "facebook": "None", "youtube": "None", "website": "None", "summary": "None", "logo": "None", "latitude": 43.86044101638861, "longitude": -79.28280552432406}, "119288918RR1150": {"name": "SOUTH CONGREGATION OF JEHOVAH'S WITNESSES, POWELL RIVER, BRITISH COLUMBIA", "designationCode": "C", "categoryCode": "61", "address": "4946 MANSON AVE", "city": "POWELL RIVER", "province": "BC", "country": "CA", "postalCode": "V8A3N7", "twitter": "None", "instagram": "None", "facebook": "None", "youtube": "None", "website": "None", "summary": "None", "logo": "None", "latitude": 49.849785, "longitude": -124.50939140319747}, "119288918RR0040": {"name": "SOUTH CONGREGATION OF JEHOVAH'S WITNESSES, STRATFORD, ONTARIO", "designationCode": "C", "categoryCode": "61", "address": "12 BROWN ST", "city": "STRATFORD", "province": "ON", "country": "CA", "postalCode": "N5A0B8", "twitter": "None", "instagram": "None", "facebook": "None", "youtube": "None", "website": "None", "summary": "None", "logo": "None", "latitude": -39.1560792536788, "longitude": 174.20443396598205}, "893230862RR0001": {"name": "SOUTH COOKING LAKE UNITED CHURCH", "designationCode": "C", "categoryCode": "44", "address": "3-22106 SOUTH COOKING LAKE RD", "city": "SHERWOOD PARK", "province": "AB", "country": "CA", "postalCode": "T8E1J1", "twitter": "None", "instagram": "None", "facebook": "None", "youtube": "None", "website": "None", "summary": "None", "logo": "None", "latitude": 53.408271867592035, "longitude": -113.1228450905997}, "869808550RR0001": {"name": "SOUTH COUNTRY HEALTH CARE FOUNDATION, INC", "designationCode": "A", "categoryCode": "13", "address": "PO BOX 1750", "city": "ASSINIBOIA", "province": "SK", "country": "CA", "postalCode": "S0H0B0", "twitter": "None", "instagram": "None", "facebook": "None", "youtube": "None", "website": "None", "summary": "None", "logo": "None", "latitude": 49.63287300000006, "longitude": -105.99348049999993}, "869849646RR0001": {"name": "SOUTH COWICHAN ROTARY CLUB FOUNDATION", "designationCode": "C", "categoryCode": "63", "address": "1757 SHAWNIGAN MILL BAY RD    BOX 157", "city": "SHAWNIGAN LAKE", "province": "BC", "country": "CA", "postalCode": "V0R2W0", "twitter": "None", "instagram": "None", "facebook": "None", "youtube": "None", "website": "None", "summary": "None", "logo": "None", "latitude": 48.653660619030454, "longitude": -123.62181655705407}, "889024790RR0001": {"name": "SOUTH CUMBERLAND COMMUNITY CARE CENTRE FOUNDATION", "designationCode": "A", "categoryCode": "13", "address": "POST OFFICE BOX 489", "city": "PARRSBORO", "province": "NS", "country": "CA", "postalCode": "B0M1S0", "twitter": "None", "instagram": "None", "facebook": "None", "youtube": "None", "website": "None", "summary": "None", "logo": "None", "latitude": 45.385971000000055, "longitude": -64.25530099999993}, "107995326RR0001": {"name": "SOUTH DELTA BAPTIST CHURCH", "designationCode": "C", "categoryCode": "31", "address": "1988 56TH ST", "city": "DELTA", "province": "BC", "country": "CA", "postalCode": "V4L2B1", "twitter": "None", "instagram": "None", "facebook": "None", "youtube": "None", "website": "None", "summary": "None", "logo": "None", "latitude": 49.039136696087496, "longitude": -123.06866212366634}, "104940309RR0001": {"name": "SOUTH DUMFRIES NON-PROFIT HOUSING CORPORATION", "designationCode": "C", "categoryCode": "09", "address": "7 GAUKEL DRIVE                PO BOX 40", "city": "ST GEORGE", "province": "ON", "country": "CA", "postalCode": "N0E1N0", "twitter": "None", "instagram": "None", "facebook": "None", "youtube": "None", "website": "None", "summary": "None", "logo": "None", "latitude": 43.24704384862083, "longitude": -80.25832555536492}, "866245624RR0001": {"name": "SOUTH DUNDAS CHRISTMAS EXCHANGE", "designationCode": "C", "categoryCode": "09", "address": "51 FIFTH ST WEST BOX 541", "city": "MORRISBURG", "province": "ON", "country": "CA", "postalCode": "K0C1X0", "twitter": "None", "instagram": "None", "facebook": "None", "youtube": "None", "website": "None", "summary": "None", "logo": "None", "latitude": 44.89706566971552, "longitude": -75.18991003413356}, "119157220RR0001": {"name": "SOUTH DURHAM UNITED CHURCH", "designationCode": "C", "categoryCode": "44", "address": "BOX 158                       230 GIGUERE", "city": "SOUTH DURHAM", "province": "QC", "country": "CA", "postalCode": "J0H2C0", "twitter": "None", "instagram": "None", "facebook": "None", "youtube": "None", "website": "None", "summary": "None", "logo": "None", "latitude": 45.663640775174656, "longitude": -72.33898300833854}, "119157238RR0001": {"name": "SOUTH EAST CHORUS INC.", "designationCode": "C", "categoryCode": "22", "address": "#6-384 PINE AVENUE", "city": "ESTEVAN", "province": "SK", "country": "CA", "postalCode": "S4A2H1", "twitter": "None", "instagram": "None", "facebook": "None", "youtube": "None", "website": "None", "summary": "None", "logo": "None", "latitude": 49.14778413044607, "longitude": -102.97757238960654}, "806441549RR0001": {"name": "SOUTH EAST CORNERSTONE SCHOOL DIVISION NO. 209", "designationCode": "C", "categoryCode": "20", "address": "80A 18TH STREET NE", "city": "WEYBURN", "province": "SK", "country": "CA", "postalCode": "S4H2W4", "twitter": "None", "instagram": "None", "facebook": "None", "youtube": "None", "website": "None", "summary": "None", "logo": "None", "latitude": 49.659079577704006, "longitude": -103.82911886877446}, "119157246RR0001": {"name": "SOUTH EAST EDMONTON SENIORS ASSOCIATION", "designationCode": "C", "categoryCode": "56", "address": "9350 82 ST", "city": "EDMONTON", "province": "AB", "country": "CA", "postalCode": "T6C2X8", "twitter": "None", "instagram": "None", "facebook": "None", "youtube": "None", "website": "None", "summary": "None", "logo": "None", "latitude": 53.5300951823819, "longitude": -113.45128542267224}, "884260506RR0001": {"name": "SOUTH EAST HEALTHABILITY SOCIETY INC.", "designationCode": "C", "categoryCode": "09", "address": "PO BOX 1803", "city": "MOOSOMIN", "province": "SK", "country": "CA", "postalCode": "S0G3N0", "twitter": "None", "instagram": "None", "facebook": "None", "youtube": "None", "website": "None", "summary": "None", "logo": "None", "latitude": 50.14728000000008, "longitude": -101.66300999999999}, "898995683RR0001": {"name": "SOUTH EAST HELPING HANDS INC.", "designationCode": "C", "categoryCode": "09", "address": "525 MAIN STREET", "city": "STEINBACH", "province": "MB", "country": "CA", "postalCode": "R5G0L5", "twitter": "None", "instagram": "None", "facebook": "None", "youtube": "None", "website": "None", "summary": "None", "logo": "None", "latitude": 49.521338849061685, "longitude": -96.67596695307849}, "893944009RR0001": {"name": "SOUTH EAST WHITESHELL CEMETERY INC.", "designationCode": "C", "categoryCode": "59", "address": "BLOCK 8 LOT 19A BOX 69        WHITESHELL", "city": "WEST HAWK LAKE", "province": "MB", "country": "CA", "postalCode": "R0E2H0", "twitter": "None", "instagram": "None", "facebook": "None", "youtube": "None", "website": "None", "summary": "None", "logo": "None", "latitude": 49.73708400000005, "longitude": -95.20521199999993}, "119131878RR0001": {"name": "SOUTH EASTERN ALBERTA SAFETY ALLIANCE SOCIETY", "designationCode": "C", "categoryCode": "59", "address": "PO BOX 1145 LCD 1", "city": "MEDICINE HAT", "province": "AB", "country": "CA", "postalCode": "T1A7H3", "twitter": "None", "instagram": "None", "facebook": "None", "youtube": "None", "website": "None", "summary": "None", "logo": "None", "latitude": 50.04107700000006, "longitude": -110.67813349999993}, "856190277RR0001": {"name": "SOUTH EASTMAN ENGLISH AND LITERACY SERVICES INC.", "designationCode": "C", "categoryCode": "21", "address": "BOX 1891", "city": "STEINBACH", "province": "MB", "country": "CA", "postalCode": "R5G1N5", "twitter": "None", "instagram": "None", "facebook": "None", "youtube": "None", "website": "None", "summary": "None", "logo": "None", "latitude": 49.52572800000006, "longitude": -96.68393449999994}, "129942041RR0001": {"name": "SOUTH EDMONTON ALLIANCE CHURCH", "designationCode": "C", "categoryCode": "39", "address": "6508 31 AVE", "city": "EDMONTON", "province": "AB", "country": "CA", "postalCode": "T6L6P7", "twitter": "None", "instagram": "None", "facebook": "None", "youtube": "None", "website": "None", "summary": "None", "logo": "None", "latitude": 53.46227543551243, "longitude": -113.43349498141833}, "843731928RR0001": {"name": "SOUTH EDMONTON CHURCH OF CHRIST", "designationCode": "C", "categoryCode": "39", "address": "P.O. BOX 42126", "city": "EDMONTON", "province": "AB", "country": "CA", "postalCode": "T6K4C4", "twitter": "None", "instagram": "None", "facebook": "None", "youtube": "None", "website": "None", "summary": "None", "logo": "None", "latitude": 53.46036600000005, "longitude": -113.44548049999993}, "119157337RR0001": {"name": "SOUTH END BAPTIST CHURCH", "designationCode": "C", "categoryCode": "31", "address": "60 HASTINGS DRIVE", "city": "DARTMOUTH", "province": "NS", "country": "CA", "postalCode": "B2Y2C6", "twitter": "None", "instagram": "None", "facebook": "None", "youtube": "None", "website": "None", "summary": "None", "logo": "None", "latitude": 44.66570090034062, "longitude": -63.54453934139296}, "107995631RR0001": {"name": "SOUTH END COMMUNITY DAY CARE CENTRE", "designationCode": "C", "categoryCode": "01", "address": "5594 MORRIS ST", "city": "HALIFAX", "province": "NS", "country": "CA", "postalCode": "B3J1C2", "twitter": "None", "instagram": "None", "facebook": "None", "youtube": "None", "website": "None", "summary": "None", "logo": "None", "latitude": 44.64059496583778, "longitude": -63.57563623951188}, "119157311RR0001": {"name": "SOUTH END DAY CARE CENTRE INC.", "designationCode": "C", "categoryCode": "01", "address": "310 PRINCE WILLIAM ST", "city": "SAINT JOHN", "province": "NB", "country": "CA", "postalCode": "E2L2C2", "twitter": "None", "instagram": "None", "facebook": "None", "youtube": "None", "website": "None", "summary": "None", "logo": "None", "latitude": 45.266725739107834, "longitude": -66.06005603329685}, "107995664RR0001": {"name": "SOUTH END FELLOWSHIP BAPTIST CHURCH", "designationCode": "C", "categoryCode": "31", "address": "400 2ND AVE SE                PO BOX 160", "city": "OWEN SOUND", "province": "ON", "country": "CA", "postalCode": "N4K5P3", "twitter": "None", "instagram": "None", "facebook": "None", "youtube": "None", "website": "None", "summary": "None", "logo": "None", "latitude": 44.54206750014423, "longitude": -80.94252939041367}, "119157543RR0001": {"name": "SOUTH ESSEX ARTS ASSOCIATION", "designationCode": "C", "categoryCode": "22", "address": "72 TALBOT STREET W", "city": "LEAMINGTON", "province": "ON", "country": "CA", "postalCode": "N8H1M4", "twitter": "None", "instagram": "None", "facebook": "None", "youtube": "None", "website": "None", "summary": "None", "logo": "None", "latitude": 42.052591918662486, "longitude": -82.60170393228114}, "107996027RR0001": {"name": "SOUTH ESSEX COMMUNITY COUNCIL", "designationCode": "C", "categoryCode": "59", "address": "215 TALBOT ST EAST", "city": "LEAMINGTON", "province": "ON", "country": "CA", "postalCode": "N8H3X5", "twitter": "None", "instagram": "None", "facebook": "None", "youtube": "None", "website": "None", "summary": "None", "logo": "None", "latitude": 42.05658804958636, "longitude": -82.58568840703646}, "119157568RR0001": {"name": "SOUTH ETOBICOKE COMMUNITY LEGAL SERVICES", "designationCode": "C", "categoryCode": "59", "address": "210-5353 DUNDAS ST W", "city": "TORONTO", "province": "ON", "country": "CA", "postalCode": "M9B6H8", "twitter": "None", "instagram": "None", "facebook": "None", "youtube": "None", "website": "None", "summary": "None", "logo": "None", "latitude": 43.63467222669871, "longitude": -79.54140485922366}, "884911843RR0001": {"name": "SOUTH FRASER COMMUNITY BAND SOCIETY", "designationCode": "C", "categoryCode": "22", "address": "5-14877-60 AVE.", "city": "SURREY", "province": "BC", "country": "CA", "postalCode": "V3S5J7", "twitter": "None", "instagram": "None", "facebook": "None", "youtube": "None", "website": "None", "summary": "None", "logo": "None", "latitude": 49.11176452596793, "longitude": -122.81024127407812}, "131635138RR0001": {"name": "SOUTH FRASER UNITARIAN CONGREGATION", "designationCode": "C", "categoryCode": "39", "address": "P.O. BOX 88650                RPO NEWTON", "city": "SURREY", "province": "BC", "country": "CA", "postalCode": "V3W0X1", "twitter": "None", "instagram": "None", "facebook": "None", "youtube": "None", "website": "None", "summary": "None", "logo": "None", "latitude": 49.119138, "longitude": -122.870241}, "894400787RR0001": {"name": "SOUTH GALIANO VOLUNTEER FIRE DEPARTMENT SOCIETY", "designationCode": "C", "categoryCode": "55", "address": "S 15, C 18                    261 GEORGESON BAY RD.", "city": "GALIANO", "province": "BC", "country": "CA", "postalCode": "V0N1P0", "twitter": "None", "instagram": "None", "facebook": "None", "youtube": "None", "website": "None", "summary": "None", "logo": "None", "latitude": 48.88925704848836, "longitude": -123.34949452807709}, "133080051RR0001": {"name": "SOUTH GATE ALLIANCE", "designationCode": "C", "categoryCode": "39", "address": "14910 BANNISTER RD S.E.", "city": "CALGARY", "province": "AB", "country": "CA", "postalCode": "T2X1Z5", "twitter": "None", "instagram": "None", "facebook": "None", "youtube": "None", "website": "None", "summary": "None", "logo": "None", "latitude": 50.918798294477455, "longitude": -114.06841334733691}, "119145209RR0001": {"name": "SOUTH GATE CENTRE INC.", "designationCode": "C", "categoryCode": "09", "address": "191 OLD WELLINGTON ST S", "city": "WOODSTOCK", "province": "ON", "country": "CA", "postalCode": "N4S3J2", "twitter": "None", "instagram": "None", "facebook": "None", "youtube": "None", "website": "None", "summary": "None", "logo": "None", "latitude": 43.12387255176293, "longitude": -80.75271902830518}, "119157659RR0001": {"name": "SOUTH GATE HAVEN INC.", "designationCode": "C", "categoryCode": "59", "address": "PO BOX 464", "city": "EMERSON", "province": "MB", "country": "CA", "postalCode": "R0A0L0", "twitter": "None", "instagram": "None", "facebook": "None", "youtube": "None", "website": "None", "summary": "None", "logo": "None", "latitude": 49.00687000000005, "longitude": -97.20476999999994}, "119157675RR0001": {"name": "SOUTH GLOUCESTER UNITED CHURCH", "designationCode": "C", "categoryCode": "44", "address": "25 KEMP DR.", "city": "GLOUCESTER", "province": "ON", "country": "CA", "postalCode": "K1T3W9", "twitter": "None", "instagram": "None", "facebook": "None", "youtube": "None", "website": "None", "summary": "None", "logo": "None", "latitude": 45.334701480177586, "longitude": -75.60730086860164}, "897480877RR0001": {"name": "SOUTH GRANVILLE CEMETERY", "designationCode": "C", "categoryCode": "59", "address": "454 SMITH RD                  RR 1", "city": "BREADALBANE", "province": "PE", "country": "CA", "postalCode": "C0A1E0", "twitter": "None", "instagram": "None", "facebook": "None", "youtube": "None", "website": "None", "summary": "None", "logo": "None", "latitude": 46.38666308687745, "longitude": -63.4620079408508}, "107996217RR0001": {"name": "SOUTH GRANVILLE SENIORS FRIENDSHIP CENTRE SOCIETY", "designationCode": "C", "categoryCode": "56", "address": "1420 12TH AVE W", "city": "VANCOUVER", "province": "BC", "country": "CA", "postalCode": "V6H1M8", "twitter": "None", "instagram": "None", "facebook": "None", "youtube": "None", "website": "None", "summary": "None", "logo": "None", "latitude": 49.26065199339479, "longitude": -123.13650273248739}, "134175991RR0001": {"name": "SOUTH GREY BRUCE YOUTH LITERACY COUNCIL", "designationCode": "C", "categoryCode": "21", "address": "303-467 10TH STREET", "city": "HANOVER", "province": "ON", "country": "CA", "postalCode": "N4N1R3", "twitter": "None", "instagram": "None", "facebook": "None", "youtube": "None", "website": "None", "summary": "None", "logo": "None", "latitude": 44.153010714380684, "longitude": -81.02150813030184}, "119157717RR0001": {"name": "SOUTH HILL CHILD CARE SOCIETY", "designationCode": "C", "categoryCode": "20", "address": "508 EAST 45TH AVE", "city": "VANCOUVER", "province": "BC", "country": "CA", "postalCode": "V5W1X7", "twitter": "None", "instagram": "None", "facebook": "None", "youtube": "None", "website": "None", "summary": "None", "logo": "None", "latitude": 49.229246495672164, "longitude": -123.09378147016561}, "119157774RR0001": {"name": "SOUTH HURON HANDICAPPED SERVICES INC.", "designationCode": "C", "categoryCode": "09", "address": "P.O. BOX 29", "city": "DASHWOOD", "province": "ON", "country": "CA", "postalCode": "N0M1N0", "twitter": "None", "instagram": "None", "facebook": "None", "youtube": "None", "website": "None", "summary": "None", "logo": "None", "latitude": 43.340203533866415, "longitude": -81.68983272666578}, "107996340RR0001": {"name": "SOUTH HURON HOSPITAL ASSOCIATION", "designationCode": "C", "categoryCode": "10", "address": "24 HURON ST WEST", "city": "EXETER", "province": "ON", "country": "CA", "postalCode": "N0M1S2", "twitter": "None", "instagram": "None", "facebook": "None", "youtube": "None", "website": "None", "summary": "None", "logo": "None", "latitude": 43.343682893704155, "longitude": -81.48103961780836}, "889096046RR0001": {"name": "SOUTH HURON HOSPITAL AUXILIARY", "designationCode": "C", "categoryCode": "19", "address": "24 HURON STREET W", "city": "EXETER", "province": "ON", "country": "CA", "postalCode": "N0M1S1", "twitter": "None", "instagram": "None", "facebook": "None", "youtube": "None", "website": "None", "summary": "None", "logo": "None", "latitude": 43.343682893704155, "longitude": -81.48103961780836}, "119157808RR0001": {"name": "SOUTH HURON HOSPITAL FOUNDATION", "designationCode": "A", "categoryCode": "13", "address": "24 HURON STREET, WEST", "city": "EXETER", "province": "ON", "country": "CA", "postalCode": "N0M1S2", "twitter": "None", "instagram": "None", "facebook": "None", "youtube": "None", "website": "None", "summary": "None", "logo": "None", "latitude": 43.343682893704155, "longitude": -81.48103961780836}, "119157824RR0001": {"name": "SOUTH INDIA CULTURAL ASSOCIATION", "designationCode": "C", "categoryCode": "22", "address": "SOUTH INDIA CULTURAL ASSOCIATI", "city": "179 MANDINI WAY", "province": "ON", "country": "CA", "postalCode": "K2J5X4", "twitter": "None", "instagram": "None", "facebook": "None", "youtube": "None", "website": "None", "summary": "None", "logo": "None", "latitude": 45.27118500000006, "longitude": -75.73611049999994}, "140813445RR0001": {"name": "SOUTH INTERLAKE FIFTY-FIVE PLUS INC", "designationCode": "C", "categoryCode": "09", "address": "BOX 309", "city": "STONEWALL", "province": "MB", "country": "CA", "postalCode": "R0C2Z0", "twitter": "None", "instagram": "None", "facebook": "None", "youtube": "None", "website": "None", "summary": "None", "logo": "None", "latitude": 50.36947800000006, "longitude": -96.84479599999993}, "105588123RR0001": {"name": "SOUTH INTERLAKE RECREATION CENTRE INC.", "designationCode": "C", "categoryCode": "56", "address": "PO BOX 468", "city": "WARREN", "province": "MB", "country": "CA", "postalCode": "R0C3E0", "twitter": "None", "instagram": "None", "facebook": "None", "youtube": "None", "website": "None", "summary": "None", "logo": "None", "latitude": 50.1332445, "longitude": -97.5381975}, "107996365RR0001": {"name": "SOUTH INTERLAKE REGIONAL LIBRARY", "designationCode": "C", "categoryCode": "50", "address": "419 MAIN ST", "city": "STONEWALL", "province": "MB", "country": "CA", "postalCode": "R0C2Z0", "twitter": "None", "instagram": "None", "facebook": "None", "youtube": "None", "website": "None", "summary": "None", "logo": "None", "latitude": 50.13279874854291, "longitude": -97.326676872641}, "128023553RR0001": {"name": "SOUTH INTERLAKE SENIORS RESOURCE COUNCIL INC.", "designationCode": "C", "categoryCode": "09", "address": "PO BOX 36", "city": "STONEWALL", "province": "MB", "country": "CA", "postalCode": "R0C2Z0", "twitter": "None", "instagram": "None", "facebook": "None", "youtube": "None", "website": "None", "summary": "None", "logo": "None", "latitude": 50.36947800000006, "longitude": -96.84479599999993}, "887246999RR0001": {"name": "SOUTH ISLAND CENTRE FOR COUNSELLING AND TRAINING SOCIETY", "designationCode": "C", "categoryCode": "49", "address": "3821A CEDAR HILL CROSS RD", "city": "VICTORIA", "province": "BC", "country": "CA", "postalCode": "V8P2M6", "twitter": "None", "instagram": "None", "facebook": "None", "youtube": "None", "website": "None", "summary": "None", "logo": "None", "latitude": 48.46318087492452, "longitude": -123.33832572124862}, "824490478RR0001": {"name": "SOUTH KENT TRAILS", "designationCode": "C", "categoryCode": "56", "address": "19560 ERICAU RD", "city": "BLENHEIM", "province": "ON", "country": "CA", "postalCode": "N0P1A0", "twitter": "None", "instagram": "None", "facebook": "None", "youtube": "None", "website": "None", "summary": "None", "logo": "None", "latitude": 42.304393254141075, "longitude": -82.02580594318714}, "119157840RR0001": {"name": "SOUTH KINLOSS CEMETARY CORPORATION", "designationCode": "C", "categoryCode": "59", "address": "RR 5", "city": "LUCKNOW", "province": "ON", "country": "CA", "postalCode": "N0G2H0", "twitter": "None", "instagram": "None", "facebook": "None", "youtube": "None", "website": "None", "summary": "None", "logo": "None", "latitude": 43.908877358915426, "longitude": -81.55752636962617}, "131581001RR0001": {"name": "SOUTH KINLOSS PRESBYTERIAN CHURCH,", "designationCode": "C", "categoryCode": "37", "address": "158 BELL DR RR#8", "city": "KINCARDINE", "province": "ON", "country": "CA", "postalCode": "N2Z0B3", "twitter": "None", "instagram": "None", "facebook": "None", "youtube": "None", "website": "None", "summary": "None", "logo": "None", "latitude": 44.09572441641117, "longitude": -81.72897097169387}, "132117318RR0001": {"name": "SOUTH LAKE CHRISTIAN CHURCH", "designationCode": "C", "categoryCode": "39", "address": "1402 EAST POINT ROAD", "city": "SOURIS", "province": "PE", "country": "CA", "postalCode": "C0A2B0", "twitter": "None", "instagram": "None", "facebook": "None", "youtube": "None", "website": "None", "summary": "None", "logo": "None", "latitude": 46.369524818990065, "longitude": -62.18130726928749}, "865730196RR0001": {"name": "SOUTH LANGLEY MENNONITE BRETHREN CHURCH", "designationCode": "C", "categoryCode": "34", "address": "20098-22ND AVENUE R.R.#1", "city": "LANGLEY", "province": "BC", "country": "CA", "postalCode": "V2Z1X4", "twitter": "None", "instagram": "None", "facebook": "None", "youtube": "None", "website": "None", "summary": "None", "logo": "None", "latitude": 49.042035546742625, "longitude": -122.66664355536962}, "869063255RR0001": {"name": "SOUTH LONDON NEIGHBOURHOOD RESOURCE CENTRE", "designationCode": "C", "categoryCode": "59", "address": "1119 JALNA BLVD", "city": "LONDON", "province": "ON", "country": "CA", "postalCode": "N6E3B3", "twitter": "None", "instagram": "None", "facebook": "None", "youtube": "None", "website": "None", "summary": "None", "logo": "None", "latitude": 42.93179751843743, "longitude": -81.22774201866764}, "107996548RR0001": {"name": "SOUTH MERSEA PASTORAL CHARGE", "designationCode": "C", "categoryCode": "44", "address": "1729 ROAD #2                  RR #4", "city": "LEAMINGTON", "province": "ON", "country": "CA", "postalCode": "N8H3V7", "twitter": "None", "instagram": "None", "facebook": "None", "youtube": "None", "website": "None", "summary": "None", "logo": "None", "latitude": 42.04346631034479, "longitude": -82.51491756480384}, "107996654RR0001": {"name": "SOUTH MOUNTAIN - HALLVILLE PASTORAL CHARGE", "designationCode": "C", "categoryCode": "44", "address": "2-4085 CTY RD 31", "city": "WILLIAMSBURG", "province": "ON", "country": "CA", "postalCode": "K0C2H0", "twitter": "None", "instagram": "None", "facebook": "None", "youtube": "None", "website": "None", "summary": "None", "logo": "None", "latitude": 44.98883459038816, "longitude": -75.25468996670367}, "107996647RR0001": {"name": "SOUTH MOUNTAIN ARM OF GOLD COMMUNITY ASSOCIATION", "designationCode": "C", "categoryCode": "56", "address": "R.R.#2 - 3363 WEST BAY HIGHWAY", "city": "WEST BAY", "province": "NS", "country": "CA", "postalCode": "B0E3K0", "twitter": "None", "instagram": "None", "facebook": "None", "youtube": "None", "website": "None", "summary": "None", "logo": "None", "latitude": 45.7171995004327, "longitude": -61.04733263336027}, "131597361RR0001": {"name": "SOUTH MOUNTAIN UNION CEMETERY", "designationCode": "C", "categoryCode": "59", "address": "10474 COUNTY ROAD 2", "city": "IROQUOIS", "province": "ON", "country": "CA", "postalCode": "K0E1K0", "twitter": "None", "instagram": "None", "facebook": "None", "youtube": "None", "website": "None", "summary": "None", "logo": "None", "latitude": 44.827307526162436, "longitude": -75.32907270809294}, "119157998RR0001": {"name": "SOUTH MUSKOKA HOSPITAL FOUNDATION", "designationCode": "A", "categoryCode": "13", "address": "75 ANN ST", "city": "BRACEBRIDGE", "province": "ON", "country": "CA", "postalCode": "P1L2E4", "twitter": "None", "instagram": "None", "facebook": "None", "youtube": "None", "website": "None", "summary": "None", "logo": "None", "latitude": 45.04637728966135, "longitude": -79.3140414756138}, "107996696RR0001": {"name": "SOUTH NATION RIVER CONSERVATION AUTHORITY", "designationCode": "C", "categoryCode": "52", "address": "PO BOX 29                     38 VICTORIA ST", "city": "FINCH", "province": "ON", "country": "CA", "postalCode": "K0C1K0", "twitter": "None", "instagram": "None", "facebook": "None", "youtube": "None", "website": "None", "summary": "None", "logo": "None", "latitude": 45.139560411881796, "longitude": -75.08209429349651}, "803121078RR0001": {"name": "SOUTH NEPEAN MUSLIM COMMUNITY (SNMC)", "designationCode": "C", "categoryCode": "60", "address": "3020 WOODROFFE AVE", "city": "NEPEAN", "province": "ON", "country": "CA", "postalCode": "K2J4G3", "twitter": "None", "instagram": "None", "facebook": "None", "youtube": "None", "website": "None", "summary": "None", "logo": "None", "latitude": 45.289376390844275, "longitude": -75.72624346738881}}