{"107270944RR0001": {"name": "DURHAM CHRISTIAN HIGH SCHOOL", "designationCode": "C", "categoryCode": "20", "address": "340 WEST SCUGOG LANE", "city": "BOWMANVILLE", "province": "ON", "country": "CA", "postalCode": "L1C3K2", "twitter": "None", "instagram": "None", "facebook": "None", "youtube": "None", "website": "None", "summary": "None", "logo": "None", "latitude": 43.92854093762653, "longitude": -78.70367762786005}, "804958692RR0001": {"name": "DURHAM CHURCH NETWORK", "designationCode": "C", "categoryCode": "39", "address": "15 HARMONY RD N", "city": "OSHAWA", "province": "ON", "country": "CA", "postalCode": "L1G6K8", "twitter": "None", "instagram": "None", "facebook": "None", "youtube": "None", "website": "None", "summary": "None", "logo": "None", "latitude": 43.90476166752251, "longitude": -78.83418066380118}, "107270969RR0001": {"name": "DURHAM COLLEGE OF APPLIED ARTS & TECHNOLOGY", "designationCode": "C", "categoryCode": "20", "address": "P.O. BOX 385                  2000 SIMCOE ST N", "city": "OSHAWA", "province": "ON", "country": "CA", "postalCode": "L1H7L7", "twitter": "None", "instagram": "None", "facebook": "None", "youtube": "None", "website": "None", "summary": "None", "logo": "None", "latitude": 43.94631946150995, "longitude": -78.89387017020555}, "889341590RR0001": {"name": "DURHAM COMMUNITY HALL", "designationCode": "C", "categoryCode": "59", "address": "216 HWY 376                   RR 2", "city": "PICTOU", "province": "NS", "country": "CA", "postalCode": "B0K1H0", "twitter": "None", "instagram": "None", "facebook": "None", "youtube": "None", "website": "None", "summary": "None", "logo": "None", "latitude": 45.58574287007471, "longitude": -62.840938063592866}, "893054247RR0001": {"name": "DURHAM COUNCIL FOR THE ARTS", "designationCode": "C", "categoryCode": "22", "address": "236 SHERWOOD COURT", "city": "OSHAWA", "province": "ON", "country": "CA", "postalCode": "L1G6R8", "twitter": "None", "instagram": "None", "facebook": "None", "youtube": "None", "website": "None", "summary": "None", "logo": "None", "latitude": 43.922823494604316, "longitude": -78.88368991949919}, "119070696RR0001": {"name": "DURHAM DEAF SERVICES INC.", "designationCode": "C", "categoryCode": "09", "address": "750 KING ST. EAST", "city": "OSHAWA", "province": "ON", "country": "CA", "postalCode": "L1H1G9", "twitter": "None", "instagram": "None", "facebook": "None", "youtube": "None", "website": "None", "summary": "None", "logo": "None", "latitude": 43.90412615336298, "longitude": -78.83543838259445}, "890572340RR0001": {"name": "DURHAM DELIVERANCE TEMPLE (APOSTOLIC) INC.", "designationCode": "C", "categoryCode": "39", "address": "3675 COCHRANCE STREET", "city": "WHITBY", "province": "ON", "country": "CA", "postalCode": "L1R2T2", "twitter": "None", "instagram": "None", "facebook": "None", "youtube": "None", "website": "None", "summary": "None", "logo": "None", "latitude": 43.9094535498297, "longitude": -78.96587880261445}, "891444572RR0001": {"name": "DURHAM DOWN'S SYNDROME ASSOCIATION", "designationCode": "C", "categoryCode": "11", "address": "PO BOX 231", "city": "WHITBY", "province": "ON", "country": "CA", "postalCode": "L1N5S1", "twitter": "None", "instagram": "None", "facebook": "None", "youtube": "None", "website": "None", "summary": "None", "logo": "None", "latitude": 43.899513000000056, "longitude": -78.94125349999993}, "892545963RR0001": {"name": "DURHAM EAST 4-H COUNCIL", "designationCode": "C", "categoryCode": "29", "address": "2574 CONCESSION RD 7", "city": "BOWMANVILLE", "province": "ON", "country": "CA", "postalCode": "L1C3K2", "twitter": "None", "instagram": "None", "facebook": "None", "youtube": "None", "website": "None", "summary": "None", "logo": "None", "latitude": 44.00577724788181, "longitude": -78.73097167227407}, "130196306RR0001": {"name": "DURHAM FAMILY COURT CLINIC", "designationCode": "C", "categoryCode": "59", "address": "201-44 RICHMOND ST W", "city": "OSHAWA", "province": "ON", "country": "CA", "postalCode": "L1G1C7", "twitter": "None", "instagram": "None", "facebook": "None", "youtube": "None", "website": "None", "summary": "None", "logo": "None", "latitude": 43.89916500000001, "longitude": -78.86498624999999}, "892944166RR0001": {"name": "DURHAM FARM AND RURAL FAMILY RESOURCES", "designationCode": "C", "categoryCode": "09", "address": "PO BOX 176", "city": "UXBRIDGE", "province": "ON", "country": "CA", "postalCode": "L9P1M7", "twitter": "None", "instagram": "None", "facebook": "None", "youtube": "None", "website": "None", "summary": "None", "logo": "None", "latitude": 44.10619800000005, "longitude": -79.12382299999993}, "887788867RR0001": {"name": "DURHAM FULL GOSPEL CHURCH", "designationCode": "C", "categoryCode": "39", "address": "419 BROCK ST. N.", "city": "WHITBY", "province": "ON", "country": "CA", "postalCode": "L1N4H8", "twitter": "None", "instagram": "None", "facebook": "None", "youtube": "None", "website": "None", "summary": "None", "logo": "None", "latitude": 43.884136308096124, "longitude": -78.94387888934767}, "138083209RR0001": {"name": "DURHAM HOSPICE", "designationCode": "C", "categoryCode": "11", "address": "201-1650 DUNDAS ST EAST", "city": "WHITBY", "province": "ON", "country": "CA", "postalCode": "L1N2K8", "twitter": "None", "instagram": "None", "facebook": "None", "youtube": "None", "website": "None", "summary": "None", "logo": "None", "latitude": 43.88785844851327, "longitude": -78.90674735485152}, "890865348RR0001": {"name": "DURHAM KOREAN CHURCH", "designationCode": "C", "categoryCode": "39", "address": "79 WILLOWBROOK DR", "city": "WHITBY", "province": "ON", "country": "CA", "postalCode": "L1R2A8", "twitter": "None", "instagram": "None", "facebook": "None", "youtube": "None", "website": "None", "summary": "None", "logo": "None", "latitude": 43.90614167747717, "longitude": -78.9502618795659}, "108206111RR0001": {"name": "DURHAM MENTAL HEALTH SERVICES", "designationCode": "C", "categoryCode": "01", "address": "519 BROCK ST S", "city": "WHITBY", "province": "ON", "country": "CA", "postalCode": "L1N4K8", "twitter": "None", "instagram": "None", "facebook": "None", "youtube": "None", "website": "None", "summary": "None", "logo": "None", "latitude": 43.87490940244674, "longitude": -78.94005098485214}, "871251443RR0001": {"name": "DURHAM MENTAL HEALTH SERVICES FOUNDATION", "designationCode": "A", "categoryCode": "03", "address": "519 BROCK ST S", "city": "WHITBY", "province": "ON", "country": "CA", "postalCode": "L1N4K8", "twitter": "None", "instagram": "None", "facebook": "None", "youtube": "None", "website": "None", "summary": "None", "logo": "None", "latitude": 43.87490940244674, "longitude": -78.94005098485214}, "135231124RR0001": {"name": "DURHAM OUTLOOK FOR THE NEEDY", "designationCode": "C", "categoryCode": "09", "address": "51 KING STREET", "city": "OSHAWA", "province": "ON", "country": "CA", "postalCode": "L1H1B4", "twitter": "None", "instagram": "None", "facebook": "None", "youtube": "None", "website": "None", "summary": "None", "logo": "None", "latitude": 43.89803186037867, "longitude": -78.86152463696695}, "885717744RR0001": {"name": "DURHAM PHILHARMONIC CHOIR", "designationCode": "C", "categoryCode": "22", "address": "1154 NORTHBRIDGE ST", "city": "OSHAWA", "province": "ON", "country": "CA", "postalCode": "L1G3P5", "twitter": "None", "instagram": "None", "facebook": "None", "youtube": "None", "website": "None", "summary": "None", "logo": "None", "latitude": 43.9267068240234, "longitude": -78.88300461728876}, "107271108RR0001": {"name": "DURHAM PRESBYTERIAN CHURCH", "designationCode": "C", "categoryCode": "37", "address": "BOX 256", "city": "DURHAM", "province": "ON", "country": "CA", "postalCode": "N0G1R0", "twitter": "None", "instagram": "None", "facebook": "None", "youtube": "None", "website": "None", "summary": "None", "logo": "None", "latitude": 44.125520383994086, "longitude": -81.21636506037191}, "897208914RR0001": {"name": "DURHAM REGION ASSOCIATION FOR COMMUNITY LIVING FOUNDATION", "designationCode": "A", "categoryCode": "03", "address": "947 ADELAIDE STREET EAST", "city": "OSHAWA", "province": "ON", "country": "CA", "postalCode": "L1G7L3", "twitter": "None", "instagram": "None", "facebook": "None", "youtube": "None", "website": "None", "summary": "None", "logo": "None", "latitude": 43.91353892804021, "longitude": -78.83323489387705}, "839972924RR0001": {"name": "DURHAM REGION CRITICAL INCIDENT STRESS SUPPORT TEAM", "designationCode": "C", "categoryCode": "09", "address": "8 - 1228 RITSON RD N          SUITE #101", "city": "OSHAWA", "province": "ON", "country": "CA", "postalCode": "L1G8B2", "twitter": "None", "instagram": "None", "facebook": "None", "youtube": "None", "website": "None", "summary": "None", "logo": "None", "latitude": 43.91944270165751, "longitude": -78.86225267902786}, "872364609RR0001": {"name": "DURHAM REGION MINISTRIES", "designationCode": "C", "categoryCode": "39", "address": "250 TAUNTON ROAD EAST         SUITE 3014", "city": "OSHAWA", "province": "ON", "country": "CA", "postalCode": "L1G7T1", "twitter": "None", "instagram": "None", "facebook": "None", "youtube": "None", "website": "None", "summary": "None", "logo": "None", "latitude": 43.93492109359986, "longitude": -78.87004768154519}, "891307548RR0001": {"name": "DURHAM REGION REFORM SYNAGOGUE", "designationCode": "C", "categoryCode": "42", "address": "360 WATSON STREET, W.         SUITE 105", "city": "WHITBY", "province": "ON", "country": "CA", "postalCode": "L1N9G2", "twitter": "None", "instagram": "None", "facebook": "None", "youtube": "None", "website": "None", "summary": "None", "logo": "None", "latitude": 43.860524122136205, "longitude": -78.93911830495172}, "136481033RR0001": {"name": "DURHAM REGION UNEMPLOYED HELP CENTRE", "designationCode": "C", "categoryCode": "09", "address": "272 KING STREET EAST", "city": "OSHAWA", "province": "ON", "country": "CA", "postalCode": "L1H1C8", "twitter": "None", "instagram": "None", "facebook": "None", "youtube": "None", "website": "None", "summary": "None", "logo": "None", "latitude": 43.899921114086105, "longitude": -78.85360993242536}, "892061540RR0001": {"name": "DURHAM REGIONAL CRIME STOPPERS INC", "designationCode": "C", "categoryCode": "59", "address": "85 SAMAC TRAIL", "city": "OSHAWA", "province": "ON", "country": "CA", "postalCode": "L1G7W1", "twitter": "None", "instagram": "None", "facebook": "None", "youtube": "None", "website": "None", "summary": "None", "logo": "None", "latitude": 43.94812339716663, "longitude": -78.89175539468512}, "118889971RR0001": {"name": "DURHAM THERAPEUTIC RIDING ASSOCIATION", "designationCode": "C", "categoryCode": "59", "address": "404 PEEL STREET", "city": "WHITBY", "province": "ON", "country": "CA", "postalCode": "L1N3Y4", "twitter": "None", "instagram": "None", "facebook": "None", "youtube": "None", "website": "None", "summary": "None", "logo": "None", "latitude": 43.8771159328294, "longitude": -78.93707431767541}, "896468303RR0001": {"name": "DURHAM WARM WATER AQUATIC PROGRAM (DWWAP)", "designationCode": "C", "categoryCode": "11", "address": "PO BOX 10042                  910 DUNDAS STREET WEST", "city": "WHITBY", "province": "ON", "country": "CA", "postalCode": "L1P1P7", "twitter": "None", "instagram": "None", "facebook": "None", "youtube": "None", "website": "None", "summary": "None", "logo": "None", "latitude": 43.87541150377693, "longitude": -78.96228869737322}, "863455903RR0001": {"name": "DURHAM WEST ARTS CENTRE", "designationCode": "C", "categoryCode": "22", "address": "PO BOX 667", "city": "PICKERING", "province": "ON", "country": "CA", "postalCode": "L1V3T3", "twitter": "None", "instagram": "None", "facebook": "None", "youtube": "None", "website": "None", "summary": "None", "logo": "None", "latitude": 43.837818000000055, "longitude": -79.08191449999994}, "802664672RR0001": {"name": "DURHAM WEST ARTS CENTRE FOUNDATION", "designationCode": "A", "categoryCode": "05", "address": "P.O. BOX 267", "city": "PICKERING", "province": "ON", "country": "CA", "postalCode": "L1V2R4", "twitter": "None", "instagram": "None", "facebook": "None", "youtube": "None", "website": "None", "summary": "None", "logo": "None", "latitude": 43.837818000000055, "longitude": -79.08191449999994}, "826484479RR0001": {"name": "DURHAM YOUTH HOUSING AND SUPPORT SERVICES", "designationCode": "C", "categoryCode": "09", "address": "82 KINGS CRESCENT", "city": "AJAX", "province": "ON", "country": "CA", "postalCode": "L1S2M6", "twitter": "None", "instagram": "None", "facebook": "None", "youtube": "None", "website": "None", "summary": "None", "logo": "None", "latitude": 43.848670599774955, "longitude": -79.01426519467383}, "864503552RR0001": {"name": "DURHAM YOUTH ORCHESTRA", "designationCode": "C", "categoryCode": "22", "address": "168 GLADSTONE AVE.", "city": "OSHAWA", "province": "ON", "country": "CA", "postalCode": "L1J4E7", "twitter": "None", "instagram": "None", "facebook": "None", "youtube": "None", "website": "None", "summary": "None", "logo": "None", "latitude": 43.90007718347844, "longitude": -78.87334995504638}, "891262545RR0001": {"name": "DURKAI AMMAN KOYIL SOCIETY/SOCIETE DURKAI AMMAN KOYIL", "designationCode": "C", "categoryCode": "39", "address": "271 RUE JEAN-TALON W", "city": "MONTREAL", "province": "QC", "country": "CA", "postalCode": "H2R2X8", "twitter": "None", "instagram": "None", "facebook": "None", "youtube": "None", "website": "None", "summary": "None", "logo": "None", "latitude": 45.53149526118063, "longitude": -73.62126488040262}, "889599908RR0001": {"name": "DUSK DANCE INC.", "designationCode": "C", "categoryCode": "22", "address": "84 ASHBURNHAM ROAD", "city": "TORONTO", "province": "ON", "country": "CA", "postalCode": "M6H2K5", "twitter": "None", "instagram": "None", "facebook": "None", "youtube": "None", "website": "None", "summary": "None", "logo": "None", "latitude": 43.673219139621345, "longitude": -79.44462609714924}, "888089851RR0001": {"name": "DUSTY SANDALS SOCIETY", "designationCode": "C", "categoryCode": "49", "address": "205-10130 139 STREET", "city": "SURREY", "province": "BC", "country": "CA", "postalCode": "V3T4L4", "twitter": "None", "instagram": "None", "facebook": "None", "youtube": "None", "website": "None", "summary": "None", "logo": "None", "latitude": 49.18654632361938, "longitude": -122.83716202051491}, "118890011RR0001": {"name": "DUTCH HERITAGE VILLA INC.", "designationCode": "C", "categoryCode": "01", "address": "480 ELLIOT AVENUE             BOX 104", "city": "KINGSTON", "province": "ON", "country": "CA", "postalCode": "K7K6J9", "twitter": "None", "instagram": "None", "facebook": "None", "youtube": "None", "website": "None", "summary": "None", "logo": "None", "latitude": 44.25607149567217, "longitude": -76.50247199847078}, "890663545RR0001": {"name": "DUTCH LANGUAGE PROGRAM OTTAWA", "designationCode": "C", "categoryCode": "21", "address": "6434 BEAUSEJOUR DR", "city": "ORLEANS", "province": "ON", "country": "CA", "postalCode": "K1C4W3", "twitter": "None", "instagram": "None", "facebook": "None", "youtube": "None", "website": "None", "summary": "None", "logo": "None", "latitude": 45.46003953814427, "longitude": -75.5208100331526}, "134847698RR0001": {"name": "DUTTON & DISTRICT LIONS NON-PROFIT HOUSING INC", "designationCode": "C", "categoryCode": "01", "address": "1 LIONS RD", "city": "DUTTON", "province": "ON", "country": "CA", "postalCode": "N0L1J0", "twitter": "None", "instagram": "None", "facebook": "None", "youtube": "None", "website": "None", "summary": "None", "logo": "None", "latitude": 42.66535217848411, "longitude": -81.51356744719992}, "118890037RR0001": {"name": "DUTTON BAPTIST CHURCH", "designationCode": "C", "categoryCode": "31", "address": "218 MILLER RD", "city": "DUTTON", "province": "ON", "country": "CA", "postalCode": "N0L1J0", "twitter": "None", "instagram": "None", "facebook": "None", "youtube": "None", "website": "None", "summary": "None", "logo": "None", "latitude": 42.66472314271668, "longitude": -81.50434175698837}, "107271405RR0001": {"name": "DUTTON CO-OPERATIVE CHILD CARE CENTRE INC.", "designationCode": "C", "categoryCode": "01", "address": "3 LIONS RD", "city": "DUTTON", "province": "ON", "country": "CA", "postalCode": "N0L1J0", "twitter": "None", "instagram": "None", "facebook": "None", "youtube": "None", "website": "None", "summary": "None", "logo": "None", "latitude": 42.66537487365942, "longitude": -81.51356631244116}, "118890045RR0001": {"name": "DUVAL ANNUAL COMBINED APPEAL", "designationCode": "C", "categoryCode": "05", "address": "BOX 66", "city": "DUVAL", "province": "SK", "country": "CA", "postalCode": "S0G1G0", "twitter": "None", "instagram": "None", "facebook": "None", "youtube": "None", "website": "None", "summary": "None", "logo": "None", "latitude": 51.18300902692534, "longitude": -104.58907553640175}, "118890052RR0001": {"name": "DUVAL FAMILY FOUNDATION INC.", "designationCode": "B", "categoryCode": "03", "address": "1200 410 22ND STREET EAST", "city": "SASKATOON", "province": "SK", "country": "CA", "postalCode": "S7K5T6", "twitter": "None", "instagram": "None", "facebook": "None", "youtube": "None", "website": "None", "summary": "None", "logo": "None", "latitude": 52.129097687794655, "longitude": -106.66598560188571}, "810529529RR0001": {"name": "DVC Charitable Foundation", "designationCode": "B", "categoryCode": "03", "address": "5-15243 91 AVE", "city": "SURREY", "province": "BC", "country": "CA", "postalCode": "V3R8P8", "twitter": "None", "instagram": "None", "facebook": "None", "youtube": "None", "website": "None", "summary": "None", "logo": "None", "latitude": 49.1683464893242, "longitude": -122.79984236081135}, "827091729RR0001": {"name": "DVS FOUNDATION", "designationCode": "A", "categoryCode": "03", "address": "710-360 BELL STREET SOUTH", "city": "OTTAWA", "province": "ON", "country": "CA", "postalCode": "K1S5E8", "twitter": "None", "instagram": "None", "facebook": "None", "youtube": "None", "website": "None", "summary": "None", "logo": "None", "latitude": 45.40133700000001, "longitude": -75.70283175}, "877973362RR0001": {"name": "DWIGHT FRIENDS OF THE LIBRARY", "designationCode": "C", "categoryCode": "59", "address": "P.O. BOX 172", "city": "DWIGHT", "province": "ON", "country": "CA", "postalCode": "P0A1H0", "twitter": "None", "instagram": "None", "facebook": "None", "youtube": "None", "website": "None", "summary": "None", "logo": "None", "latitude": 45.258990000000054, "longitude": -79.05489649999993}, "897058699RR0001": {"name": "DWIGHT SEIB MINISTRIES", "designationCode": "C", "categoryCode": "47", "address": "64 GREENWOOD CRT. SW", "city": "MEDICINE HAT", "province": "AB", "country": "CA", "postalCode": "T1A7X7", "twitter": "None", "instagram": "None", "facebook": "None", "youtube": "None", "website": "None", "summary": "None", "logo": "None", "latitude": 50.03985228059901, "longitude": -110.71188837841207}, "885595199RR0001": {"name": "DWPV (QUEBEC) FOUNDATION INC./FONDATION DWPV (QU\u00c9BEC) INC.", "designationCode": "B", "categoryCode": "03", "address": "1501 MCGILL COLLEGE AVENUE    26TH FLOOR", "city": "MONTREAL", "province": "QC", "country": "CA", "postalCode": "H3A3N9", "twitter": "None", "instagram": "None", "facebook": "None", "youtube": "None", "website": "None", "summary": "None", "logo": "None", "latitude": 45.50241910883465, "longitude": -73.57189910473797}, "875245102RR0001": {"name": "DYANA AFGHAN WOMEN'S FUND", "designationCode": "C", "categoryCode": "29", "address": "SUITE 204 60 ST CLAIR AVE E", "city": "TORONTO", "province": "ON", "country": "CA", "postalCode": "M4T1N5", "twitter": "None", "instagram": "None", "facebook": "None", "youtube": "None", "website": "None", "summary": "None", "logo": "None", "latitude": 43.68873422733551, "longitude": -79.39115932835122}, "890755341RR0001": {"name": "DYKELAND LODGE SOCIETY", "designationCode": "C", "categoryCode": "09", "address": "124 COTTAGE ST", "city": "WINDSOR HANTS CO", "province": "NS", "country": "CA", "postalCode": "B0N2T0", "twitter": "None", "instagram": "None", "facebook": "None", "youtube": "None", "website": "None", "summary": "None", "logo": "None", "latitude": 44.98052778815907, "longitude": -64.12701461726012}, "133037986RR0001": {"name": "DYNAMIC CHURCHES INTERNATIONAL LTD", "designationCode": "C", "categoryCode": "49", "address": "164 STONEGATE CLOSE", "city": "AIRDRIE", "province": "AB", "country": "CA", "postalCode": "T4B2V2", "twitter": "None", "instagram": "None", "facebook": "None", "youtube": "None", "website": "None", "summary": "None", "logo": "None", "latitude": 51.30338654593456, "longitude": -114.0141369057363}, "889920799RR0001": {"name": "DYNAMIC YOUTH MINISTRIES", "designationCode": "C", "categoryCode": "49", "address": "PO BOX 1100", "city": "NORWICH", "province": "ON", "country": "CA", "postalCode": "N0J1P0", "twitter": "None", "instagram": "None", "facebook": "None", "youtube": "None", "website": "None", "summary": "None", "logo": "None", "latitude": 42.98256600000006, "longitude": -80.60335999999994}, "102992047RR0001": {"name": "DYNAMO THEATRE INC.", "designationCode": "C", "categoryCode": "22", "address": "131-911 RUE JEAN-TALON EST", "city": "MONTREAL", "province": "QC", "country": "CA", "postalCode": "H2R1V5", "twitter": "None", "instagram": "None", "facebook": "None", "youtube": "None", "website": "None", "summary": "None", "logo": "None", "latitude": 45.5414044671877, "longitude": -73.61281527972645}, "118890110RR0001": {"name": "DYSART & DISTRICT HISTORICAL SOCIETY", "designationCode": "C", "categoryCode": "59", "address": "PO BOX 142", "city": "DYSART", "province": "SK", "country": "CA", "postalCode": "S0G1H0", "twitter": "None", "instagram": "None", "facebook": "None", "youtube": "None", "website": "None", "summary": "None", "logo": "None", "latitude": 50.945730000000026, "longitude": -104.03088999999994}, "118890128RR0001": {"name": "DYSART GOLDEN YEARS CLUB INC.", "designationCode": "C", "categoryCode": "56", "address": "PO BOX 65", "city": "DYSART", "province": "SK", "country": "CA", "postalCode": "S0G1H0", "twitter": "None", "instagram": "None", "facebook": "None", "youtube": "None", "website": "None", "summary": "None", "logo": "None", "latitude": 50.945730000000026, "longitude": -104.03088999999994}, "809249543RR0001": {"name": "DYSLEXIEHABILITE INC. / DYSLEXIABILITY INC.", "designationCode": "C", "categoryCode": "20", "address": "4994 BOUL. DE MAISONNEUVE O.  #104", "city": "WESTMOUNT", "province": "QC", "country": "CA", "postalCode": "H3Z3B9", "twitter": "None", "instagram": "None", "facebook": "None", "youtube": "None", "website": "None", "summary": "None", "logo": "None", "latitude": 45.47638026810553, "longitude": -73.60153324756196}, "868336751RR0001": {"name": "DYSTROPHIC EPIDERMOLYSIS BULLOSA RESEARCH ASSOCIATION OF CANADA (DEBRA CANADA)", "designationCode": "C", "categoryCode": "19", "address": "1500 UPPER MIDDLE ROAD UNIT 3 PO 76035", "city": "OAKVILLE", "province": "ON", "country": "CA", "postalCode": "L6M3H5", "twitter": "None", "instagram": "None", "facebook": "None", "youtube": "None", "website": "None", "summary": "None", "logo": "None", "latitude": 43.438393112932275, "longitude": -79.7421609053036}, "119152205RR0001": {"name": "DZE L K'ANT FRIENDSHIP CENTRE SOCIETY", "designationCode": "C", "categoryCode": "59", "address": "P.O. BOX 2920", "city": "SMITHERS", "province": "BC", "country": "CA", "postalCode": "V0J2N0", "twitter": "None", "instagram": "None", "facebook": "None", "youtube": "None", "website": "None", "summary": "None", "logo": "None", "latitude": 54.78312000000005, "longitude": -127.16847999999999}, "813542925RR0001": {"name": "E & E Hops Foundation Inc.", "designationCode": "B", "categoryCode": "03", "address": "230 GOLFVIEW CRES", "city": "STEINBACH", "province": "MB", "country": "CA", "postalCode": "R5G2A1", "twitter": "None", "instagram": "None", "facebook": "None", "youtube": "None", "website": "None", "summary": "None", "logo": "None", "latitude": 49.539921967179374, "longitude": -96.67758743424126}, "888841590RR0001": {"name": "E C HUTCHINSON MEMORIAL SCHOLARSHIP FUND", "designationCode": "B", "categoryCode": "25", "address": "235 AMY CROFT DRIVE", "city": "TECUMSEH", "province": "ON", "country": "CA", "postalCode": "N9K1C8", "twitter": "None", "instagram": "None", "facebook": "None", "youtube": "None", "website": "None", "summary": "None", "logo": "None", "latitude": 42.30682079257382, "longitude": -82.85067736854431}, "891583197RR0001": {"name": "E E S S ALUMNI EDUCATION FOUNDATION", "designationCode": "C", "categoryCode": "21", "address": "362 TALBOT ST. W.", "city": "AYLMER", "province": "ON", "country": "CA", "postalCode": "N5H1K6", "twitter": "None", "instagram": "None", "facebook": "None", "youtube": "None", "website": "None", "summary": "None", "logo": "None", "latitude": 42.773053263740316, "longitude": -80.99073242872424}, "888832862RR0001": {"name": "E J WIEBE FOUNDATION INC", "designationCode": "B", "categoryCode": "13", "address": "64 RUTLEDGE CRESCENT", "city": "WINNIPEG", "province": "MB", "country": "CA", "postalCode": "R3W1E8", "twitter": "None", "instagram": "None", "facebook": "None", "youtube": "None", "website": "None", "summary": "None", "logo": "None", "latitude": 49.91869999056495, "longitude": -97.04460521262034}, "886342195RR0001": {"name": "E K M HEALTH FOUNDATION", "designationCode": "A", "categoryCode": "15", "address": "23 EARNSCLIFFE AVENUE", "city": "WOLFVILLE", "province": "NS", "country": "CA", "postalCode": "B4P1X4", "twitter": "None", "instagram": "None", "facebook": "None", "youtube": "None", "website": "None", "summary": "None", "logo": "None", "latitude": 45.087550228980305, "longitude": -64.37102632289822}, "118896596RR0001": {"name": "E. & G. ODETTE FOUNDATION", "designationCode": "B", "categoryCode": "03", "address": "609 - 1 ST CLAIR AVE E", "city": "TORONTO", "province": "ON", "country": "CA", "postalCode": "M4T2V7", "twitter": "None", "instagram": "None", "facebook": "None", "youtube": "None", "website": "None", "summary": "None", "logo": "None", "latitude": 43.690058011175346, "longitude": -79.38485244552025}, "139158042RR0001": {"name": "E.C.A. MINISTERIAL FELLOWSHIP OF CANADA", "designationCode": "C", "categoryCode": "20", "address": "715 ST. LAURENT BLVD", "city": "OTTAWA", "province": "ON", "country": "CA", "postalCode": "K1K3A6", "twitter": "None", "instagram": "None", "facebook": "None", "youtube": "None", "website": "None", "summary": "None", "logo": "None", "latitude": 45.43717004330884, "longitude": -75.64451241072796}, "107272791RR0001": {"name": "E.C.E.B.C.-EARLY CHILDHOOD EDUCATORS OF BRITISH COLUMBIA", "designationCode": "C", "categoryCode": "20", "address": "309 - 515 PENDER ST W", "city": "VANCOUVER", "province": "BC", "country": "CA", "postalCode": "V6B1V5", "twitter": "None", "instagram": "None", "facebook": "None", "youtube": "None", "website": "None", "summary": "None", "logo": "None", "latitude": 49.283710521524505, "longitude": -123.11334838354796}, "118892132RR0001": {"name": "E.C.H.O. PLAYERS", "designationCode": "C", "categoryCode": "22", "address": "110 WEST SECOND AVENUE", "city": "QUALICUM BEACH", "province": "BC", "country": "CA", "postalCode": "V9K1S8", "twitter": "None", "instagram": "None", "facebook": "None", "youtube": "None", "website": "None", "summary": "None", "logo": "None", "latitude": 49.34720047403208, "longitude": -124.44214997155058}, "891729212RR0001": {"name": "E.H. HORNE SCHOOL PRESERVATION SOCIETY", "designationCode": "C", "categoryCode": "50", "address": "248 HIGHWAY 2", "city": "ENFIELD", "province": "NS", "country": "CA", "postalCode": "B2T1C9", "twitter": "None", "instagram": "None", "facebook": "None", "youtube": "None", "website": "None", "summary": "None", "logo": "None", "latitude": 44.94201579035949, "longitude": -63.53593554746195}, "118896620RR0001": {"name": "E.I.D. HISTORICAL PARK", "designationCode": "C", "categoryCode": "52", "address": "PO BOX 45", "city": "SCANDIA", "province": "AB", "country": "CA", "postalCode": "T0J2Z0", "twitter": "None", "instagram": "None", "facebook": "None", "youtube": "None", "website": "None", "summary": "None", "logo": "None", "latitude": 50.279453999999994, "longitude": -112.04646075}, "118897917RR0001": {"name": "E.L. MARTIN ASSISTANCE FUND", "designationCode": "B", "categoryCode": "05", "address": "101 - 109 PRINCESS ST", "city": "KINGSTON", "province": "ON", "country": "CA", "postalCode": "K7L1A8", "twitter": "None", "instagram": "None", "facebook": "None", "youtube": "None", "website": "None", "summary": "None", "logo": "None", "latitude": 44.23167532168612, "longitude": -76.48285601664843}, "895645075RR0001": {"name": "E.R.S. TRAINING AND DEVELOPMENT CORPORATION/ CORPORATION POUR LA FORMATION ET LE DEVELOPPEMENT E.R.S.", "designationCode": "C", "categoryCode": "09", "address": "810-5250 RUE FERRIER", "city": "MONTREAL", "province": "QC", "country": "CA", "postalCode": "H4P1L4", "twitter": "None", "instagram": "None", "facebook": "None", "youtube": "None", "website": "None", "summary": "None", "logo": "None", "latitude": 45.49819035913793, "longitude": -73.65688247778299}, "888639648RR0001": {"name": "E.T.C.: EDUCATING TOWARD CHANGE", "designationCode": "C", "categoryCode": "22", "address": "2B - 495 DUPPLIN RD", "city": "VICTORIA", "province": "BC", "country": "CA", "postalCode": "V8Z1B8", "twitter": "None", "instagram": "None", "facebook": "None", "youtube": "None", "website": "None", "summary": "None", "logo": "None", "latitude": 48.447731536211045, "longitude": -123.37712060199667}, "118904630RR0001": {"name": "E.W. BICKLE FOUNDATION", "designationCode": "B", "categoryCode": "03", "address": "SCOTIA PLAZA BOX 105          4802-40 KING ST W", "city": "TORONTO", "province": "ON", "country": "CA", "postalCode": "M5H3Y2", "twitter": "None", "instagram": "None", "facebook": "None", "youtube": "None", "website": "None", "summary": "None", "logo": "None", "latitude": 43.648870023370904, "longitude": -79.37924004443396}, "118904663RR0001": {"name": "E.W.R. STEACIE MEMORIAL FUND", "designationCode": "A", "categoryCode": "25", "address": "NATIONAL RESEARCH COUNCIL OF", "city": "OTTAWA", "province": "ON", "country": "CA", "postalCode": "K1A0R6", "twitter": "None", "instagram": "None", "facebook": "None", "youtube": "None", "website": "None", "summary": "None", "logo": "None", "latitude": 45.43832000000003, "longitude": -75.69678999999996}, "122298854RR0001": {"name": "E-QUALITY COMMUNICATION CENTRE OF EXCELLENCE INC.", "designationCode": "C", "categoryCode": "09", "address": "200-1 FORKS MARKET RD", "city": "WINNIPEG", "province": "MB", "country": "CA", "postalCode": "R3C4L9", "twitter": "None", "instagram": "None", "facebook": "None", "youtube": "None", "website": "None", "summary": "None", "logo": "None", "latitude": 49.88785107207466, "longitude": -97.13050188889684}, "140914722RR0001": {"name": "E-TAHKANAWASOT CARE CENTRE CORP", "designationCode": "C", "categoryCode": "01", "address": "919 BROADWAY", "city": "SASKATOON", "province": "SK", "country": "CA", "postalCode": "S7N1B8", "twitter": "None", "instagram": "None", "facebook": "None", "youtube": "None", "website": "None", "summary": "None", "logo": "None", "latitude": 52.11619200000001, "longitude": -106.6566587722318}, "731159299RR0001": {"name": "Eagle Christian Fellowship of Canada", "designationCode": "C", "categoryCode": "22", "address": "73 RIDGECREST DR", "city": "SCARBOROUGH", "province": "ON", "country": "CA", "postalCode": "M1W4A3", "twitter": "None", "instagram": "None", "facebook": "None", "youtube": "None", "website": "None", "summary": "None", "logo": "None", "latitude": 43.78796639523337, "longitude": -79.31672800649221}, "801393653RR0001": {"name": "Eagle Heights Africa in BC Society", "designationCode": "C", "categoryCode": "21", "address": "10215 TSAYKUM RD", "city": "NORTH SAANICH", "province": "BC", "country": "CA", "postalCode": "V8L5T6", "twitter": "None", "instagram": "None", "facebook": "None", "youtube": "None", "website": "None", "summary": "None", "logo": "None", "latitude": 48.65934296032653, "longitude": -123.44566812897513}, "823835269RR0001": {"name": "Eagle Street Christian Fellowship", "designationCode": "C", "categoryCode": "39", "address": "950 EAGLE STREET NORTH", "city": "CAMBRIDGE", "province": "ON", "country": "CA", "postalCode": "N3H1C4", "twitter": "None", "instagram": "None", "facebook": "None", "youtube": "None", "website": "None", "summary": "None", "logo": "None", "latitude": 43.404083307259405, "longitude": -80.35157764377628}, "840482335RR0001": {"name": "Eagle Tower Victim Services Society", "designationCode": "C", "categoryCode": "59", "address": "PO BOX 537", "city": "WHITECOURT", "province": "AB", "country": "CA", "postalCode": "T7S1N6", "twitter": "None", "instagram": "None", "facebook": "None", "youtube": "None", "website": "None", "summary": "None", "logo": "None", "latitude": 54.12540300000006, "longitude": -115.66208149999994}, "823043468RR0001": {"name": "Eagle Wings International Ministries", "designationCode": "C", "categoryCode": "39", "address": "2313 GLANDRIEL CRES", "city": "ORLEANS", "province": "ON", "country": "CA", "postalCode": "K4A4S8", "twitter": "None", "instagram": "None", "facebook": "None", "youtube": "None", "website": "None", "summary": "None", "logo": "None", "latitude": 45.47611629225577, "longitude": -75.45178099864368}, "858505944RR0001": {"name": "Eagle Worldwide Community Enrichment", "designationCode": "C", "categoryCode": "09", "address": "P.O. BOX 39", "city": "COPETOWN", "province": "ON", "country": "CA", "postalCode": "L0R1J0", "twitter": "None", "instagram": "None", "facebook": "None", "youtube": "None", "website": "None", "summary": "None", "logo": "None", "latitude": 43.24383000000006, "longitude": -80.05627999999996}, "795147297RR0001": {"name": "Eagle's Nest Ministry Centre", "designationCode": "C", "categoryCode": "43", "address": "PO BOX 778", "city": "LA CRETE", "province": "AB", "country": "CA", "postalCode": "T0H2H0", "twitter": "None", "instagram": "None", "facebook": "None", "youtube": "None", "website": "None", "summary": "None", "logo": "None", "latitude": 58.18348000000003, "longitude": -116.40267999999998}, "840731418RR0001": {"name": "Eagle's Nest Youth Ranch Inc.", "designationCode": "C", "categoryCode": "09", "address": "20 - 12TH ST WEST", "city": "PRINCE ALBERT", "province": "SK", "country": "CA", "postalCode": "S6V3B3", "twitter": "None", "instagram": "None", "facebook": "None", "youtube": "None", "website": "None", "summary": "None", "logo": "None", "latitude": 53.20226334113606, "longitude": -105.75484945443196}, "804549772RR0001": {"name": "Eagles of Tomorrow Education Society", "designationCode": "C", "categoryCode": "21", "address": "2606-1367 ALBERNI ST", "city": "VANCOUVER", "province": "BC", "country": "CA", "postalCode": "V6E4R9", "twitter": "None", "instagram": "None", "facebook": "None", "youtube": "None", "website": "None", "summary": "None", "logo": "None", "latitude": 49.288442349201645, "longitude": -123.12852850468144}, "802956110RR0001": {"name": "Eagles Gathering Ministries International", "designationCode": "C", "categoryCode": "39", "address": "142 MAJOR WN SHARPE DR", "city": "BRAMPTON", "province": "ON", "country": "CA", "postalCode": "L6X3Y1", "twitter": "None", "instagram": "None", "facebook": "None", "youtube": "None", "website": "None", "summary": "None", "logo": "None", "latitude": 43.67711400000006, "longitude": -79.78873399999993}, "891817264RR0001": {"name": "Eagles Vision Fellowship of Edmonton", "designationCode": "C", "categoryCode": "39", "address": "9861 - 84 AVENUE", "city": "EDMONTON", "province": "AB", "country": "CA", "postalCode": "T6E2G1", "twitter": "None", "instagram": "None", "facebook": "None", "youtube": "None", "website": "None", "summary": "None", "logo": "None", "latitude": 53.51994653952925, "longitude": -113.48575110935425}, "832203095RR0001": {"name": "Eaglets Daycare Co-op Inc.", "designationCode": "C", "categoryCode": "20", "address": "PO BOX 348", "city": "ERIKSDALE", "province": "MB", "country": "CA", "postalCode": "R0C0W0", "twitter": "None", "instagram": "None", "facebook": "None", "youtube": "None", "website": "None", "summary": "None", "logo": "None", "latitude": 50.86375000000004, "longitude": -98.11142999999998}, "803573575RR0001": {"name": "Earhart Cultural Heritage Organization Inc.", "designationCode": "C", "categoryCode": "50", "address": "143 HARBOUR DRIVE             P.O. BOX 16", "city": "TREPASSEY", "province": "NL", "country": "CA", "postalCode": "A0A4B0", "twitter": "None", "instagram": "None", "facebook": "None", "youtube": "None", "website": "None", "summary": "None", "logo": "None", "latitude": 37.36849652019377, "longitude": -120.59619524497873}, "119288918RR0416": {"name": "Earl Grey Congregation of Jehovah's Witnesses, Earl Grey, Saskatchewan", "designationCode": "C", "categoryCode": "61", "address": "306 MAIN STREET               POST OFFICE BOX 189", "city": "EARL GREY", "province": "SK", "country": "CA", "postalCode": "S0G1J0", "twitter": "None", "instagram": "None", "facebook": "None", "youtube": "None", "website": "None", "summary": "None", "logo": "None", "latitude": 50.37811156585945, "longitude": -102.57763441345392}, "840481824RR0001": {"name": "Earl Haig Society (Coquitlam)", "designationCode": "C", "categoryCode": "09", "address": "1800 AUSTIN AVE", "city": "COQUITLAM", "province": "BC", "country": "CA", "postalCode": "V3K3R3", "twitter": "None", "instagram": "None", "facebook": "None", "youtube": "None", "website": "None", "summary": "None", "logo": "None", "latitude": 49.248946521207394, "longitude": -122.84359183236194}, "893232280RR0001": {"name": "Early Beginnings Multicultural Child Development Centre of Ottawa-Carleton", "designationCode": "C", "categoryCode": "01", "address": "11 NADOLNY SACHS PRIVATE", "city": "OTTAWA", "province": "ON", "country": "CA", "postalCode": "K2A1R9", "twitter": "None", "instagram": "None", "facebook": "None", "youtube": "None", "website": "None", "summary": "None", "logo": "None", "latitude": 45.375832560101486, "longitude": -75.75231223766554}, "889084034RR0001": {"name": "Early Childwood Family Resource Centre of Westmorland-AlbertInc. / Centre de ressources familiales \u00e0 la petite enfance de Westmorland et Albert Inc.", "designationCode": "C", "categoryCode": "09", "address": "86 RUE STE-THERESE", "city": "DIEPPE", "province": "NB", "country": "CA", "postalCode": "E1A1S7", "twitter": "None", "instagram": "None", "facebook": "None", "youtube": "None", "website": "None", "summary": "None", "logo": "None", "latitude": 46.09598867838338, "longitude": -64.75463357661859}, "766037295RR0001": {"name": "Early Learning and Child Care Centre Thompson Inc.", "designationCode": "C", "categoryCode": "01", "address": "55 UCN DR", "city": "THOMPSON", "province": "MB", "country": "CA", "postalCode": "R8N1L7", "twitter": "None", "instagram": "None", "facebook": "None", "youtube": "None", "website": "None", "summary": "None", "logo": "None", "latitude": 55.75052312477624, "longitude": -97.86726216659885}, "824345201RR0001": {"name": "Early Music Alberta Society", "designationCode": "C", "categoryCode": "22", "address": "617 HENDERSON STREET", "city": "EDMONTON", "province": "AB", "country": "CA", "postalCode": "T6R1S4", "twitter": "None", "instagram": "None", "facebook": "None", "youtube": "None", "website": "None", "summary": "None", "logo": "None", "latitude": 53.466953123232706, "longitude": -113.59837839560875}, "857004956RR0001": {"name": "Early Music Studio of Saint John Inc.", "designationCode": "C", "categoryCode": "22", "address": "310 WOODWARD AVENUE           SUITE 806", "city": "SAINT JOHN", "province": "NB", "country": "CA", "postalCode": "E2K2L1", "twitter": "None", "instagram": "None", "facebook": "None", "youtube": "None", "website": "None", "summary": "None", "logo": "None", "latitude": 45.293289598966915, "longitude": -66.10403335359798}, "840642334RR0001": {"name": "Earth Eco Alliance Foundation", "designationCode": "A", "categoryCode": "03", "address": "1250-1500 WEST GEORGIA STREET BOX 62", "city": "VANCOUVER", "province": "BC", "country": "CA", "postalCode": "V6G2Z6", "twitter": "None", "instagram": "None", "facebook": "None", "youtube": "None", "website": "None", "summary": "None", "logo": "None", "latitude": 49.290187500000016, "longitude": -123.130035}, "829728716RR0001": {"name": "East and Central African Association for Indigenous Rights Inc.", "designationCode": "C", "categoryCode": "29", "address": "11 - 125 PARKSIDE DR", "city": "FREDERICTON", "province": "NB", "country": "CA", "postalCode": "E3B2T1", "twitter": "None", "instagram": "None", "facebook": "None", "youtube": "None", "website": "None", "summary": "None", "logo": "None", "latitude": 45.94622402406932, "longitude": -66.66931406920794}, "846279693RR0001": {"name": "East Africa Education Trust", "designationCode": "B", "categoryCode": "25", "address": "23 MARY STREET", "city": "PERTH", "province": "ON", "country": "CA", "postalCode": "K7H2X1", "twitter": "None", "instagram": "None", "facebook": "None", "youtube": "None", "website": "None", "summary": "None", "logo": "None", "latitude": 44.904472207888475, "longitude": -76.25607745213219}, "119288918RR1657": {"name": "East Arabic Congregation of Jehovah's Witnesses, Calgary, Alberta", "designationCode": "C", "categoryCode": "61", "address": "127 44 ST SE", "city": "CALGARY", "province": "AB", "country": "CA", "postalCode": "T2A3E2", "twitter": "None", "instagram": "None", "facebook": "None", "youtube": "None", "website": "None", "summary": "None", "logo": "None", "latitude": 51.05120400000001, "longitude": -113.97001623968477}, "808638621RR0001": {"name": "East Beaches Animal Shelter Inc.", "designationCode": "C", "categoryCode": "54", "address": "P.O. BOX 51", "city": "VICTORIA BEACH", "province": "MB", "country": "CA", "postalCode": "R0E2C0", "twitter": "None", "instagram": "None", "facebook": "None", "youtube": "None", "website": "None", "summary": "None", "logo": "None", "latitude": 50.69768737686306, "longitude": -96.55575829762454}, "827303066RR0001": {"name": "East Beaches Regional Complex Inc.", "designationCode": "C", "categoryCode": "56", "address": "BOX 330", "city": "GRAND MARAIS", "province": "MB", "country": "CA", "postalCode": "R0E0T0", "twitter": "None", "instagram": "None", "facebook": "None", "youtube": "None", "website": "None", "summary": "None", "logo": "None", "latitude": 50.55020476890258, "longitude": -96.63362244326943}}