{"867111940RR0001": {"name": "MAISON DE LA FAMILLE DE CHARLEVOIX", "designationCode": "C", "categoryCode": "09", "address": "37, RUE LAURE-CONAN", "city": "LA MALBAIE", "province": "QC", "country": "CA", "postalCode": "G5A1H8", "twitter": "None", "instagram": "None", "facebook": "None", "youtube": "None", "website": "None", "summary": "None", "logo": "None", "latitude": 47.6474739975185, "longitude": -70.15066262432923}, "138824248RR0001": {"name": "MAISON DE LA FAMILLE DE GATINEAU", "designationCode": "C", "categoryCode": "09", "address": "69, AV. GATINEAU", "city": "GATINEAU", "province": "QC", "country": "CA", "postalCode": "J8T4J4", "twitter": "None", "instagram": "None", "facebook": "None", "youtube": "None", "website": "None", "summary": "None", "logo": "None", "latitude": 45.47960785097225, "longitude": -75.72446728991848}, "888690880RR0001": {"name": "MAISON DE LA FAMILLE DE LA MRC DE L'ISLET INC", "designationCode": "C", "categoryCode": "59", "address": "21 PRINCIPALE", "city": "ST-PAMPHILE", "province": "QC", "country": "CA", "postalCode": "G0R3X0", "twitter": "None", "instagram": "None", "facebook": "None", "youtube": "None", "website": "None", "summary": "None", "logo": "None", "latitude": 46.960998034156525, "longitude": -69.77909361779186}, "890290752RR0001": {"name": "MAISON DE LA FAMILLE DE LA VALL\u00c9E DU RICHELIEU", "designationCode": "C", "categoryCode": "09", "address": "91 BOUL CARTIER", "city": "BELOEIL", "province": "QC", "country": "CA", "postalCode": "J3G3P9", "twitter": "None", "instagram": "None", "facebook": "None", "youtube": "None", "website": "None", "summary": "None", "logo": "None", "latitude": 45.55145402524678, "longitude": -73.21846564028517}, "852962638RR0001": {"name": "MAISON DE LA FAMILLE DE MIRABEL", "designationCode": "C", "categoryCode": "09", "address": "8106C RUE DE BELLE-RIVIERE", "city": "MIRABEL", "province": "QC", "country": "CA", "postalCode": "J7N2V8", "twitter": "None", "instagram": "None", "facebook": "None", "youtube": "None", "website": "None", "summary": "None", "logo": "None", "latitude": 45.62790438831352, "longitude": -74.08983318051996}, "893866665RR0001": {"name": "MAISON DE LA FAMILLE DE PORT-CARTIER", "designationCode": "C", "categoryCode": "09", "address": "12A RUE BOISVERT              C.P. 152", "city": "PORT-CARTIER", "province": "QC", "country": "CA", "postalCode": "G5B2G8", "twitter": "None", "instagram": "None", "facebook": "None", "youtube": "None", "website": "None", "summary": "None", "logo": "None", "latitude": 50.02297915071016, "longitude": -66.88171877120105}, "895878072RR0001": {"name": "MAISON DE LA FAMILLE DE QUYON/QUYON FAMILY CENTER", "designationCode": "C", "categoryCode": "09", "address": "1074 RUE CLARENDON", "city": "QUYON", "province": "QC", "country": "CA", "postalCode": "J0X2V0", "twitter": "None", "instagram": "None", "facebook": "None", "youtube": "None", "website": "None", "summary": "None", "logo": "None", "latitude": 45.520177547319555, "longitude": -76.23418812753188}, "892453895RR0001": {"name": "MAISON DE LA FAMILLE DE SAINT-L\u00c9ONARD", "designationCode": "C", "categoryCode": "09", "address": "8180, RUE COLLERETTE", "city": "ST-L\u00c9ONARD", "province": "QC", "country": "CA", "postalCode": "H1P2V5", "twitter": "None", "instagram": "None", "facebook": "None", "youtube": "None", "website": "None", "summary": "None", "logo": "None", "latitude": 45.585607727422435, "longitude": -73.59307450210613}, "880762927RR0001": {"name": "MAISON DE LA FAMILLE DE SENNETERRE", "designationCode": "C", "categoryCode": "09", "address": "671, 10E AVENUE", "city": "SENNETERRE", "province": "QC", "country": "CA", "postalCode": "J0Y2M0", "twitter": "None", "instagram": "None", "facebook": "None", "youtube": "None", "website": "None", "summary": "None", "logo": "None", "latitude": 48.3902353760748, "longitude": -77.2463832485429}, "893460766RR0001": {"name": "MAISON DE LA FAMILLE DE SHERBROOKE INC.", "designationCode": "C", "categoryCode": "09", "address": "72, RUE VICTORIA", "city": "SHERBROOKE", "province": "QC", "country": "CA", "postalCode": "J1H3H7", "twitter": "None", "instagram": "None", "facebook": "None", "youtube": "None", "website": "None", "summary": "None", "logo": "None", "latitude": 45.39994146572221, "longitude": -71.90604442864579}, "891036154RR0001": {"name": "MAISON DE LA FAMILLE DE ST-FRAN\u00c7OIS", "designationCode": "C", "categoryCode": "09", "address": "801B 3 AVE S", "city": "LETHBRIDGE", "province": "AB", "country": "CA", "postalCode": "T1J0H8", "twitter": "None", "instagram": "None", "facebook": "None", "youtube": "None", "website": "None", "summary": "None", "logo": "None", "latitude": 49.69607518283608, "longitude": -112.83547531274768}, "135971786RR0001": {"name": "MAISON DE LA FAMILLE DE ST-MICHEL", "designationCode": "C", "categoryCode": "09", "address": "8961 12 E AVENUE", "city": "MONTREAL", "province": "QC", "country": "CA", "postalCode": "H1Z3J5", "twitter": "None", "instagram": "None", "facebook": "None", "youtube": "None", "website": "None", "summary": "None", "logo": "None", "latitude": 45.57170326868244, "longitude": -73.62529953453759}, "889945754RR0001": {"name": "MAISON DE LA FAMILLE DES FRONTI\u00c8RES", "designationCode": "C", "categoryCode": "09", "address": "52 RUE DUPONT CP 121 BEDFORD", "city": "BEDFORD", "province": "QC", "country": "CA", "postalCode": "J0J1A0", "twitter": "None", "instagram": "None", "facebook": "None", "youtube": "None", "website": "None", "summary": "None", "logo": "None", "latitude": 46.7570015323159, "longitude": -71.68040052844941}, "137124384RR0001": {"name": "MAISON DE LA FAMILLE DES MASKOUTAINS", "designationCode": "C", "categoryCode": "09", "address": "2130 AVENUE MAILHOT", "city": "SAINT-HYACINTHE", "province": "QC", "country": "CA", "postalCode": "J2S9E1", "twitter": "None", "instagram": "None", "facebook": "None", "youtube": "None", "website": "None", "summary": "None", "logo": "None", "latitude": 45.631969940619676, "longitude": -72.94846105133026}, "140792847RR0001": {"name": "MAISON DE LA FAMILLE DRUMMOND INC", "designationCode": "C", "categoryCode": "09", "address": "152 RUE SAINT-DAMASE", "city": "DRUMMONDVILLE", "province": "QC", "country": "CA", "postalCode": "J2B6G5", "twitter": "None", "instagram": "None", "facebook": "None", "youtube": "None", "website": "None", "summary": "None", "logo": "None", "latitude": 45.87283789618567, "longitude": -72.49203142143243}, "895257889RR0001": {"name": "MAISON DE LA FAMILLE DU BASSIN DE MASKINONG\u00c9", "designationCode": "C", "categoryCode": "09", "address": "75 ST-JACQUES", "city": "LOUISEVILLE", "province": "QC", "country": "CA", "postalCode": "J5V1C3", "twitter": "None", "instagram": "None", "facebook": "None", "youtube": "None", "website": "None", "summary": "None", "logo": "None", "latitude": 46.257487497836564, "longitude": -72.94038168457494}, "885910091RR0001": {"name": "MAISON DE LA FAMILLE DU GRAND-PORTAGE", "designationCode": "C", "categoryCode": "09", "address": "29 RUE DE LA COUR", "city": "RIVIERE-DU-LOUP", "province": "QC", "country": "CA", "postalCode": "G5R1J1", "twitter": "None", "instagram": "None", "facebook": "None", "youtube": "None", "website": "None", "summary": "None", "logo": "None", "latitude": 47.83681178821639, "longitude": -69.53966705257099}, "132106642RR0001": {"name": "MAISON DE LA FAMILLE DU KAMOURASKA", "designationCode": "C", "categoryCode": "09", "address": "580-C, RUE C\u00d4T\u00c9               C.P. 1059", "city": "SAINT-PASCAL", "province": "QC", "country": "CA", "postalCode": "G0L3Y0", "twitter": "None", "instagram": "None", "facebook": "None", "youtube": "None", "website": "None", "summary": "None", "logo": "None", "latitude": 47.52916292310588, "longitude": -69.80129075716991}, "895780526RR0001": {"name": "MAISON DE LA FAMILLE DU PONTIAC", "designationCode": "C", "categoryCode": "09", "address": "161 RUE PRINCIPALE            C.P. 280", "city": "FORT COULONGE", "province": "QC", "country": "CA", "postalCode": "J0X1V0", "twitter": "None", "instagram": "None", "facebook": "None", "youtube": "None", "website": "None", "summary": "None", "logo": "None", "latitude": 45.84099970967747, "longitude": -76.73710181946443}, "137847687RR0001": {"name": "MAISON DE LA FAMILLE DU T\u00c9MISCOUATA", "designationCode": "C", "categoryCode": "09", "address": "2 PRINCIPALE EST              C.P. 114", "city": "BIENCOURT", "province": "QC", "country": "CA", "postalCode": "G0K1T0", "twitter": "None", "instagram": "None", "facebook": "None", "youtube": "None", "website": "None", "summary": "None", "logo": "None", "latitude": 47.936998088002646, "longitude": -68.60480734488407}, "808127948RR0001": {"name": "MAISON DE LA FAMILLE L'ETINCELLE", "designationCode": "C", "categoryCode": "09", "address": "20-A CHEMIN DE LA BEURRERIE", "city": "LA PECHE", "province": "QC", "country": "CA", "postalCode": "J0X2W0", "twitter": "None", "instagram": "None", "facebook": "None", "youtube": "None", "website": "None", "summary": "None", "logo": "None", "latitude": 45.64853211019097, "longitude": -76.01533204656972}, "140901372RR0001": {"name": "MAISON DE LA FAMILLE LA PARENTR'AIDE", "designationCode": "C", "categoryCode": "59", "address": "2060 RUE HOLMES", "city": "SAINT-HUBERT", "province": "QC", "country": "CA", "postalCode": "J4T1R8", "twitter": "None", "instagram": "None", "facebook": "None", "youtube": "None", "website": "None", "summary": "None", "logo": "None", "latitude": 45.49320563751521, "longitude": -73.47445274519602}, "896842770RR0001": {"name": "MAISON DE LA FAMILLE LA SARRE", "designationCode": "C", "categoryCode": "09", "address": "10, RUE LAPIERRE", "city": "LA SARRE", "province": "QC", "country": "CA", "postalCode": "J9Z2Y4", "twitter": "None", "instagram": "None", "facebook": "None", "youtube": "None", "website": "None", "summary": "None", "logo": "None", "latitude": 48.799792445467105, "longitude": -79.20763428201265}, "140863580RR0001": {"name": "MAISON DE LA FAMILLE LAVAL-OUEST", "designationCode": "C", "categoryCode": "01", "address": "7190, 21IEME AVENUE", "city": "LAVAL OUEST", "province": "QC", "country": "CA", "postalCode": "H7R3G8", "twitter": "None", "instagram": "None", "facebook": "None", "youtube": "None", "website": "None", "summary": "None", "logo": "None", "latitude": 45.54057997140636, "longitude": -73.87139247267577}, "886604727RR0001": {"name": "MAISON DE LA FAMILLE LEMOYNE", "designationCode": "C", "categoryCode": "09", "address": "1882 AVENUE SAINT-GEORGES     SUITE 503", "city": "LEMOYNE", "province": "QC", "country": "CA", "postalCode": "J4P3J4", "twitter": "None", "instagram": "None", "facebook": "None", "youtube": "None", "website": "None", "summary": "None", "logo": "None", "latitude": 45.5069151660506, "longitude": -73.49586728942847}, "130171085RR0001": {"name": "MAISON DE LA FAMILLE LOUIS-HEBERT INC", "designationCode": "C", "categoryCode": "01", "address": "202 - 2120 RUE BOIVIN", "city": "QUEBEC", "province": "QC", "country": "CA", "postalCode": "G1V1N7", "twitter": "None", "instagram": "None", "facebook": "None", "youtube": "None", "website": "None", "summary": "None", "logo": "None", "latitude": 46.790467226787264, "longitude": -71.27086906165934}, "140954934RR0001": {"name": "MAISON DE LA FAMILLE MEMPHR\u00c9MAGOG", "designationCode": "C", "categoryCode": "09", "address": "40 RUE JEAN-PAUL-II", "city": "MAGOG", "province": "QC", "country": "CA", "postalCode": "J1X1E3", "twitter": "None", "instagram": "None", "facebook": "None", "youtube": "None", "website": "None", "summary": "None", "logo": "None", "latitude": 45.27277292310587, "longitude": -72.13993867765004}, "821862679RR0001": {"name": "MAISON DE LA FAMILLE MOSAIK", "designationCode": "C", "categoryCode": "59", "address": "6215 COTE ST LUC", "city": "MONTREAL", "province": "QC", "country": "CA", "postalCode": "H3X2H3", "twitter": "None", "instagram": "None", "facebook": "None", "youtube": "None", "website": "None", "summary": "None", "logo": "None", "latitude": 45.47410117043668, "longitude": -73.64392237013084}, "891454274RR0001": {"name": "MAISON DE LA FAMILLE NOUVELLE-BEAUCE", "designationCode": "C", "categoryCode": "09", "address": "392 AVENUE PROULX", "city": "SAINTE MARIE", "province": "QC", "country": "CA", "postalCode": "G6E4B1", "twitter": "None", "instagram": "None", "facebook": "None", "youtube": "None", "website": "None", "summary": "None", "logo": "None", "latitude": 46.43794422759531, "longitude": -71.01748184875056}, "892451048RR0001": {"name": "MAISON DE LA FAMILLE PARENFANT GASP\u00c9", "designationCode": "C", "categoryCode": "09", "address": "12 RUE DE LA CATHEDRALE", "city": "GASPE", "province": "QC", "country": "CA", "postalCode": "G4X1N8", "twitter": "None", "instagram": "None", "facebook": "None", "youtube": "None", "website": "None", "summary": "None", "logo": "None", "latitude": 48.82903074052148, "longitude": -64.48625462161753}, "884175878RR0001": {"name": "MAISON DE LA FAMILLE PETITE-NATION", "designationCode": "C", "categoryCode": "09", "address": "14 RUE HUBERT SAINT-LOUIS", "city": "SAINT-ANDRE-AVELLIN", "province": "QC", "country": "CA", "postalCode": "J0V1W0", "twitter": "None", "instagram": "None", "facebook": "None", "youtube": "None", "website": "None", "summary": "None", "logo": "None", "latitude": 45.71778221842006, "longitude": -75.05537573013413}, "896319357RR0001": {"name": "MAISON DE LA FAMILLE PIERRE BIENVENUE NOAILLES", "designationCode": "C", "categoryCode": "09", "address": "4350 RUE DE SALABERRY", "city": "MONTREAL", "province": "QC", "country": "CA", "postalCode": "H4J1H3", "twitter": "None", "instagram": "None", "facebook": "None", "youtube": "None", "website": "None", "summary": "None", "logo": "None", "latitude": 45.534034038288496, "longitude": -73.70484064444011}, "895079473RR0001": {"name": "MAISON DE LA FAMILLE R.E.V. RIVE-SUD", "designationCode": "C", "categoryCode": "09", "address": "33 ROUTE DU PRESIDENT-KENNEDY", "city": "LEVIS", "province": "QC", "country": "CA", "postalCode": "G6V6C1", "twitter": "None", "instagram": "None", "facebook": "None", "youtube": "None", "website": "None", "summary": "None", "logo": "None", "latitude": 46.79782775214957, "longitude": -71.18012534984707}, "134839463RR0002": {"name": "MAISON DE LA FAMILLE RIVE-SUD", "designationCode": "C", "categoryCode": "09", "address": "5501, RUE SAINT-GEORGES", "city": "LEVIS", "province": "QC", "country": "CA", "postalCode": "G6V4M7", "twitter": "None", "instagram": "None", "facebook": "None", "youtube": "None", "website": "None", "summary": "None", "logo": "None", "latitude": 46.79822088508148, "longitude": -71.18274031234274}, "140947060RR0001": {"name": "MAISON DE LA FAMILLE ST-AMBROISE", "designationCode": "C", "categoryCode": "09", "address": "80, RUE MARTEL", "city": "LORETTEVILLE", "province": "QC", "country": "CA", "postalCode": "G2B2W5", "twitter": "None", "instagram": "None", "facebook": "None", "youtube": "None", "website": "None", "summary": "None", "logo": "None", "latitude": 46.85162199971154, "longitude": -71.35518735541565}, "141260117RR0001": {"name": "MAISON DE LA FAMILLE VALLEE-DE-LA-GATINEAU", "designationCode": "C", "categoryCode": "09", "address": "224 RUE NOTRE-DAME", "city": "MANIWAKI", "province": "QC", "country": "CA", "postalCode": "J9E2J5", "twitter": "None", "instagram": "None", "facebook": "None", "youtube": "None", "website": "None", "summary": "None", "logo": "None", "latitude": 46.376800782705146, "longitude": -75.97698122788377}, "887272359RR0001": {"name": "MAISON DE LA FAMILLE VALOISE INC", "designationCode": "C", "categoryCode": "50", "address": "962 RUE DUBOIS", "city": "ACTON VALE", "province": "QC", "country": "CA", "postalCode": "J0H1A0", "twitter": "None", "instagram": "None", "facebook": "None", "youtube": "None", "website": "None", "summary": "None", "logo": "None", "latitude": 45.650077270615675, "longitude": -72.56405746073054}, "121136774RR0001": {"name": "MAISON DE LA FAMILLE VAUDREUIL-SOULANGES", "designationCode": "C", "categoryCode": "09", "address": "1210 RUE PRINCIPALE", "city": "SAINT-ZOTIQUE", "province": "QC", "country": "CA", "postalCode": "J0P1Z0", "twitter": "None", "instagram": "None", "facebook": "None", "youtube": "None", "website": "None", "summary": "None", "logo": "None", "latitude": 45.24172004997393, "longitude": -74.24834311339362}, "139065031RR0001": {"name": "MAISON DE LA FAMILLE, D.A.C. (DROITS D'ACC\u00c8S CHARLESBOURG)", "designationCode": "C", "categoryCode": "09", "address": "5560, 1RE AVENUE", "city": "QU\u00c9BEC", "province": "QC", "country": "CA", "postalCode": "G1H2V7", "twitter": "None", "instagram": "None", "facebook": "None", "youtube": "None", "website": "None", "summary": "None", "logo": "None"}, "899969745RR0001": {"name": "MAISON DE LA FOI AU SERVICE DU MONDE DE LA SURDITE", "designationCode": "C", "categoryCode": "39", "address": "6995 AVENUE DES ERABLES", "city": "MONTREAL", "province": "QC", "country": "CA", "postalCode": "H2E2R1", "twitter": "None", "instagram": "None", "facebook": "None", "youtube": "None", "website": "None", "summary": "None", "logo": "None", "latitude": 45.549649224825345, "longitude": -73.60192124311855}, "125032870RR0001": {"name": "MAISON DE LA FRANCOPHONIE DE VANCOUVER SOCIETE EN COMMANDITE", "designationCode": "C", "categoryCode": "22", "address": "227-1555 7TH AVE W", "city": "VANCOUVER", "province": "BC", "country": "CA", "postalCode": "V6J1S1", "twitter": "None", "instagram": "None", "facebook": "None", "youtube": "None", "website": "None", "summary": "None", "logo": "None", "latitude": 49.26541244214887, "longitude": -123.14009174562872}, "139286975RR0001": {"name": "MAISON DE LA JEUNESSE DOUZE-DIX-SEPT DE VALLEYFIELD", "designationCode": "C", "categoryCode": "09", "address": "CP 327                        185, RUE / VALLEYFIELD", "city": "SALABERRY-DE-VALLEYFIELD", "province": "QC", "country": "CA", "postalCode": "J6S4V6", "twitter": "None", "instagram": "None", "facebook": "None", "youtube": "None", "website": "None", "summary": "None", "logo": "None", "latitude": 45.25893600000006, "longitude": -74.10716449999994}, "119028512RR0001": {"name": "MAISON DE LA MADONE", "designationCode": "C", "categoryCode": "38", "address": "10 RUE DENIS-CARON", "city": "TROI-RIVIERES", "province": "QC", "country": "CA", "postalCode": "G8T3W9", "twitter": "None", "instagram": "None", "facebook": "None", "youtube": "None", "website": "None", "summary": "None", "logo": "None", "latitude": 46.368879913151204, "longitude": -72.50064978660026}, "890655301RR0001": {"name": "MAISON DE LA SOURCE GABRIEL INC.", "designationCode": "C", "categoryCode": "01", "address": "101 CH. GABRIEL-COMMANDANT    C.P. 667", "city": "VAL-D'OR", "province": "QC", "country": "CA", "postalCode": "J9P4P6", "twitter": "None", "instagram": "None", "facebook": "None", "youtube": "None", "website": "None", "summary": "None", "logo": "None", "latitude": 48.111129000000005, "longitude": -77.79765265182637}, "846339562RR0001": {"name": "MAISON DE LA VALLEE 2006", "designationCode": "C", "categoryCode": "01", "address": "140 ROUTE DE L'EGLISE         APP. #2", "city": "SAINT-JOSEPH-DE-KAMOURASKA", "province": "QC", "country": "CA", "postalCode": "G0L3P0", "twitter": "None", "instagram": "None", "facebook": "None", "youtube": "None", "website": "None", "summary": "None", "logo": "None"}, "107655508RR0001": {"name": "MAISON DE LAUBERIVIERE AIDE AUX ADULTES EN DIFFICULTE", "designationCode": "C", "categoryCode": "01", "address": "401 RUE SAINT-PAUL            C.P. 100 SUCC. B", "city": "QUEBEC", "province": "QC", "country": "CA", "postalCode": "G1K7A1", "twitter": "None", "instagram": "None", "facebook": "None", "youtube": "None", "website": "None", "summary": "None", "logo": "None", "latitude": 46.81652552120739, "longitude": -71.2148535}, "830091278RR0001": {"name": "MAISON DE LINA - LINA'S HOME", "designationCode": "C", "categoryCode": "09", "address": "CP 1705 SUCC.ST MARTIN", "city": "LAVAL", "province": "QC", "country": "CA", "postalCode": "H7V3P9", "twitter": "None", "instagram": "None", "facebook": "None", "youtube": "None", "website": "None", "summary": "None", "logo": "None", "latitude": 45.55087000000003, "longitude": -73.75227999999998}, "886215052RR0001": {"name": "MAISON DE PARENTS DE LA MATAWINIE OUEST", "designationCode": "C", "categoryCode": "09", "address": "#2 3615 RUE QUEEN", "city": "RAWDON", "province": "QC", "country": "CA", "postalCode": "J0K1S0", "twitter": "None", "instagram": "None", "facebook": "None", "youtube": "None", "website": "None", "summary": "None", "logo": "None", "latitude": 46.04175418177634, "longitude": -73.70616053416222}, "107655532RR0001": {"name": "MAISON DE PASSAGE HOUSE INC.", "designationCode": "C", "categoryCode": "09", "address": "CP 1284 STN MAIN", "city": "BATHURST", "province": "NB", "country": "CA", "postalCode": "E2A4J1", "twitter": "None", "instagram": "None", "facebook": "None", "youtube": "None", "website": "None", "summary": "None", "logo": "None", "latitude": 47.61919316408974, "longitude": -65.64634945511216}, "853383503RR0001": {"name": "MAISON DE PRI\u00c8RE DU QU\u00c9BEC/QUEBEC HOUSE OF PRAYER", "designationCode": "B", "categoryCode": "49", "address": "45 RUE QUEEN", "city": "SHERBROOKE", "province": "QC", "country": "CA", "postalCode": "J1M1J2", "twitter": "None", "instagram": "None", "facebook": "None", "youtube": "None", "website": "None", "summary": "None", "logo": "None", "latitude": 45.36097732004136, "longitude": -71.85745518116981}, "133747196RR0001": {"name": "MAISON DE PRIERE \"LE CENACLE\"", "designationCode": "C", "categoryCode": "47", "address": "383 DU PATRIMOINE (132)", "city": "CACOUNA", "province": "QC", "country": "CA", "postalCode": "G0L1G0", "twitter": "None", "instagram": "None", "facebook": "None", "youtube": "None", "website": "None", "summary": "None", "logo": "None", "latitude": 47.901601864014, "longitude": -69.5175078706791}, "142504323RR0001": {"name": "MAISON DE PRODUCTION ARTISTIQUE ET CULTURELLE AFRICAINE", "designationCode": "C", "categoryCode": "22", "address": "31 - 775 AV CALIXA-LAVALLEE", "city": "QUEBEC", "province": "QC", "country": "CA", "postalCode": "G1S3G7", "twitter": "None", "instagram": "None", "facebook": "None", "youtube": "None", "website": "None", "summary": "None", "logo": "None", "latitude": 46.79992169193253, "longitude": -71.24388210586315}, "130490873RR0001": {"name": "MAISON DE QUARTIER DE DRUMMONDVILLE INC.", "designationCode": "C", "categoryCode": "09", "address": "1550 RUE SAINT-AIME", "city": "DRUMMONDVILLE", "province": "QC", "country": "CA", "postalCode": "J2B2S8", "twitter": "None", "instagram": "None", "facebook": "None", "youtube": "None", "website": "None", "summary": "None", "logo": "None", "latitude": 45.85838054397264, "longitude": -72.46689804804069}, "880666623RR0001": {"name": "MAISON DE QUARTIER VIMONT", "designationCode": "C", "categoryCode": "09", "address": "1747 LAVOIE", "city": "LAVAL", "province": "QC", "country": "CA", "postalCode": "H7M2N1", "twitter": "None", "instagram": "None", "facebook": "None", "youtube": "None", "website": "None", "summary": "None", "logo": "None", "latitude": 45.59844202859365, "longitude": -73.72277905285945}, "890991276RR0001": {"name": "MAISON DE REPIT \"CLAIRE\" DE LUNE", "designationCode": "C", "categoryCode": "01", "address": "2598, BOUL. STE-SOPHIE", "city": "SAINTE-SOPHIE", "province": "QC", "country": "CA", "postalCode": "J5J2Y3", "twitter": "None", "instagram": "None", "facebook": "None", "youtube": "None", "website": "None", "summary": "None", "logo": "None", "latitude": 45.80987098894882, "longitude": -73.92298398978554}, "119028645RR0001": {"name": "MAISON DE REPIT L'INTERMEDE", "designationCode": "C", "categoryCode": "01", "address": "192 F.X. GARNEAU", "city": "BELOEIL", "province": "QC", "country": "CA", "postalCode": "J3G4Y1", "twitter": "None", "instagram": "None", "facebook": "None", "youtube": "None", "website": "None", "summary": "None", "logo": "None", "latitude": 45.559349172081475, "longitude": -73.22490770457024}, "108008871RR0001": {"name": "MAISON DE RETRAITE \"ETOILE DU NORD\" STAR OF THE NORTH, \"RETREAT HOUSE\"", "designationCode": "C", "categoryCode": "38", "address": "3 A ST VITAL AVENUE", "city": "ST ALBERT", "province": "AB", "country": "CA", "postalCode": "T8N1K1", "twitter": "None", "instagram": "None", "facebook": "None", "youtube": "None", "website": "None", "summary": "None", "logo": "None", "latitude": 53.63881221680394, "longitude": -113.6294569953541}, "887369866RR0001": {"name": "MAISON DE SOBRIETE TROIS-RIVIERES INC", "designationCode": "C", "categoryCode": "09", "address": "593 RUE BUREAU", "city": "TROIS-RIVIERES", "province": "QC", "country": "CA", "postalCode": "G9A2N2", "twitter": "None", "instagram": "None", "facebook": "None", "youtube": "None", "website": "None", "summary": "None", "logo": "None", "latitude": 46.34014708630055, "longitude": -72.54808187858495}, "897210514RR0001": {"name": "MAISON DE SOINS PALLIATIFS DE LAVAL INC.", "designationCode": "C", "categoryCode": "11", "address": "655 AVE BELLEVUE", "city": "LAVAL", "province": "QC", "country": "CA", "postalCode": "H7C0A8", "twitter": "None", "instagram": "None", "facebook": "None", "youtube": "None", "website": "None", "summary": "None", "logo": "None", "latitude": 45.614518365254746, "longitude": -73.64418008797396}, "891724874RR0001": {"name": "MAISON DE SOINS PALLIATIFS DE SUDBURY HOSPICE", "designationCode": "C", "categoryCode": "09", "address": "1028 SOUTH BAY ROAD", "city": "SUDBURY", "province": "ON", "country": "CA", "postalCode": "P3E6J7", "twitter": "None", "instagram": "None", "facebook": "None", "youtube": "None", "website": "None", "summary": "None", "logo": "None", "latitude": 46.469186633360266, "longitude": -80.96833062536844}, "131130676RR0001": {"name": "MAISON DE TRANSITION BAIE-COMEAU INC", "designationCode": "C", "categoryCode": "09", "address": "858 RUE DASTOUS", "city": "BAIE-COMEAU", "province": "QC", "country": "CA", "postalCode": "G5C1J9", "twitter": "None", "instagram": "None", "facebook": "None", "youtube": "None", "website": "None", "summary": "None", "logo": "None", "latitude": 49.194333449362254, "longitude": -68.25883297752318}, "132689639RR0001": {"name": "MAISON DE TRANSITION DE LA BATISCAN", "designationCode": "C", "categoryCode": "09", "address": "1605, RUE PRINCIPALE", "city": "ST-STANISLAS", "province": "QC", "country": "CA", "postalCode": "G0X3E0", "twitter": "None", "instagram": "None", "facebook": "None", "youtube": "None", "website": "None", "summary": "None", "logo": "None", "latitude": 46.615971918402664, "longitude": -72.38536138868383}, "143794253RR0001": {"name": "MAISON DES AINES DE GRANDE-VALLEE", "designationCode": "C", "categoryCode": "09", "address": "42, RUE DE LA RIVIERE         C.P. 309", "city": "GRANDE-VALLEE", "province": "QC", "country": "CA", "postalCode": "G0E1K0", "twitter": "None", "instagram": "None", "facebook": "None", "youtube": "None", "website": "None", "summary": "None", "logo": "None", "latitude": 49.218644220381954, "longitude": -65.12819252611214}, "144810843RR0001": {"name": "MAISON DES AINES HOCHELAGA-MAISONNEUVE", "designationCode": "C", "categoryCode": "09", "address": "1620, RUE DE LASALLE          BUREAU 112", "city": "MONTREAL", "province": "QC", "country": "CA", "postalCode": "H1V2J8", "twitter": "None", "instagram": "None", "facebook": "None", "youtube": "None", "website": "None", "summary": "None", "logo": "None", "latitude": 45.55071600000005, "longitude": -73.53691999999994}, "870913084RR0001": {"name": "MAISON DES ENFANTS DE ST-ROCH", "designationCode": "C", "categoryCode": "09", "address": "345, MGR. GAUVREAU", "city": "QU\u00c9BEC", "province": "QC", "country": "CA", "postalCode": "G1K6N9", "twitter": "None", "instagram": "None", "facebook": "None", "youtube": "None", "website": "None", "summary": "None", "logo": "None", "latitude": 46.81682927699234, "longitude": -71.21959433152522}, "885550954RR0001": {"name": "MAISON DES ENFANTS LE DAUPHIN, DE LAVAL", "designationCode": "C", "categoryCode": "09", "address": "799, RUE LORANGER", "city": "LAVAL", "province": "QC", "country": "CA", "postalCode": "H7V1Z5", "twitter": "None", "instagram": "None", "facebook": "None", "youtube": "None", "website": "None", "summary": "None", "logo": "None", "latitude": 45.55084412989781, "longitude": -73.75727482529281}, "893430835RR0001": {"name": "MAISON DES FAMILLES CHEMIN DU ROI INC.", "designationCode": "C", "categoryCode": "09", "address": "385 C\u00d4TE RICHELIEU", "city": "TROIS-RIVI\u00c8RES", "province": "QC", "country": "CA", "postalCode": "G9A2Y9", "twitter": "None", "instagram": "None", "facebook": "None", "youtube": "None", "website": "None", "summary": "None", "logo": "None", "latitude": 46.3229621673496, "longitude": -72.56809060687276}, "865556377RR0001": {"name": "MAISON DES FAMILLES DE GRANBY ET R\u00c9GION", "designationCode": "C", "categoryCode": "09", "address": "162 ST CHARLES SUD", "city": "GRANBY", "province": "QC", "country": "CA", "postalCode": "J2G7A4", "twitter": "None", "instagram": "None", "facebook": "None", "youtube": "None", "website": "None", "summary": "None", "logo": "None", "latitude": 45.39772401887013, "longitude": -72.73481044604401}, "898887732RR0001": {"name": "MAISON DES FAMILLES DE L'\u00c9RABLE", "designationCode": "C", "categoryCode": "56", "address": "1457 AV. SAINT-EDOUARD", "city": "PLESSISVILLE", "province": "QC", "country": "CA", "postalCode": "G6L2K4", "twitter": "None", "instagram": "None", "facebook": "None", "youtube": "None", "website": "None", "summary": "None", "logo": "None", "latitude": 46.21797872854759, "longitude": -71.77121013393717}, "898887179RR0001": {"name": "MAISON DES FAMILLES DE LA BAIE", "designationCode": "C", "categoryCode": "09", "address": "864 RUE DE LA FABRIQUE", "city": "LA BAIE", "province": "QC", "country": "CA", "postalCode": "G7B2S8", "twitter": "None", "instagram": "None", "facebook": "None", "youtube": "None", "website": "None", "summary": "None", "logo": "None", "latitude": 48.340547158520124, "longitude": -70.88075653554719}, "894807932RR0001": {"name": "MAISON DES FAMILLES DE LA MATAP\u00c9DIA", "designationCode": "C", "categoryCode": "09", "address": "67 RUE LAMBERT", "city": "AMQUI", "province": "QC", "country": "CA", "postalCode": "G5J1P6", "twitter": "None", "instagram": "None", "facebook": "None", "youtube": "None", "website": "None", "summary": "None", "logo": "None", "latitude": 48.46590210794063, "longitude": -67.4413420563219}, "897009593RR0001": {"name": "MAISON DES FAMILLES DE LASALLE", "designationCode": "C", "categoryCode": "09", "address": "535 AV LAFLEUR", "city": "LASALLE", "province": "QC", "country": "CA", "postalCode": "H8R3J3", "twitter": "None", "instagram": "None", "facebook": "None", "youtube": "None", "website": "None", "summary": "None", "logo": "None", "latitude": 45.43458398528482, "longitude": -73.64541966400273}, "888135837RR0001": {"name": "MAISON DES FAMILLES DE M\u00c9KINAC", "designationCode": "C", "categoryCode": "09", "address": "581 SAINT-PAUL                BUREAU 104", "city": "SAINT-TITE", "province": "QC", "country": "CA", "postalCode": "G0X3H0", "twitter": "None", "instagram": "None", "facebook": "None", "youtube": "None", "website": "None", "summary": "None", "logo": "None", "latitude": 46.7289640355472, "longitude": -72.56135273385638}, "138396825RR0001": {"name": "MAISON DES FAMILLES DE RIMOUSKI-NEIGETTE", "designationCode": "C", "categoryCode": "09", "address": "102-215 RUE TESSIER", "city": "RIMOUSKI", "province": "QC", "country": "CA", "postalCode": "G5L8X9", "twitter": "None", "instagram": "None", "facebook": "None", "youtube": "None", "website": "None", "summary": "None", "logo": "None", "latitude": 48.44190126449883, "longitude": -68.53436279395785}, "132527979RR0001": {"name": "MAISON DES FAMILLES DE VERDUN INC", "designationCode": "C", "categoryCode": "09", "address": "2-257 1ERE AVENUE", "city": "VERDUN", "province": "QC", "country": "CA", "postalCode": "H4G2V6", "twitter": "None", "instagram": "None", "facebook": "None", "youtube": "None", "website": "None", "summary": "None", "logo": "None", "latitude": 45.45858126945309, "longitude": -73.57129349438154}, "887534253RR0001": {"name": "MAISON DES FAMILLES DU RIVAGE", "designationCode": "C", "categoryCode": "99", "address": "200 - 250 RUE VACHON", "city": "TROIS-RIVIERES", "province": "QC", "country": "CA", "postalCode": "G8T8Y2", "twitter": "None", "instagram": "None", "facebook": "None", "youtube": "None", "website": "None", "summary": "None", "logo": "None", "latitude": 46.37405719735688, "longitude": -72.55151740455287}, "102950300RR0001": {"name": "MAISON DES FEMMES DE BAIE-COMEAU", "designationCode": "C", "categoryCode": "01", "address": "CASE POSTALE 10013            SUCC BRUNET LACHASSE", "city": "BAIE-COMEAU", "province": "QC", "country": "CA", "postalCode": "G4Z0A6", "twitter": "None", "instagram": "None", "facebook": "None", "youtube": "None", "website": "None", "summary": "None", "logo": "None", "latitude": 49.22134800000006, "longitude": -68.15048299999994}, "107593139RR0001": {"name": "MAISON DES FEMMES DE QUEBEC", "designationCode": "C", "categoryCode": "09", "address": "CP 48023", "city": "QUEBEC", "province": "QC", "country": "CA", "postalCode": "G1R5R5", "twitter": "None", "instagram": "None", "facebook": "None", "youtube": "None", "website": "None", "summary": "None", "logo": "None", "latitude": 46.81272300000006, "longitude": -71.21930299999994}, "853589083RR0001": {"name": "MAISON DES GRANDS-PARENTS DE LAVAL", "designationCode": "C", "categoryCode": "09", "address": "111-25 RUE SAINT-LOUIS", "city": "LAVAL", "province": "QC", "country": "CA", "postalCode": "H7G4W3", "twitter": "None", "instagram": "None", "facebook": "None", "youtube": "None", "website": "None", "summary": "None", "logo": "None", "latitude": 45.57366827808883, "longitude": -73.6933496293209}, "870777869RR0001": {"name": "MAISON DES GRANDS-PARENTS DE SHERBROOKE", "designationCode": "C", "categoryCode": "09", "address": "1265 RUE BELVEDERE SUD", "city": "SHERBROOKE", "province": "QC", "country": "CA", "postalCode": "J1H4E2", "twitter": "None", "instagram": "None", "facebook": "None", "youtube": "None", "website": "None", "summary": "None", "logo": "None", "latitude": 45.387105841797, "longitude": -71.89628018890276}, "130810211RR0001": {"name": "MAISON DES JEUNES 'SENS UNIQUE' SECTEUR BRANDON", "designationCode": "C", "categoryCode": "09", "address": "178, RUE DEQUOY", "city": "VILLE ST-GABRIEL", "province": "QC", "country": "CA", "postalCode": "J0K2N0", "twitter": "None", "instagram": "None", "facebook": "None", "youtube": "None", "website": "None", "summary": "None", "logo": "None", "latitude": 46.29495374825444, "longitude": -73.38289817594794}, "103044848RR0001": {"name": "MAISON DES JEUNES \"EVASION\" DE CHICOUTIMI INC.", "designationCode": "C", "categoryCode": "09", "address": "199 RUE BELLEAU", "city": "CHICOUTIMI", "province": "QC", "country": "CA", "postalCode": "G7H7S5", "twitter": "None", "instagram": "None", "facebook": "None", "youtube": "None", "website": "None", "summary": "None", "logo": "None", "latitude": 48.40934518852742, "longitude": -71.06417046243264}, "894549377RR0001": {"name": "MAISON DES JEUNES \"L'UTOPIE\"", "designationCode": "C", "categoryCode": "09", "address": "385 AV. SAINT-CHARLES", "city": "SAINTE-MARIE", "province": "QC", "country": "CA", "postalCode": "G6E4C3", "twitter": "None", "instagram": "None", "facebook": "None", "youtube": "None", "website": "None", "summary": "None", "logo": "None", "latitude": 46.439947488199024, "longitude": -71.0208005177736}, "101948032RR0001": {"name": "MAISON DES JEUNES \"LA DESTINATION 12-17\" INC.", "designationCode": "C", "categoryCode": "09", "address": "198 D ST-LOUIS", "city": "WARWICH", "province": "QC", "country": "CA", "postalCode": "J0A1M0", "twitter": "None", "instagram": "None", "facebook": "None", "youtube": "None", "website": "None", "summary": "None", "logo": "None", "latitude": 45.943259877055745, "longitude": -71.98909466351178}, "864246889RR0001": {"name": "MAISON DES JEUNES \"LA PIOLE\"", "designationCode": "C", "categoryCode": "09", "address": "72A RUE PRINCIPALE C.P.39", "city": "LAC-DES-AIGLES", "province": "QC", "country": "CA", "postalCode": "G0K1V0", "twitter": "None", "instagram": "None", "facebook": "None", "youtube": "None", "website": "None", "summary": "None", "logo": "None", "latitude": 47.98819004382843, "longitude": -68.67633056308813}, "137087599RR0001": {"name": "MAISON DES JEUNES \"LA SOURCE\" MINGANIE", "designationCode": "C", "categoryCode": "09", "address": "908 DE L'ESCALE", "city": "HAVRE-ST-PIERRE", "province": "QC", "country": "CA", "postalCode": "G0G1P0", "twitter": "None", "instagram": "None", "facebook": "None", "youtube": "None", "website": "None", "summary": "None", "logo": "None", "latitude": 50.24227345989382, "longitude": -63.6061511967513}, "867919896RR0001": {"name": "MAISON DES JEUNES \"LE CHAKADO\"", "designationCode": "C", "categoryCode": "09", "address": "1191 RUE BOISCLAIR", "city": "TROIS-RIVIERES", "province": "QC", "country": "CA", "postalCode": "G8V2S5", "twitter": "None", "instagram": "None", "facebook": "None", "youtube": "None", "website": "None", "summary": "None", "logo": "None", "latitude": 46.384090511801006, "longitude": -72.48822810159263}, "897644837RR0001": {"name": "MAISON DES JEUNES \"LE COIN\" DE DEGELIS", "designationCode": "C", "categoryCode": "09", "address": "518 RUE DE LA BRIQUETTE", "city": "DEGELIS", "province": "QC", "country": "CA", "postalCode": "G5T1B3", "twitter": "None", "instagram": "None", "facebook": "None", "youtube": "None", "website": "None", "summary": "None", "logo": "None", "latitude": 47.55153560144841, "longitude": -68.64778235515585}, "890231269RR0001": {"name": "MAISON DES JEUNES \"LE GROS ORTEIL\"", "designationCode": "C", "categoryCode": "09", "address": "85 RUE PRINCIPALE", "city": "ST-JEAN DE MATHA", "province": "QC", "country": "CA", "postalCode": "J0K2S0", "twitter": "None", "instagram": "None", "facebook": "None", "youtube": "None", "website": "None", "summary": "None", "logo": "None", "latitude": 46.2285727743666, "longitude": -73.53239417441873}, "873140727RR0001": {"name": "MAISON DES JEUNES \"LE KAO\"", "designationCode": "C", "categoryCode": "09", "address": "551 - 1E RUE OUEST", "city": "BARRAUTE", "province": "QC", "country": "CA", "postalCode": "J0Y1A0", "twitter": "None", "instagram": "None", "facebook": "None", "youtube": "None", "website": "None", "summary": "None", "logo": "None", "latitude": 48.43890832944774, "longitude": -77.63738341107373}, "891730236RR0001": {"name": "MAISON DES JEUNES \"PIRANA\"", "designationCode": "C", "categoryCode": "09", "address": "505 DES REDEMPTORISTES", "city": "POHENGAMOOK", "province": "QC", "country": "CA", "postalCode": "G0L1J0", "twitter": "None", "instagram": "None", "facebook": "None", "youtube": "None", "website": "None", "summary": "None", "logo": "None", "latitude": 47.460611972560194, "longitude": -69.22381937235254}, "130530553RR0001": {"name": "MAISON DES JEUNES A MA BAIE INC.", "designationCode": "C", "categoryCode": "09", "address": "9625 BOULEVARD GOUIN EST", "city": "PIERREFONDS", "province": "QC", "country": "CA", "postalCode": "H8Y1R4", "twitter": "None", "instagram": "None", "facebook": "None", "youtube": "None", "website": "None", "summary": "None", "logo": "None", "latitude": 45.50439119848206, "longitude": -73.78345497847549}, "889721569RR0001": {"name": "MAISON DES JEUNES ALAXION", "designationCode": "C", "categoryCode": "09", "address": "60 BOUL. ST.DAVID             C.P. 722", "city": "FALARDEAU", "province": "QC", "country": "CA", "postalCode": "G0V1C0", "twitter": "None", "instagram": "None", "facebook": "None", "youtube": "None", "website": "None", "summary": "None", "logo": "None", "latitude": 48.620357444850576, "longitude": -71.1075357960859}, "119921310RR0001": {"name": "MAISON DES JEUNES CHATELOIS INC", "designationCode": "C", "categoryCode": "09", "address": "180 RUE MERCIER               C.P. 80049", "city": "CHATEAUGUAY", "province": "QC", "country": "CA", "postalCode": "J6J5X2", "twitter": "None", "instagram": "None", "facebook": "None", "youtube": "None", "website": "None", "summary": "None", "logo": "None", "latitude": 45.36398444214889, "longitude": -73.73374813474526}, "897019659RR0001": {"name": "MAISON DES JEUNES D O ADOS", "designationCode": "C", "categoryCode": "09", "address": "1042 RUE PRINCIPALE", "city": "ST-ROCH-DE-L'ACHIGAN", "province": "QC", "country": "CA", "postalCode": "J0K3H0", "twitter": "None", "instagram": "None", "facebook": "None", "youtube": "None", "website": "None", "summary": "None", "logo": "None", "latitude": 45.85639150822297, "longitude": -73.58670555259965}, "107655664RR0001": {"name": "MAISON DES JEUNES D'ALMA INC.", "designationCode": "C", "categoryCode": "01", "address": "900 RUE LAURENT", "city": "ALMA", "province": "QC", "country": "CA", "postalCode": "G8B5V8", "twitter": "None", "instagram": "None", "facebook": "None", "youtube": "None", "website": "None", "summary": "None", "logo": "None", "latitude": 48.55274683816167, "longitude": -71.6571990909464}, "859574568RR0001": {"name": "MAISON DES JEUNES D'HEBERTVILLE", "designationCode": "C", "categoryCode": "09", "address": "242, RUE TURGEON", "city": "HEBERTVILLE", "province": "QC", "country": "CA", "postalCode": "G8N1R8", "twitter": "None", "instagram": "None", "facebook": "None", "youtube": "None", "website": "None", "summary": "None", "logo": "None", "latitude": 48.39078074049283, "longitude": -71.67940361988583}, "120519475RR0001": {"name": "MAISON DES JEUNES D'OUTREMONT", "designationCode": "C", "categoryCode": "09", "address": "530 AV QUERBES", "city": "OUTREMONT", "province": "QC", "country": "CA", "postalCode": "H2V3W5", "twitter": "None", "instagram": "None", "facebook": "None", "youtube": "None", "website": "None", "summary": "None", "logo": "None", "latitude": 45.52119061864509, "longitude": -73.60617492979964}, "133298265RR0001": {"name": "MAISON DES JEUNES DE BEAUCE-SARTIGAN", "designationCode": "C", "categoryCode": "09", "address": "11725 3E AVENUE", "city": "ST-GEORGES", "province": "QC", "country": "CA", "postalCode": "G5Y1V5", "twitter": "None", "instagram": "None", "facebook": "None", "youtube": "None", "website": "None", "summary": "None", "logo": "None", "latitude": 46.122319895377615, "longitude": -70.67190230737496}, "898785043RR0001": {"name": "MAISON DES JEUNES DE BECANCOUR", "designationCode": "C", "categoryCode": "09", "address": "8262 CARTIER", "city": "BECANCOUR", "province": "QC", "country": "CA", "postalCode": "G9H3B1", "twitter": "None", "instagram": "None", "facebook": "None", "youtube": "None", "website": "None", "summary": "None", "logo": "None", "latitude": 46.33926529447746, "longitude": -72.43351352709308}}