{"119024743RR0001": {"name": "LORNE SCOTS (PEEL DUFFERIN & HALTON REGIMENT) TRUST", "designationCode": "A", "categoryCode": "51", "address": "1 CLAYPINE TRAIL", "city": "BRAMPTON", "province": "ON", "country": "CA", "postalCode": "L6V3L8", "twitter": "None", "instagram": "None", "facebook": "None", "youtube": "None", "website": "None", "summary": "None", "logo": "None", "latitude": 43.705043244532185, "longitude": -79.7724758465002}, "119024750RR0001": {"name": "LORNEVILLE & SEAVIEW CEMETERIES INC.", "designationCode": "C", "categoryCode": "59", "address": "1475 LORNEVILLE RD", "city": "SAINT JOHN", "province": "NB", "country": "CA", "postalCode": "E2M7H5", "twitter": "None", "instagram": "None", "facebook": "None", "youtube": "None", "website": "None", "summary": "None", "logo": "None", "latitude": 45.18844248182236, "longitude": -66.15899922563341}, "891239840RR0001": {"name": "LORNEVILLE UNITED CHURCH", "designationCode": "C", "categoryCode": "44", "address": "1024 LORNEVILLE ROAD", "city": "SAINT JOHN", "province": "NB", "country": "CA", "postalCode": "E2M7G5", "twitter": "None", "instagram": "None", "facebook": "None", "youtube": "None", "website": "None", "summary": "None", "logo": "None", "latitude": 45.19684568436979, "longitude": -66.16014321155679}, "119288918RR0879": {"name": "LOS ANDES CONGREGATION OF JEHOVAH'S WITNESSES", "designationCode": "C", "categoryCode": "61", "address": "1921 ROSEBELLA AVE.", "city": "OTTAWA", "province": "ON", "country": "CA", "postalCode": "K1T1G6", "twitter": "None", "instagram": "None", "facebook": "None", "youtube": "None", "website": "None", "summary": "None", "logo": "None", "latitude": 45.352972476282446, "longitude": -75.61625410895023}, "863958492RR0001": {"name": "LOS FRUTOS DEL CAFE", "designationCode": "C", "categoryCode": "09", "address": "750 TALBOT ST", "city": "ST THOMAS", "province": "ON", "country": "CA", "postalCode": "N5P1E2", "twitter": "None", "instagram": "None", "facebook": "None", "youtube": "None", "website": "None", "summary": "None", "logo": "None", "latitude": 42.77879893180109, "longitude": -81.18687295867603}, "813963675RR0001": {"name": "LOST & FOUND THEATRE INC.", "designationCode": "C", "categoryCode": "22", "address": "191 MORGAN AVENUE             SUITE 18", "city": "KITCHENER", "province": "ON", "country": "CA", "postalCode": "N2A2M4", "twitter": "None", "instagram": "None", "facebook": "None", "youtube": "None", "website": "None", "summary": "None", "logo": "None", "latitude": 43.42819710794061, "longitude": -80.4279995871659}, "858753718RR0001": {"name": "LOST AND FOUND MINISTRIES", "designationCode": "C", "categoryCode": "47", "address": "347 PATTERSON BLVD SW", "city": "CALGARY", "province": "AB", "country": "CA", "postalCode": "T3H3K1", "twitter": "None", "instagram": "None", "facebook": "None", "youtube": "None", "website": "None", "summary": "None", "logo": "None", "latitude": 51.07001467055227, "longitude": -114.18686131363604}, "857587901RR0001": {"name": "LOT 03-1 RESIDENCE INC.", "designationCode": "C", "categoryCode": "03", "address": "215 RANLEIGH AVE", "city": "TORONTO", "province": "ON", "country": "CA", "postalCode": "M4N1X3", "twitter": "None", "instagram": "None", "facebook": "None", "youtube": "None", "website": "None", "summary": "None", "logo": "None", "latitude": 43.72891180209485, "longitude": -79.39610598237063}, "119024826RR0001": {"name": "LOT 14 PRESBYTERIAN CHURCH", "designationCode": "C", "categoryCode": "37", "address": "5660 RTE 12", "city": "TYNE VALLEY", "province": "PE", "country": "CA", "postalCode": "C0B2C0", "twitter": "None", "instagram": "None", "facebook": "None", "youtube": "None", "website": "None", "summary": "None", "logo": "None", "latitude": 46.558265102140886, "longitude": -63.87412523659768}, "119310241RR0001": {"name": "LOTTE AND JOHN HECHT MEMORIAL FOUNDATION", "designationCode": "C", "categoryCode": "09", "address": "502-325 HOWE ST", "city": "VANCOUVER", "province": "BC", "country": "CA", "postalCode": "V6C1Z7", "twitter": "None", "instagram": "None", "facebook": "None", "youtube": "None", "website": "None", "summary": "None", "logo": "None", "latitude": 49.28641531002936, "longitude": -123.11419699460431}, "807212477RR0001": {"name": "LOTUS BLOOMING BUDDHIST CHARITABLE FOUNDATION", "designationCode": "C", "categoryCode": "35", "address": "471 ELGIN MILLS RD W", "city": "RICHMOND HILL", "province": "ON", "country": "CA", "postalCode": "L4C4M3", "twitter": "None", "instagram": "None", "facebook": "None", "youtube": "None", "website": "None", "summary": "None", "logo": "None", "latitude": 43.886172829794475, "longitude": -79.45737567926616}, "141104893RR0001": {"name": "LOTUS LIGHT CHARITY SOCIETY", "designationCode": "C", "categoryCode": "09", "address": "200-357 HASTINGS ST", "city": "VANCOUVER", "province": "BC", "country": "CA", "postalCode": "V6A1P3", "twitter": "None", "instagram": "None", "facebook": "None", "youtube": "None", "website": "None", "summary": "None", "logo": "None", "latitude": 49.28128752986307, "longitude": -123.09622238773156}, "822200341RR0001": {"name": "LOTUS OUTREACH SOCIETY CANADA", "designationCode": "C", "categoryCode": "11", "address": "UNIT 120                      9101 HORNE STREET", "city": "BURNABY", "province": "BC", "country": "CA", "postalCode": "V3N4M3", "twitter": "None", "instagram": "None", "facebook": "None", "youtube": "None", "website": "None", "summary": "None", "logo": "None", "latitude": 49.24994271959806, "longitude": -122.9047372448352}, "845254275RR0001": {"name": "LOTUS POND BENEVOLENT FOUNDATION", "designationCode": "C", "categoryCode": "09", "address": "12607.148TH AVE", "city": "EDMONTON", "province": "AB", "country": "CA", "postalCode": "T5X0C2", "twitter": "None", "instagram": "None", "facebook": "None", "youtube": "None", "website": "None", "summary": "None", "logo": "None", "latitude": 53.61042553173898, "longitude": -113.539473}, "818553273RR0001": {"name": "LOTUS SPEECH CANADA BUDDHIST SOCIETY", "designationCode": "C", "categoryCode": "35", "address": "8050 REDROOFFS ROAD", "city": "HALFMOON BAY", "province": "BC", "country": "CA", "postalCode": "V0N1Y1", "twitter": "None", "instagram": "None", "facebook": "None", "youtube": "None", "website": "None", "summary": "None", "logo": "None", "latitude": 49.51374165023999, "longitude": -123.90769409490389}, "887442598RR0001": {"name": "LOU GORDON FOUNDATION", "designationCode": "B", "categoryCode": "03", "address": "1244 MARCEL LAURIN", "city": "ST-LAURENT", "province": "QC", "country": "CA", "postalCode": "H4R1J7", "twitter": "None", "instagram": "None", "facebook": "None", "youtube": "None", "website": "None", "summary": "None", "logo": "None", "latitude": 45.51190091473867, "longitude": -73.69115604780954}, "103394664RR0001": {"name": "LOU GREENBERG-MIRIAM ASSOCIATION/ASSOCIATION LOU GREENBERG-MIRIAM", "designationCode": "C", "categoryCode": "09", "address": "8000, BOUL. DECARIE, PORTE 620", "city": "MONTREAL", "province": "QC", "country": "CA", "postalCode": "H4P2S4", "twitter": "None", "instagram": "None", "facebook": "None", "youtube": "None", "website": "None", "summary": "None", "logo": "None", "latitude": 45.49759771161071, "longitude": -73.65889535778159}, "890214976RR0001": {"name": "LOU HARNICK MEMORIAL FUND", "designationCode": "C", "categoryCode": "21", "address": "245 LAKESHORE ROAD EAST", "city": "OAKVILLE", "province": "ON", "country": "CA", "postalCode": "L6J1H9", "twitter": "None", "instagram": "None", "facebook": "None", "youtube": "None", "website": "None", "summary": "None", "logo": "None", "latitude": 43.446975539529255, "longitude": -79.66696250268305}, "108087289RR0001": {"name": "LOUGHEED AND DISTRICT PUBLIC LIBRARY", "designationCode": "C", "categoryCode": "50", "address": "BOX 179", "city": "LOUGHEED", "province": "AB", "country": "CA", "postalCode": "T0B2V0", "twitter": "None", "instagram": "None", "facebook": "None", "youtube": "None", "website": "None", "summary": "None", "logo": "None", "latitude": 52.6714013175275, "longitude": -112.22238202605135}, "141069013RR0001": {"name": "LOUGHEED HOUSE CONSERVATION SOCIETY", "designationCode": "C", "categoryCode": "52", "address": "707 13TH AVENUE SW", "city": "CALGARY", "province": "AB", "country": "CA", "postalCode": "T2R0K8", "twitter": "None", "instagram": "None", "facebook": "None", "youtube": "None", "website": "None", "summary": "None", "logo": "None", "latitude": 51.04074712415653, "longitude": -114.0768926984604}, "118974302RR0001": {"name": "LOUIS BRIER JEWISH AGED FOUNDATION", "designationCode": "A", "categoryCode": "03", "address": "1055 WEST 41ST AVENUE", "city": "VANCOUVER", "province": "BC", "country": "CA", "postalCode": "V6M1W9", "twitter": "None", "instagram": "None", "facebook": "None", "youtube": "None", "website": "None", "summary": "None", "logo": "None", "latitude": 49.234071446507144, "longitude": -123.129333855178}, "873411417RR0001": {"name": "LOUIS BRIER JEWISH RESIDENCE SOCIETY", "designationCode": "B", "categoryCode": "09", "address": "1055 WEST 41ST AVE", "city": "VANCOUVER", "province": "BC", "country": "CA", "postalCode": "V6M1W9", "twitter": "None", "instagram": "None", "facebook": "None", "youtube": "None", "website": "None", "summary": "None", "logo": "None", "latitude": 49.234071446507144, "longitude": -123.129333855178}, "894229400RR0001": {"name": "LOUIS HEAD COMMUNITY CHURCH SOCIETY", "designationCode": "B", "categoryCode": "31", "address": "869 HIGHWAY 3", "city": "SABLE RIVER", "province": "NS", "country": "CA", "postalCode": "B0T1V0", "twitter": "None", "instagram": "None", "facebook": "None", "youtube": "None", "website": "None", "summary": "None", "logo": "None", "latitude": 43.8094712805661, "longitude": -65.04558131014157}, "884033200RR0001": {"name": "LOUIS RIEL INSTITUTE", "designationCode": "C", "categoryCode": "21", "address": "103-150 HENRY AVE", "city": "WINNIPEG", "province": "MB", "country": "CA", "postalCode": "R3B0J7", "twitter": "None", "instagram": "None", "facebook": "None", "youtube": "None", "website": "None", "summary": "None", "logo": "None", "latitude": 49.902867159011066, "longitude": -97.13277061131616}, "130396294RR0003": {"name": "LOUISA CEMETERY COMMITTEE", "designationCode": "C", "categoryCode": "59", "address": "86 CH. LOUISA", "city": "WENTWORTH", "province": "QC", "country": "CA", "postalCode": "J8H0C7", "twitter": "None", "instagram": "None", "facebook": "None", "youtube": "None", "website": "None", "summary": "None", "logo": "None", "latitude": 45.763531655605945, "longitude": -74.36617277252026}, "119024859RR0001": {"name": "LOUISBOURG HERITAGE SOCIETY", "designationCode": "C", "categoryCode": "52", "address": "35 LORWAY ST.", "city": "LOUISBOURG", "province": "NS", "country": "CA", "postalCode": "B1C2J9", "twitter": "None", "instagram": "None", "facebook": "None", "youtube": "None", "website": "None", "summary": "None", "logo": "None", "latitude": 45.92143911073925, "longitude": -59.97974680143103}, "119024867RR0001": {"name": "LOUISBOURG PASTORAL CHARGE", "designationCode": "C", "categoryCode": "44", "address": "212 BRICKYARD RD", "city": "ALBERT BRIDGE", "province": "NS", "country": "CA", "postalCode": "B1K2R4", "twitter": "None", "instagram": "None", "facebook": "None", "youtube": "None", "website": "None", "summary": "None", "logo": "None", "latitude": 46.01907903520143, "longitude": -60.04697435103051}, "892922766RR0001": {"name": "LOUISBOURG VOLUNTEER AMBULANCE ASSOCIATION", "designationCode": "C", "categoryCode": "59", "address": "7495 MAIN ST", "city": "LOUISBOURG", "province": "NS", "country": "CA", "postalCode": "B1C1H6", "twitter": "None", "instagram": "None", "facebook": "None", "youtube": "None", "website": "None", "summary": "None", "logo": "None", "latitude": 45.92163059504311, "longitude": -59.96980726268117}, "871285268RR0001": {"name": "LOUISBOURG VOLUNTEER FIRE DEPARTMENT", "designationCode": "C", "categoryCode": "59", "address": "7485 MAIN STREET", "city": "LOUISBOURG", "province": "NS", "country": "CA", "postalCode": "B1C1H6", "twitter": "None", "instagram": "None", "facebook": "None", "youtube": "None", "website": "None", "summary": "None", "logo": "None", "latitude": 45.92181976268118, "longitude": -59.96949671590989}, "890845811RR0001": {"name": "LOUISE & FRED BARKER FOUNDATION INC.", "designationCode": "B", "categoryCode": "03", "address": "600-105 TWENTY-FIRST STREET E.", "city": "SASKATOON", "province": "SK", "country": "CA", "postalCode": "S7K0B3", "twitter": "None", "instagram": "None", "facebook": "None", "youtube": "None", "website": "None", "summary": "None", "logo": "None", "latitude": 52.127419499999995, "longitude": -106.665876}, "132752411RR0001": {"name": "LOUISE AVENUE CONGREGATIONAL CHURCH INC.", "designationCode": "C", "categoryCode": "39", "address": "1602 LOUISE AVE", "city": "SASKATOON", "province": "SK", "country": "CA", "postalCode": "S7H2R4", "twitter": "None", "instagram": "None", "facebook": "None", "youtube": "None", "website": "None", "summary": "None", "logo": "None", "latitude": 52.109892586733224, "longitude": -106.63094576325808}, "126349653RR0001": {"name": "LOUISE BEDARD DANSE INC", "designationCode": "C", "categoryCode": "22", "address": "2022 SHERBROOKE EST           BUREAU 300", "city": "MONTREAL", "province": "QC", "country": "CA", "postalCode": "H2K1B9", "twitter": "None", "instagram": "None", "facebook": "None", "youtube": "None", "website": "None", "summary": "None", "logo": "None", "latitude": 45.53036469885744, "longitude": -73.56310573754998}, "892112988RR0001": {"name": "LOUISE BREAU MEMORIAL MEDICAL TRUST FUND", "designationCode": "C", "categoryCode": "19", "address": "134 OTIS DRIVE                UNIT 3", "city": "NACKAWIC", "province": "NB", "country": "CA", "postalCode": "E6G1G9", "twitter": "None", "instagram": "None", "facebook": "None", "youtube": "None", "website": "None", "summary": "None", "logo": "None", "latitude": 45.99558640161001, "longitude": -67.23545616244391}, "871224192RR0001": {"name": "LOUISE HAWLEY STONE CHARITABLE TRUST", "designationCode": "B", "categoryCode": "53", "address": "2750-20 QUEEN STREET WEST     P. O. BOX 18", "city": "TORONTO", "province": "ON", "country": "CA", "postalCode": "M5H3R3", "twitter": "None", "instagram": "None", "facebook": "None", "youtube": "None", "website": "None", "summary": "None", "logo": "None", "latitude": 43.652165216227004, "longitude": -79.38052670358928}, "131802209RR0001": {"name": "LOUISE STREET COMMUNITY CHURCH OF THE NAZARENE", "designationCode": "C", "categoryCode": "39", "address": "3042 LOUISE ST", "city": "SASKATOON", "province": "SK", "country": "CA", "postalCode": "S7J3L8", "twitter": "None", "instagram": "None", "facebook": "None", "youtube": "None", "website": "None", "summary": "None", "logo": "None", "latitude": 52.10273699999999, "longitude": -106.6066172389063}, "119024883RR0001": {"name": "LOUISVILLE BAPTIST CHURCH", "designationCode": "C", "categoryCode": "31", "address": "39 PETER STREET", "city": "CHATHAM", "province": "ON", "country": "CA", "postalCode": "N7M5B2", "twitter": "None", "instagram": "None", "facebook": "None", "youtube": "None", "website": "None", "summary": "None", "logo": "None", "latitude": 42.39914677575158, "longitude": -82.17064285163609}, "119024891RR0001": {"name": "LOUSANA COMMUNITY HALL BOARD", "designationCode": "C", "categoryCode": "56", "address": "BOX 87", "city": "LOUSANA", "province": "AB", "country": "CA", "postalCode": "T0M1K0", "twitter": "None", "instagram": "None", "facebook": "None", "youtube": "None", "website": "None", "summary": "None", "logo": "None", "latitude": 52.11385000000007, "longitude": -113.19171999999998}, "877270306RR0001": {"name": "LOVE FAMILY CHRISTIAN ASSEMBLY", "designationCode": "C", "categoryCode": "39", "address": "13555-105 A AVENUE", "city": "SURREY", "province": "BC", "country": "CA", "postalCode": "V3T2A9", "twitter": "None", "instagram": "None", "facebook": "None", "youtube": "None", "website": "None", "summary": "None", "logo": "None", "latitude": 49.19449051485941, "longitude": -122.8465035}, "892428640RR0001": {"name": "LOVE GOSPEL JAMBOREE", "designationCode": "C", "categoryCode": "47", "address": "P.O. BOX 22", "city": "LOVE", "province": "SK", "country": "CA", "postalCode": "S0J1P0", "twitter": "None", "instagram": "None", "facebook": "None", "youtube": "None", "website": "None", "summary": "None", "logo": "None", "latitude": 53.48339000000004, "longitude": -104.16761999999994}, "890571748RR0001": {"name": "LOVE IN ACTION CHRISTIAN CENTRE (CALGARY), CENTRO CRISTIANO AMOR EN ACCION (CALGARY)", "designationCode": "C", "categoryCode": "39", "address": "1352 ABBEYDALE DRIVE S.E.", "city": "CALGARY", "province": "AB", "country": "CA", "postalCode": "T2A7L8", "twitter": "None", "instagram": "None", "facebook": "None", "youtube": "None", "website": "None", "summary": "None", "logo": "None", "latitude": 51.0511801110277, "longitude": -113.9310309935947}, "119024966RR0001": {"name": "LOVE LIVES HERE", "designationCode": "C", "categoryCode": "47", "address": "PO BOX 58023", "city": "WINNIPEG", "province": "MB", "country": "CA", "postalCode": "R2M2R6", "twitter": "None", "instagram": "None", "facebook": "None", "youtube": "None", "website": "None", "summary": "None", "logo": "None", "latitude": 49.83811800000005, "longitude": -97.11743299999993}, "898939590RR0001": {"name": "LOVE LIVES HERE MISSIONS INC.", "designationCode": "C", "categoryCode": "49", "address": "BOX 90", "city": "CRAVEN", "province": "SK", "country": "CA", "postalCode": "S0G0W0", "twitter": "None", "instagram": "None", "facebook": "None", "youtube": "None", "website": "None", "summary": "None", "logo": "None", "latitude": 50.78455650000001, "longitude": -103.80089025}, "877321901RR0001": {"name": "LOVE WORTH FINDING OF CANADA", "designationCode": "C", "categoryCode": "47", "address": "P.O. BOX 152", "city": "MAPLE RIDGE", "province": "BC", "country": "CA", "postalCode": "V2X7G1", "twitter": "None", "instagram": "None", "facebook": "None", "youtube": "None", "website": "None", "summary": "None", "logo": "None", "latitude": 49.21686600000005, "longitude": -122.60537449999993}, "811823319RR0001": {"name": "LOVE: Leave Out Violence Nova Scotia Society", "designationCode": "C", "categoryCode": "59", "address": "2171 GOTTINGEN ST             SUITE 205", "city": "HALIFAX", "province": "NS", "country": "CA", "postalCode": "B3K3B5", "twitter": "None", "instagram": "None", "facebook": "None", "youtube": "None", "website": "None", "summary": "None", "logo": "None", "latitude": 44.652804621155255, "longitude": -63.58447284595193}, "898338777RR0001": {"name": "LOVE: LEAVE OUT VIOLENCE/LOVE: VIVRE SANS VIOLENCE", "designationCode": "C", "categoryCode": "59", "address": "202 - 3130 BATHURST ST", "city": "NORTH YORK", "province": "ON", "country": "CA", "postalCode": "M6A2A1", "twitter": "None", "instagram": "None", "facebook": "None", "youtube": "None", "website": "None", "summary": "None", "logo": "None", "latitude": 43.72069149042071, "longitude": -79.43011963047474}, "892528365RR0001": {"name": "LOVECRY THE STREET KIDS ORGANIZATION", "designationCode": "C", "categoryCode": "09", "address": "80 GOWAN AVENUE               SUITE 207", "city": "EAST YORK", "province": "ON", "country": "CA", "postalCode": "M4K2E1", "twitter": "None", "instagram": "None", "facebook": "None", "youtube": "None", "website": "None", "summary": "None", "logo": "None", "latitude": 43.68786722012216, "longitude": -79.35151716792652}, "850188319RR0001": {"name": "LOVEGLOBAL FOUNDATION", "designationCode": "A", "categoryCode": "03", "address": "200 - 2121 CLEARBROOK RD", "city": "ABBOTSFORD", "province": "BC", "country": "CA", "postalCode": "V2T4H6", "twitter": "None", "instagram": "None", "facebook": "None", "youtube": "None", "website": "None", "summary": "None", "logo": "None", "latitude": 49.04064936663974, "longitude": -122.33725234574946}, "810953349RR0001": {"name": "LOVERS OF GOD/AMOUREUX DE DIEU", "designationCode": "C", "categoryCode": "47", "address": "6E FIELDGATE DRIVE", "city": "OTTAWA", "province": "ON", "country": "CA", "postalCode": "K2J1L5", "twitter": "None", "instagram": "None", "facebook": "None", "youtube": "None", "website": "None", "summary": "None", "logo": "None", "latitude": 45.28732024434354, "longitude": -75.75143230182496}, "108087297RR0001": {"name": "LOVESICK LAKE NATIVE WOMEN'S ASSOCIATION", "designationCode": "C", "categoryCode": "11", "address": "12 ALBERT STREET              BOX 1296", "city": "LAKEFIELD", "province": "ON", "country": "CA", "postalCode": "K0L2H0", "twitter": "None", "instagram": "None", "facebook": "None", "youtube": "None", "website": "None", "summary": "None", "logo": "None", "latitude": 44.42277244604403, "longitude": -78.27155202692019}, "891967069RR0001": {"name": "LOW-INCOME FAMILY EMPOWERMENT SOLE-SUPPORT PARENTS INFORMATION NETWORK", "designationCode": "C", "categoryCode": "01", "address": "BOX 2801, STN A               866-A DUNDAS ST E", "city": "LONDON", "province": "ON", "country": "CA", "postalCode": "N6A4H4", "twitter": "None", "instagram": "None", "facebook": "None", "youtube": "None", "website": "None", "summary": "None", "logo": "None", "latitude": 42.983658592021904, "longitude": -81.24988531932539}, "107646317RR0001": {"name": "LOWE FARM BERGTHALER MENNONITE CHURCH", "designationCode": "C", "categoryCode": "34", "address": "P.O. BOX 10", "city": "LOWE FARM", "province": "MB", "country": "CA", "postalCode": "R0G1E0", "twitter": "None", "instagram": "None", "facebook": "None", "youtube": "None", "website": "None", "summary": "None", "logo": "None", "latitude": 49.35569000000004, "longitude": -97.59490999999997}, "119024990RR0001": {"name": "LOWE FARM HOUSING CRPN INC.", "designationCode": "C", "categoryCode": "09", "address": "BOX 156", "city": "LOWE FARM", "province": "MB", "country": "CA", "postalCode": "R0G1E0", "twitter": "None", "instagram": "None", "facebook": "None", "youtube": "None", "website": "None", "summary": "None", "logo": "None", "latitude": 49.35569000000004, "longitude": -97.59490999999997}, "119025013RR0001": {"name": "LOWER BLUE ROCKS CEMETERY SOCIETY", "designationCode": "C", "categoryCode": "59", "address": "306 RAMEY RD", "city": "BARSS CORNER", "province": "NS", "country": "CA", "postalCode": "B0R1A0", "twitter": "None", "instagram": "None", "facebook": "None", "youtube": "None", "website": "None", "summary": "None", "logo": "None", "latitude": 44.55616212796459, "longitude": -64.65651485079937}, "884408618RR0001": {"name": "LOWER BRIGHTON CEMETERY TRUSTEE BOARD", "designationCode": "C", "categoryCode": "59", "address": "5890 ROUTE 105", "city": "LOWER BRIGHTON", "province": "NB", "country": "CA", "postalCode": "E7P1A3", "twitter": "None", "instagram": "None", "facebook": "None", "youtube": "None", "website": "None", "summary": "None", "logo": "None", "latitude": 46.22670815272132, "longitude": -67.50223357823283}, "107646358RR0001": {"name": "LOWER CANADA COLLEGE", "designationCode": "C", "categoryCode": "20", "address": "4090 ROYAL AVE", "city": "MONTREAL", "province": "QC", "country": "CA", "postalCode": "H4A2M5", "twitter": "None", "instagram": "None", "facebook": "None", "youtube": "None", "website": "None", "summary": "None", "logo": "None", "latitude": 45.47071980402811, "longitude": -73.62386481184703}, "865304893RR0001": {"name": "LOWER CAPE MOUNTAIN VIEW CEMETERY LIMITED", "designationCode": "C", "categoryCode": "59", "address": "27 MEADOW DR.", "city": "HILLSBOROUGH", "province": "NB", "country": "CA", "postalCode": "E4H2Z3", "twitter": "None", "instagram": "None", "facebook": "None", "youtube": "None", "website": "None", "summary": "None", "logo": "None", "latitude": 45.91082894822799, "longitude": -64.64795405504273}, "835427105RR0001": {"name": "LOWER CAPE UNITED BAPTIST CHURCH INC.", "designationCode": "C", "categoryCode": "31", "address": "4431 ROUTE 114", "city": "LOWER CAPE", "province": "NB", "country": "CA", "postalCode": "E4H3P1", "twitter": "None", "instagram": "None", "facebook": "None", "youtube": "None", "website": "None", "summary": "None", "logo": "None", "latitude": 45.81210382007472, "longitude": -64.6036816109987}, "889507570RR0001": {"name": "LOWER CLOVERDALE CHURCH OF CHRIST", "designationCode": "C", "categoryCode": "39", "address": "46559 HOMESTEAD ROAD", "city": "SECOND NORTH RIVER", "province": "NB", "country": "CA", "postalCode": "E4J3C1", "twitter": "None", "instagram": "None", "facebook": "None", "youtube": "None", "website": "None", "summary": "None", "logo": "None", "latitude": 46.05659796405851, "longitude": -65.06765231245188}, "129848891RR0001": {"name": "LOWER DERBY BAPTIST CHURCH,", "designationCode": "C", "categoryCode": "31", "address": "5290 HWY 108", "city": "LOWER DERBY", "province": "NB", "country": "CA", "postalCode": "E1V5H7", "twitter": "None", "instagram": "None", "facebook": "None", "youtube": "None", "website": "None", "summary": "None", "logo": "None", "latitude": 46.93154319875825, "longitude": -65.61929552342251}, "890279441RR0001": {"name": "LOWER ELMSVILLE HISTORIC CEMETERY INC", "designationCode": "C", "categoryCode": "59", "address": "80 MCMINN ROAD", "city": "ROLLINGDAM", "province": "NB", "country": "CA", "postalCode": "E5A2J9", "twitter": "None", "instagram": "None", "facebook": "None", "youtube": "None", "website": "None", "summary": "None", "logo": "None", "latitude": 45.27770855485002, "longitude": -67.06048179502666}, "107646382RR0001": {"name": "LOWER FORT GARRY VOLUNTEER ASSOCIATION INC.", "designationCode": "C", "categoryCode": "52", "address": "5925 HWY 9", "city": "ST ANDREWS", "province": "MB", "country": "CA", "postalCode": "R1A4A8", "twitter": "None", "instagram": "None", "facebook": "None", "youtube": "None", "website": "None", "summary": "None", "logo": "None", "latitude": 50.10960350892751, "longitude": -96.93796688325452}, "119025096RR0001": {"name": "LOWER FRASER VALLEY EXHIBITION ASSOCIATION", "designationCode": "C", "categoryCode": "56", "address": "6050A 176 ST", "city": "SURREY", "province": "BC", "country": "CA", "postalCode": "V3S4E7", "twitter": "None", "instagram": "None", "facebook": "None", "youtube": "None", "website": "None", "summary": "None", "logo": "None", "latitude": 49.112825541508066, "longitude": -122.73474721705723}, "888430592RR0001": {"name": "LOWER GATINEAU PASTORAL CHARGE", "designationCode": "C", "categoryCode": "44", "address": "281 CH DU POISSON-BLANC", "city": "DENHOLM", "province": "QC", "country": "CA", "postalCode": "J8N9C8", "twitter": "None", "instagram": "None", "facebook": "None", "youtube": "None", "website": "None", "summary": "None", "logo": "None", "latitude": 45.81315251731226, "longitude": -75.74827194601535}, "107646416RR0001": {"name": "LOWER GRANVILLE UNITED BAPTIST CHURCH", "designationCode": "C", "categoryCode": "31", "address": "BOX 35", "city": "ANNAPOLIS ROYAL", "province": "NS", "country": "CA", "postalCode": "B0S1A0", "twitter": "None", "instagram": "None", "facebook": "None", "youtube": "None", "website": "None", "summary": "None", "logo": "None", "latitude": 44.74294007660574, "longitude": -65.518980048906}, "823908348RR0001": {"name": "LOWER HORTON CEMETERY COMPANY", "designationCode": "C", "categoryCode": "59", "address": "P.O. BOX 111", "city": "GRAND PRE", "province": "NS", "country": "CA", "postalCode": "B0P1M0", "twitter": "None", "instagram": "None", "facebook": "None", "youtube": "None", "website": "None", "summary": "None", "logo": "None", "latitude": 45.10347243861738, "longitude": -64.30577398246761}, "119025112RR0001": {"name": "LOWER IRELAND CHAPEL CEMETERY COMMITTEE", "designationCode": "C", "categoryCode": "52", "address": "89 THEBERGE ST.", "city": "CHATEAUGUAY", "province": "QC", "country": "CA", "postalCode": "J6J3K4", "twitter": "None", "instagram": "None", "facebook": "None", "youtube": "None", "website": "None", "summary": "None", "logo": "None", "latitude": 45.367159264498845, "longitude": -73.7201305669108}, "884421629RR0001": {"name": "LOWER ISLAND COVE PASTORAL CHARGE,", "designationCode": "C", "categoryCode": "44", "address": "SITE 2, BOX 34", "city": "CAPLIN COVE", "province": "NL", "country": "CA", "postalCode": "A0A1R0", "twitter": "None", "instagram": "None", "facebook": "None", "youtube": "None", "website": "None", "summary": "None", "logo": "None", "latitude": 47.52438840384779, "longitude": -53.26457588997539}, "119025138RR0001": {"name": "LOWER LAHAVE CEMETERY COMPANY, LIMITED", "designationCode": "C", "categoryCode": "59", "address": "RR#1", "city": "RIVERPORT", "province": "NS", "country": "CA", "postalCode": "B0J2W0", "twitter": "None", "instagram": "None", "facebook": "None", "youtube": "None", "website": "None", "summary": "None", "logo": "None", "latitude": 44.295003882788244, "longitude": -64.32601862831221}, "129149951RR0001": {"name": "LOWER MAINLAND ASSOCIATION OF FRIENDS OF THE VANCOUVER CAROUSEL", "designationCode": "A", "categoryCode": "52", "address": "7805 ALLMAN ST", "city": "BURNABY", "province": "BC", "country": "CA", "postalCode": "V5E2A9", "twitter": "None", "instagram": "None", "facebook": "None", "youtube": "None", "website": "None", "summary": "None", "logo": "None", "latitude": 49.234814108257744, "longitude": -122.95067438608677}, "119025161RR0001": {"name": "LOWER MAINLAND BENGALI CULTURAL SOCIETY OF B.C.", "designationCode": "C", "categoryCode": "22", "address": "10580 TREPASSEY DR", "city": "RICHMOND", "province": "BC", "country": "CA", "postalCode": "V7E4K7", "twitter": "None", "instagram": "None", "facebook": "None", "youtube": "None", "website": "None", "summary": "None", "logo": "None", "latitude": 49.13647032922492, "longitude": -123.17190025507256}, "129787487RR0001": {"name": "LOWER MAINLAND CHRISTMAS BUREAU", "designationCode": "C", "categoryCode": "01", "address": "3RD FLOOR-1870 PANDORA ST", "city": "VANCOUVER", "province": "BC", "country": "CA", "postalCode": "V5L1M5", "twitter": "None", "instagram": "None", "facebook": "None", "youtube": "None", "website": "None", "summary": "None", "logo": "None", "latitude": 49.28306852842077, "longitude": -123.06620177699233}, "891621666RR0001": {"name": "LOWER MAINLAND DOWN SYNDROME SOCIETY", "designationCode": "C", "categoryCode": "09", "address": "201-13281 72ND AVE", "city": "SURREY", "province": "BC", "country": "CA", "postalCode": "V3W2N5", "twitter": "None", "instagram": "None", "facebook": "None", "youtube": "None", "website": "None", "summary": "None", "logo": "None", "latitude": 49.133691533181285, "longitude": -122.85433308090484}, "891218596RR0001": {"name": "LOWER MAINLAND GRIEF RECOVERY SOCIETY", "designationCode": "C", "categoryCode": "59", "address": "2490 WEST 37TH AVENUE", "city": "VANCOUVER", "province": "BC", "country": "CA", "postalCode": "V6M1P5", "twitter": "None", "instagram": "None", "facebook": "None", "youtube": "None", "website": "None", "summary": "None", "logo": "None", "latitude": 49.23841150288554, "longitude": -123.16207299861503}, "873237242RR0001": {"name": "LOWER MAINLAND NETWORK FOR ANIMALS SOCIETY", "designationCode": "C", "categoryCode": "54", "address": "3841 KILLARNEY ST", "city": "PORT COQUITLAM", "province": "BC", "country": "CA", "postalCode": "V3B3G5", "twitter": "None", "instagram": "None", "facebook": "None", "youtube": "None", "website": "None", "summary": "None", "logo": "None", "latitude": 49.280268793905876, "longitude": -122.74207465852756}, "119025229RR0001": {"name": "LOWER MILLSTREAM UNITED BAPTIST CHURCH", "designationCode": "C", "categoryCode": "31", "address": "404 ROUTE 880", "city": "LOWER MILLSTREAM", "province": "NB", "country": "CA", "postalCode": "E5P3K4", "twitter": "None", "instagram": "None", "facebook": "None", "youtube": "None", "website": "None", "summary": "None", "logo": "None", "latitude": 45.73403459519513, "longitude": -65.61514869172497}, "890713977RR0001": {"name": "LOWER MONTAGUE CEMETERY COMPANY", "designationCode": "C", "categoryCode": "59", "address": "723 LOWER MONTAGUE ROAD", "city": "MONTAGUE", "province": "PE", "country": "CA", "postalCode": "C0A1R0", "twitter": "None", "instagram": "None", "facebook": "None", "youtube": "None", "website": "None", "summary": "None", "logo": "None", "latitude": 46.162330647606595, "longitude": -62.558107927658895}, "107646515RR0001": {"name": "LOWER MUSQUODOBOIT PASTORAL CHARGE", "designationCode": "C", "categoryCode": "44", "address": "6686 HWY 357", "city": "MIDDLE MUSQUODOBOIT", "province": "NS", "country": "CA", "postalCode": "B0N1X0", "twitter": "None", "instagram": "None", "facebook": "None", "youtube": "None", "website": "None", "summary": "None", "logo": "None", "latitude": 45.01073876341228, "longitude": -63.19067902649481}, "871948758RR0001": {"name": "LOWER ONSLOW CLARKE CEMETERY COMPANY", "designationCode": "C", "categoryCode": "59", "address": "12352 LOWER ONSLOW ROAD RR 1", "city": "BELMONT COLCHESTER COUNTY", "province": "NS", "country": "CA", "postalCode": "B0M1C0", "twitter": "None", "instagram": "None", "facebook": "None", "youtube": "None", "website": "None", "summary": "None", "logo": "None", "latitude": 45.38238632447988, "longitude": -63.40720832447988}, "119025245RR0001": {"name": "LOWER PACIFIC DISTRICT OF THE EVANGELICAL FREE CHURCH OF CANADA", "designationCode": "C", "categoryCode": "39", "address": "9612 152ND ST", "city": "SURREY", "province": "BC", "country": "CA", "postalCode": "V3R4G4", "twitter": "None", "instagram": "None", "facebook": "None", "youtube": "None", "website": "None", "summary": "None", "logo": "None", "latitude": 49.17700691035259, "longitude": -122.8009300316234}, "119025252RR0001": {"name": "LOWER POKIOK CEMETERY INC.", "designationCode": "C", "categoryCode": "59", "address": "5540 POKIOK SETTLEMENT ROAD", "city": "PRINCE WILLIAM", "province": "NB", "country": "CA", "postalCode": "E6K3J5", "twitter": "None", "instagram": "None", "facebook": "None", "youtube": "None", "website": "None", "summary": "None", "logo": "None", "latitude": 45.87340781181476, "longitude": -67.08290393197892}, "119025260RR0001": {"name": "LOWER RANGE CHURCH AND CEMETERY IMPROVEMENT FUND", "designationCode": "C", "categoryCode": "59", "address": "92 HILLCREST AVENUE", "city": "CHIPMAN", "province": "NB", "country": "CA", "postalCode": "E4A1X9", "twitter": "None", "instagram": "None", "facebook": "None", "youtube": "None", "website": "None", "summary": "None", "logo": "None", "latitude": 46.177403541231364, "longitude": -65.876834076577}, "119025278RR0001": {"name": "LOWER STAFFORD UNITED CHURCH CEMETERY", "designationCode": "B", "categoryCode": "59", "address": "666 STAFFORD 2ND LINE         RR3 COBDEN", "city": "COBDEN", "province": "ON", "country": "CA", "postalCode": "K0J1K0", "twitter": "None", "instagram": "None", "facebook": "None", "youtube": "None", "website": "None", "summary": "None", "logo": "None", "latitude": 45.701627336646034, "longitude": -77.01296932855816}, "107646580RR0001": {"name": "LOWER THAMES VALLEY CONSERVATION AUTHORITY", "designationCode": "C", "categoryCode": "52", "address": "100 THAMES ST", "city": "CHATHAM", "province": "ON", "country": "CA", "postalCode": "N7L2Y8", "twitter": "None", "instagram": "None", "facebook": "None", "youtube": "None", "website": "None", "summary": "None", "logo": "None", "latitude": 42.40763711933757, "longitude": -82.18573793848489}, "898198171RR0001": {"name": "LOWER THAMES VALLEY CONSERVATION FOUNDATION", "designationCode": "A", "categoryCode": "53", "address": "8449 IRISH DRIVE, R.R.#1", "city": "MOUNT BRYDGES", "province": "ON", "country": "CA", "postalCode": "N0L1W0", "twitter": "None", "instagram": "None", "facebook": "None", "youtube": "None", "website": "None", "summary": "None", "logo": "None", "latitude": 42.88534509011931, "longitude": -81.481160981396}, "107646598RR0001": {"name": "LOWER TRENT REGION CONSERVATION AUTHORITY", "designationCode": "C", "categoryCode": "52", "address": "714 MURRAY STREET             RR 1", "city": "TRENTON", "province": "ON", "country": "CA", "postalCode": "K8V5P4", "twitter": "None", "instagram": "None", "facebook": "None", "youtube": "None", "website": "None", "summary": "None", "logo": "None", "latitude": 44.12558204936775, "longitude": -77.64804704627902}, "119025286RR0001": {"name": "LOWER TURTLE CREEK UNITED BAPTIST CHURCH", "designationCode": "C", "categoryCode": "31", "address": "842 ROUTE 910", "city": "TURTLE CREEK", "province": "NB", "country": "CA", "postalCode": "E1J1X1", "twitter": "None", "instagram": "None", "facebook": "None", "youtube": "None", "website": "None", "summary": "None", "logo": "None", "latitude": 46.00898110428229, "longitude": -64.87415388840658}, "131579781RR0001": {"name": "LOWER WOOD HARBOUR UNITED BAPTIST CHURCH,", "designationCode": "C", "categoryCode": "31", "address": "P. O. BOX 122", "city": "WOOD'S HARBOUR", "province": "NS", "country": "CA", "postalCode": "B0W2E0", "twitter": "None", "instagram": "None", "facebook": "None", "youtube": "None", "website": "None", "summary": "None", "logo": "None"}, "129186029RR0001": {"name": "LOWLAND SENIOR CITIZENS' HOUSING SOCIETY", "designationCode": "C", "categoryCode": "09", "address": "1335 EAST 27TH STREET", "city": "NORTH VANCOUVER", "province": "BC", "country": "CA", "postalCode": "V7J1S6", "twitter": "None", "instagram": "None", "facebook": "None", "youtube": "None", "website": "None", "summary": "None", "logo": "None", "latitude": 49.33326454111672, "longitude": -123.03657085359798}, "107646648RR0001": {"name": "LOWVILLE UNITED CHURCH", "designationCode": "C", "categoryCode": "44", "address": "5800 GUELPH LINE", "city": "BURLINGTON", "province": "ON", "country": "CA", "postalCode": "L7P0A7", "twitter": "None", "instagram": "None", "facebook": "None", "youtube": "None", "website": "None", "summary": "None", "logo": "None", "latitude": 43.4278676591553, "longitude": -79.89891852986304}, "864918826RR0001": {"name": "LOYAL HILL AND MUSGROVE ROAD CEMETERY COMMITTEE", "designationCode": "C", "categoryCode": "59", "address": "33 NUNN ROAD", "city": "SUMMERVILLE", "province": "NS", "country": "CA", "postalCode": "B0N2K0", "twitter": "None", "instagram": "None", "facebook": "None", "youtube": "None", "website": "None", "summary": "None", "logo": "None", "latitude": 45.093930296150894, "longitude": -64.17074657008479}, "107647034RR0001": {"name": "LOYAL PROTESTANT ASSOCIATION", "designationCode": "A", "categoryCode": "03", "address": "P.O. BOX 1190, STN. MAIN", "city": "COQUITLAM", "province": "BC", "country": "CA", "postalCode": "V3J6Z9", "twitter": "None", "instagram": "None", "facebook": "None", "youtube": "None", "website": "None", "summary": "None", "logo": "None", "latitude": 49.25877900000006, "longitude": -122.86348549999994}, "119025377RR0001": {"name": "LOYAL TRUE BLUE AND ORANGE HOME", "designationCode": "C", "categoryCode": "01", "address": "11181 YONGE ST", "city": "RICHMOND HILL", "province": "ON", "country": "CA", "postalCode": "L4S1L2", "twitter": "None", "instagram": "None", "facebook": "None", "youtube": "None", "website": "None", "summary": "None", "logo": "None", "latitude": 43.90013167721735, "longitude": -79.44391532566819}, "107646671RR0001": {"name": "LOYALIST COLLEGE OF APPLIED ARTS AND TECHNOLOGY", "designationCode": "C", "categoryCode": "20", "address": "PO BOX 4200", "city": "BELLEVILLE", "province": "ON", "country": "CA", "postalCode": "K8N5B9", "twitter": "None", "instagram": "None", "facebook": "None", "youtube": "None", "website": "None", "summary": "None", "logo": "None", "latitude": 44.16104400000006, "longitude": -77.38183249999993}, "889242863RR0001": {"name": "LOYALIST CULTURAL CENTRE", "designationCode": "C", "categoryCode": "50", "address": "54 ADOLPHUSTOWN PARK ROAD", "city": "BATH", "province": "ON", "country": "CA", "postalCode": "K0H1G0", "twitter": "None", "instagram": "None", "facebook": "None", "youtube": "None", "website": "None", "summary": "None", "logo": "None", "latitude": 44.061969345146565, "longitude": -77.00527738818475}, "872171145RR0001": {"name": "LOYALIST HUMANE SOCIETY", "designationCode": "C", "categoryCode": "54", "address": "P.O BOX 6108", "city": "PICTON", "province": "ON", "country": "CA", "postalCode": "K0K2T0", "twitter": "None", "instagram": "None", "facebook": "None", "youtube": "None", "website": "None", "summary": "None", "logo": "None", "latitude": 44.19536494728186, "longitude": -77.59328555317504}, "889415048RR0001": {"name": "LOYALIST S D A CHURCH", "designationCode": "C", "categoryCode": "41", "address": "5816 HIGHWAY 2A", "city": "LACOMBE", "province": "AB", "country": "CA", "postalCode": "T4L2G5", "twitter": "None", "instagram": "None", "facebook": "None", "youtube": "None", "website": "None", "summary": "None", "logo": "None", "latitude": 52.474063600197404, "longitude": -113.71692568401835}, "899172803RR0001": {"name": "LOYALTY FOUNDATION", "designationCode": "B", "categoryCode": "03", "address": "300 - 1765 8TH AVE W", "city": "VANCOUVER", "province": "BC", "country": "CA", "postalCode": "V6J5C6", "twitter": "None", "instagram": "None", "facebook": "None", "youtube": "None", "website": "None", "summary": "None", "logo": "None", "latitude": 49.26464549321933, "longitude": -123.14475327407813}, "869037374RR0001": {"name": "LOYOLA ARRUPE CENTRE FOR SENIORS/CENTRE POUR AINES LOYOLA ARRUPE", "designationCode": "C", "categoryCode": "56", "address": "55 RANKIN CRES", "city": "TORONTO", "province": "ON", "country": "CA", "postalCode": "M6P4E4", "twitter": "None", "instagram": "None", "facebook": "None", "youtube": "None", "website": "None", "summary": "None", "logo": "None", "latitude": 43.65848292587582, "longitude": -79.4464457067633}, "890643844RR0001": {"name": "LOYOLA HIGH SCHOOL", "designationCode": "C", "categoryCode": "20", "address": "7272 SHERBROOKE ST W", "city": "MONTREAL", "province": "QC", "country": "CA", "postalCode": "H4B1R2", "twitter": "None", "instagram": "None", "facebook": "None", "youtube": "None", "website": "None", "summary": "None", "logo": "None", "latitude": 45.45707463165818, "longitude": -73.63966989321416}, "103402186RR0001": {"name": "LOYOLA HIGH SCHOOL FOUNDATION/LA FONDATION ECOLE SECONDAIRE LOYOLA", "designationCode": "A", "categoryCode": "23", "address": "7272 SHERBROOKE STREET WEST", "city": "MONTREAL", "province": "QC", "country": "CA", "postalCode": "H4B1R2", "twitter": "None", "instagram": "None", "facebook": "None", "youtube": "None", "website": "None", "summary": "None", "logo": "None", "latitude": 45.45707463165818, "longitude": -73.63966989321416}}