{"886220854RR0001": {"name": "La Soci\u00e9t\u00e9 historique et culturelle de Saint-Antoine-sur-Richelieu inc.", "designationCode": "C", "categoryCode": "50", "address": "1060 RUE DU MOULIN-PAYET      BUREAU 3", "city": "ST-ANTOINE-SUR-RICHELIEU", "province": "QC", "country": "CA", "postalCode": "J0L1R0", "twitter": "None", "instagram": "None", "facebook": "None", "youtube": "None", "website": "None", "summary": "None", "logo": "None", "latitude": 45.78670659583477, "longitude": -73.17167898722202}, "898338579RR0001": {"name": "La Soci\u00e9t\u00e9 Amis pour Toi", "designationCode": "C", "categoryCode": "09", "address": "10908 AVENUE BELLEVOIS", "city": "MONTREAL-NORD", "province": "QC", "country": "CA", "postalCode": "H1H3C9", "twitter": "None", "instagram": "None", "facebook": "None", "youtube": "None", "website": "None", "summary": "None", "logo": "None", "latitude": 45.595413650556964, "longitude": -73.62941222219962}, "857373591RR0001": {"name": "La Soci\u00e9t\u00e9 Aviation Connection", "designationCode": "C", "categoryCode": "21", "address": "82 CHEMIN DU TOUR", "city": "LAVAL", "province": "QC", "country": "CA", "postalCode": "H7Y1G7", "twitter": "None", "instagram": "None", "facebook": "None", "youtube": "None", "website": "None", "summary": "None", "logo": "None", "latitude": 45.52013153231589, "longitude": -73.8581184955566}, "864980438RR0001": {"name": "La Soci\u00e9t\u00e9 Ensemble Masques - Masques Ensemble Corporation", "designationCode": "C", "categoryCode": "22", "address": "4028 MARLOWE AVENUE", "city": "MONTREAL", "province": "QC", "country": "CA", "postalCode": "H4A3M2", "twitter": "None", "instagram": "None", "facebook": "None", "youtube": "None", "website": "None", "summary": "None", "logo": "None", "latitude": 45.478541756852806, "longitude": -73.61489510756523}, "801273004RR0001": {"name": "La Soci\u00e9t\u00e9 Historique de St-Georges Historical Society (Inc)", "designationCode": "C", "categoryCode": "50", "address": "C P 171", "city": "SAINT-GEORGES", "province": "MB", "country": "CA", "postalCode": "R0E1V0", "twitter": "None", "instagram": "None", "facebook": "None", "youtube": "None", "website": "None", "summary": "None", "logo": "None", "latitude": 50.53914000000003, "longitude": -96.14942999999994}, "132410671RR0569": {"name": "La Soci\u00e9t\u00e9 Saint Vincent de Paul, Conf\u00e9rence Saint Marc des Carri\u00e9res", "designationCode": "C", "categoryCode": "09", "address": "1100 AV PRINCIPALE", "city": "SAINT-MARC-DES-CARRIERES", "province": "QC", "country": "CA", "postalCode": "G0A4B0", "twitter": "None", "instagram": "None", "facebook": "None", "youtube": "None", "website": "None", "summary": "None", "logo": "None", "latitude": 46.68281217182167, "longitude": -72.04902534399004}, "844290486RR0001": {"name": "La Soci\u00e9t\u00e9 St-Vincent de Paul de Latteri\u00e8re", "designationCode": "C", "categoryCode": "09", "address": "2404 CH. DU PORTAGE-DES-ROCHESSUD", "city": "LATERRIERE", "province": "QC", "country": "CA", "postalCode": "G7N1X2", "twitter": "None", "instagram": "None", "facebook": "None", "youtube": "None", "website": "None", "summary": "None", "logo": "None", "latitude": 48.30523738386508, "longitude": -71.15846561824105}, "132410671RR0081": {"name": "La Soci\u00e9t\u00e9 St-Vincent de Paul Feminine de Rawdon", "designationCode": "C", "categoryCode": "09", "address": "C.P. 4573", "city": "RAWDON", "province": "QC", "country": "CA", "postalCode": "J0K1S0", "twitter": "None", "instagram": "None", "facebook": "None", "youtube": "None", "website": "None", "summary": "None", "logo": "None", "latitude": 46.043843824993615, "longitude": -73.77978685843142}, "880188073RR0001": {"name": "La Societe D'Histoire De Sillery", "designationCode": "C", "categoryCode": "50", "address": "C.P. 47051 SUCCURSALE SHEPPARD", "city": "QU\u00c9BEC", "province": "QC", "country": "CA", "postalCode": "G1S4X1", "twitter": "None", "instagram": "None", "facebook": "None", "youtube": "None", "website": "None", "summary": "None", "logo": "None", "latitude": 46.78375441106493, "longitude": -71.24974325186182}, "812133411RR0001": {"name": "La Solitude de Pr\u00e9-d'en-Haut Inc.", "designationCode": "C", "categoryCode": "59", "address": "1188 RUE PRINCIPALE", "city": "MEMRAMCOOK", "province": "NB", "country": "CA", "postalCode": "E4K2V8", "twitter": "None", "instagram": "None", "facebook": "None", "youtube": "None", "website": "None", "summary": "None", "logo": "None", "latitude": 45.95005762892686, "longitude": -64.62868265241704}, "843510637RR0001": {"name": "La Sortie - The Way Out", "designationCode": "C", "categoryCode": "11", "address": "4747 BOUL SAINT-CHARLES", "city": "PIERREFONDS", "province": "QC", "country": "CA", "postalCode": "H9H3C7", "twitter": "None", "instagram": "None", "facebook": "None", "youtube": "None", "website": "None", "summary": "None", "logo": "None", "latitude": 45.464117813780284, "longitude": -73.87190206047684}, "864965132RR0001": {"name": "La Soupi\u00e8re de l'Amiti\u00e9 d'Arvida / K\u00e9nogami", "designationCode": "C", "categoryCode": "09", "address": "2261 RACHEL", "city": "JONQUIERE", "province": "QC", "country": "CA", "postalCode": "G7S3Y3", "twitter": "None", "instagram": "None", "facebook": "None", "youtube": "None", "website": "None", "summary": "None", "logo": "None", "latitude": 48.43268961117192, "longitude": -71.13679123022105}, "808528335RR0001": {"name": "La Travers\u00e9e: art et vie", "designationCode": "C", "categoryCode": "11", "address": "2177 RUE SAINT-JACQUES", "city": "JONQUIERE", "province": "QC", "country": "CA", "postalCode": "G7X5X6", "twitter": "None", "instagram": "None", "facebook": "None", "youtube": "None", "website": "None", "summary": "None", "logo": "None", "latitude": 48.4154672797623, "longitude": -71.24916654674261}, "830590501RR0001": {"name": "La Triade HCT", "designationCode": "C", "categoryCode": "59", "address": "1474 BOUL SHEVCHENKO", "city": "LASALLE", "province": "QC", "country": "CA", "postalCode": "H8N1P1", "twitter": "None", "instagram": "None", "facebook": "None", "youtube": "None", "website": "None", "summary": "None", "logo": "None", "latitude": 45.43102758492513, "longitude": -73.6232480726062}, "832760110RR0001": {"name": "La ViLLa sous le clocher", "designationCode": "C", "categoryCode": "09", "address": "5700 RUE SAINT-LOUIS", "city": "LEVIS", "province": "QC", "country": "CA", "postalCode": "G6V4E5", "twitter": "None", "instagram": "None", "facebook": "None", "youtube": "None", "website": "None", "summary": "None", "logo": "None", "latitude": 46.804927977234726, "longitude": -71.18379599443142}, "842382939RR0001": {"name": "La Voz de Victoria - Alcance Hispano (The Voice of Victory Spanish Outreach) Society", "designationCode": "C", "categoryCode": "47", "address": "POST OFFICE BOX 3111          STATION  LCD 1", "city": "LANGLEY", "province": "BC", "country": "CA", "postalCode": "V3A4R3", "twitter": "None", "instagram": "None", "facebook": "None", "youtube": "None", "website": "None", "summary": "None", "logo": "None", "latitude": 49.10435700000005, "longitude": -122.65652149999994}, "845509009RR0001": {"name": "La Xavi\u00e9re Au Canada", "designationCode": "C", "categoryCode": "46", "address": "4885 RUE JEAN-BRILLANT", "city": "MONTREAL", "province": "QC", "country": "CA", "postalCode": "H3W1T5", "twitter": "None", "instagram": "None", "facebook": "None", "youtube": "None", "website": "None", "summary": "None", "logo": "None", "latitude": 45.48839117014822, "longitude": -73.6285290846844}, "810964569RR0001": {"name": "Labatt Better Together", "designationCode": "B", "categoryCode": "09", "address": "207 QUEENS QUAY W             SUITE 299", "city": "TORONTO", "province": "ON", "country": "CA", "postalCode": "M5J1A7", "twitter": "None", "instagram": "None", "facebook": "None", "youtube": "None", "website": "None", "summary": "None", "logo": "None", "latitude": 43.639690679901335, "longitude": -79.38088848762209}, "852984079RR0001": {"name": "Labourers in the Harvest Field, Christian Ministries International of Slave Lake", "designationCode": "B", "categoryCode": "39", "address": "405 6TH AVENUE SW", "city": "SLAVE LAKE", "province": "AB", "country": "CA", "postalCode": "T0G2A4", "twitter": "None", "instagram": "None", "facebook": "None", "youtube": "None", "website": "None", "summary": "None", "logo": "None", "latitude": 55.27944552452562, "longitude": -114.777774}, "119288918RR0137": {"name": "Labrador City Congregation of Jehovah's Witnesses, Labrador City, Newfoundland", "designationCode": "C", "categoryCode": "61", "address": "89 TAMARACK DRIVE", "city": "LABRADOR CITY", "province": "NL", "country": "CA", "postalCode": "A2V0A1", "twitter": "None", "instagram": "None", "facebook": "None", "youtube": "None", "website": "None", "summary": "None", "logo": "None", "latitude": 52.943076190338026, "longitude": -66.90149212934872}, "844318626RR0001": {"name": "Labrador Retriever Adoption Service Inc", "designationCode": "B", "categoryCode": "54", "address": "115 GEORGE STREET             P.O. BOX 254", "city": "OAKVILLE", "province": "ON", "country": "CA", "postalCode": "L6J0A2", "twitter": "None", "instagram": "None", "facebook": "None", "youtube": "None", "website": "None", "summary": "None", "logo": "None", "latitude": 43.44604425174555, "longitude": -79.66877844864109}, "898339650RR0001": {"name": "Labrador-Grenfell Regional Integrated Health Authority", "designationCode": "C", "categoryCode": "19", "address": "BOX 7000, STATION C", "city": "HAPPY VALLEY - GOOSE BAY", "province": "NL", "country": "CA", "postalCode": "A0P1C0", "twitter": "None", "instagram": "None", "facebook": "None", "youtube": "None", "website": "None", "summary": "None", "logo": "None", "latitude": 53.29581900000005, "longitude": -60.29593999999993}, "823854559RR0001": {"name": "Lac du Bonnet & District Charitable Foundation Inc.", "designationCode": "A", "categoryCode": "03", "address": "BOX 744", "city": "LAC DU BONNET", "province": "MB", "country": "CA", "postalCode": "R0E1A0", "twitter": "None", "instagram": "None", "facebook": "None", "youtube": "None", "website": "None", "summary": "None", "logo": "None", "latitude": 50.25160000000005, "longitude": -96.06180999999998}, "118883354RR0001": {"name": "Lac la Biche Word of Faith Family Church", "designationCode": "C", "categoryCode": "39", "address": "BOX 1784", "city": "LAC LA BICHE", "province": "AB", "country": "CA", "postalCode": "T0A2C0", "twitter": "None", "instagram": "None", "facebook": "None", "youtube": "None", "website": "None", "summary": "None", "logo": "None", "latitude": 54.768200000000036, "longitude": -111.98244999999997}, "126598580RR0001": {"name": "Lac La Biche Disability Services Association", "designationCode": "C", "categoryCode": "09", "address": "BOX 2078", "city": "LAC LA BICHE", "province": "AB", "country": "CA", "postalCode": "T0A2C0", "twitter": "None", "instagram": "None", "facebook": "None", "youtube": "None", "website": "None", "summary": "None", "logo": "None", "latitude": 54.768200000000036, "longitude": -111.98244999999997}, "834234668RR0001": {"name": "Lac La Biche Little Sprouts Child Care Society", "designationCode": "C", "categoryCode": "01", "address": "PO BOX 2577", "city": "LAC LA BICHE", "province": "AB", "country": "CA", "postalCode": "T0A2C0", "twitter": "None", "instagram": "None", "facebook": "None", "youtube": "None", "website": "None", "summary": "None", "logo": "None", "latitude": 54.768200000000036, "longitude": -111.98244999999997}, "770934321RR0001": {"name": "Lac La Biche Regional Health Foundation", "designationCode": "C", "categoryCode": "13", "address": "POST OFFICE BOX 1533", "city": "LAC LA BICHE", "province": "AB", "country": "CA", "postalCode": "T0A2C0", "twitter": "None", "instagram": "None", "facebook": "None", "youtube": "None", "website": "None", "summary": "None", "logo": "None", "latitude": 54.77110000000005, "longitude": -111.97444999999999}, "817502768RR0001": {"name": "Lac La Biche Regional Humane Society", "designationCode": "C", "categoryCode": "54", "address": "PO BOX 2033                   SE29 66 W4", "city": "LAC LA BICHE", "province": "AB", "country": "CA", "postalCode": "T0A2C0", "twitter": "None", "instagram": "None", "facebook": "None", "youtube": "None", "website": "None", "summary": "None", "logo": "None", "latitude": 54.77109900000005, "longitude": -111.97445299999994}, "842678021RR0001": {"name": "Lac La Ronge Food Bank Inc.", "designationCode": "C", "categoryCode": "09", "address": "BOX 785", "city": "AIR RONGE", "province": "SK", "country": "CA", "postalCode": "S0J3G0", "twitter": "None", "instagram": "None", "facebook": "None", "youtube": "None", "website": "None", "summary": "None", "logo": "None", "latitude": 55.104968852218384, "longitude": -105.2789552305204}, "831691514RR0001": {"name": "Lace 'em Up Foundation for Kids", "designationCode": "C", "categoryCode": "09", "address": "160 - 501 CLEVELAND CRES SE", "city": "CALGARY", "province": "AB", "country": "CA", "postalCode": "T2G4R8", "twitter": "None", "instagram": "None", "facebook": "None", "youtube": "None", "website": "None", "summary": "None", "logo": "None", "latitude": 51.01598605195973, "longitude": -114.05308213575165}, "744338120RR0001": {"name": "Lacie Foundation", "designationCode": "B", "categoryCode": "03", "address": "4818 MACTAGGART CREST NW", "city": "EDMONTON", "province": "AB", "country": "CA", "postalCode": "T6R0J7", "twitter": "None", "instagram": "None", "facebook": "None", "youtube": "None", "website": "None", "summary": "None", "logo": "None", "latitude": 53.43760856838269, "longitude": -113.55722421593855}, "861752145RR0001": {"name": "Lacombe and District Volunteer Link", "designationCode": "C", "categoryCode": "49", "address": "5005 C AND E TRAIL", "city": "LACOMBE", "province": "AB", "country": "CA", "postalCode": "T4L1N5", "twitter": "None", "instagram": "None", "facebook": "None", "youtube": "None", "website": "None", "summary": "None", "logo": "None", "latitude": 52.46314800000006, "longitude": -113.73875899999993}, "106832496RR0001": {"name": "Lacombe Evangelical Free Church", "designationCode": "C", "categoryCode": "39", "address": "4619 C & E TRAIL", "city": "LACOMBE", "province": "AB", "country": "CA", "postalCode": "T4L1M9", "twitter": "None", "instagram": "None", "facebook": "None", "youtube": "None", "website": "None", "summary": "None", "logo": "None", "latitude": 52.46012433004376, "longitude": -113.74309316096645}, "811476084RR0001": {"name": "Lacombe Health Trust", "designationCode": "A", "categoryCode": "15", "address": "POST OFFICE BOX 5663", "city": "LACOMBE", "province": "AB", "country": "CA", "postalCode": "T4L1X3", "twitter": "None", "instagram": "None", "facebook": "None", "youtube": "None", "website": "None", "summary": "None", "logo": "None", "latitude": 52.463094000000055, "longitude": -113.73671149999993}, "891461162RR0001": {"name": "Lacombe Victim Services Association", "designationCode": "C", "categoryCode": "59", "address": "5301 WOLF CREEK DR", "city": "LACOMBE", "province": "AB", "country": "CA", "postalCode": "T4L2H8", "twitter": "None", "instagram": "None", "facebook": "None", "youtube": "None", "website": "None", "summary": "None", "logo": "None", "latitude": 52.46575014504745, "longitude": -113.71551935422987}, "836958702RR0001": {"name": "Ladies in Transition Empowered (Lite) Corp.", "designationCode": "C", "categoryCode": "01", "address": "3472 BEAU RIVAGE CRES,", "city": "MISSISSAUGA", "province": "ON", "country": "CA", "postalCode": "L5L5H6", "twitter": "None", "instagram": "None", "facebook": "None", "youtube": "None", "website": "None", "summary": "None", "logo": "None", "latitude": 43.51945726201733, "longitude": -79.69575769986704}, "834394108RR0001": {"name": "Ladies Learning Code Inc.", "designationCode": "C", "categoryCode": "20", "address": "483 QUEEN ST. WEST            3RD FLOOR", "city": "TORONTO", "province": "ON", "country": "CA", "postalCode": "M5V2A9", "twitter": "None", "instagram": "None", "facebook": "None", "youtube": "None", "website": "None", "summary": "None", "logo": "None", "latitude": 43.64838280930822, "longitude": -79.39788437301637}, "767303522RR0001": {"name": "Ladner Gospel Assembly", "designationCode": "C", "categoryCode": "39", "address": "POST OFFICE BOX 18122", "city": "DELTA", "province": "BC", "country": "CA", "postalCode": "V4L2M4", "twitter": "None", "instagram": "None", "facebook": "None", "youtube": "None", "website": "None", "summary": "None", "logo": "None", "latitude": 49.08485400000005, "longitude": -123.05969449999994}, "834868309RR0001": {"name": "Lady Ballers Camp", "designationCode": "C", "categoryCode": "56", "address": "1120 FINCH AVE. W.            SUITE 701-94", "city": "TORONTO", "province": "ON", "country": "CA", "postalCode": "M3J3H7", "twitter": "None", "instagram": "None", "facebook": "None", "youtube": "None", "website": "None", "summary": "None", "logo": "None", "latitude": 43.76703416515657, "longitude": -79.47522690397595}, "854149291RR0001": {"name": "Lady Dunn Health Centre Foundation", "designationCode": "A", "categoryCode": "13", "address": "17 GOVERNMENT ROAD,", "city": "WAWA", "province": "ON", "country": "CA", "postalCode": "P0S1K0", "twitter": "None", "instagram": "None", "facebook": "None", "youtube": "None", "website": "None", "summary": "None", "logo": "None", "latitude": 48.00037976554178, "longitude": -84.77301669993813}, "805532124RR0001": {"name": "Lady Lime Foundation", "designationCode": "B", "categoryCode": "03", "address": "23 ROYAL OAK DR", "city": "BARRIE", "province": "ON", "country": "CA", "postalCode": "L4N7S5", "twitter": "None", "instagram": "None", "facebook": "None", "youtube": "None", "website": "None", "summary": "None", "logo": "None", "latitude": 44.374704685527234, "longitude": -79.65421709755327}, "815911318RR0001": {"name": "Ladybird Animal Sanctuary", "designationCode": "C", "categoryCode": "54", "address": "69 DRUMMOND ST", "city": "BRANTFORD", "province": "ON", "country": "CA", "postalCode": "N3S5Z6", "twitter": "None", "instagram": "None", "facebook": "None", "youtube": "None", "website": "None", "summary": "None", "logo": "None", "latitude": 43.136363912574296, "longitude": -80.2488139330892}, "862443306RR0001": {"name": "Ladysmith Little Theatre Society", "designationCode": "C", "categoryCode": "22", "address": "4985 CHRISTIE ROAD", "city": "LADYSMITH", "province": "BC", "country": "CA", "postalCode": "V9G1A2", "twitter": "None", "instagram": "None", "facebook": "None", "youtube": "None", "website": "None", "summary": "None", "logo": "None", "latitude": 49.00644717174441, "longitude": -123.83704198263015}, "847578275RR0001": {"name": "Ladysmith Seniors Centre Society", "designationCode": "C", "categoryCode": "09", "address": "P.O. BOX 1441", "city": "LADYSMITH", "province": "BC", "country": "CA", "postalCode": "V9G1B1", "twitter": "None", "instagram": "None", "facebook": "None", "youtube": "None", "website": "None", "summary": "None", "logo": "None", "latitude": 48.99822900000005, "longitude": -123.82257049999993}, "841034325RR0001": {"name": "Lafs Canada Inc.", "designationCode": "C", "categoryCode": "59", "address": "207 EDGEMONT DR", "city": "WINNIPEG", "province": "MB", "country": "CA", "postalCode": "R2J3H6", "twitter": "None", "instagram": "None", "facebook": "None", "youtube": "None", "website": "None", "summary": "None", "logo": "None", "latitude": 49.844905513994036, "longitude": -97.06256133527613}, "823536255RR0001": {"name": "Laing House Foundation", "designationCode": "A", "categoryCode": "05", "address": "1225 BARRINGTON STREET", "city": "HALIFAX", "province": "NS", "country": "CA", "postalCode": "B3J1Y2", "twitter": "None", "instagram": "None", "facebook": "None", "youtube": "None", "website": "None", "summary": "None", "logo": "None", "latitude": 44.640495827370295, "longitude": -63.57059942518333}, "119002863RR0001": {"name": "Lake of the Woods Chapel (The United Church of Canada) (Sioux Narrows, Ontario)", "designationCode": "C", "categoryCode": "44", "address": "PO BOX 327", "city": "SIOUX NARROWS", "province": "ON", "country": "CA", "postalCode": "P0X1N0", "twitter": "None", "instagram": "None", "facebook": "None", "youtube": "None", "website": "None", "summary": "None", "logo": "None", "latitude": 49.40861000000007, "longitude": -94.09623999999997}, "852535665RR0001": {"name": "Lake Country Art Gallery Society", "designationCode": "C", "categoryCode": "50", "address": "10356A BOTTOM WOOD LAKE RD", "city": "LAKE COUNTRY", "province": "BC", "country": "CA", "postalCode": "V4V1T9", "twitter": "None", "instagram": "None", "facebook": "None", "youtube": "None", "website": "None", "summary": "None", "logo": "None", "latitude": 50.03300056346243, "longitude": -119.4027341863517}, "802917278RR0001": {"name": "Lake Cowichan Food Bank Society", "designationCode": "C", "categoryCode": "09", "address": "PO BOX 1087", "city": "LAKE COWICHAN", "province": "BC", "country": "CA", "postalCode": "V0R2G0", "twitter": "None", "instagram": "None", "facebook": "None", "youtube": "None", "website": "None", "summary": "None", "logo": "None", "latitude": 48.810804726537235, "longitude": -123.97042104319344}, "805377967RR0001": {"name": "Lake Echo Community Food Bank Association", "designationCode": "C", "categoryCode": "09", "address": "322 PONDEROSA DR", "city": "LAKE ECHO", "province": "NS", "country": "CA", "postalCode": "B3E1E2", "twitter": "None", "instagram": "None", "facebook": "None", "youtube": "None", "website": "None", "summary": "None", "logo": "None", "latitude": 44.727461246176986, "longitude": -63.38211273019238}, "847861226RR0001": {"name": "Lake Isle Divide Cemetery Society Building Project", "designationCode": "C", "categoryCode": "59", "address": "PO BOX 2", "city": "LAKE ISLE", "province": "AB", "country": "CA", "postalCode": "T0E1H0", "twitter": "None", "instagram": "None", "facebook": "None", "youtube": "None", "website": "None", "summary": "None", "logo": "None", "latitude": 53.698488518624124, "longitude": -114.74590390169591}, "843159252RR0001": {"name": "Lake Lenore Childcare Centre Inc.", "designationCode": "C", "categoryCode": "01", "address": "BOX 82", "city": "LAKE LENORE", "province": "SK", "country": "CA", "postalCode": "S0K2J0", "twitter": "None", "instagram": "None", "facebook": "None", "youtube": "None", "website": "None", "summary": "None", "logo": "None", "latitude": 52.397808000000055, "longitude": -104.98036399999994}, "834270670RR0001": {"name": "Lake Manitoba Camp Legacy Inc.", "designationCode": "C", "categoryCode": "10", "address": "P.O. BOX 1532", "city": "PORTAGE LA PRAIRIE", "province": "MB", "country": "CA", "postalCode": "R1N3P5", "twitter": "None", "instagram": "None", "facebook": "None", "youtube": "None", "website": "None", "summary": "None", "logo": "None", "latitude": 49.986762000000056, "longitude": -98.29974949999993}, "822816237RR0001": {"name": "Lake Ridge Community Church", "designationCode": "C", "categoryCode": "39", "address": "156 SPRINGMERE WAY", "city": "CHESTERMERE", "province": "AB", "country": "CA", "postalCode": "T1X1P1", "twitter": "None", "instagram": "None", "facebook": "None", "youtube": "None", "website": "None", "summary": "None", "logo": "None", "latitude": 51.04472616847479, "longitude": -113.83986726461441}, "119288918RR1462": {"name": "Lake Ridge Congregation of Jehovah's Witnesses, Ajax, Ontario", "designationCode": "C", "categoryCode": "61", "address": "877 WESTNEY RD SOUTH", "city": "AJAX", "province": "ON", "country": "CA", "postalCode": "L1S3M4", "twitter": "None", "instagram": "None", "facebook": "None", "youtube": "None", "website": "None", "summary": "None", "logo": "None", "latitude": 43.83021318795049, "longitude": -79.0197074772634}, "887429207RR0001": {"name": "Lake Scugog United Church Camp, Inc.", "designationCode": "C", "categoryCode": "49", "address": "119 GLENMOUNT PARK ROAD", "city": "TORONTO", "province": "ON", "country": "CA", "postalCode": "M4E2N3", "twitter": "None", "instagram": "None", "facebook": "None", "youtube": "None", "website": "None", "summary": "None", "logo": "None", "latitude": 43.68078759562003, "longitude": -79.30518828737966}, "118939461RR0001": {"name": "Lake View Pastoral Charge", "designationCode": "C", "categoryCode": "44", "address": "552 DIVIDE ROAD", "city": "DIVIDE", "province": "NB", "country": "CA", "postalCode": "E7L1L7", "twitter": "None", "instagram": "None", "facebook": "None", "youtube": "None", "website": "None", "summary": "None", "logo": "None", "latitude": 46.56107321238918, "longitude": -67.34253279084213}, "801301714RR0001": {"name": "Lake Windermere Ambassadors Society", "designationCode": "C", "categoryCode": "59", "address": "POST OFFICE BOX 601", "city": "INVERMERE", "province": "BC", "country": "CA", "postalCode": "V0A1K0", "twitter": "None", "instagram": "None", "facebook": "None", "youtube": "None", "website": "None", "summary": "None", "logo": "None", "latitude": 50.50916700000006, "longitude": -116.03037049999993}, "802626788RR0001": {"name": "Lakedale Holy Ghost Ukrainian Catholic Church", "designationCode": "C", "categoryCode": "38", "address": "POST OFFICE BOX 97", "city": "ANGUSVILLE", "province": "MB", "country": "CA", "postalCode": "R0J0A0", "twitter": "None", "instagram": "None", "facebook": "None", "youtube": "None", "website": "None", "summary": "None", "logo": "None", "latitude": 50.73540000000003, "longitude": -101.02003999999994}, "859787301RR0001": {"name": "Lakefield Community Church", "designationCode": "C", "categoryCode": "36", "address": "PO BOX 933", "city": "LAKEFIELD", "province": "ON", "country": "CA", "postalCode": "K0L2H0", "twitter": "None", "instagram": "None", "facebook": "None", "youtube": "None", "website": "None", "summary": "None", "logo": "None", "latitude": 44.42679000000004, "longitude": -78.26996999999994}, "823538624RR0001": {"name": "Lakefield Golden Years Association", "designationCode": "C", "categoryCode": "09", "address": "275 QUEEN STREET              PO BOX 1233", "city": "LAKEFIELD", "province": "ON", "country": "CA", "postalCode": "K0L2H0", "twitter": "None", "instagram": "None", "facebook": "None", "youtube": "None", "website": "None", "summary": "None", "logo": "None", "latitude": 44.434891068007325, "longitude": -78.26460773988724}, "873794762RR0001": {"name": "Lakehead District School Board Scholarship Fund", "designationCode": "C", "categoryCode": "21", "address": "2135 SILLS STREET", "city": "THUNDER BAY", "province": "ON", "country": "CA", "postalCode": "P7E5T2", "twitter": "None", "instagram": "None", "facebook": "None", "youtube": "None", "website": "None", "summary": "None", "logo": "None", "latitude": 48.38171646047076, "longitude": -89.26973991618097}, "762805927RR0001": {"name": "Lakehead Transportation Museum Society", "designationCode": "C", "categoryCode": "50", "address": "450 - 1100 MEMORIAL AVE", "city": "THUNDER BAY", "province": "ON", "country": "CA", "postalCode": "P7B4A3", "twitter": "None", "instagram": "None", "facebook": "None", "youtube": "None", "website": "None", "summary": "None", "logo": "None", "latitude": 48.40423121426511, "longitude": -89.24559377676118}, "895137339RR0001": {"name": "Lakeland Lodge and Housing Foundation", "designationCode": "C", "categoryCode": "09", "address": "BOX 7143", "city": "BONNYVILLE", "province": "AB", "country": "CA", "postalCode": "T9N2H5", "twitter": "None", "instagram": "None", "facebook": "None", "youtube": "None", "website": "None", "summary": "None", "logo": "None", "latitude": 54.267945000000054, "longitude": -110.75332399999994}, "811882661RR0001": {"name": "Lakeland Ridge Parents Action Society", "designationCode": "C", "categoryCode": "21", "address": "101 CRIMSON DR", "city": "SHERWOOD PARK", "province": "AB", "country": "CA", "postalCode": "T8H2P1", "twitter": "None", "instagram": "None", "facebook": "None", "youtube": "None", "website": "None", "summary": "None", "logo": "None", "latitude": 53.552822198973004, "longitude": -113.27501085772427}, "119249126RR0001": {"name": "Lakeridge Health Foundation", "designationCode": "A", "categoryCode": "13", "address": "1 HOSPITAL COURT, ROOM A1-120", "city": "OSHAWA", "province": "ON", "country": "CA", "postalCode": "L1G2B9", "twitter": "None", "instagram": "None", "facebook": "None", "youtube": "None", "website": "None", "summary": "None", "logo": "None", "latitude": 43.90625233270865, "longitude": -78.86963183493035}, "853050904RR0001": {"name": "Lakes Animal Friendship Society", "designationCode": "C", "categoryCode": "54", "address": "PO BOX 49", "city": "SOUTHBANK", "province": "BC", "country": "CA", "postalCode": "V0J2P0", "twitter": "None", "instagram": "None", "facebook": "None", "youtube": "None", "website": "None", "summary": "None", "logo": "None", "latitude": 54.02525000000003, "longitude": -125.77586999999994}, "128121043RR0001": {"name": "Lakes District Community Services Society", "designationCode": "C", "categoryCode": "59", "address": "PO BOX 970", "city": "BURNS LAKE", "province": "BC", "country": "CA", "postalCode": "V0J1E0", "twitter": "None", "instagram": "None", "facebook": "None", "youtube": "None", "website": "None", "summary": "None", "logo": "None", "latitude": 54.22723000000008, "longitude": -125.76009999999997}, "134112432RR0001": {"name": "Lakes Fellowship", "designationCode": "C", "categoryCode": "36", "address": "BOX 306", "city": "BURNS LAKE", "province": "BC", "country": "CA", "postalCode": "V0J1E0", "twitter": "None", "instagram": "None", "facebook": "None", "youtube": "None", "website": "None", "summary": "None", "logo": "None", "latitude": 54.22723000000008, "longitude": -125.76009999999997}, "820903136RR0001": {"name": "Lakeshore Community Fellowship", "designationCode": "C", "categoryCode": "45", "address": "202 CHURCH STREET             POST OFFICE BOX 292", "city": "KESWICK", "province": "ON", "country": "CA", "postalCode": "L4P3E2", "twitter": "None", "instagram": "None", "facebook": "None", "youtube": "None", "website": "None", "summary": "None", "logo": "None", "latitude": 44.243492110767896, "longitude": -79.47262930864439}, "119288918RR0868": {"name": "Lakeshore Congregation of Jehovah's Witnesses, Burlington, Ontario", "designationCode": "C", "categoryCode": "61", "address": "901-5166 LAKESHORE DR", "city": "BURLINGTON", "province": "ON", "country": "CA", "postalCode": "L7L1C3", "twitter": "None", "instagram": "None", "facebook": "None", "youtube": "None", "website": "None", "summary": "None", "logo": "None", "latitude": 43.360244756295835, "longitude": -79.744581683895}, "119288918RR1593": {"name": "Lakeshore Congregation of Jehovah's Witnesses, Kelowna, British Columbia", "designationCode": "C", "categoryCode": "61", "address": "1039 KLO RD", "city": "KELOWNA", "province": "BC", "country": "CA", "postalCode": "V1Y4X4", "twitter": "None", "instagram": "None", "facebook": "None", "youtube": "None", "website": "None", "summary": "None", "logo": "None", "latitude": 49.860876440964425, "longitude": -119.47876822975107}, "119288918RR0097": {"name": "Lakeshore Congregation of Jehovah's Witnesses, Thunder Bay, Ontario", "designationCode": "C", "categoryCode": "61", "address": "126 IBBETSON ST", "city": "THUNDER BAY", "province": "ON", "country": "CA", "postalCode": "P7A7J9", "twitter": "None", "instagram": "None", "facebook": "None", "youtube": "None", "website": "None", "summary": "None", "logo": "None", "latitude": 48.45304397613823, "longitude": -89.23454962418501}, "850642794RR0001": {"name": "Lakeshore Corridor Community Team Inc.", "designationCode": "C", "categoryCode": "09", "address": "110 LAKESHORE RD E", "city": "MISSISSAUGA", "province": "ON", "country": "CA", "postalCode": "L5G1E3", "twitter": "None", "instagram": "None", "facebook": "None", "youtube": "None", "website": "None", "summary": "None", "logo": "None", "latitude": 43.55378194145639, "longitude": -79.58335141926804}, "823902952RR0001": {"name": "Lakeshore Players Inc.", "designationCode": "C", "categoryCode": "22", "address": "P.O. BOX 332", "city": "DORVAL", "province": "QC", "country": "CA", "postalCode": "H9R4P3", "twitter": "None", "instagram": "None", "facebook": "None", "youtube": "None", "website": "None", "summary": "None", "logo": "None", "latitude": 45.43897000000004, "longitude": -73.73021999999997}, "827120908RR0001": {"name": "Lakeside Hope House", "designationCode": "C", "categoryCode": "09", "address": "PO BOX 1869 STN MAIN", "city": "GUELPH", "province": "ON", "country": "CA", "postalCode": "N1H7A1", "twitter": "None", "instagram": "None", "facebook": "None", "youtube": "None", "website": "None", "summary": "None", "logo": "None", "latitude": 43.54455300000005, "longitude": -80.24788249999993}, "807252523RR0001": {"name": "Lakeside Trail Society", "designationCode": "C", "categoryCode": "56", "address": "8007 AITKEN RD", "city": "CHILLIWACK", "province": "BC", "country": "CA", "postalCode": "V2R4H5", "twitter": "None", "instagram": "None", "facebook": "None", "youtube": "None", "website": "None", "summary": "None", "logo": "None", "latitude": 49.147371173523766, "longitude": -121.99878670278123}, "808874432RR0001": {"name": "Lakeview Baptist Church of Calgary Society", "designationCode": "C", "categoryCode": "31", "address": "5336 LAKEVIEW DRIVE S.W.", "city": "CALGARY", "province": "AB", "country": "CA", "postalCode": "T3E5R9", "twitter": "None", "instagram": "None", "facebook": "None", "youtube": "None", "website": "None", "summary": "None", "logo": "None", "latitude": 51.00671721954522, "longitude": -114.13738641825844}, "119288918RR0274": {"name": "Lakeview Congregation of Jehovah's Witnesses, Calgary, Alberta", "designationCode": "C", "categoryCode": "61", "address": "2009 35TH AVENUE SW", "city": "CALGARY", "province": "AB", "country": "CA", "postalCode": "T3E7E8", "twitter": "None", "instagram": "None", "facebook": "None", "youtube": "None", "website": "None", "summary": "None", "logo": "None", "latitude": 51.03585000000001, "longitude": -114.13833672857626}, "119288918RR0140": {"name": "Lakeview Congregation of Jehovah's Witnesses, Regina, Saskatchewan", "designationCode": "C", "categoryCode": "61", "address": "2235 WASCANA ST", "city": "REGINA", "province": "SK", "country": "CA", "postalCode": "S4T4K3", "twitter": "None", "instagram": "None", "facebook": "None", "youtube": "None", "website": "None", "summary": "None", "logo": "None", "latitude": 50.443308, "longitude": -104.63974684315332}, "119288918RR0544": {"name": "Lakeview Congregation of Jehovah's Witnesses, Saskatoon, Saskatchewan", "designationCode": "C", "categoryCode": "61", "address": "115 JAN CRES", "city": "SASKATOON", "province": "SK", "country": "CA", "postalCode": "S7J4T6", "twitter": "None", "instagram": "None", "facebook": "None", "youtube": "None", "website": "None", "summary": "None", "logo": "None", "latitude": 52.09772152596791, "longitude": -106.58180266763806}, "119288918RR1625": {"name": "Lakeview Congregation of Jehovah's Witnesses, Toronto, Ontario", "designationCode": "C", "categoryCode": "61", "address": "124 FIFTH ST", "city": "ETOBICOKE", "province": "ON", "country": "CA", "postalCode": "M8V2Z3", "twitter": "None", "instagram": "None", "facebook": "None", "youtube": "None", "website": "None", "summary": "None", "logo": "None", "latitude": 43.60097047494209, "longitude": -79.50295282343592}, "837611490RR0001": {"name": "Lakeview Foundation", "designationCode": "A", "categoryCode": "03", "address": "BOX 2680", "city": "SMITHERS", "province": "BC", "country": "CA", "postalCode": "V0J2N0", "twitter": "None", "instagram": "None", "facebook": "None", "youtube": "None", "website": "None", "summary": "None", "logo": "None", "latitude": 54.78190002943043, "longitude": -127.16272999999995}, "758958292RR0001": {"name": "LakePoint Church", "designationCode": "C", "categoryCode": "36", "address": "285 TALBOT ST E", "city": "LEAMINGTON", "province": "ON", "country": "CA", "postalCode": "N8H3V6", "twitter": "None", "instagram": "None", "facebook": "None", "youtube": "None", "website": "None", "summary": "None", "logo": "None", "latitude": 42.05902780620982, "longitude": -82.57575947016852}, "842626996RR0001": {"name": "Lala Beejraj Shikchha Canada Trust", "designationCode": "B", "categoryCode": "20", "address": "15 RUE DU CHAMBERTIN", "city": "KIRKLAND", "province": "QC", "country": "CA", "postalCode": "H9H5E4", "twitter": "None", "instagram": "None", "facebook": "None", "youtube": "None", "website": "None", "summary": "None", "logo": "None", "latitude": 45.458791217611996, "longitude": -73.85963324966808}, "832213722RR0001": {"name": "Lam/Ladd Family Foundation", "designationCode": "B", "categoryCode": "03", "address": "200 BURRARD ST                SUITE 700", "city": "VANCOUVER", "province": "BC", "country": "CA", "postalCode": "V6C3L6", "twitter": "None", "instagram": "None", "facebook": "None", "youtube": "None", "website": "None", "summary": "None", "logo": "None", "latitude": 49.28816703246014, "longitude": -123.115479171793}, "822212635RR0001": {"name": "Lamb of God Fellowship", "designationCode": "C", "categoryCode": "39", "address": "52 HOLLINGSWORTH CIRCLE", "city": "BRAMPTON", "province": "ON", "country": "CA", "postalCode": "L7A0V7", "twitter": "None", "instagram": "None", "facebook": "None", "youtube": "None", "website": "None", "summary": "None", "logo": "None", "latitude": 43.693749461278806, "longitude": -79.84051227309718}, "858143217RR0001": {"name": "Lamb Foundation", "designationCode": "B", "categoryCode": "03", "address": "130 KING STREET WEST,         20TH FLOOR", "city": "TORONTO", "province": "ON", "country": "CA", "postalCode": "M5X1K1", "twitter": "None", "instagram": "None", "facebook": "None", "youtube": "None", "website": "None", "summary": "None", "logo": "None", "latitude": 43.64798216515656, "longitude": -79.38336717805407}, "824356778RR0001": {"name": "Lambton Children's Safety Village", "designationCode": "C", "categoryCode": "59", "address": "1010 KENWOOD AVENUE", "city": "SARNIA", "province": "ON", "country": "CA", "postalCode": "N7V3S2", "twitter": "None", "instagram": "None", "facebook": "None", "youtube": "None", "website": "None", "summary": "None", "logo": "None", "latitude": 42.99225285601283, "longitude": -82.38282366237294}, "804951556RR0001": {"name": "Lambton Meadowview Villa Auxiliary", "designationCode": "C", "categoryCode": "19", "address": "3958 PETROLIA LINE            RR 4", "city": "PETROLIA", "province": "ON", "country": "CA", "postalCode": "N0N1R0", "twitter": "None", "instagram": "None", "facebook": "None", "youtube": "None", "website": "None", "summary": "None", "logo": "None", "latitude": 42.88243957212199, "longitude": -82.16431551759186}, "812563310RR0001": {"name": "Lambton Young Theatre Players", "designationCode": "C", "categoryCode": "22", "address": "PO BOX 1246", "city": "PETROLIA", "province": "ON", "country": "CA", "postalCode": "N0N1R0", "twitter": "None", "instagram": "None", "facebook": "None", "youtube": "None", "website": "None", "summary": "None", "logo": "None", "latitude": 42.88638664158026, "longitude": -82.34714259335837}, "106988934RR0001": {"name": "Lamont County Housing Foundation", "designationCode": "C", "categoryCode": "01", "address": "PO BOX 120", "city": "LAMONT", "province": "AB", "country": "CA", "postalCode": "T0B2R0", "twitter": "None", "instagram": "None", "facebook": "None", "youtube": "None", "website": "None", "summary": "None", "logo": "None", "latitude": 53.759960000000035, "longitude": -112.77838999999994}, "795123322RR0001": {"name": "Lamp Korean Presbyterian Church of Airdrie", "designationCode": "C", "categoryCode": "37", "address": "163 BAYSIDE PT SW", "city": "AIRDRIE", "province": "AB", "country": "CA", "postalCode": "T4B2Z2", "twitter": "None", "instagram": "None", "facebook": "None", "youtube": "None", "website": "None", "summary": "None", "logo": "None", "latitude": 51.27315317845811, "longitude": -114.02974290703436}, "832434385RR0001": {"name": "Lamplight Church", "designationCode": "C", "categoryCode": "39", "address": "35 PANDORA AVENUE NORTH", "city": "KITCHENER", "province": "ON", "country": "CA", "postalCode": "N2H3C1", "twitter": "None", "instagram": "None", "facebook": "None", "youtube": "None", "website": "None", "summary": "None", "logo": "None", "latitude": 43.446146983063116, "longitude": -80.47798757533626}, "867041196RR0001": {"name": "Lanark County Crimestoppers", "designationCode": "C", "categoryCode": "59", "address": "15 COLEMAN ST", "city": "CARLETON PLACE", "province": "ON", "country": "CA", "postalCode": "K7C4N9", "twitter": "None", "instagram": "None", "facebook": "None", "youtube": "None", "website": "None", "summary": "None", "logo": "None", "latitude": 45.13381819014353, "longitude": -76.13661570416622}, "832144729RR0001": {"name": "Lanark County Municipal Trails Corporation", "designationCode": "C", "categoryCode": "56", "address": "99 CHRISTIE LAKE ROAD", "city": "PERTH", "province": "ON", "country": "CA", "postalCode": "K7H3C6", "twitter": "None", "instagram": "None", "facebook": "None", "youtube": "None", "website": "None", "summary": "None", "logo": "None", "latitude": 44.90529689764545, "longitude": -76.27045520933478}, "136054095RR0001": {"name": "Lanark Renfrew Health & Community Serices", "designationCode": "C", "categoryCode": "11", "address": "207 ROBERTSON DRIVE", "city": "LANARK", "province": "ON", "country": "CA", "postalCode": "K0G1K0", "twitter": "None", "instagram": "None", "facebook": "None", "youtube": "None", "website": "None", "summary": "None", "logo": "None", "latitude": 45.02226624761928, "longitude": -76.37885159371544}, "751376492RR0001": {"name": "Land of Compassion Buddha Assembly of Edmonton", "designationCode": "C", "categoryCode": "35", "address": "9352 106A AVE NW", "city": "EDMONTON", "province": "AB", "country": "CA", "postalCode": "T5H0S7", "twitter": "None", "instagram": "None", "facebook": "None", "youtube": "None", "website": "None", "summary": "None", "logo": "None", "latitude": 53.55242329283269, "longitude": -113.4814370542731}, "851020602RR0001": {"name": "Land of Maquinna Cultural Society", "designationCode": "C", "categoryCode": "52", "address": "100 OUWATIN ROAD", "city": "TSAXANA GOLD RIVER", "province": "BC", "country": "CA", "postalCode": "V0P1G0", "twitter": "None", "instagram": "None", "facebook": "None", "youtube": "None", "website": "None", "summary": "None", "logo": "None", "latitude": 49.782084000000054, "longitude": -126.04619149999994}, "823530522RR0001": {"name": "Land Food People Foundation", "designationCode": "C", "categoryCode": "59", "address": "13601 CHINGUACOUSY RD", "city": "CHELTENHAM", "province": "ON", "country": "CA", "postalCode": "L7C3H4", "twitter": "None", "instagram": "None", "facebook": "None", "youtube": "None", "website": "None", "summary": "None", "logo": "None", "latitude": 43.74590024649411, "longitude": -79.88907407600009}}