{"821216264RR0001": {"name": "Crooked Leg Ranch Society", "designationCode": "C", "categoryCode": "54", "address": "151 LEWIS DRIVE", "city": "QUESNEL", "province": "BC", "country": "CA", "postalCode": "V2J1J8", "twitter": "None", "instagram": "None", "facebook": "None", "youtube": "None", "website": "None", "summary": "None", "logo": "None", "latitude": 52.973783999999995, "longitude": -122.51085610534354}, "824944607RR0001": {"name": "Cross Church Winnipeg Inc.", "designationCode": "C", "categoryCode": "36", "address": "POST OFFICE BOX 51066         RPO TYNDALL PARK", "city": "WINNIPEG", "province": "MB", "country": "CA", "postalCode": "R2X3C6", "twitter": "None", "instagram": "None", "facebook": "None", "youtube": "None", "website": "None", "summary": "None", "logo": "None", "latitude": 49.93509857035637, "longitude": -97.18914229995275}, "819215567RR0001": {"name": "Cross Connection Church Society", "designationCode": "C", "categoryCode": "39", "address": "9310 WILLIAMS ST", "city": "CHILLIWACK", "province": "BC", "country": "CA", "postalCode": "V2P5E7", "twitter": "None", "instagram": "None", "facebook": "None", "youtube": "None", "website": "None", "summary": "None", "logo": "None", "latitude": 49.170590528449424, "longitude": -121.94563844390923}, "830949665RR0001": {"name": "Cross Current Community Church", "designationCode": "C", "categoryCode": "39", "address": "174 BROOKSIDE DR.", "city": "FREDERICTON", "province": "NB", "country": "CA", "postalCode": "E3A1T6", "twitter": "None", "instagram": "None", "facebook": "None", "youtube": "None", "website": "None", "summary": "None", "logo": "None", "latitude": 45.98480236940971, "longitude": -66.65659386620705}, "831815857RR0001": {"name": "Cross Fellowship Church", "designationCode": "C", "categoryCode": "39", "address": "9542 WILLOWLEAF PL", "city": "BURNABY", "province": "BC", "country": "CA", "postalCode": "V5A4A5", "twitter": "None", "instagram": "None", "facebook": "None", "youtube": "None", "website": "None", "summary": "None", "logo": "None", "latitude": 49.265956095836856, "longitude": -122.90107628300879}, "806645057RR0001": {"name": "Cross Roads Peninsula Anglican Church", "designationCode": "C", "categoryCode": "30", "address": "626 BLANSHARD ST", "city": "VICTORIA", "province": "BC", "country": "CA", "postalCode": "V8W3G6", "twitter": "None", "instagram": "None", "facebook": "None", "youtube": "None", "website": "None", "summary": "None", "logo": "None", "latitude": 48.420385123521186, "longitude": -123.36406285140495}, "118822352RR0001": {"name": "Cross Roads Pentecostal Assembly", "designationCode": "C", "categoryCode": "36", "address": "BOX 879", "city": "CACHE CREEK", "province": "BC", "country": "CA", "postalCode": "V0K1H0", "twitter": "None", "instagram": "None", "facebook": "None", "youtube": "None", "website": "None", "summary": "None", "logo": "None", "latitude": 50.809690000000046, "longitude": -121.32531999999998}, "823995451RR0001": {"name": "Cross Town Impact", "designationCode": "C", "categoryCode": "45", "address": "71 GEORGE STREET", "city": "BROCKVILLE", "province": "ON", "country": "CA", "postalCode": "K6V3V6", "twitter": "None", "instagram": "None", "facebook": "None", "youtube": "None", "website": "None", "summary": "None", "logo": "None", "latitude": 44.58837631473257, "longitude": -75.6885191076808}, "810360248RR0001": {"name": "Cross Worlds Ministries of Edmonton", "designationCode": "C", "categoryCode": "39", "address": "6711 137 AVE NW", "city": "EDMONTON", "province": "AB", "country": "CA", "postalCode": "T5C2L1", "twitter": "None", "instagram": "None", "facebook": "None", "youtube": "None", "website": "None", "summary": "None", "logo": "None", "latitude": 53.599386532315904, "longitude": -113.44513600014423}, "106993785RR0001": {"name": "Crossfield Municipal Library", "designationCode": "C", "categoryCode": "50", "address": "1026 CHISHOLM AVE             BOX 40", "city": "CROSSFIELD", "province": "AB", "country": "CA", "postalCode": "T0M0S0", "twitter": "None", "instagram": "None", "facebook": "None", "youtube": "None", "website": "None", "summary": "None", "logo": "None", "latitude": 51.4305161246177, "longitude": -114.02900512254023}, "893031807RR0001": {"name": "Crossfire Worship Centre Inc.", "designationCode": "C", "categoryCode": "39", "address": "491 MURRAY AVE", "city": "WINNIPEG", "province": "MB", "country": "CA", "postalCode": "R2V4J1", "twitter": "None", "instagram": "None", "facebook": "None", "youtube": "None", "website": "None", "summary": "None", "logo": "None", "latitude": 49.957996294217665, "longitude": -97.10758173630923}, "760598896RR0001": {"name": "Crossing Community Church of the Christian and Missionary A lliance in Canada", "designationCode": "C", "categoryCode": "39", "address": "5035 WELLINGTON R.R.3", "city": "ACTON", "province": "ON", "country": "CA", "postalCode": "L7J2L9", "twitter": "None", "instagram": "None", "facebook": "None", "youtube": "None", "website": "None", "summary": "None", "logo": "None", "latitude": 43.63528085550909, "longitude": -80.03280988382635}, "801870981RR0001": {"name": "Crossland Environmental Foundation", "designationCode": "C", "categoryCode": "21", "address": "28 LADYBURN DR", "city": "KESWICK", "province": "ON", "country": "CA", "postalCode": "L4P3R1", "twitter": "None", "instagram": "None", "facebook": "None", "youtube": "None", "website": "None", "summary": "None", "logo": "None", "latitude": 44.24174640660167, "longitude": -79.45478046243264}, "854767316RR0001": {"name": "Crossman Ministries Corp.", "designationCode": "C", "categoryCode": "20", "address": "2913-65 AVENUE", "city": "LLOYDMINSTER", "province": "AB", "country": "CA", "postalCode": "T9V3H6", "twitter": "None", "instagram": "None", "facebook": "None", "youtube": "None", "website": "None", "summary": "None", "logo": "None", "latitude": 53.26648436912124, "longitude": -110.03968729000539}, "807054374RR0001": {"name": "Crossnet Ministries", "designationCode": "C", "categoryCode": "39", "address": "2608 1ST AVE N W", "city": "CALGARY", "province": "AB", "country": "CA", "postalCode": "T2N0C4", "twitter": "None", "instagram": "None", "facebook": "None", "youtube": "None", "website": "None", "summary": "None", "logo": "None", "latitude": 51.05337582030707, "longitude": -114.12064122759699}, "819114786RR0001": {"name": "Crossover International Church of God-Winnipeg (CICOG-WINNIPEG) Inc.", "designationCode": "B", "categoryCode": "39", "address": "621 COLLEGE AVENUE", "city": "WINNIPEG", "province": "MB", "country": "CA", "postalCode": "R2W1N3", "twitter": "None", "instagram": "None", "facebook": "None", "youtube": "None", "website": "None", "summary": "None", "logo": "None", "latitude": 49.92342495755657, "longitude": -97.14489438438467}, "784950685RR0001": {"name": "Crosspoint Church", "designationCode": "C", "categoryCode": "39", "address": "13013  156TH STREET", "city": "EDMONTON", "province": "AB", "country": "CA", "postalCode": "T5V0A2", "twitter": "None", "instagram": "None", "facebook": "None", "youtube": "None", "website": "None", "summary": "None", "logo": "None", "latitude": 53.58896934490331, "longitude": -113.59022525693219}, "118860931RR0001": {"name": "Crosspoint Community Church", "designationCode": "C", "categoryCode": "39", "address": "554 MARSDEN", "city": "WINNIPEG", "province": "MB", "country": "CA", "postalCode": "R2K2Z8", "twitter": "None", "instagram": "None", "facebook": "None", "youtube": "None", "website": "None", "summary": "None", "logo": "None", "latitude": 49.91133748710249, "longitude": -97.0793270495699}, "107795122RR0001": {"name": "Crosspoint Wesleyan Church", "designationCode": "C", "categoryCode": "39", "address": "4 CORONATION COURT", "city": "FREDERICTON", "province": "NB", "country": "CA", "postalCode": "E3A4K4", "twitter": "None", "instagram": "None", "facebook": "None", "youtube": "None", "website": "None", "summary": "None", "logo": "None", "latitude": 45.97715818373822, "longitude": -66.5850839289629}, "820790376RR0001": {"name": "Crossridge Church", "designationCode": "C", "categoryCode": "39", "address": "5732 176 STREET", "city": "SURREY", "province": "BC", "country": "CA", "postalCode": "V3S1L6", "twitter": "None", "instagram": "None", "facebook": "None", "youtube": "None", "website": "None", "summary": "None", "logo": "None", "latitude": 49.10655641909517, "longitude": -122.73492950608818}, "131816167RR0001": {"name": "Crossroads Church of the Christian and Missionary Alliance in Canada", "designationCode": "C", "categoryCode": "39", "address": "1340 22ND ST S E", "city": "MEDICINE HAT", "province": "AB", "country": "CA", "postalCode": "T1A7M4", "twitter": "None", "instagram": "None", "facebook": "None", "youtube": "None", "website": "None", "summary": "None", "logo": "None", "latitude": 50.01885646378896, "longitude": -110.6636535}, "830601753RR0001": {"name": "Crossroads Church Fellowship", "designationCode": "C", "categoryCode": "36", "address": "29 SPRUCE STREET SOUTH", "city": "TIMMINS", "province": "ON", "country": "CA", "postalCode": "P4N2M4", "twitter": "None", "instagram": "None", "facebook": "None", "youtube": "None", "website": "None", "summary": "None", "logo": "None", "latitude": 48.47562160046, "longitude": -81.32706231697344}, "119156164RR0001": {"name": "Crossroads Clinic Association", "designationCode": "C", "categoryCode": "09", "address": "1 650 CASSILS RD E", "city": "BROOKS", "province": "AB", "country": "CA", "postalCode": "T1R1M6", "twitter": "None", "instagram": "None", "facebook": "None", "youtube": "None", "website": "None", "summary": "None", "logo": "None", "latitude": 50.5720922402028, "longitude": -111.88489048225551}, "891258246RR0001": {"name": "Crossroads Community Church", "designationCode": "C", "categoryCode": "36", "address": "155 CHURCH ST", "city": "AMHERST", "province": "NS", "country": "CA", "postalCode": "B4H3C7", "twitter": "None", "instagram": "None", "facebook": "None", "youtube": "None", "website": "None", "summary": "None", "logo": "None", "latitude": 45.82784067303375, "longitude": -64.2003042140053}, "846880482RR0001": {"name": "Crossroads Community Church of The Christian and Missionary Alliance in Canada", "designationCode": "C", "categoryCode": "39", "address": "POST OFFICE BOX 2196", "city": "SECHELT", "province": "BC", "country": "CA", "postalCode": "V0N3A0", "twitter": "None", "instagram": "None", "facebook": "None", "youtube": "None", "website": "None", "summary": "None", "logo": "None", "latitude": 49.473460000000046, "longitude": -123.75460999999996}, "823103288RR0001": {"name": "Crossroads Community Wesleyan Church", "designationCode": "C", "categoryCode": "39", "address": "752281 IDA ST                 RR 1", "city": "DUNDALK", "province": "ON", "country": "CA", "postalCode": "N0C1B0", "twitter": "None", "instagram": "None", "facebook": "None", "youtube": "None", "website": "None", "summary": "None", "logo": "None", "latitude": 44.16377400000001, "longitude": -80.40279824999999}, "811823897RR0001": {"name": "Crossroads Hospice (2009) Foundation", "designationCode": "A", "categoryCode": "03", "address": "504-34A-2755 LOUGHEED HIGHWAY", "city": "PORT COQUITLAM", "province": "BC", "country": "CA", "postalCode": "V3B5Y9", "twitter": "None", "instagram": "None", "facebook": "None", "youtube": "None", "website": "None", "summary": "None", "logo": "None", "latitude": 49.27318357900025, "longitude": -122.7895005624101}, "134317361RR0001": {"name": "Crossroads Life Church", "designationCode": "C", "categoryCode": "39", "address": "99 YOUNG ST W                 PO BOX 659", "city": "HARRISTON", "province": "ON", "country": "CA", "postalCode": "N0G1Z0", "twitter": "None", "instagram": "None", "facebook": "None", "youtube": "None", "website": "None", "summary": "None", "logo": "None", "latitude": 43.90894325035317, "longitude": -80.86953618558408}, "803618578RR0001": {"name": "Crossroads Prison Ministries Canada", "designationCode": "C", "categoryCode": "47", "address": "809-2160 LAKESHORE ROAD", "city": "BURLINGTON", "province": "ON", "country": "CA", "postalCode": "L7R1A7", "twitter": "None", "instagram": "None", "facebook": "None", "youtube": "None", "website": "None", "summary": "None", "logo": "None", "latitude": 43.32748756812291, "longitude": -79.78981253952927}, "119181600RR0001": {"name": "Crossroads United Church", "designationCode": "C", "categoryCode": "44", "address": "7655-120 STREET", "city": "DELTA", "province": "BC", "country": "CA", "postalCode": "V4C6P6", "twitter": "None", "instagram": "None", "facebook": "None", "youtube": "None", "website": "None", "summary": "None", "logo": "None", "latitude": 49.14246600000001, "longitude": -122.89049549506565}, "119186575RR0001": {"name": "Crossroads United Church", "designationCode": "C", "categoryCode": "44", "address": "690 SIR JOHN A MACDONALD BLVD", "city": "KINGSTON", "province": "ON", "country": "CA", "postalCode": "K7M1A2", "twitter": "None", "instagram": "None", "facebook": "None", "youtube": "None", "website": "None", "summary": "None", "logo": "None", "latitude": 44.24294947936954, "longitude": -76.51947815381692}, "886766997RR0001": {"name": "Crossroads Wesleyan Church", "designationCode": "C", "categoryCode": "39", "address": "971 WINDGATE DR.", "city": "BEAVER BANK", "province": "NS", "country": "CA", "postalCode": "B4G0A7", "twitter": "None", "instagram": "None", "facebook": "None", "youtube": "None", "website": "None", "summary": "None", "logo": "None", "latitude": 44.79473151875457, "longitude": -63.689994089301635}, "841104649RR0001": {"name": "Crosstowne Church", "designationCode": "C", "categoryCode": "39", "address": "474 KINGSLEIGH COURT", "city": "MILTON", "province": "ON", "country": "CA", "postalCode": "L9T1X8", "twitter": "None", "instagram": "None", "facebook": "None", "youtube": "None", "website": "None", "summary": "None", "logo": "None", "latitude": 43.521268684690526, "longitude": -79.89164062089544}, "788773729RR0001": {"name": "Crosswalk Safety Society of Nova Scotia", "designationCode": "C", "categoryCode": "59", "address": "326B WAVERLEY RD", "city": "DARTMOUTH", "province": "NS", "country": "CA", "postalCode": "B2X2E3", "twitter": "None", "instagram": "None", "facebook": "None", "youtube": "None", "website": "None", "summary": "None", "logo": "None", "latitude": 44.70756067430801, "longitude": -63.548837555244226}, "854698511RR0001": {"name": "Crossway Christian Church", "designationCode": "C", "categoryCode": "39", "address": "1780 FELTHAM RD", "city": "VICTORIA", "province": "BC", "country": "CA", "postalCode": "V8N2A5", "twitter": "None", "instagram": "None", "facebook": "None", "youtube": "None", "website": "None", "summary": "None", "logo": "None", "latitude": 48.47603650100961, "longitude": -123.32452113918865}, "873693436RR0001": {"name": "Crossway Community Church Canmore", "designationCode": "C", "categoryCode": "39", "address": "103 - 3 INDUSTRIAL PL", "city": "CANMORE", "province": "AB", "country": "CA", "postalCode": "T1W1Y1", "twitter": "None", "instagram": "None", "facebook": "None", "youtube": "None", "website": "None", "summary": "None", "logo": "None", "latitude": 51.09801808104906, "longitude": -115.36187788683752}, "119288918RR1357": {"name": "Crowfoot Congregation of Jehovah's Witnesses, Calgary, Alberta", "designationCode": "C", "categoryCode": "61", "address": "17 SHERWOOD HTS NW", "city": "CALGARY", "province": "AB", "country": "CA", "postalCode": "T3R0L3", "twitter": "None", "instagram": "None", "facebook": "None", "youtube": "None", "website": "None", "summary": "None", "logo": "None", "latitude": 51.162891013878465, "longitude": -114.15717316348312}, "835649864RR0001": {"name": "Crown of Glory Ministries Calgary", "designationCode": "C", "categoryCode": "39", "address": "114-2323 32ND AVENUE NE", "city": "CALGARY", "province": "AB", "country": "CA", "postalCode": "T2E6Z3", "twitter": "None", "instagram": "None", "facebook": "None", "youtube": "None", "website": "None", "summary": "None", "logo": "None", "latitude": 51.081392536211034, "longitude": -114.007194}, "817173065RR0001": {"name": "Crown of Messiah Messianic Congregation Inc.", "designationCode": "C", "categoryCode": "39", "address": "77 HARVARD CRES", "city": "SASKATOON", "province": "SK", "country": "CA", "postalCode": "S7H3R2", "twitter": "None", "instagram": "None", "facebook": "None", "youtube": "None", "website": "None", "summary": "None", "logo": "None", "latitude": 52.12620759781308, "longitude": -106.59937713656291}, "834736043RR0001": {"name": "Crowns of Life", "designationCode": "C", "categoryCode": "09", "address": "107 GAGLIANO DR", "city": "HAMILTON", "province": "ON", "country": "CA", "postalCode": "L8W3J2", "twitter": "None", "instagram": "None", "facebook": "None", "youtube": "None", "website": "None", "summary": "None", "logo": "None", "latitude": 43.195188990305134, "longitude": -79.85652709740904}, "881212419RR0001": {"name": "Crowsnest Conservation Society", "designationCode": "C", "categoryCode": "52", "address": "P.O. BOX 242", "city": "BLAIRMORE", "province": "AB", "country": "CA", "postalCode": "T0K0E0", "twitter": "None", "instagram": "None", "facebook": "None", "youtube": "None", "website": "None", "summary": "None", "logo": "None", "latitude": 49.491268008524564, "longitude": -113.94719278131039}, "135718815RR0001": {"name": "Crowsnest Nordic Ski Club", "designationCode": "C", "categoryCode": "56", "address": "BOX 445", "city": "COLEMAN", "province": "AB", "country": "CA", "postalCode": "T0K0M0", "twitter": "None", "instagram": "None", "facebook": "None", "youtube": "None", "website": "None", "summary": "None", "logo": "None", "latitude": 49.4888173371808, "longitude": -113.95073569884576}, "130565963RR0027": {"name": "Crucible Church", "designationCode": "C", "categoryCode": "39", "address": "9188 COOK RD. - TH3", "city": "RICHMOND", "province": "BC", "country": "CA", "postalCode": "V6Y4M1", "twitter": "None", "instagram": "None", "facebook": "None", "youtube": "None", "website": "None", "summary": "None", "logo": "None", "latitude": 49.16634716891484, "longitude": -123.12232483184987}, "129620811RR0001": {"name": "Crystal Cathedral Ministries - Hour of Power Canada", "designationCode": "C", "categoryCode": "47", "address": "14-15243 91ST AVE", "city": "SURREY", "province": "BC", "country": "CA", "postalCode": "V3R9K2", "twitter": "None", "instagram": "None", "facebook": "None", "youtube": "None", "website": "None", "summary": "None", "logo": "None", "latitude": 49.1683464893242, "longitude": -122.79984236081135}, "830733572RR0001": {"name": "Crystal City Community Daycare Inc.", "designationCode": "C", "categoryCode": "01", "address": "POST OFFICE BOX 235", "city": "CRYSTAL CITY", "province": "MB", "country": "CA", "postalCode": "R0K0N0", "twitter": "None", "instagram": "None", "facebook": "None", "youtube": "None", "website": "None", "summary": "None", "logo": "None", "latitude": 49.146274354951295, "longitude": -98.94961515158063}, "842428500RR0001": {"name": "Crystal Waters International Ministries", "designationCode": "C", "categoryCode": "39", "address": "307 - 1155 DUFFERIN ST", "city": "COQUITLAM", "province": "BC", "country": "CA", "postalCode": "V3B7K2", "twitter": "None", "instagram": "None", "facebook": "None", "youtube": "None", "website": "None", "summary": "None", "logo": "None", "latitude": 49.28099206134222, "longitude": -122.80394961544243}, "829107150RR0001": {"name": "Cuisine collective \u00celes-de-la-Madeleine", "designationCode": "C", "categoryCode": "09", "address": "330, CHEMIN PRINCIPAL         BUREAU 202", "city": "CAP-AUX-MEULES", "province": "QC", "country": "CA", "postalCode": "G4T1C9", "twitter": "None", "instagram": "None", "facebook": "None", "youtube": "None", "website": "None", "summary": "None", "logo": "None", "latitude": 47.37806428195531, "longitude": -61.865380513676904}, "890123672RR0001": {"name": "Cuisines et Vie Collectives Saint-Roch", "designationCode": "C", "categoryCode": "09", "address": "419 RUE ST-ROCH SS 15", "city": "MONTR\u00c9AL", "province": "QC", "country": "CA", "postalCode": "H3N1K2", "twitter": "None", "instagram": "None", "facebook": "None", "youtube": "None", "website": "None", "summary": "None", "logo": "None", "latitude": 45.53121014293955, "longitude": -73.62847271830448}, "845961929RR0001": {"name": "Cuisiniers sans fronti\u00e8re", "designationCode": "C", "categoryCode": "09", "address": "201 - 194 RUE GARY-CARTER", "city": "MONTREAL", "province": "QC", "country": "CA", "postalCode": "H2R2V7", "twitter": "None", "instagram": "None", "facebook": "None", "youtube": "None", "website": "None", "summary": "None", "logo": "None", "latitude": 45.53335704772358, "longitude": -73.62396284854901}, "804510022RR0001": {"name": "Culleen and Donald Kurt Foundation", "designationCode": "B", "categoryCode": "03", "address": "3952 TRUSSLER ROAD            RR 1", "city": "AYR", "province": "ON", "country": "CA", "postalCode": "N0B1E0", "twitter": "None", "instagram": "None", "facebook": "None", "youtube": "None", "website": "None", "summary": "None", "logo": "None", "latitude": 43.306714848259624, "longitude": -80.48734707525215}, "890218803RR0001": {"name": "Cultural Connections Institute - The Learning Exchange", "designationCode": "C", "categoryCode": "20", "address": "#428, 10621 - 100 AVENUE", "city": "EDMONTON", "province": "AB", "country": "CA", "postalCode": "T5J0B3", "twitter": "None", "instagram": "None", "facebook": "None", "youtube": "None", "website": "None", "summary": "None", "logo": "None", "latitude": 53.5387855100989, "longitude": -113.50419219317328}, "852705458RR0001": {"name": "Cultural Interpretation Services for Our Communities", "designationCode": "C", "categoryCode": "09", "address": "100-44 ECCLES ST", "city": "OTTAWA", "province": "ON", "country": "CA", "postalCode": "K1R6S4", "twitter": "None", "instagram": "None", "facebook": "None", "youtube": "None", "website": "None", "summary": "None", "logo": "None", "latitude": 45.40893705687018, "longitude": -75.7094134412835}, "106975865RR0001": {"name": "Culture et Patrimoine Deschambault-Grondines", "designationCode": "C", "categoryCode": "52", "address": "117, RUE SAINT-JOSEPH", "city": "DESCHAMBAULT-GRONDINES", "province": "QC", "country": "CA", "postalCode": "G0A1S0", "twitter": "None", "instagram": "None", "facebook": "None", "youtube": "None", "website": "None", "summary": "None", "logo": "None", "latitude": 46.648589836516884, "longitude": -71.92664950900237}, "848458089RR0001": {"name": "Culture Bridge Initiatives", "designationCode": "C", "categoryCode": "22", "address": "817 NORWICK RD", "city": "NEWMARKET", "province": "ON", "country": "CA", "postalCode": "L3X1K8", "twitter": "None", "instagram": "None", "facebook": "None", "youtube": "None", "website": "None", "summary": "None", "logo": "None", "latitude": 44.034935992786636, "longitude": -79.43670786522608}, "822013033RR0001": {"name": "Culture Days", "designationCode": "C", "categoryCode": "22", "address": "225 BRUNSWICK AVE", "city": "TORONTO", "province": "ON", "country": "CA", "postalCode": "M5S2M6", "twitter": "None", "instagram": "None", "facebook": "None", "youtube": "None", "website": "None", "summary": "None", "logo": "None", "latitude": 43.66397497752321, "longitude": -79.40665798623711}, "888950219RR0001": {"name": "Cumberland Community Forest Society", "designationCode": "C", "categoryCode": "59", "address": "BOX 1239", "city": "CUMBERLAND", "province": "BC", "country": "CA", "postalCode": "V0R1S0", "twitter": "None", "instagram": "None", "facebook": "None", "youtube": "None", "website": "None", "summary": "None", "logo": "None", "latitude": 49.628473953352, "longitude": -125.0204870723044}, "853041739RR0001": {"name": "Cumberland Community Singers (CCS)", "designationCode": "C", "categoryCode": "22", "address": "1391 SAULT STREET", "city": "OTTAWA", "province": "ON", "country": "CA", "postalCode": "K1E1G8", "twitter": "None", "instagram": "None", "facebook": "None", "youtube": "None", "website": "None", "summary": "None", "logo": "None", "latitude": 45.47461056731485, "longitude": -75.5095497199206}, "866714991RR0001": {"name": "Cumberland County Genealogical Society", "designationCode": "C", "categoryCode": "50", "address": "16 CHURCH STREET              P.O. BOX 1071", "city": "AMHERST", "province": "NS", "country": "CA", "postalCode": "B4H4E2", "twitter": "None", "instagram": "None", "facebook": "None", "youtube": "None", "website": "None", "summary": "None", "logo": "None", "latitude": 45.833145432425376, "longitude": -64.21231243199266}, "863920955RR0001": {"name": "Cumberland Health Care Auxiliary", "designationCode": "C", "categoryCode": "19", "address": "19428 HIGHWAY 2", "city": "UPPER NAPPAN", "province": "NS", "country": "CA", "postalCode": "B4H1N6", "twitter": "None", "instagram": "None", "facebook": "None", "youtube": "None", "website": "None", "summary": "None", "logo": "None", "latitude": 45.801883178913286, "longitude": -64.19874637948482}, "889312377RR0001": {"name": "Cumberland Point Community Cemetery Ltd.", "designationCode": "C", "categoryCode": "59", "address": "95 FOSHAY BEACH ROAD", "city": "CUMBERLAND BAY", "province": "NB", "country": "CA", "postalCode": "E4A3L8", "twitter": "None", "instagram": "None", "facebook": "None", "youtube": "None", "website": "None", "summary": "None", "logo": "None", "latitude": 45.95504739952779, "longitude": -65.9774860278423}, "131831893RR0001": {"name": "Cumberland Smile & Shine Program", "designationCode": "C", "categoryCode": "11", "address": "PO BOX 997 STN MAIN", "city": "AMHERST", "province": "NS", "country": "CA", "postalCode": "B4H4E1", "twitter": "None", "instagram": "None", "facebook": "None", "youtube": "None", "website": "None", "summary": "None", "logo": "None", "latitude": 45.83198400000006, "longitude": -64.20979249999993}, "119060804RR0001": {"name": "Cummer Avenue United Church", "designationCode": "C", "categoryCode": "44", "address": "53 CUMMER AVE", "city": "TORONTO", "province": "ON", "country": "CA", "postalCode": "M2M2E5", "twitter": "None", "instagram": "None", "facebook": "None", "youtube": "None", "website": "None", "summary": "None", "logo": "None", "latitude": 43.78747484537504, "longitude": -79.41507758491555}, "871874467RR0001": {"name": "Cunard Steamship Society", "designationCode": "C", "categoryCode": "50", "address": "PO BOX 427 108 WATER ST", "city": "BADDECK", "province": "NS", "country": "CA", "postalCode": "B0E1B0", "twitter": "None", "instagram": "None", "facebook": "None", "youtube": "None", "website": "None", "summary": "None", "logo": "None", "latitude": 46.096465545674775, "longitude": -60.75033409882266}, "865261648RR0001": {"name": "Cupids Legacy Inc.", "designationCode": "C", "categoryCode": "50", "address": "POST OFFICE BOX 210", "city": "CUPIDS", "province": "NL", "country": "CA", "postalCode": "A0A2B0", "twitter": "None", "instagram": "None", "facebook": "None", "youtube": "None", "website": "None", "summary": "None", "logo": "None", "latitude": 47.54737000000006, "longitude": -53.22929999999997}, "799429295RR0001": {"name": "Cura Pastorum Association", "designationCode": "C", "categoryCode": "49", "address": "700 KING STREET WEST", "city": "HAMILTON", "province": "ON", "country": "CA", "postalCode": "L8P1C7", "twitter": "None", "instagram": "None", "facebook": "None", "youtube": "None", "website": "None", "summary": "None", "logo": "None", "latitude": 43.26284446770546, "longitude": -79.89023923809737}, "832786610RR0001": {"name": "Cure International Canada", "designationCode": "C", "categoryCode": "10", "address": "PO BOX 462 STN MAIN", "city": "WINNIPEG", "province": "MB", "country": "CA", "postalCode": "R3C2J3", "twitter": "None", "instagram": "None", "facebook": "None", "youtube": "None", "website": "None", "summary": "None", "logo": "None", "latitude": 49.886161958421624, "longitude": -97.13345310241456}, "824235998RR0001": {"name": "Cureious Dr. Catherine - Caring2Cure Foundation", "designationCode": "B", "categoryCode": "03", "address": "12152 BAILLARGEON DRIVE", "city": "TECUMSEH", "province": "ON", "country": "CA", "postalCode": "N8N3Z9", "twitter": "None", "instagram": "None", "facebook": "None", "youtube": "None", "website": "None", "summary": "None", "logo": "None", "latitude": 42.31705928299056, "longitude": -82.88949862676328}, "848354056RR0001": {"name": "Cures for Kids Foundation", "designationCode": "A", "categoryCode": "13", "address": "4960 DUNCLIFFE ROAD", "city": "RICHMOND BCCAV7E3N1", "province": "BC", "country": "CA", "postalCode": "V7E3N1", "twitter": "None", "instagram": "None", "facebook": "None", "youtube": "None", "website": "None", "summary": "None", "logo": "None", "latitude": 49.128157121011014, "longitude": -123.17088863708251}, "825587363RR0001": {"name": "Curryville Community Outreach Center Inc.", "designationCode": "C", "categoryCode": "56", "address": "786 ALBERT MINES RD", "city": "CURRYVILLE", "province": "NB", "country": "CA", "postalCode": "E4H1R7", "twitter": "None", "instagram": "None", "facebook": "None", "youtube": "None", "website": "None", "summary": "None", "logo": "None", "latitude": 45.83584515399052, "longitude": -64.63085019539196}, "811116813RR0001": {"name": "Cuso International", "designationCode": "C", "categoryCode": "59", "address": "44 ECCLES STREET              SUITE 200", "city": "OTTAWA", "province": "ON", "country": "CA", "postalCode": "K1R6S4", "twitter": "None", "instagram": "None", "facebook": "None", "youtube": "None", "website": "None", "summary": "None", "logo": "None", "latitude": 45.40893705687018, "longitude": -75.7094134412835}, "851315614RR0001": {"name": "Cutting Edge Word Ministries International", "designationCode": "B", "categoryCode": "39", "address": "21 MORDON CRT", "city": "BRAMPTON", "province": "ON", "country": "CA", "postalCode": "L6V2B5", "twitter": "None", "instagram": "None", "facebook": "None", "youtube": "None", "website": "None", "summary": "None", "logo": "None", "latitude": 43.701149010011996, "longitude": -79.7494137120434}, "831329313RR0001": {"name": "Cybersem Academy", "designationCode": "C", "categoryCode": "20", "address": "119 BARSE STREET", "city": "TORONTO", "province": "ON", "country": "CA", "postalCode": "M5M4L3", "twitter": "None", "instagram": "None", "facebook": "None", "youtube": "None", "website": "None", "summary": "None", "logo": "None", "latitude": 43.729691919239386, "longitude": -79.4306894168448}, "827485681RR0001": {"name": "Cymri 36 Pet Rescue Center Inc.", "designationCode": "C", "categoryCode": "54", "address": "PO BOX 304", "city": "MIDALE", "province": "SK", "country": "CA", "postalCode": "S0C1S0", "twitter": "None", "instagram": "None", "facebook": "None", "youtube": "None", "website": "None", "summary": "None", "logo": "None", "latitude": 49.40006000000005, "longitude": -103.40099999999995}, "871715009RR0001": {"name": "Cypress River and Area Foundation Inc.", "designationCode": "A", "categoryCode": "03", "address": "PO BOX 86", "city": "CYPRESS RIVER", "province": "MB", "country": "CA", "postalCode": "R0K0P0", "twitter": "None", "instagram": "None", "facebook": "None", "youtube": "None", "website": "None", "summary": "None", "logo": "None", "latitude": 50.04757803653237, "longitude": -99.55971609548558}, "855938064RR0001": {"name": "Cyrus Centre Ministries", "designationCode": "C", "categoryCode": "01", "address": "2616 WARE STREET", "city": "ABBOTSFORD", "province": "BC", "country": "CA", "postalCode": "V2S3E5", "twitter": "None", "instagram": "None", "facebook": "None", "youtube": "None", "website": "None", "summary": "None", "logo": "None", "latitude": 49.04933358090486, "longitude": -122.30448061876065}, "781267323RR0001": {"name": "Cyrus Foundation", "designationCode": "B", "categoryCode": "23", "address": "1810 MIDLAND AVENUE", "city": "TORONTO", "province": "ON", "country": "CA", "postalCode": "M1P3C2", "twitter": "None", "instagram": "None", "facebook": "None", "youtube": "None", "website": "None", "summary": "None", "logo": "None", "latitude": 43.763330850943596, "longitude": -79.26958392388434}, "106845100RR0001": {"name": "Cystic Fibrosis Canada / Fibrose Kystique Canada", "designationCode": "C", "categoryCode": "11", "address": "2323 YONGE STREET", "city": "TORONTO", "province": "ON", "country": "CA", "postalCode": "M4P2C9", "twitter": "None", "instagram": "None", "facebook": "None", "youtube": "None", "website": "None", "summary": "None", "logo": "None", "latitude": 43.70826101249349, "longitude": -79.39861805880341}, "852042944RR0001": {"name": "Czorny Stewart Family Healthcare Society", "designationCode": "B", "categoryCode": "13", "address": "PO BOX 34042                  RPO CLOVERSQUARE", "city": "SURREY", "province": "BC", "country": "CA", "postalCode": "V3S8C4", "twitter": "None", "instagram": "None", "facebook": "None", "youtube": "None", "website": "None", "summary": "None", "logo": "None", "latitude": 49.13065500000006, "longitude": -122.81165449999993}, "118841410RR0001": {"name": "CA UNIVERSITE DE SUDBURY-UNIVERSITY OF SUDBURY", "designationCode": "C", "categoryCode": "20", "address": "935 RAMSEY LAKE ROAD", "city": "SUDBURY", "province": "ON", "country": "CA", "postalCode": "P3E2C6", "twitter": "None", "instagram": "None", "facebook": "None", "youtube": "None", "website": "None", "summary": "None", "logo": "None", "latitude": 46.47081945295088, "longitude": -80.97225123728919}, "129452769RR0001": {"name": "CABBAGETOWN COMMUNITY ARTS CENTRE INC.", "designationCode": "C", "categoryCode": "59", "address": "422 PARLIAMENT ST.", "city": "TORONTO", "province": "ON", "country": "CA", "postalCode": "M5A3A2", "twitter": "None", "instagram": "None", "facebook": "None", "youtube": "None", "website": "None", "summary": "None", "logo": "None", "latitude": 43.66282355282102, "longitude": -79.36746396778283}, "850536160RR0001": {"name": "CABBAGETOWN PRESERVATION ASSOCIATION", "designationCode": "C", "categoryCode": "50", "address": "P.O. BOX 82808 RPO CABBAGETOWN467 PARLIAMENT STREET", "city": "TORONTO", "province": "ON", "country": "CA", "postalCode": "M5A3Y2", "twitter": "None", "instagram": "None", "facebook": "None", "youtube": "None", "website": "None", "summary": "None", "logo": "None", "latitude": 43.655264945361466, "longitude": -79.36431410451054}, "888621893RR0001": {"name": "CABBAGETOWN YOUTH CENTRE INC", "designationCode": "C", "categoryCode": "56", "address": "2 LANCASTER AVENUE", "city": "TORONTO", "province": "ON", "country": "CA", "postalCode": "M4X1C1", "twitter": "None", "instagram": "None", "facebook": "None", "youtube": "None", "website": "None", "summary": "None", "logo": "None", "latitude": 43.666341190691796, "longitude": -79.36940728740832}, "872480108RR0001": {"name": "CABRI COMMUNITY VENTURES INC.", "designationCode": "C", "categoryCode": "55", "address": "P. O. BOX 121", "city": "CABRI", "province": "SK", "country": "CA", "postalCode": "S0N0J0", "twitter": "None", "instagram": "None", "facebook": "None", "youtube": "None", "website": "None", "summary": "None", "logo": "None", "latitude": 50.620695000000055, "longitude": -108.45713149999993}, "106821218RR0001": {"name": "CABRI FULL GOSPEL CHURCH", "designationCode": "C", "categoryCode": "39", "address": "BOX 22", "city": "CABRI", "province": "SK", "country": "CA", "postalCode": "S0N0J0", "twitter": "None", "instagram": "None", "facebook": "None", "youtube": "None", "website": "None", "summary": "None", "logo": "None", "latitude": 50.620695000000055, "longitude": -108.45713149999993}, "136715786RR0001": {"name": "CABRI ICE CENTER ASSOCIATION INC", "designationCode": "C", "categoryCode": "56", "address": "P.O. BOX 455", "city": "CABRI", "province": "SK", "country": "CA", "postalCode": "S0N0J0", "twitter": "None", "instagram": "None", "facebook": "None", "youtube": "None", "website": "None", "summary": "None", "logo": "None", "latitude": 50.620695000000055, "longitude": -108.45713149999993}, "138083621RR0001": {"name": "CABRI REGIONAL PARK AUTHORITY", "designationCode": "C", "categoryCode": "52", "address": "BOX 494", "city": "CABRI", "province": "SK", "country": "CA", "postalCode": "S0N0J0", "twitter": "None", "instagram": "None", "facebook": "None", "youtube": "None", "website": "None", "summary": "None", "logo": "None", "latitude": 50.620695000000055, "longitude": -108.45713149999993}, "118822311RR0001": {"name": "CABRI SENIOR'S CO-OPERATIVE", "designationCode": "C", "categoryCode": "09", "address": "BOX 453", "city": "CABRI", "province": "SK", "country": "CA", "postalCode": "S0N0J0", "twitter": "None", "instagram": "None", "facebook": "None", "youtube": "None", "website": "None", "summary": "None", "logo": "None", "latitude": 50.620695000000055, "longitude": -108.45713149999993}, "889182192RR0001": {"name": "CABRI UNION HOSPITAL AUXILIARY", "designationCode": "C", "categoryCode": "19", "address": "PO BOX 104", "city": "CABRI", "province": "SK", "country": "CA", "postalCode": "S0N0J0", "twitter": "None", "instagram": "None", "facebook": "None", "youtube": "None", "website": "None", "summary": "None", "logo": "None", "latitude": 50.620695000000055, "longitude": -108.45713149999993}, "106821283RR0001": {"name": "CABRI UNITED CHURCH", "designationCode": "C", "categoryCode": "44", "address": "BOX 127", "city": "CABRI", "province": "SK", "country": "CA", "postalCode": "S0N0J0", "twitter": "None", "instagram": "None", "facebook": "None", "youtube": "None", "website": "None", "summary": "None", "logo": "None", "latitude": 50.620695000000055, "longitude": -108.45713149999993}, "890577794RR0001": {"name": "CACGST -Canadian Association of China Graduate School of Theology", "designationCode": "C", "categoryCode": "47", "address": "P.O. BOX 3194, M.I.P.", "city": "MARKHAM", "province": "ON", "country": "CA", "postalCode": "L3R6G5", "twitter": "None", "instagram": "None", "facebook": "None", "youtube": "None", "website": "None", "summary": "None", "logo": "None", "latitude": 43.85650200000005, "longitude": -79.33982299999994}, "118822360RR0001": {"name": "CADBORO BAY GORDON HEAD UNITED CHURCH", "designationCode": "C", "categoryCode": "44", "address": "2625 ARBUTUS RD", "city": "VICTORIA", "province": "BC", "country": "CA", "postalCode": "V8N1W4", "twitter": "None", "instagram": "None", "facebook": "None", "youtube": "None", "website": "None", "summary": "None", "logo": "None", "latitude": 48.46329817537103, "longitude": -123.28984534531676}, "865866867RR0001": {"name": "CADBORO BAY UNITED CHURCH FOUNDATION", "designationCode": "A", "categoryCode": "43", "address": "2625 ARBUTUS ROAD", "city": "VICTORIA", "province": "BC", "country": "CA", "postalCode": "V8N1W4", "twitter": "None", "instagram": "None", "facebook": "None", "youtube": "None", "website": "None", "summary": "None", "logo": "None", "latitude": 48.46329817537103, "longitude": -123.28984534531676}, "865943120RR0001": {"name": "CADENCE LEADERSHIP RESOURCES", "designationCode": "C", "categoryCode": "47", "address": "200-20 BAMBURGH CIRCLE", "city": "SCARBOROUGH", "province": "ON", "country": "CA", "postalCode": "M1W3Y5", "twitter": "None", "instagram": "None", "facebook": "None", "youtube": "None", "website": "None", "summary": "None", "logo": "None", "latitude": 43.816179351116496, "longitude": -79.32523670206008}, "123613523RR0053": {"name": "CADETS DE L'AVIATION ROYALE DU CANADA - Escadron 772 Vanier", "designationCode": "C", "categoryCode": "29", "address": "574 ST-FRAN\u00c7OIS - XAVIER", "city": "TROIS-RIVI\u00c8RES", "province": "QC", "country": "CA", "postalCode": "G8A1R6", "twitter": "None", "instagram": "None", "facebook": "None", "youtube": "None", "website": "None", "summary": "None", "logo": "None", "latitude": 46.347729735789635, "longitude": -72.54194037174696}, "123613523RR0034": {"name": "CADETS DE L'AVIATION ROYALE DU CANADA - 14e Escadron", "designationCode": "C", "categoryCode": "29", "address": "5315 BOULEVARD ROYAL", "city": "SHAWINIGAN", "province": "QC", "country": "CA", "postalCode": "G9N8G6", "twitter": "None", "instagram": "None", "facebook": "None", "youtube": "None", "website": "None", "summary": "None", "logo": "None", "latitude": 46.57004714686336, "longitude": -72.72533616769537}, "118822410RR0001": {"name": "CADILLAC COMMUNITY HALL COMMITTEE", "designationCode": "C", "categoryCode": "56", "address": "BOX 37", "city": "CADILLAC", "province": "SK", "country": "CA", "postalCode": "S0N0K0", "twitter": "None", "instagram": "None", "facebook": "None", "youtube": "None", "website": "None", "summary": "None", "logo": "None", "latitude": 49.73336000000006, "longitude": -107.75133999999997}, "118822451RR0001": {"name": "CADURCIS UNITED CHURCH", "designationCode": "C", "categoryCode": "44", "address": "PO BOX 1274", "city": "MINNEDOSA", "province": "MB", "country": "CA", "postalCode": "R0J1E0", "twitter": "None", "instagram": "None", "facebook": "None", "youtube": "None", "website": "None", "summary": "None", "logo": "None", "latitude": 50.35204290882316, "longitude": -100.20187636199029}, "865755763RR0001": {"name": "CAESAREA CHRISTIAN FELLOWSHIP", "designationCode": "C", "categoryCode": "36", "address": "3625 REGIONAL ROAD 57", "city": "CAESAREA", "province": "ON", "country": "CA", "postalCode": "L0B1E0", "twitter": "None", "instagram": "None", "facebook": "None", "youtube": "None", "website": "None", "summary": "None", "logo": "None", "latitude": 44.158762011863786, "longitude": -78.83008342234315}, "800093759RR0001": {"name": "CAETANI CULTURAL CENTRE SOCIETY", "designationCode": "C", "categoryCode": "22", "address": "3401 PLEASANT VALLEY ROAD", "city": "VERNON", "province": "BC", "country": "CA", "postalCode": "V1T4L4", "twitter": "None", "instagram": "None", "facebook": "None", "youtube": "None", "website": "None", "summary": "None", "logo": "None", "latitude": 50.26706911962605, "longitude": -119.26231889459913}, "854100195RR0001": {"name": "CAF\u00c9 DE RUE TERREBONNE", "designationCode": "C", "categoryCode": "09", "address": "654 RUE SAINT-PIERRE", "city": "TERREBONNE", "province": "QC", "country": "CA", "postalCode": "J6W1C8", "twitter": "None", "instagram": "None", "facebook": "None", "youtube": "None", "website": "None", "summary": "None", "logo": "None", "latitude": 45.69308880599, "longitude": -73.6324085589763}}