{"855409934RR0001": {"name": "GRENFELL FOUNDATION INC.", "designationCode": "A", "categoryCode": "13", "address": "178 WEST STREET", "city": "ST ANTHONY", "province": "NL", "country": "CA", "postalCode": "A0K4S0", "twitter": "None", "instagram": "None", "facebook": "None", "youtube": "None", "website": "None", "summary": "None", "logo": "None", "latitude": 51.36211164155623, "longitude": -55.58456269767468}, "118947852RR0001": {"name": "GRENFELL FRIENDSHIP CLUB INC.", "designationCode": "C", "categoryCode": "09", "address": "1108 WOLSELEY AVE., BOX 98", "city": "GRENFELL", "province": "SK", "country": "CA", "postalCode": "S0G2B0", "twitter": "None", "instagram": "None", "facebook": "None", "youtube": "None", "website": "None", "summary": "None", "logo": "None", "latitude": 50.411463212841376, "longitude": -102.92917756244572}, "130978752RR0001": {"name": "GRENFELL MUSEUM ASSOCIATION", "designationCode": "C", "categoryCode": "50", "address": "BOX 1156", "city": "GRENFELL", "province": "SK", "country": "CA", "postalCode": "S0G2B0", "twitter": "None", "instagram": "None", "facebook": "None", "youtube": "None", "website": "None", "summary": "None", "logo": "None", "latitude": 50.411193000000054, "longitude": -102.92259049999993}, "118947902RR0001": {"name": "GRENFELL REVIVAL CENTRE", "designationCode": "C", "categoryCode": "36", "address": "BOX 853", "city": "GRENFELL", "province": "SK", "country": "CA", "postalCode": "S0G2B0", "twitter": "None", "instagram": "None", "facebook": "None", "youtube": "None", "website": "None", "summary": "None", "logo": "None", "latitude": 50.411193000000054, "longitude": -102.92259049999993}, "118947886RR0001": {"name": "GRENFELL UNITED CHURCH", "designationCode": "C", "categoryCode": "44", "address": "PO BOX 658                    513 ANDERSON STREET", "city": "GRENFELL", "province": "SK", "country": "CA", "postalCode": "S0G2B0", "twitter": "None", "instagram": "None", "facebook": "None", "youtube": "None", "website": "None", "summary": "None", "logo": "None", "latitude": 50.415276334385226, "longitude": -102.93003948887575}, "871120846RR0001": {"name": "GRENIER AUX TROUVAILLES (PARTAGE SANS FAIM)", "designationCode": "C", "categoryCode": "09", "address": "6 VAN VLIET", "city": "LACOLLE", "province": "QC", "country": "CA", "postalCode": "J0J1J0", "twitter": "None", "instagram": "None", "facebook": "None", "youtube": "None", "website": "None", "summary": "None", "logo": "None", "latitude": 45.08102251485943, "longitude": -73.37220244463037}, "128893062RR0001": {"name": "GRENIER D'APPRENTISSAGE JACQUES L. CHARBONNEAU", "designationCode": "C", "categoryCode": "11", "address": "477 BELANGER                  SECTEUR BUCKINGHAM", "city": "GATINEAU", "province": "QC", "country": "CA", "postalCode": "J8L2M3", "twitter": "None", "instagram": "None", "facebook": "None", "youtube": "None", "website": "None", "summary": "None", "logo": "None", "latitude": 45.58884900000005, "longitude": -75.41302399999994}, "894207968RR0001": {"name": "GRENIER POPULAIRE DES BASSES-LAURENTIDES", "designationCode": "C", "categoryCode": "09", "address": "217 RUE ST-LAURENT", "city": "SAINT-EUSTACHE", "province": "QC", "country": "CA", "postalCode": "J7P4W4", "twitter": "None", "instagram": "None", "facebook": "None", "youtube": "None", "website": "None", "summary": "None", "logo": "None", "latitude": 45.57453924040592, "longitude": -73.8769423634944}, "118947936RR0001": {"name": "GRENVILLE CHRISTIAN COLLEGE", "designationCode": "C", "categoryCode": "47", "address": "PO BOX 430", "city": "MAITLAND", "province": "ON", "country": "CA", "postalCode": "K0E1P0", "twitter": "None", "instagram": "None", "facebook": "None", "youtube": "None", "website": "None", "summary": "None", "logo": "None", "latitude": 44.639343438512455, "longitude": -75.61185487672552}, "118947944RR0001": {"name": "GRENVILLE COUNTY HISTORICAL SOCIETY", "designationCode": "C", "categoryCode": "52", "address": "BOX 982", "city": "PRESCOTT", "province": "ON", "country": "CA", "postalCode": "K0E1T0", "twitter": "None", "instagram": "None", "facebook": "None", "youtube": "None", "website": "None", "summary": "None", "logo": "None", "latitude": 44.72333933695445, "longitude": -75.52230856910072}, "118947951RR0001": {"name": "GRENVILLE UNITED CHURCH", "designationCode": "C", "categoryCode": "44", "address": "162 PRINCIPALE", "city": "GRENVILLE", "province": "QC", "country": "CA", "postalCode": "J0V1J0", "twitter": "None", "instagram": "None", "facebook": "None", "youtube": "None", "website": "None", "summary": "None", "logo": "None", "latitude": 45.63359931917598, "longitude": -74.59872253742313}, "122368590RR0001": {"name": "GRETNA PRAIRIE CENTRE INC.", "designationCode": "C", "categoryCode": "56", "address": "P/O BOX 58", "city": "GRETNA", "province": "MB", "country": "CA", "postalCode": "R0G0V0", "twitter": "None", "instagram": "None", "facebook": "None", "youtube": "None", "website": "None", "summary": "None", "logo": "None", "latitude": 49.007930000000044, "longitude": -97.56099999999998}, "118947977RR0001": {"name": "GRETTIR CO-OP INC.", "designationCode": "C", "categoryCode": "56", "address": "BOX 334", "city": "LUNDAR", "province": "MB", "country": "CA", "postalCode": "R0C1Y0", "twitter": "None", "instagram": "None", "facebook": "None", "youtube": "None", "website": "None", "summary": "None", "logo": "None", "latitude": 50.697610000000054, "longitude": -98.03051999999997}, "131892382RR0001": {"name": "GREVILLE BAY SHIPBUILDING MUSEUM SOCIETY", "designationCode": "C", "categoryCode": "50", "address": "RR 3", "city": "PARRSBORO", "province": "NS", "country": "CA", "postalCode": "B0M1S0", "twitter": "None", "instagram": "None", "facebook": "None", "youtube": "None", "website": "None", "summary": "None", "logo": "None", "latitude": 45.385971000000055, "longitude": -64.25530099999993}, "890221591RR0001": {"name": "GREY Bruce Animal Shelter", "designationCode": "C", "categoryCode": "54", "address": "PO BOX 442 STN MAIN", "city": "OWEN SOUND", "province": "ON", "country": "CA", "postalCode": "N4K5P7", "twitter": "None", "instagram": "None", "facebook": "None", "youtube": "None", "website": "None", "summary": "None", "logo": "None", "latitude": 44.56423500000005, "longitude": -80.94243049999993}, "863829602RR0001": {"name": "GREY BRUCE CHILDREN'S WATER EDUCATION COUNCIL", "designationCode": "C", "categoryCode": "21", "address": "PO BOX 961 STN MAIN", "city": "OWEN SOUND", "province": "ON", "country": "CA", "postalCode": "N4K6H6", "twitter": "None", "instagram": "None", "facebook": "None", "youtube": "None", "website": "None", "summary": "None", "logo": "None", "latitude": 44.56423500000005, "longitude": -80.94243049999993}, "108083551RR0001": {"name": "GREY BRUCE HEALTH SERVICES", "designationCode": "C", "categoryCode": "10", "address": "PO BOX 1800                   1800 8TH ST E", "city": "OWEN SOUND", "province": "ON", "country": "CA", "postalCode": "N4K6M9", "twitter": "None", "instagram": "None", "facebook": "None", "youtube": "None", "website": "None", "summary": "None", "logo": "None", "latitude": 44.56749430175947, "longitude": -80.91243194240572}, "865395792RR0001": {"name": "GREY BRUCE HEALTH SERVICES - MEAFORD AUXILIARY", "designationCode": "A", "categoryCode": "05", "address": "229 NELSON ST. W.", "city": "MEAFORD", "province": "ON", "country": "CA", "postalCode": "N4L1A3", "twitter": "None", "instagram": "None", "facebook": "None", "youtube": "None", "website": "None", "summary": "None", "logo": "None", "latitude": 44.606262172692375, "longitude": -80.60031621850545}, "129998100RR0001": {"name": "GREY BRUCE HEALTH SERVICES, OWEN SOUND AUXILIARY", "designationCode": "C", "categoryCode": "19", "address": "BOX 1800", "city": "OWEN SOUND", "province": "ON", "country": "CA", "postalCode": "N4K6M9", "twitter": "None", "instagram": "None", "facebook": "None", "youtube": "None", "website": "None", "summary": "None", "logo": "None", "latitude": 44.56750200000006, "longitude": -80.91208699999993}, "865630016RR0001": {"name": "GREY BRUCE HEALTH SERVICES, WIARTON AUXILIARY", "designationCode": "C", "categoryCode": "19", "address": "369 MARY STREET", "city": "WIARTON", "province": "ON", "country": "CA", "postalCode": "N0H2T0", "twitter": "None", "instagram": "None", "facebook": "None", "youtube": "None", "website": "None", "summary": "None", "logo": "None", "latitude": 44.73826417004344, "longitude": -81.13868001684517}, "861439636RR0001": {"name": "GREY BRUCE HEALTHCARE CHAPLAINCY COUNCIL", "designationCode": "C", "categoryCode": "45", "address": "P.O. BOX 1800                 1800 8TH STREET EAST", "city": "OWEN SOUND", "province": "ON", "country": "CA", "postalCode": "N4K6M9", "twitter": "None", "instagram": "None", "facebook": "None", "youtube": "None", "website": "None", "summary": "None", "logo": "None", "latitude": 44.56749430175947, "longitude": -80.91243194240572}, "872352562RR0001": {"name": "GREY BRUCE PALLIATIVE CARE-HOSPICE ASSOCIATION INC", "designationCode": "C", "categoryCode": "11", "address": "368 10TH ST E", "city": "OWEN SOUND", "province": "ON", "country": "CA", "postalCode": "N4K1S6", "twitter": "None", "instagram": "None", "facebook": "None", "youtube": "None", "website": "None", "summary": "None", "logo": "None", "latitude": 44.56810544214888, "longitude": -80.94022456134222}, "118948017RR0001": {"name": "GREY COUNTY HISTORICAL SOCIETY", "designationCode": "C", "categoryCode": "50", "address": "102599 GREY ROAD 18", "city": "OWEN SOUND", "province": "ON", "country": "CA", "postalCode": "N4K5N6", "twitter": "None", "instagram": "None", "facebook": "None", "youtube": "None", "website": "None", "summary": "None", "logo": "None", "latitude": 44.55869100000005, "longitude": -80.92581649999994}, "118948025RR0001": {"name": "GREY COUNTY KIWANIS FESTIVAL OF MUSIC", "designationCode": "C", "categoryCode": "22", "address": "BOX 456", "city": "OWEN SOUND", "province": "ON", "country": "CA", "postalCode": "N4K5P7", "twitter": "None", "instagram": "None", "facebook": "None", "youtube": "None", "website": "None", "summary": "None", "logo": "None", "latitude": 44.56423500000005, "longitude": -80.94243049999993}, "893004168RR0001": {"name": "GREY COUNTY REGIONAL SCIENCE FAIR", "designationCode": "C", "categoryCode": "21", "address": "BOX 2164                      14 BILL STREET", "city": "WALKERTON", "province": "ON", "country": "CA", "postalCode": "N0G2V0", "twitter": "None", "instagram": "None", "facebook": "None", "youtube": "None", "website": "None", "summary": "None", "logo": "None", "latitude": 44.11794030783633, "longitude": -81.15539605274388}, "865250336RR0001": {"name": "GREY COUNTY 4-H LEADERS' ASSOCIATION", "designationCode": "C", "categoryCode": "29", "address": "136934 GREY ROAD 12", "city": "MEAFORD", "province": "ON", "country": "CA", "postalCode": "N4L1W6", "twitter": "None", "instagram": "None", "facebook": "None", "youtube": "None", "website": "None", "summary": "None", "logo": "None", "latitude": 44.50986600000006, "longitude": -80.63805949999994}, "899773600RR0001": {"name": "GREY HIGHLANDS PUBLIC LIBRARY", "designationCode": "C", "categoryCode": "50", "address": "101 HIGHLAND DR. BOX 280", "city": "FLESHERTON", "province": "ON", "country": "CA", "postalCode": "N0C1E0", "twitter": "None", "instagram": "None", "facebook": "None", "youtube": "None", "website": "None", "summary": "None", "logo": "None", "latitude": 44.256583257285484, "longitude": -80.65458654356863}, "132097189RR0001": {"name": "GREY MOUNTAIN HOUSING SOCIETY", "designationCode": "C", "categoryCode": "09", "address": "B - 509 STRICKLAND ST", "city": "WHITEHORSE", "province": "YT", "country": "CA", "postalCode": "Y1A2K5", "twitter": "None", "instagram": "None", "facebook": "None", "youtube": "None", "website": "None", "summary": "None", "logo": "None", "latitude": 60.721331627243444, "longitude": -135.0622493860581}, "899732341RR0001": {"name": "GREY OWL POST-PSYCHIATRIC CO-OP CENTRE INC", "designationCode": "C", "categoryCode": "10", "address": "1036 LOUISE AVENUE", "city": "BRANDON", "province": "MB", "country": "CA", "postalCode": "R7A0Y1", "twitter": "None", "instagram": "None", "facebook": "None", "youtube": "None", "website": "None", "summary": "None", "logo": "None", "latitude": 49.84374150678067, "longitude": -99.9523935}, "107452641RR0001": {"name": "GREY SAUBLE CONSERVATION AUTHORITY", "designationCode": "C", "categoryCode": "52", "address": "RR4", "city": "OWEN SOUND", "province": "ON", "country": "CA", "postalCode": "N4K5N6", "twitter": "None", "instagram": "None", "facebook": "None", "youtube": "None", "website": "None", "summary": "None", "logo": "None", "latitude": 44.55869100000005, "longitude": -80.92581649999994}, "140103326RR0001": {"name": "GREY SAUBLE CONSERVATION FOUNDATION", "designationCode": "C", "categoryCode": "52", "address": "RR#4", "city": "OWEN SOUND", "province": "ON", "country": "CA", "postalCode": "N4K5N6", "twitter": "None", "instagram": "None", "facebook": "None", "youtube": "None", "website": "None", "summary": "None", "logo": "None", "latitude": 44.55869100000005, "longitude": -80.92581649999994}, "118948074RR0001": {"name": "GREY SISTERS OF THE IMMACULATE CONCEPTION", "designationCode": "C", "categoryCode": "46", "address": "700 MACKAY ST", "city": "PEMBROKE", "province": "ON", "country": "CA", "postalCode": "K8A1G6", "twitter": "None", "instagram": "None", "facebook": "None", "youtube": "None", "website": "None", "summary": "None", "logo": "None", "latitude": 45.81455873546046, "longitude": -77.10831354173837}, "118948082RR0001": {"name": "GREY STREET UNITED CHURCH", "designationCode": "C", "categoryCode": "44", "address": "651 SANDHURST AVE", "city": "WINNIPEG", "province": "MB", "country": "CA", "postalCode": "R2L1B1", "twitter": "None", "instagram": "None", "facebook": "None", "youtube": "None", "website": "None", "summary": "None", "logo": "None", "latitude": 49.90688435111648, "longitude": -97.09192769149985}, "880773627RR0001": {"name": "GREY'S ISLAND CEMETERY INCORPORATED", "designationCode": "C", "categoryCode": "59", "address": "3189 ROUTE 114", "city": "EDGETTS LANDING", "province": "NB", "country": "CA", "postalCode": "E4H2E8", "twitter": "None", "instagram": "None", "facebook": "None", "youtube": "None", "website": "None", "summary": "None", "logo": "None", "latitude": 45.897388278053576, "longitude": -64.6284064641638}, "898953419RR0001": {"name": "GREYHAVEN EXOTIC BIRD SANCTUARY", "designationCode": "C", "categoryCode": "54", "address": "BOX 441, 800-15355 24TH AVE.", "city": "SURREY", "province": "BC", "country": "CA", "postalCode": "V4A2H9", "twitter": "None", "instagram": "None", "facebook": "None", "youtube": "None", "website": "None", "summary": "None", "logo": "None", "latitude": 49.045670474897484, "longitude": -122.79749302553523}, "802118075RR0001": {"name": "GREYHOUND FRIENDS OF NOVA SCOTIA SOCIETY (GFONS)", "designationCode": "C", "categoryCode": "54", "address": "6 NELSON AVE", "city": "HALIFAX", "province": "NS", "country": "CA", "postalCode": "B3P1V8", "twitter": "None", "instagram": "None", "facebook": "None", "youtube": "None", "website": "None", "summary": "None", "logo": "None", "latitude": 44.61856518567147, "longitude": -63.61117007510512}, "876574823RR0001": {"name": "GREYHOUND LOVERS OF HAMILTON-WENTWORTH (G L O H W)", "designationCode": "C", "categoryCode": "54", "address": "P.O. BOX 32192                STONECHURCH POSTAL OUTLET", "city": "HAMILTON", "province": "ON", "country": "CA", "postalCode": "L8W3L3", "twitter": "None", "instagram": "None", "facebook": "None", "youtube": "None", "website": "None", "summary": "None", "logo": "None", "latitude": 43.19493900000006, "longitude": -79.84065499999993}, "866950892RR0001": {"name": "GREYHOUND PETS OF ATLANTIC CANADA SOCIETY", "designationCode": "C", "categoryCode": "54", "address": "343 WEST PETPESWICK RD", "city": "MUSQUODOBOIT HARBOUR", "province": "NS", "country": "CA", "postalCode": "B0J2L0", "twitter": "None", "instagram": "None", "facebook": "None", "youtube": "None", "website": "None", "summary": "None", "logo": "None", "latitude": 44.76982662392521, "longitude": -63.15992574208028}, "866910011RR0001": {"name": "GREYHOUNDS IN NEED OF ADOPTION", "designationCode": "C", "categoryCode": "54", "address": "37 WATSON CRES", "city": "AYR", "province": "ON", "country": "CA", "postalCode": "N0B1E0", "twitter": "None", "instagram": "None", "facebook": "None", "youtube": "None", "website": "None", "summary": "None", "logo": "None", "latitude": 43.27843426397923, "longitude": -80.44394510964271}, "878891498RR0001": {"name": "GREYSTONE'S SUNSHINE CORNER PRESCHOOL & SCHOOL AGE PROGRAMS, INC.", "designationCode": "C", "categoryCode": "20", "address": "2721 MAIN ST #11              GREYSTONE SCHOOL", "city": "SASKATOON", "province": "SK", "country": "CA", "postalCode": "S7H0M2", "twitter": "None", "instagram": "None", "facebook": "None", "youtube": "None", "website": "None", "summary": "None", "logo": "None", "latitude": 52.118883530439966, "longitude": -106.61302252553523}, "898498142RR0001": {"name": "GRIEVING CHILDREN AT SEASONS CENTRE", "designationCode": "C", "categoryCode": "09", "address": "38 MCDONALD ST", "city": "BARRIE", "province": "ON", "country": "CA", "postalCode": "L4M1P1", "twitter": "None", "instagram": "None", "facebook": "None", "youtube": "None", "website": "None", "summary": "None", "logo": "None", "latitude": 44.39263246378898, "longitude": -79.68880375145709}, "107528879RR0001": {"name": "GRIFFIN CENTRE MENTAL HEALTH SERVICES", "designationCode": "C", "categoryCode": "09", "address": "1126 FINCH AVE. WEST, UNIT 16", "city": "TORONTO", "province": "ON", "country": "CA", "postalCode": "M3J3J6", "twitter": "None", "instagram": "None", "facebook": "None", "youtube": "None", "website": "None", "summary": "None", "logo": "None", "latitude": 43.76692608133753, "longitude": -79.4757302647873}, "136729670RR0001": {"name": "GRIMSBY AUXILIARY MARINE RESCUE UNIT", "designationCode": "C", "categoryCode": "59", "address": "PO BOX 133 STN MAIN", "city": "GRIMSBY", "province": "ON", "country": "CA", "postalCode": "L3M4G6", "twitter": "None", "instagram": "None", "facebook": "None", "youtube": "None", "website": "None", "summary": "None", "logo": "None", "latitude": 43.19482524483205, "longitude": -79.59732593798451}, "108083585RR0001": {"name": "GRIMSBY CO-OPERATIVE PRE-SCHOOL INC.", "designationCode": "C", "categoryCode": "01", "address": "7 ST ANDREWS AVENUE", "city": "GRIMSBY", "province": "ON", "country": "CA", "postalCode": "L3M3R9", "twitter": "None", "instagram": "None", "facebook": "None", "youtube": "None", "website": "None", "summary": "None", "logo": "None", "latitude": 43.193974735501165, "longitude": -79.56929626966338}, "119288918RR0136": {"name": "GRIMSBY CONGREGATION OF JEHOVAH'S WITNESSES,", "designationCode": "C", "categoryCode": "61", "address": "78 DEBORA DR", "city": "GRIMSBY", "province": "ON", "country": "CA", "postalCode": "L3M4J3", "twitter": "None", "instagram": "None", "facebook": "None", "youtube": "None", "website": "None", "summary": "None", "logo": "None", "latitude": 43.19400617626508, "longitude": -79.5514860478678}, "860835503RR0001": {"name": "GRIMSBY CONSERVATION CLUB INC.", "designationCode": "C", "categoryCode": "59", "address": "37 OLD ORCHARD AVENUE", "city": "GRIMSBY", "province": "ON", "country": "CA", "postalCode": "L3M3H9", "twitter": "None", "instagram": "None", "facebook": "None", "youtube": "None", "website": "None", "summary": "None", "logo": "None", "latitude": 43.20451779017829, "longitude": -79.55531258064504}, "891075723RR0001": {"name": "GRIMSBY HISTORICAL SOCIETY", "designationCode": "C", "categoryCode": "50", "address": "202 RIDGE ROAD WEST RR#1", "city": "GRIMSBY", "province": "ON", "country": "CA", "postalCode": "L3M4E7", "twitter": "None", "instagram": "None", "facebook": "None", "youtube": "None", "website": "None", "summary": "None", "logo": "None", "latitude": 43.18672418016022, "longitude": -79.58070450109652}, "118948173RR0001": {"name": "GRIMSBY PUBLIC LIBRARY BOARD", "designationCode": "C", "categoryCode": "50", "address": "18 CARNEGIE LANE", "city": "GRIMSBY", "province": "ON", "country": "CA", "postalCode": "L3M1Y1", "twitter": "None", "instagram": "None", "facebook": "None", "youtube": "None", "website": "None", "summary": "None", "logo": "None", "latitude": 43.19572423754998, "longitude": -79.55913408024101}, "898809611RR0001": {"name": "GRIMSHAW GRAVELS AQUIFER MANAGEMENT ADVISORY ASSOCIATION", "designationCode": "C", "categoryCode": "59", "address": "BOX 34", "city": "BERWYN", "province": "AB", "country": "CA", "postalCode": "T0H0E0", "twitter": "None", "instagram": "None", "facebook": "None", "youtube": "None", "website": "None", "summary": "None", "logo": "None", "latitude": 56.148250000000075, "longitude": -117.72161999999997}, "869597930RR0001": {"name": "GRIMSHAW/BERWYN & DISTRICT HOSPITAL FOUNDATION", "designationCode": "C", "categoryCode": "11", "address": "P.O. BOX 473", "city": "BERWYN", "province": "AB", "country": "CA", "postalCode": "T0H0E0", "twitter": "None", "instagram": "None", "facebook": "None", "youtube": "None", "website": "None", "summary": "None", "logo": "None", "latitude": 56.148250000000075, "longitude": -117.72161999999997}, "118948207RR0001": {"name": "GRINDROD GOSPEL CHURCH", "designationCode": "C", "categoryCode": "39", "address": "PO BOX 244", "city": "GRINDROD", "province": "BC", "country": "CA", "postalCode": "V0E1Y0", "twitter": "None", "instagram": "None", "facebook": "None", "youtube": "None", "website": "None", "summary": "None", "logo": "None", "latitude": 50.62721000000005, "longitude": -119.12051999999994}, "871225546RR0001": {"name": "GRINDSTONE VALLEY BIBLE CHURCH", "designationCode": "C", "categoryCode": "39", "address": "PO BOX 1408", "city": "WATERDOWN", "province": "ON", "country": "CA", "postalCode": "L0R2H0", "twitter": "None", "instagram": "None", "facebook": "None", "youtube": "None", "website": "None", "summary": "None", "logo": "None", "latitude": 43.329109500000015, "longitude": -79.8842655}, "881416119RR0001": {"name": "GRIP MONTREAL", "designationCode": "C", "categoryCode": "11", "address": "2700 RACHEL EST, BUREAU 200,  LOCAL 1", "city": "MONTR\u00c9AL", "province": "QC", "country": "CA", "postalCode": "H2H1S7", "twitter": "None", "instagram": "None", "facebook": "None", "youtube": "None", "website": "None", "summary": "None", "logo": "None", "latitude": 45.538666041346936, "longitude": -73.56184860225646}, "137518502RR0001": {"name": "GRIPS-GARBAGE RECYCLING IN PENDER SOCIETY", "designationCode": "C", "categoryCode": "59", "address": "BOX 317", "city": "MADEIRA PARK", "province": "BC", "country": "CA", "postalCode": "V0N2H0", "twitter": "None", "instagram": "None", "facebook": "None", "youtube": "None", "website": "None", "summary": "None", "logo": "None", "latitude": 49.61982063633974, "longitude": -124.0231710391864}, "118948223RR0001": {"name": "GRISWOLD UNITED CHURCH", "designationCode": "C", "categoryCode": "44", "address": "BOX 41", "city": "GRISWOLD", "province": "MB", "country": "CA", "postalCode": "R0M0S0", "twitter": "None", "instagram": "None", "facebook": "None", "youtube": "None", "website": "None", "summary": "None", "logo": "None", "latitude": 49.77679000000006, "longitude": -100.47197999999997}, "801063702RR0001": {"name": "GRK Family Foundation Inc.", "designationCode": "A", "categoryCode": "03", "address": "103 WILLOUGHBY CRESC", "city": "SASKATOON", "province": "SK", "country": "CA", "postalCode": "S7H4W6", "twitter": "None", "instagram": "None", "facebook": "None", "youtube": "None", "website": "None", "summary": "None", "logo": "None", "latitude": 52.11047453952926, "longitude": -106.59111291618096}, "870603339RR0001": {"name": "GROCERY INDUSTRY FOUNDATION ATLANTIC INCORPORATED", "designationCode": "A", "categoryCode": "03", "address": "23 FOORD STREET", "city": "STELLARTON", "province": "NS", "country": "CA", "postalCode": "B0K1S0", "twitter": "None", "instagram": "None", "facebook": "None", "youtube": "None", "website": "None", "summary": "None", "logo": "None", "latitude": 45.568452887414765, "longitude": -62.659385876034854}, "135939718RR0001": {"name": "GROS MORNE COOPERATING ASSOCIATION INC", "designationCode": "C", "categoryCode": "56", "address": "P O BOX 130", "city": "ROCKY HARBOUR", "province": "NL", "country": "CA", "postalCode": "A0K4N0", "twitter": "None", "instagram": "None", "facebook": "None", "youtube": "None", "website": "None", "summary": "None", "logo": "None", "latitude": 49.59388000000007, "longitude": -57.912769999999966}, "833880347RR0001": {"name": "GROS MORNE INSTITUTE FOR SUSTAINABLE TOURISM INC.", "designationCode": "C", "categoryCode": "21", "address": "PO BOX 130", "city": "ROCKY HARBOUR", "province": "NL", "country": "CA", "postalCode": "A0K4N0", "twitter": "None", "instagram": "None", "facebook": "None", "youtube": "None", "website": "None", "summary": "None", "logo": "None", "latitude": 49.59388000000007, "longitude": -57.912769999999966}, "118948249RR0001": {"name": "GROSSE ISLE MEMORIAL PARK RECREATION CLUB INC", "designationCode": "C", "categoryCode": "56", "address": "POST OFFICE BOX 74", "city": "GROSSE ISLE", "province": "MB", "country": "CA", "postalCode": "R0C1G0", "twitter": "None", "instagram": "None", "facebook": "None", "youtube": "None", "website": "None", "summary": "None", "logo": "None", "latitude": 50.06295000000006, "longitude": -97.44037999999995}, "132314543RR0001": {"name": "GROSSESSE-SECOURS INC", "designationCode": "C", "categoryCode": "09", "address": "79 BEAUBIEN EST", "city": "MONTREAL", "province": "QC", "country": "CA", "postalCode": "H2S1R1", "twitter": "None", "instagram": "None", "facebook": "None", "youtube": "None", "website": "None", "summary": "None", "logo": "None", "latitude": 45.5311987640948, "longitude": -73.60760399114186}, "118948298RR0001": {"name": "GROSVENOR PARK UNITED CHURCH", "designationCode": "C", "categoryCode": "44", "address": "407 CUMBERLAND AVENUE SOUTH", "city": "SASKATOON", "province": "SK", "country": "CA", "postalCode": "S7H2L3", "twitter": "None", "instagram": "None", "facebook": "None", "youtube": "None", "website": "None", "summary": "None", "logo": "None", "latitude": 52.12143900000001, "longitude": -106.63463726501844}, "876752726RR0001": {"name": "GROSVENOR-WENTWORTH PARK SCHOOL PARENT TEACHER GROUP", "designationCode": "C", "categoryCode": "21", "address": "4 DOWNING ST", "city": "HALIFAX", "province": "NS", "country": "CA", "postalCode": "B3M2G4", "twitter": "None", "instagram": "None", "facebook": "None", "youtube": "None", "website": "None", "summary": "None", "logo": "None", "latitude": 44.68564610886331, "longitude": -63.668568671734754}, "866751944RR0001": {"name": "GROUARD-PEACE RIVER TRAIL NET SOCIETY", "designationCode": "C", "categoryCode": "56", "address": "BOX 1426", "city": "HIGH PRAIRIE", "province": "AB", "country": "CA", "postalCode": "T0G1E0", "twitter": "None", "instagram": "None", "facebook": "None", "youtube": "None", "website": "None", "summary": "None", "logo": "None", "latitude": 55.43123005496565, "longitude": -116.49809993060764}, "118948322RR0001": {"name": "GROUND ZERO PRODUCTIONS", "designationCode": "C", "categoryCode": "22", "address": "PO BOX 57065 RPO JASPER GATE", "city": "EDMONTON", "province": "AB", "country": "CA", "postalCode": "T5P0K7", "twitter": "None", "instagram": "None", "facebook": "None", "youtube": "None", "website": "None", "summary": "None", "logo": "None", "latitude": 53.54393100000006, "longitude": -113.59685149999993}, "876243882RR0002": {"name": "GROUND ZERO THEATRE SOCIETY", "designationCode": "C", "categoryCode": "22", "address": "226 COVEWOOD CLOSE NE", "city": "CALGARY", "province": "AB", "country": "CA", "postalCode": "T3K5A1", "twitter": "None", "instagram": "None", "facebook": "None", "youtube": "None", "website": "None", "summary": "None", "logo": "None", "latitude": 51.16743340631323, "longitude": -114.04165645354584}, "131668816RR0001": {"name": "GROUNDSWELL INC.", "designationCode": "C", "categoryCode": "22", "address": "501-100 ARTHUR STREET", "city": "WINNIPEG", "province": "MB", "country": "CA", "postalCode": "R3B1H3", "twitter": "None", "instagram": "None", "facebook": "None", "youtube": "None", "website": "None", "summary": "None", "logo": "None", "latitude": 49.897593000000015, "longitude": -97.1406225}, "107454092RR0001": {"name": "GROUP FOR YIDDISH HERITAGE", "designationCode": "C", "categoryCode": "20", "address": "109-1075 ANDREWS STREET", "city": "WINNIPEG", "province": "MB", "country": "CA", "postalCode": "R2V3J1", "twitter": "None", "instagram": "None", "facebook": "None", "youtube": "None", "website": "None", "summary": "None", "logo": "None", "latitude": 49.94136047523643, "longitude": -97.12695442756224}, "141057828RR0001": {"name": "GROUP GROUP YOUTH SOCIETY OF PINCHER CREEK", "designationCode": "C", "categoryCode": "56", "address": "P.O.BOX 2624", "city": "PINCHER CREEK", "province": "AB", "country": "CA", "postalCode": "T0K1W0", "twitter": "None", "instagram": "None", "facebook": "None", "youtube": "None", "website": "None", "summary": "None", "logo": "None", "latitude": 49.48739000000006, "longitude": -113.9366800732874}, "868754458RR0001": {"name": "GROUP HEALTH CENTRE SCHOLARSHIP ENDOWMENT FUND", "designationCode": "C", "categoryCode": "21", "address": "240 MCNABB STREET", "city": "SAULT STE. MARIE", "province": "ON", "country": "CA", "postalCode": "P6B1Y5", "twitter": "None", "instagram": "None", "facebook": "None", "youtube": "None", "website": "None", "summary": "None", "logo": "None", "latitude": 46.521814533758196, "longitude": -84.31591147446477}, "107454118RR0001": {"name": "GROUP HOME FOR DEAF-BLIND PERSONS (BRANTFORD) INC.", "designationCode": "C", "categoryCode": "01", "address": "170 HENRY ST", "city": "BRANTFORD", "province": "ON", "country": "CA", "postalCode": "N3S5C7", "twitter": "None", "instagram": "None", "facebook": "None", "youtube": "None", "website": "None", "summary": "None", "logo": "None", "latitude": 43.15448570601349, "longitude": -80.24307568898968}, "833718356RR0001": {"name": "GROUP OF TWENTY-SEVEN ARTS ENSEMBLE", "designationCode": "C", "categoryCode": "22", "address": "783 BATHHURST, 230", "city": "TORONTO", "province": "ON", "country": "CA", "postalCode": "M5S0A8", "twitter": "None", "instagram": "None", "facebook": "None", "youtube": "None", "website": "None", "summary": "None", "logo": "None", "latitude": 43.664353061342226, "longitude": -79.41084659559137}, "878022763RR0002": {"name": "GROUP SCOUT DE BELLEFEUILLE (DISTRICT DE ST-J\u00c9R\u00d4ME) INC.", "designationCode": "C", "categoryCode": "29", "address": "1037, RUE SAINTE-MARIE", "city": "SAINT-JEROME", "province": "QC", "country": "CA", "postalCode": "J5L1M4", "twitter": "None", "instagram": "None", "facebook": "None", "youtube": "None", "website": "None", "summary": "None", "logo": "None", "latitude": 45.78052957170092, "longitude": -74.08484698251486}, "140183039RR0001": {"name": "GROUPE ACTION NOUVELLE VIE", "designationCode": "C", "categoryCode": "09", "address": "740 ST-CHARLES EST", "city": "LONGUEUIL", "province": "QC", "country": "CA", "postalCode": "J4H1C2", "twitter": "None", "instagram": "None", "facebook": "None", "youtube": "None", "website": "None", "summary": "None", "logo": "None", "latitude": 45.54919494252425, "longitude": -73.50042520324351}, "107453417RR0001": {"name": "GROUPE ACTION POUR L'ENFANT, LA FAMILLE ET LA COMMUNAUTE DE PRESCOTT-RUSSELL", "designationCode": "C", "categoryCode": "09", "address": "250 MAIN ST E                 SUITE 210", "city": "HAWKESBURY", "province": "ON", "country": "CA", "postalCode": "K6A1A5", "twitter": "None", "instagram": "None", "facebook": "None", "youtube": "None", "website": "None", "summary": "None", "logo": "None", "latitude": 45.609865938501436, "longitude": -74.60827572769666}, "891829855RR0001": {"name": "GROUPE ACTION-JEUNESSE DE CHARLEVOIX", "designationCode": "C", "categoryCode": "09", "address": "40, RUE PATRICK-MORGAN", "city": "LA MALBAIE", "province": "QC", "country": "CA", "postalCode": "G5A1T1", "twitter": "None", "instagram": "None", "facebook": "None", "youtube": "None", "website": "None", "summary": "None", "logo": "None", "latitude": 47.65567647628245, "longitude": -70.15283169568345}, "893047654RR0001": {"name": "GROUPE AIDE AUX ENFANTS TYROSINEMIQUES DU QUEBEC", "designationCode": "C", "categoryCode": "09", "address": "3162, RUE GRANVILLE", "city": "JONQUIERE", "province": "QC", "country": "CA", "postalCode": "G7S2B9", "twitter": "None", "instagram": "None", "facebook": "None", "youtube": "None", "website": "None", "summary": "None", "logo": "None", "latitude": 48.42442237275657, "longitude": -71.20352784901036}, "120514583RR0001": {"name": "GROUPE AIDE-ACTION ST-HONORE", "designationCode": "C", "categoryCode": "09", "address": "170 RUE PAUL-AIM\u00c9-HUDON", "city": "SAINT-HONOR\u00c9", "province": "QC", "country": "CA", "postalCode": "G0V1L0", "twitter": "None", "instagram": "None", "facebook": "None", "youtube": "None", "website": "None", "summary": "None", "logo": "None", "latitude": 48.535242600611696, "longitude": -71.08300283971953}, "895918944RR0001": {"name": "GROUPE ALPHA DES ETCHEMINS", "designationCode": "C", "categoryCode": "21", "address": "212E 2E AV", "city": "LAC-ETCHEMIN", "province": "QC", "country": "CA", "postalCode": "G0R1S0", "twitter": "None", "instagram": "None", "facebook": "None", "youtube": "None", "website": "None", "summary": "None", "logo": "None", "latitude": 46.3967730584298, "longitude": -70.50539296023217}, "869176420RR0001": {"name": "GROUPE AMORCE", "designationCode": "C", "categoryCode": "11", "address": "8634 RUE HOCHELAGA", "city": "MONTREAL", "province": "QC", "country": "CA", "postalCode": "H1L2M4", "twitter": "None", "instagram": "None", "facebook": "None", "youtube": "None", "website": "None", "summary": "None", "logo": "None", "latitude": 45.60057827754058, "longitude": -73.52033194835263}, "874955321RR0001": {"name": "GROUPE ARTISANAL FEMININ FRANCOPHONE DE L'ONTARIO INC", "designationCode": "C", "categoryCode": "59", "address": "OFFICE - 2190 ELLESMERE RD", "city": "SCARBOROUGH", "province": "ON", "country": "CA", "postalCode": "M1G3M5", "twitter": "None", "instagram": "None", "facebook": "None", "youtube": "None", "website": "None", "summary": "None", "logo": "None", "latitude": 43.77694315967397, "longitude": -79.22958857608606}, "120815345RR0001": {"name": "GROUPE BENEVOLE DE CABANO INC", "designationCode": "C", "categoryCode": "09", "address": "1088 CHEMIN DU GOLF", "city": "TEMISCOUATA-SUR-LE-LAC", "province": "QC", "country": "CA", "postalCode": "G0L1E0", "twitter": "None", "instagram": "None", "facebook": "None", "youtube": "None", "website": "None", "summary": "None", "logo": "None", "latitude": 47.68186943104038, "longitude": -68.91137935053956}, "118948363RR0001": {"name": "GROUPE BIBLIQUE DE LA RIVE SUD", "designationCode": "C", "categoryCode": "39", "address": "530 RUE ST-JEAN", "city": "LONGUEUIL", "province": "QC", "country": "CA", "postalCode": "J4H2Y4", "twitter": "None", "instagram": "None", "facebook": "None", "youtube": "None", "website": "None", "summary": "None", "logo": "None", "latitude": 45.53448038161471, "longitude": -73.50497352943036}, "886919992RR0001": {"name": "GROUPE BIBLIQUE DU RICHELIEU INC.", "designationCode": "C", "categoryCode": "47", "address": "567, RUE IBERVILLE", "city": "BELOEIL", "province": "QC", "country": "CA", "postalCode": "J3G2N7", "twitter": "None", "instagram": "None", "facebook": "None", "youtube": "None", "website": "None", "summary": "None", "logo": "None", "latitude": 45.56976466501234, "longitude": -73.21197519995395}, "107453474RR0001": {"name": "GROUPE CENTRE-LAC D'ALMA", "designationCode": "C", "categoryCode": "01", "address": "285, BOUL. EYMARD NORD", "city": "ALMA", "province": "QC", "country": "CA", "postalCode": "G8B5J3", "twitter": "None", "instagram": "None", "facebook": "None", "youtube": "None", "website": "None", "summary": "None", "logo": "None", "latitude": 48.55531649847078, "longitude": -71.64474818705645}, "889188728RR0001": {"name": "GROUPE COMMUNAUTAIRE DESCHENES", "designationCode": "C", "categoryCode": "09", "address": "55 CHEMIN VANIER", "city": "GATINEAU", "province": "QC", "country": "CA", "postalCode": "J9H1X5", "twitter": "None", "instagram": "None", "facebook": "None", "youtube": "None", "website": "None", "summary": "None", "logo": "None", "latitude": 45.38355512683941, "longitude": -75.80479165456765}, "892636135RR0001": {"name": "GROUPE D'ACCOMPAGNEMENT JONATHAN INC", "designationCode": "C", "categoryCode": "09", "address": "C.P.963", "city": "SAINTE-MARIE", "province": "QC", "country": "CA", "postalCode": "G6E3C2", "twitter": "None", "instagram": "None", "facebook": "None", "youtube": "None", "website": "None", "summary": "None", "logo": "None", "latitude": 46.46906700000005, "longitude": -71.03760199999994}, "107453482RR0001": {"name": "GROUPE D'ACTION COMMUNAUTAIRE DE FALARDEAU INC.", "designationCode": "C", "categoryCode": "09", "address": "169 BOUL SAINT-DAVID", "city": "FALARDEAU", "province": "QC", "country": "CA", "postalCode": "G0V1C0", "twitter": "None", "instagram": "None", "facebook": "None", "youtube": "None", "website": "None", "summary": "None", "logo": "None", "latitude": 48.621472890624915, "longitude": -71.11235008490205}, "135670867RR0001": {"name": "GROUPE D'ACTION COMMUNAUTAIRE DE L'A.P.R.S. INC.", "designationCode": "C", "categoryCode": "09", "address": "162 C, ROUTE 170", "city": "L'ANSE ST-JEAN", "province": "QC", "country": "CA", "postalCode": "G0V1J0", "twitter": "None", "instagram": "None", "facebook": "None", "youtube": "None", "website": "None", "summary": "None", "logo": "None", "latitude": 48.196852197538114, "longitude": -70.24644599913542}, "897230546RR0001": {"name": "GROUPE D'ACTION DES LECTEURS DU LIVRE D'URANTIA DU QUEBEC", "designationCode": "C", "categoryCode": "47", "address": "4470 MOREAU", "city": "SHERBROOKE", "province": "QC", "country": "CA", "postalCode": "J1L1V2", "twitter": "None", "instagram": "None", "facebook": "None", "youtube": "None", "website": "None", "summary": "None", "logo": "None", "latitude": 45.386181525102536, "longitude": -71.9749802514571}, "135240679RR0001": {"name": "GROUPE D'ACTION ET D'INTERVENTION EN DEVELOPPEMENT DE L'EMPLOYABILITE (G.A.I.D.E.)", "designationCode": "C", "categoryCode": "59", "address": "125 BOUL LORD", "city": "GRANBY", "province": "QC", "country": "CA", "postalCode": "J2G5K1", "twitter": "None", "instagram": "None", "facebook": "None", "youtube": "None", "website": "None", "summary": "None", "logo": "None", "latitude": 45.404677404379996, "longitude": -72.73007028486951}, "133214528RR0001": {"name": "GROUPE D'ACTION POUR LA PREVENTION DE LA TRANSMISSION DU VIHET L'ERADICATION DU SIDA (GAP-VIES)", "designationCode": "C", "categoryCode": "11", "address": "3330 RUE JARRY E", "city": "MONTREAL", "province": "QC", "country": "CA", "postalCode": "H1Z2E8", "twitter": "None", "instagram": "None", "facebook": "None", "youtube": "None", "website": "None", "summary": "None", "logo": "None", "latitude": 45.56487629418902, "longitude": -73.60854884843344}, "139682108RR0001": {"name": "GROUPE D'ACTION SOCIALE ET PSYCHIATRIQUE DES MONTS INC.", "designationCode": "C", "categoryCode": "01", "address": "230  ROUTE DU PARC            SUITE RB-012", "city": "STE-ANNE-DES-MONTS", "province": "QC", "country": "CA", "postalCode": "G4V2C4", "twitter": "None", "instagram": "None", "facebook": "None", "youtube": "None", "website": "None", "summary": "None", "logo": "None", "latitude": 49.11972667502432, "longitude": -66.47925420584059}, "127776235RR0001": {"name": "GROUPE D'ACTION SUR LE POIDS EQUILIBRE", "designationCode": "C", "categoryCode": "09", "address": "7200 RUE HUTCHISON, BUREAU 304", "city": "MONTREAL", "province": "QC", "country": "CA", "postalCode": "H3N1Z2", "twitter": "None", "instagram": "None", "facebook": "None", "youtube": "None", "website": "None", "summary": "None", "logo": "None", "latitude": 45.52983005355194, "longitude": -73.62338057314321}, "132872094RR0001": {"name": "GROUPE D'ACTIONS COMMUNAUTAIRES DE SANTE BENEVOLE (G A C S B ) INC", "designationCode": "C", "categoryCode": "09", "address": "4-461 ROUTE 381", "city": "FERLAND-ET-BOILEAU", "province": "QC", "country": "CA", "postalCode": "G0V1H0", "twitter": "None", "instagram": "None", "facebook": "None", "youtube": "None", "website": "None", "summary": "None", "logo": "None", "latitude": 48.18166872935919, "longitude": -70.8460056507239}, "118948413RR0001": {"name": "GROUPE D'AIDE ET D'INFORMATION SUR LE HARCELEMENT SEXUEL AU TRAVAIL DE LA PROVINCE DE QUEBEC INC.", "designationCode": "C", "categoryCode": "59", "address": "2231 BELANGER EST", "city": "MONTREAL", "province": "QC", "country": "CA", "postalCode": "H2G1C5", "twitter": "None", "instagram": "None", "facebook": "None", "youtube": "None", "website": "None", "summary": "None", "logo": "None", "latitude": 45.54952323564539, "longitude": -73.60077594589978}, "868551540RR0001": {"name": "GROUPE D'EDUCATION-SANTE DU QUEBEC", "designationCode": "C", "categoryCode": "11", "address": "4245 AV. LAVAL", "city": "MONTREAL", "province": "QC", "country": "CA", "postalCode": "H2W2J6", "twitter": "None", "instagram": "None", "facebook": "None", "youtube": "None", "website": "None", "summary": "None", "logo": "None", "latitude": 45.52072614821967, "longitude": -73.58042140062906}, "136952801RR0001": {"name": "GROUPE D'ENTRAIDE \"L'ENTRAIN\"", "designationCode": "C", "categoryCode": "09", "address": "59 RUE MONFETTE               LOCAL 103", "city": "VICTORIAVILLE", "province": "QC", "country": "CA", "postalCode": "G6P1J8", "twitter": "None", "instagram": "None", "facebook": "None", "youtube": "None", "website": "None", "summary": "None", "logo": "None", "latitude": 46.06164779188039, "longitude": -71.9668892342031}, "892372624RR0001": {"name": "GROUPE D'ENTRAIDE A L'INTENTION DES PERSONNES SEROPOSITIVES ET ITINERANTES", "designationCode": "C", "categoryCode": "11", "address": "1223 RUE ONTARIO EST", "city": "MONTREAL", "province": "QC", "country": "CA", "postalCode": "H2L1R5", "twitter": "None", "instagram": "None", "facebook": "None", "youtube": "None", "website": "None", "summary": "None", "logo": "None", "latitude": 45.52148713572619, "longitude": -73.56221372219962}, "107453664RR0001": {"name": "GROUPE D'ENTRAIDE COMMUNAUTAIRE SAINTE-FOY", "designationCode": "C", "categoryCode": "09", "address": "3645 CHEMIN SAINTE-FOY", "city": "QU\u00c9BEC", "province": "QC", "country": "CA", "postalCode": "G1X1T1", "twitter": "None", "instagram": "None", "facebook": "None", "youtube": "None", "website": "None", "summary": "None", "logo": "None", "latitude": 46.763779382971045, "longitude": -71.33470583383382}}