{"832588032RR0001": {"name": "Homeless Connect Toronto", "designationCode": "C", "categoryCode": "01", "address": "3 - 2375 BRIMLEY RD", "city": "SCARBOROUGH", "province": "ON", "country": "CA", "postalCode": "M1S3L6", "twitter": "None", "instagram": "None", "facebook": "None", "youtube": "None", "website": "None", "summary": "None", "logo": "None", "latitude": 43.79816356287144, "longitude": -79.2732292468408}, "836027532RR0001": {"name": "HomelessCanada Inc.", "designationCode": "C", "categoryCode": "09", "address": "382 BANBURY ROAD", "city": "TORONTO", "province": "ON", "country": "CA", "postalCode": "M2L2B9", "twitter": "None", "instagram": "None", "facebook": "None", "youtube": "None", "website": "None", "summary": "None", "logo": "None", "latitude": 43.756847141266135, "longitude": -79.37158360993116}, "841390859RR0001": {"name": "Homes of Joy Inc.", "designationCode": "C", "categoryCode": "01", "address": "171 FIRST AVE,", "city": "BROCKVILLE", "province": "ON", "country": "CA", "postalCode": "K6V3B3", "twitter": "None", "instagram": "None", "facebook": "None", "youtube": "None", "website": "None", "summary": "None", "logo": "None", "latitude": 44.6042437545302, "longitude": -75.67477143521825}, "727544892RR0001": {"name": "Homes For Heroes Foundation", "designationCode": "C", "categoryCode": "09", "address": "900 - 2424 4 ST SW", "city": "CALGARY", "province": "AB", "country": "CA", "postalCode": "T2S2T4", "twitter": "None", "instagram": "None", "facebook": "None", "youtube": "None", "website": "None", "summary": "None", "logo": "None", "latitude": 51.0308271618097, "longitude": -114.07148981859905}, "812667913RR0001": {"name": "Hometeam Foundation", "designationCode": "A", "categoryCode": "03", "address": "5 EDITH STREET", "city": "LONDON", "province": "ON", "country": "CA", "postalCode": "N6H2E7", "twitter": "None", "instagram": "None", "facebook": "None", "youtube": "None", "website": "None", "summary": "None", "logo": "None", "latitude": 42.98465913711117, "longitude": -81.26516009143643}, "837184779RR0001": {"name": "Homeward Bound Rescue", "designationCode": "C", "categoryCode": "54", "address": "PO BOX 98512                  JANE PARK PLAZA", "city": "TORONTO", "province": "ON", "country": "CA", "postalCode": "M6N4C1", "twitter": "None", "instagram": "None", "facebook": "None", "youtube": "None", "website": "None", "summary": "None", "logo": "None", "latitude": 43.677080000000046, "longitude": -79.49458999999996}, "833492606RR0001": {"name": "Homeward Foundation", "designationCode": "B", "categoryCode": "03", "address": "10THFL - 1333 BROADWAY W", "city": "VANCOUVER", "province": "BC", "country": "CA", "postalCode": "V6H4C1", "twitter": "None", "instagram": "None", "facebook": "None", "youtube": "None", "website": "None", "summary": "None", "logo": "None", "latitude": 49.2636048443685, "longitude": -123.13446441433003}, "817197437RR0001": {"name": "Homewood Charitable Trust", "designationCode": "B", "categoryCode": "45", "address": "2500-201 PORTAGE AVENUE", "city": "WINNIPEG", "province": "MB", "country": "CA", "postalCode": "R3B3K6", "twitter": "None", "instagram": "None", "facebook": "None", "youtube": "None", "website": "None", "summary": "None", "logo": "None", "latitude": 49.895359615067065, "longitude": -97.13919299627776}, "119237824RR0001": {"name": "Homewood Volunteer Association", "designationCode": "C", "categoryCode": "19", "address": "HOMEWOOD HEALTH CENTRE INC.   150 DELHI STREET", "city": "GUELPH", "province": "ON", "country": "CA", "postalCode": "N1E6K9", "twitter": "None", "instagram": "None", "facebook": "None", "youtube": "None", "website": "None", "summary": "None", "logo": "None", "latitude": 43.55771150926216, "longitude": -80.25654988833712}, "815992227RR0001": {"name": "Homme aide Manicouagan", "designationCode": "C", "categoryCode": "09", "address": "767 RUE JALBERT", "city": "BAIE-COMEAU", "province": "QC", "country": "CA", "postalCode": "G5C2A2", "twitter": "None", "instagram": "None", "facebook": "None", "youtube": "None", "website": "None", "summary": "None", "logo": "None", "latitude": 49.19150960921003, "longitude": -68.25662756650678}, "824852735RR0001": {"name": "Hommes & Gars", "designationCode": "C", "categoryCode": "11", "address": "207-350 CH PRINCIPAL", "city": "CAP-AUX-MEULES", "province": "QC", "country": "CA", "postalCode": "G4T1C9", "twitter": "None", "instagram": "None", "facebook": "None", "youtube": "None", "website": "None", "summary": "None", "logo": "None", "latitude": 47.377533490132244, "longitude": -61.8659788803453}, "119071041RR0001": {"name": "Honeymoon Bay Lodge & Retreat Society", "designationCode": "B", "categoryCode": "03", "address": "BOX 121", "city": "HONEYMOON BAY", "province": "BC", "country": "CA", "postalCode": "V0R1Y0", "twitter": "None", "instagram": "None", "facebook": "None", "youtube": "None", "website": "None", "summary": "None", "logo": "None", "latitude": 48.81948396473101, "longitude": -124.1838747313265}, "842367294RR0001": {"name": "Honour House Society", "designationCode": "C", "categoryCode": "01", "address": "509 ST. GEORGE STREET", "city": "NEW WESTMINSTER", "province": "BC", "country": "CA", "postalCode": "V3L1L1", "twitter": "None", "instagram": "None", "facebook": "None", "youtube": "None", "website": "None", "summary": "None", "logo": "None", "latitude": 49.20861979130346, "longitude": -122.9123880451265}, "860368232RR0001": {"name": "Hope & Life International", "designationCode": "C", "categoryCode": "49", "address": "100 QUEENSWAY E", "city": "SIMCOE", "province": "ON", "country": "CA", "postalCode": "N3Y4M6", "twitter": "None", "instagram": "None", "facebook": "None", "youtube": "None", "website": "None", "summary": "None", "logo": "None", "latitude": 42.84767667773695, "longitude": -80.29695641450752}, "878857655RR0001": {"name": "Hope and a Future Ministries", "designationCode": "C", "categoryCode": "47", "address": "26 OCTOBER PLACE", "city": "BRANTFORD", "province": "ON", "country": "CA", "postalCode": "N3R7B4", "twitter": "None", "instagram": "None", "facebook": "None", "youtube": "None", "website": "None", "summary": "None", "logo": "None", "latitude": 43.185314419383616, "longitude": -80.25721178209956}, "817250459RR0001": {"name": "Hope for the Future Ministries", "designationCode": "C", "categoryCode": "47", "address": "1416 BOURCIER DRIVE", "city": "ORLEANS", "province": "ON", "country": "CA", "postalCode": "K1E3K8", "twitter": "None", "instagram": "None", "facebook": "None", "youtube": "None", "website": "None", "summary": "None", "logo": "None", "latitude": 45.475154518177625, "longitude": -75.50885453678795}, "801035205RR0001": {"name": "Hope for the Living", "designationCode": "C", "categoryCode": "09", "address": "PO BOX 60617                  1597 WILSON AVE", "city": "TORONTO", "province": "ON", "country": "CA", "postalCode": "M3L1A5", "twitter": "None", "instagram": "None", "facebook": "None", "youtube": "None", "website": "None", "summary": "None", "logo": "None", "latitude": 43.72034918485651, "longitude": -79.51108780119792}, "834342735RR0001": {"name": "Hope for All Nations Niagara Arabic Evangelical Church", "designationCode": "C", "categoryCode": "39", "address": "89 SCOTT STREET", "city": "ST. CATHARINES", "province": "ON", "country": "CA", "postalCode": "L2N1G8", "twitter": "None", "instagram": "None", "facebook": "None", "youtube": "None", "website": "None", "summary": "None", "logo": "None", "latitude": 43.17920543473303, "longitude": -79.25626443193443}, "818879322RR0001": {"name": "Hope for Kids Ryan Carrington Foundation", "designationCode": "C", "categoryCode": "01", "address": "26 - 127 CAREY", "city": "CANMORE", "province": "AB", "country": "CA", "postalCode": "T1W2R3", "twitter": "None", "instagram": "None", "facebook": "None", "youtube": "None", "website": "None", "summary": "None", "logo": "None", "latitude": 51.07419950346245, "longitude": -115.36289891035258}, "856425780RR0001": {"name": "Hope for Korah Ministries", "designationCode": "C", "categoryCode": "47", "address": "PO BOX 16013                  RPO SUMAS MOUNTAIN", "city": "ABBOTSFORD", "province": "BC", "country": "CA", "postalCode": "V3G0C6", "twitter": "None", "instagram": "None", "facebook": "None", "youtube": "None", "website": "None", "summary": "None", "logo": "None", "latitude": 49.11576302439391, "longitude": -122.19183393463035}, "801885260RR0001": {"name": "Hope for Malawi Foundation Inc.", "designationCode": "B", "categoryCode": "09", "address": "38 ST. LAWRENCE CRESCENT", "city": "SASKATOON", "province": "SK", "country": "CA", "postalCode": "S7K1G5", "twitter": "None", "instagram": "None", "facebook": "None", "youtube": "None", "website": "None", "summary": "None", "logo": "None", "latitude": 52.160822486265765, "longitude": -106.63787056942097}, "812043537RR0001": {"name": "Hope for Men Incorporated", "designationCode": "C", "categoryCode": "11", "address": "5202 THORNBURN DR", "city": "BURLINGTON", "province": "ON", "country": "CA", "postalCode": "L7L6R4", "twitter": "None", "instagram": "None", "facebook": "None", "youtube": "None", "website": "None", "summary": "None", "logo": "None", "latitude": 43.392419728547594, "longitude": -79.77906319703976}, "837794718RR0001": {"name": "Hope for Orphans-Congo", "designationCode": "C", "categoryCode": "01", "address": "162 GOLDRIDGE DRIVE", "city": "KANATA", "province": "ON", "country": "CA", "postalCode": "K2T1J6", "twitter": "None", "instagram": "None", "facebook": "None", "youtube": "None", "website": "None", "summary": "None", "logo": "None", "latitude": 45.31383484096027, "longitude": -75.92633579583378}, "840699631RR0001": {"name": "Hope for Today Christian Fellowship Georgina", "designationCode": "C", "categoryCode": "39", "address": "2435 GLENWOODS AVE", "city": "KESWICK", "province": "ON", "country": "CA", "postalCode": "L4P3E9", "twitter": "None", "instagram": "None", "facebook": "None", "youtube": "None", "website": "None", "summary": "None", "logo": "None", "latitude": 44.22049999752929, "longitude": -79.43625029728808}, "786882696RR0001": {"name": "Hope in the Dark", "designationCode": "C", "categoryCode": "01", "address": "15 SKYVIEW POINT LINK NE", "city": "CALGARY", "province": "AB", "country": "CA", "postalCode": "T3N0L7", "twitter": "None", "instagram": "None", "facebook": "None", "youtube": "None", "website": "None", "summary": "None", "logo": "None", "latitude": 51.16260229157082, "longitude": -113.95383013173206}, "746993922RR0001": {"name": "Hope in Christ Ministries", "designationCode": "C", "categoryCode": "39", "address": "362 BROADVIEW AVE", "city": "TORONTO", "province": "ON", "country": "CA", "postalCode": "M4M2G9", "twitter": "None", "instagram": "None", "facebook": "None", "youtube": "None", "website": "None", "summary": "None", "logo": "None", "latitude": 43.665209067718884, "longitude": -79.35255475549646}, "888360104RR0001": {"name": "Hope in Shadows Inc.", "designationCode": "C", "categoryCode": "09", "address": "121 HEATLEY AVENUE", "city": "VANCOUVER", "province": "BC", "country": "CA", "postalCode": "V6A3E9", "twitter": "None", "instagram": "None", "facebook": "None", "youtube": "None", "website": "None", "summary": "None", "logo": "None", "latitude": 49.2848877163127, "longitude": -123.08945266312688}, "828775981RR0001": {"name": "Hope in Strathcona: A Post Recovery Home Association", "designationCode": "C", "categoryCode": "57", "address": "50-130 BROADWAY BOULEVARD", "city": "SHERWOOD PARK", "province": "AB", "country": "CA", "postalCode": "T8H2A3", "twitter": "None", "instagram": "None", "facebook": "None", "youtube": "None", "website": "None", "summary": "None", "logo": "None", "latitude": 53.54347271689085, "longitude": -113.31162594437059}, "760014324RR0001": {"name": "Hope of St. Joseph Shelter Inc.", "designationCode": "C", "categoryCode": "09", "address": "225 BROCK ST", "city": "AMHERSTBURG", "province": "ON", "country": "CA", "postalCode": "N9V2H3", "twitter": "None", "instagram": "None", "facebook": "None", "youtube": "None", "website": "None", "summary": "None", "logo": "None", "latitude": 42.10270106662236, "longitude": -83.1041507404355}, "132169632RR0001": {"name": "Hope Adoption Services Society", "designationCode": "C", "categoryCode": "09", "address": "305-2692 CLEARBROOK ROAD", "city": "ABBOTSFORD", "province": "BC", "country": "CA", "postalCode": "V2T2Y8", "twitter": "None", "instagram": "None", "facebook": "None", "youtube": "None", "website": "None", "summary": "None", "logo": "None", "latitude": 49.05082093810952, "longitude": -122.33761924877405}, "122275373RR0001": {"name": "Hope Adventure Centre", "designationCode": "C", "categoryCode": "56", "address": "55324 BOYSDALE RD", "city": "STURGEON COUNTY", "province": "AB", "country": "CA", "postalCode": "T8L5A1", "twitter": "None", "instagram": "None", "facebook": "None", "youtube": "None", "website": "None", "summary": "None", "logo": "None", "latitude": 53.7689821640314, "longitude": -113.18693925382303}, "775564529RR0001": {"name": "Hope Alive Ministry", "designationCode": "C", "categoryCode": "09", "address": "500 - 5940 MACLEOD TRAIL SW", "city": "CALGARY", "province": "AB", "country": "CA", "postalCode": "T2H2G4", "twitter": "None", "instagram": "None", "facebook": "None", "youtube": "None", "website": "None", "summary": "None", "logo": "None", "latitude": 51.00030196560856, "longitude": -114.07141457493066}, "814216305RR0001": {"name": "Hope Ambassadors to Africa", "designationCode": "C", "categoryCode": "09", "address": "904 - 1025 SCARLETT ROAD", "city": "TORONTO", "province": "ON", "country": "CA", "postalCode": "M9P3V3", "twitter": "None", "instagram": "None", "facebook": "None", "youtube": "None", "website": "None", "summary": "None", "logo": "None", "latitude": 43.70041275939161, "longitude": -79.52575219049024}, "806757852RR0001": {"name": "Hope Assembly Ministries International", "designationCode": "C", "categoryCode": "39", "address": "2887 CATALINA BLVD NE", "city": "CALGARY", "province": "AB", "country": "CA", "postalCode": "T1Y6R1", "twitter": "None", "instagram": "None", "facebook": "None", "youtube": "None", "website": "None", "summary": "None", "logo": "None", "latitude": 51.079589360811354, "longitude": -113.93167198929552}, "827146036RR0001": {"name": "Hope Awaits Ministries", "designationCode": "C", "categoryCode": "01", "address": "390 FIRST AVE E", "city": "NORTH BAY", "province": "ON", "country": "CA", "postalCode": "P1B1K1", "twitter": "None", "instagram": "None", "facebook": "None", "youtube": "None", "website": "None", "summary": "None", "logo": "None", "latitude": 46.307964498210985, "longitude": -79.45729773948321}, "832858377RR0001": {"name": "Hope Blooms Youth Social Entrepreneurial Ventures Inc.", "designationCode": "C", "categoryCode": "29", "address": "5527 CORNWALLIS ST", "city": "HALIFAX", "province": "NS", "country": "CA", "postalCode": "B3K1B3", "twitter": "None", "instagram": "None", "facebook": "None", "youtube": "None", "website": "None", "summary": "None", "logo": "None", "latitude": 44.65205998917997, "longitude": -63.58447623925207}, "830860128RR0001": {"name": "Hope Care Transit Society", "designationCode": "C", "categoryCode": "09", "address": "PO BOX 1265", "city": "HOPE", "province": "BC", "country": "CA", "postalCode": "V0X1L0", "twitter": "None", "instagram": "None", "facebook": "None", "youtube": "None", "website": "None", "summary": "None", "logo": "None", "latitude": 49.37911800000006, "longitude": -121.44296149999994}, "862891033RR0001": {"name": "Hope Centre Family Church", "designationCode": "C", "categoryCode": "39", "address": "9593 COMMERCIAL ST", "city": "NEW MINAS", "province": "NS", "country": "CA", "postalCode": "B4N3G5", "twitter": "None", "instagram": "None", "facebook": "None", "youtube": "None", "website": "None", "summary": "None", "logo": "None", "latitude": 45.07552935890676, "longitude": -64.42507479837259}, "132590498RR0001": {"name": "Hope Chapel", "designationCode": "C", "categoryCode": "39", "address": "19 CAMERON ST", "city": "COLLINGWOOD", "province": "ON", "country": "CA", "postalCode": "L9Y2J1", "twitter": "None", "instagram": "None", "facebook": "None", "youtube": "None", "website": "None", "summary": "None", "logo": "None", "latitude": 44.48858709011453, "longitude": -80.21480177177364}, "801759655RR0001": {"name": "Hope Christian Congregational Church", "designationCode": "C", "categoryCode": "39", "address": "SUITE 712                     701 ESQUIMALT ROAD", "city": "VICTORIA", "province": "BC", "country": "CA", "postalCode": "V9A3L5", "twitter": "None", "instagram": "None", "facebook": "None", "youtube": "None", "website": "None", "summary": "None", "logo": "None", "latitude": 48.430827633302954, "longitude": -123.39082405372484}, "803160928RR0001": {"name": "Hope Church Blumenort Inc.", "designationCode": "C", "categoryCode": "39", "address": "POST OFFICE BOX 535", "city": "BLUMENORT", "province": "MB", "country": "CA", "postalCode": "R0A0C0", "twitter": "None", "instagram": "None", "facebook": "None", "youtube": "None", "website": "None", "summary": "None", "logo": "None", "latitude": 49.604250000000036, "longitude": -96.69016999999997}, "802775593RR0001": {"name": "Hope City Church Barrie", "designationCode": "C", "categoryCode": "39", "address": "187 COLUMBIA RD", "city": "BARRIE", "province": "ON", "country": "CA", "postalCode": "L4N8E2", "twitter": "None", "instagram": "None", "facebook": "None", "youtube": "None", "website": "None", "summary": "None", "logo": "None", "latitude": 44.32125346378897, "longitude": -79.72574386372554}, "858676158RR0001": {"name": "Hope Community Christian Church", "designationCode": "C", "categoryCode": "39", "address": "PO BOX 241", "city": "CUMBERLAND BEACH", "province": "ON", "country": "CA", "postalCode": "L0K1G0", "twitter": "None", "instagram": "None", "facebook": "None", "youtube": "None", "website": "None", "summary": "None", "logo": "None", "latitude": 44.70229339566282, "longitude": -79.38983673572477}, "872048608RR0001": {"name": "Hope Community Christian Reformed Church", "designationCode": "C", "categoryCode": "39", "address": "22638 ADELAIDE ROAD", "city": "MOUNT BRYDGES", "province": "ON", "country": "CA", "postalCode": "N0L1W0", "twitter": "None", "instagram": "None", "facebook": "None", "youtube": "None", "website": "None", "summary": "None", "logo": "None", "latitude": 42.91388532408166, "longitude": -81.50457152118061}, "728680497RR0001": {"name": "Hope Deliverance Ministries International Inc.", "designationCode": "C", "categoryCode": "39", "address": "240 BIRMINGHAM ST", "city": "ETOBICOKE", "province": "ON", "country": "CA", "postalCode": "M8V2C8", "twitter": "None", "instagram": "None", "facebook": "None", "youtube": "None", "website": "None", "summary": "None", "logo": "None", "latitude": 43.60167614741161, "longitude": -79.51358882696624}, "825526882RR0001": {"name": "Hope Encounters International Inc.", "designationCode": "C", "categoryCode": "49", "address": "PO BOX 22019 RPO WILDWOOD", "city": "SASKATOON", "province": "SK", "country": "CA", "postalCode": "S7H5P1", "twitter": "None", "instagram": "None", "facebook": "None", "youtube": "None", "website": "None", "summary": "None", "logo": "None", "latitude": 52.113669332521646, "longitude": -106.59044348507915}, "888301074RR0001": {"name": "Hope Fellowship - Your Community Church", "designationCode": "C", "categoryCode": "39", "address": "25 BENJAMIN ROAD              BOX 34", "city": "WATERLOO", "province": "ON", "country": "CA", "postalCode": "N2V2G8", "twitter": "None", "instagram": "None", "facebook": "None", "youtube": "None", "website": "None", "summary": "None", "logo": "None", "latitude": 43.509344045853766, "longitude": -80.55530758754009}, "797163094RR0001": {"name": "Hope For Ryan Incorporated", "designationCode": "B", "categoryCode": "11", "address": "84 WEST ST", "city": "STEPHENVILLE", "province": "NL", "country": "CA", "postalCode": "A2N1E4", "twitter": "None", "instagram": "None", "facebook": "None", "youtube": "None", "website": "None", "summary": "None", "logo": "None", "latitude": 48.54521635209557, "longitude": -58.586216663092216}, "828769158RR0001": {"name": "Hope For You Ministries", "designationCode": "C", "categoryCode": "39", "address": "49 SHOWBOAT CRES.", "city": "BRAMPTON", "province": "ON", "country": "CA", "postalCode": "L6V4R5", "twitter": "None", "instagram": "None", "facebook": "None", "youtube": "None", "website": "None", "summary": "None", "logo": "None", "latitude": 43.71993974300298, "longitude": -79.76926183040003}, "834720179RR0001": {"name": "Hope Foundation", "designationCode": "B", "categoryCode": "21", "address": "13025-84 AVENUE               SUITE 2", "city": "SURREY", "province": "BC", "country": "CA", "postalCode": "V3W1B3", "twitter": "None", "instagram": "None", "facebook": "None", "youtube": "None", "website": "None", "summary": "None", "logo": "None", "latitude": 49.15544150432785, "longitude": -122.86131236081135}, "776347890RR0001": {"name": "Hope From Above Ministries", "designationCode": "C", "categoryCode": "47", "address": "730 CONCESSION 11", "city": "HAGERSVILLE", "province": "ON", "country": "CA", "postalCode": "N0A1H0", "twitter": "None", "instagram": "None", "facebook": "None", "youtube": "None", "website": "None", "summary": "None", "logo": "None", "latitude": 42.93891494720453, "longitude": -80.08865917783696}, "838616753RR0001": {"name": "Hope Grows Haiti", "designationCode": "C", "categoryCode": "20", "address": "2166 PARKHILL ROAD WEST", "city": "PETERBOROUGH", "province": "ON", "country": "CA", "postalCode": "K9J6X4", "twitter": "None", "instagram": "None", "facebook": "None", "youtube": "None", "website": "None", "summary": "None", "logo": "None", "latitude": 44.292706553456156, "longitude": -78.41650328293595}, "813080652RR0001": {"name": "Hope Haven Therapeutic Riding and Family Camp Inc.", "designationCode": "C", "categoryCode": "56", "address": "545747 SIDE ROAD 4A           RURAL ROUTE 2", "city": "MARKDALE", "province": "ON", "country": "CA", "postalCode": "N0C1H0", "twitter": "None", "instagram": "None", "facebook": "None", "youtube": "None", "website": "None", "summary": "None", "logo": "None", "latitude": 44.26602900000006, "longitude": -80.64003049999994}, "844808311RR0001": {"name": "Hope Heels Service Dog Team Building Institute", "designationCode": "C", "categoryCode": "09", "address": "241 - 52450 RANGE ROAD 222", "city": "ARDROSSAN", "province": "AB", "country": "CA", "postalCode": "T8E2G3", "twitter": "None", "instagram": "None", "facebook": "None", "youtube": "None", "website": "None", "summary": "None", "logo": "None", "latitude": 53.5247474427258, "longitude": -113.1540985696521}, "836064998RR0001": {"name": "Hope Leadership Ministries Ltd.", "designationCode": "B", "categoryCode": "39", "address": "80 CRABBE RD", "city": "NORTHAMPTON", "province": "NB", "country": "CA", "postalCode": "E7N3A5", "twitter": "None", "instagram": "None", "facebook": "None", "youtube": "None", "website": "None", "summary": "None", "logo": "None", "latitude": 46.05655050744127, "longitude": -67.5431681131411}, "831163506RR0001": {"name": "Hope Lutheran Ministries of Chestermere", "designationCode": "C", "categoryCode": "32", "address": "697 GRAND BEACH BAY", "city": "CHESTERMERE", "province": "AB", "country": "CA", "postalCode": "T1X1H9", "twitter": "None", "instagram": "None", "facebook": "None", "youtube": "None", "website": "None", "summary": "None", "logo": "None", "latitude": 51.031657318367905, "longitude": -113.82527736150384}, "817213697RR0001": {"name": "Hope Mennonite Church Barwick, Ontario", "designationCode": "B", "categoryCode": "34", "address": "P.O. BOX 571", "city": "EMO", "province": "ON", "country": "CA", "postalCode": "P0W1E0", "twitter": "None", "instagram": "None", "facebook": "None", "youtube": "None", "website": "None", "summary": "None", "logo": "None", "latitude": 48.662577540629606, "longitude": -93.82672263965895}, "818663940RR0001": {"name": "Hope Mountain Centre for Outdoor Learning Society", "designationCode": "C", "categoryCode": "59", "address": "PO BOX 115", "city": "HOPE", "province": "BC", "country": "CA", "postalCode": "V0X1L0", "twitter": "None", "instagram": "None", "facebook": "None", "youtube": "None", "website": "None", "summary": "None", "logo": "None", "latitude": 49.37911800000006, "longitude": -121.44296149999994}, "848550406RR0001": {"name": "Hope NOW Family Concepts, Inc.", "designationCode": "C", "categoryCode": "09", "address": "BOX 1616                      819 JAMES STREET", "city": "BEAUSEJOUR", "province": "MB", "country": "CA", "postalCode": "R0E0C0", "twitter": "None", "instagram": "None", "facebook": "None", "youtube": "None", "website": "None", "summary": "None", "logo": "None", "latitude": 50.0543719618157, "longitude": -96.50701521058662}, "750748295RR0001": {"name": "Hope Of Believers Ministry", "designationCode": "C", "categoryCode": "39", "address": "912-320 NISKA RD", "city": "TORONTO", "province": "ON", "country": "CA", "postalCode": "M3N2W1", "twitter": "None", "instagram": "None", "facebook": "None", "youtube": "None", "website": "None", "summary": "None", "logo": "None", "latitude": 43.76520944662095, "longitude": -79.51097108076061}, "811292390RR0001": {"name": "Hope Pregnancy Support Centre", "designationCode": "C", "categoryCode": "09", "address": "5 - 7 WILLIAM ST", "city": "PARRY SOUND", "province": "ON", "country": "CA", "postalCode": "P2A1V2", "twitter": "None", "instagram": "None", "facebook": "None", "youtube": "None", "website": "None", "summary": "None", "logo": "None", "latitude": 45.3483616389002, "longitude": -80.03312837203542}, "737653923RR0001": {"name": "Hope Presbyterian Church", "designationCode": "C", "categoryCode": "37", "address": "100 - 333 PRINCESS ST", "city": "KINGSTON", "province": "ON", "country": "CA", "postalCode": "K7L1B7", "twitter": "None", "instagram": "None", "facebook": "None", "youtube": "None", "website": "None", "summary": "None", "logo": "None", "latitude": 44.23273732168614, "longitude": -76.48988733790186}, "803520568RR0001": {"name": "Hope Reformed Church", "designationCode": "C", "categoryCode": "39", "address": "1335 RIVER RD                 RR 1", "city": "ASTORVILLE", "province": "ON", "country": "CA", "postalCode": "P0H1B0", "twitter": "None", "instagram": "None", "facebook": "None", "youtube": "None", "website": "None", "summary": "None", "logo": "None", "latitude": 46.167332927463306, "longitude": -79.20315314732564}, "856049853RR0001": {"name": "Hope Resource Centre Association", "designationCode": "C", "categoryCode": "09", "address": "PO BOX 6146 STN MAIN", "city": "WESTLOCK", "province": "AB", "country": "CA", "postalCode": "T7P2P7", "twitter": "None", "instagram": "None", "facebook": "None", "youtube": "None", "website": "None", "summary": "None", "logo": "None", "latitude": 54.15543600000005, "longitude": -113.86003399999993}, "799796115RR0001": {"name": "Hope Restored Canada", "designationCode": "C", "categoryCode": "09", "address": "310 WALL ST", "city": "SASKATOON", "province": "SK", "country": "CA", "postalCode": "S7K1N7", "twitter": "None", "instagram": "None", "facebook": "None", "youtube": "None", "website": "None", "summary": "None", "logo": "None", "latitude": 52.13255503807189, "longitude": -106.66868367565411}, "835021056RR0001": {"name": "Hope Returns", "designationCode": "C", "categoryCode": "09", "address": "5111 NORTHLAND DR NW          PO BOX 67201", "city": "CALGARY", "province": "AB", "country": "CA", "postalCode": "T2L2L2", "twitter": "None", "instagram": "None", "facebook": "None", "youtube": "None", "website": "None", "summary": "None", "logo": "None", "latitude": 51.09814995441215, "longitude": -114.14149778022363}, "857312359RR0001": {"name": "Hope Shares Community Development Association", "designationCode": "C", "categoryCode": "01", "address": "PO BOX 10234                  STN MAIN", "city": "AIRDRIE", "province": "AB", "country": "CA", "postalCode": "T4A0H5", "twitter": "None", "instagram": "None", "facebook": "None", "youtube": "None", "website": "None", "summary": "None", "logo": "None", "latitude": 51.28868400000006, "longitude": -114.01344349999994}, "108212366RR0001": {"name": "Hope Springs United Church", "designationCode": "C", "categoryCode": "44", "address": "BOX 142", "city": "WILLIAMSBURG", "province": "ON", "country": "CA", "postalCode": "K0C2H0", "twitter": "None", "instagram": "None", "facebook": "None", "youtube": "None", "website": "None", "summary": "None", "logo": "None", "latitude": 44.97439000000003, "longitude": -75.24457999999998}, "872164561RR0001": {"name": "Hope Story", "designationCode": "C", "categoryCode": "43", "address": "55 FLEMING DR UNIT 3", "city": "CAMBRIDGE", "province": "ON", "country": "CA", "postalCode": "N1T2A9", "twitter": "None", "instagram": "None", "facebook": "None", "youtube": "None", "website": "None", "summary": "None", "logo": "None", "latitude": 43.412035335853034, "longitude": -80.29397747792815}, "795078096RR0001": {"name": "Hope Strict Baptist Church", "designationCode": "C", "categoryCode": "39", "address": "10074 REEVES RD", "city": "CHILLIWACK", "province": "BC", "country": "CA", "postalCode": "V2P6H4", "twitter": "None", "instagram": "None", "facebook": "None", "youtube": "None", "website": "None", "summary": "None", "logo": "None", "latitude": 49.18386987710196, "longitude": -121.88676805244425}, "845953637RR0001": {"name": "Hope Thailand", "designationCode": "C", "categoryCode": "49", "address": "13452 TENTH LINE", "city": "HALTON HILLS", "province": "ON", "country": "CA", "postalCode": "L7G4S8", "twitter": "None", "instagram": "None", "facebook": "None", "youtube": "None", "website": "None", "summary": "None", "logo": "None", "latitude": 43.70946046543375, "longitude": -79.95547136179229}, "118893114RR0001": {"name": "Hope United Church", "designationCode": "C", "categoryCode": "44", "address": "3055 CONNAUGHT AVE", "city": "HALIFAX", "province": "NS", "country": "CA", "postalCode": "B3L3A7", "twitter": "None", "instagram": "None", "facebook": "None", "youtube": "None", "website": "None", "summary": "None", "logo": "None", "latitude": 44.6516714901609, "longitude": -63.61397639742642}, "119058741RR0001": {"name": "Hope United Church", "designationCode": "C", "categoryCode": "44", "address": "7521 HIGHWAY 35", "city": "NORLAND", "province": "ON", "country": "CA", "postalCode": "K0M2L0", "twitter": "None", "instagram": "None", "facebook": "None", "youtube": "None", "website": "None", "summary": "None", "logo": "None", "latitude": 44.72859897888838, "longitude": -78.81464532530825}, "845600030RR0001": {"name": "Hope Worship Centre of Jesus Christ", "designationCode": "C", "categoryCode": "39", "address": "15 ABRAHAM WELSH RD", "city": "TORONTO", "province": "ON", "country": "CA", "postalCode": "M9M0B7", "twitter": "None", "instagram": "None", "facebook": "None", "youtube": "None", "website": "None", "summary": "None", "logo": "None", "latitude": 43.73281593588783, "longitude": -79.53323700830988}, "864135470RR0001": {"name": "Hope's Home Incorporated", "designationCode": "C", "categoryCode": "11", "address": "2200 25TH AVE", "city": "REGINA", "province": "SK", "country": "CA", "postalCode": "S4S4E6", "twitter": "None", "instagram": "None", "facebook": "None", "youtube": "None", "website": "None", "summary": "None", "logo": "None", "latitude": 50.41880747994645, "longitude": -104.61288332806276}, "880083522RR0001": {"name": "Hopewell Eating Disorder Support Centre of Ottawa", "designationCode": "C", "categoryCode": "11", "address": "404 MCARTHUR AVE", "city": "OTTAWA", "province": "ON", "country": "CA", "postalCode": "K1K1G8", "twitter": "None", "instagram": "None", "facebook": "None", "youtube": "None", "website": "None", "summary": "None", "logo": "None", "latitude": 45.43209152120739, "longitude": -75.64884963765944}, "819578220RR0001": {"name": "Hopewell Worship Centre", "designationCode": "C", "categoryCode": "39", "address": "1259 COUNTRYSTONE DR", "city": "KITCHENER", "province": "ON", "country": "CA", "postalCode": "N2N3S4", "twitter": "None", "instagram": "None", "facebook": "None", "youtube": "None", "website": "None", "summary": "None", "logo": "None", "latitude": 43.4357357016274, "longitude": -80.55471243392591}, "107491037RR0001": {"name": "Hopital g\u00e9n\u00e9ral de Hawkesbury & District G\u00e9n\u00e9ral Hospital inc.", "designationCode": "C", "categoryCode": "10", "address": "1111, RUE GHISLAIN", "city": "HAWKESBURY", "province": "ON", "country": "CA", "postalCode": "K6A3G5", "twitter": "None", "instagram": "None", "facebook": "None", "youtube": "None", "website": "None", "summary": "None", "logo": "None", "latitude": 45.598801238456, "longitude": -74.60790282563734}, "801052788RR0001": {"name": "Hoppy Homes Rescue", "designationCode": "C", "categoryCode": "54", "address": "PO BOX 28015 RPO AVALON MALL", "city": "ST. JOHN'S", "province": "NL", "country": "CA", "postalCode": "A1B4J8", "twitter": "None", "instagram": "None", "facebook": "None", "youtube": "None", "website": "None", "summary": "None", "logo": "None", "latitude": 47.56084000000004, "longitude": -52.75374999999997}, "814481420RR0001": {"name": "Horizon Academy Institute", "designationCode": "C", "categoryCode": "60", "address": "UNIT P55 - 1610-37TH ST. SW   P.O. BOX 34028", "city": "CALGARY", "province": "AB", "country": "CA", "postalCode": "T3C3W2", "twitter": "None", "instagram": "None", "facebook": "None", "youtube": "None", "website": "None", "summary": "None", "logo": "None", "latitude": 51.03908447326274, "longitude": -114.14115573208471}, "107396905RR0003": {"name": "Horizon Church", "designationCode": "C", "categoryCode": "39", "address": "15100 66 A AVENUE", "city": "SURREY", "province": "BC", "country": "CA", "postalCode": "V3S2A6", "twitter": "None", "instagram": "None", "facebook": "None", "youtube": "None", "website": "None", "summary": "None", "logo": "None", "latitude": 49.123491517889164, "longitude": -122.80362194171619}, "818625923RR0001": {"name": "Horizon Church International", "designationCode": "C", "categoryCode": "39", "address": "34997 EXBURY AVE", "city": "ABBOTSFORD", "province": "BC", "country": "CA", "postalCode": "V2S6X6", "twitter": "None", "instagram": "None", "facebook": "None", "youtube": "None", "website": "None", "summary": "None", "logo": "None", "latitude": 49.06824150043268, "longitude": -122.25542352844941}, "828776583RR0001": {"name": "Horizon Parent Society", "designationCode": "C", "categoryCode": "21", "address": "5501 53 ST", "city": "OLDS", "province": "AB", "country": "CA", "postalCode": "T4H1J2", "twitter": "None", "instagram": "None", "facebook": "None", "youtube": "None", "website": "None", "summary": "None", "logo": "None", "latitude": 51.79121465941509, "longitude": -114.11675573440463}, "814878757RR0001": {"name": "Horizon Relief Fund", "designationCode": "B", "categoryCode": "05", "address": "BOX 1600", "city": "MAPLE CREEK", "province": "SK", "country": "CA", "postalCode": "S0N1N0", "twitter": "None", "instagram": "None", "facebook": "None", "youtube": "None", "website": "None", "summary": "None", "logo": "None", "latitude": 49.91416000000004, "longitude": -109.46959999999996}, "850994641RR0001": {"name": "Horizon Scout", "designationCode": "C", "categoryCode": "29", "address": "3158, RUE DE MAYENNE", "city": "MONTR\u00c9AL-NORD", "province": "QC", "country": "CA", "postalCode": "H1H2E4", "twitter": "None", "instagram": "None", "facebook": "None", "youtube": "None", "website": "None", "summary": "None", "logo": "None", "latitude": 45.581480812366635, "longitude": -73.64897178224378}, "833919244RR0001": {"name": "Horizons Endowment Foundation", "designationCode": "A", "categoryCode": "43", "address": "2270 SPEAKMAN DRIVE", "city": "MISSISSAUGA", "province": "ON", "country": "CA", "postalCode": "L5K1B4", "twitter": "None", "instagram": "None", "facebook": "None", "youtube": "None", "website": "None", "summary": "None", "logo": "None", "latitude": 43.52166669634728, "longitude": -79.65747369920415}, "868626037RR0001": {"name": "Hornby Island Blues Society", "designationCode": "C", "categoryCode": "22", "address": "7200 ST. JOHN'S POINT RD", "city": "HORNBY ISLAND", "province": "BC", "country": "CA", "postalCode": "V0R1Z0", "twitter": "None", "instagram": "None", "facebook": "None", "youtube": "None", "website": "None", "summary": "None", "logo": "None", "latitude": 49.527884473593275, "longitude": -124.61398993065126}, "852487537RR0001": {"name": "Horse Lake Training Centre", "designationCode": "C", "categoryCode": "56", "address": "5830 HORSE LAKE ROAD", "city": "100 MILE HOUSE", "province": "BC", "country": "CA", "postalCode": "V0K2E3", "twitter": "None", "instagram": "None", "facebook": "None", "youtube": "None", "website": "None", "summary": "None", "logo": "None", "latitude": 51.63790154802323, "longitude": -121.29619719548779}, "857961247RR0001": {"name": "Horse Rescue Ontario and Sanctuary", "designationCode": "C", "categoryCode": "54", "address": "P.O.BOX 82001", "city": "WATERDOWN", "province": "ON", "country": "CA", "postalCode": "L0R2M0", "twitter": "None", "instagram": "None", "facebook": "None", "youtube": "None", "website": "None", "summary": "None", "logo": "None", "latitude": 43.329109500000015, "longitude": -79.8842655}, "862887031RR0001": {"name": "Horses at Heart Therapeutic Equestrian Adventures Inc.", "designationCode": "C", "categoryCode": "56", "address": "17900 DUFFERIN STREET", "city": "KING TOWNSHIP", "province": "ON", "country": "CA", "postalCode": "L3Y4V9", "twitter": "None", "instagram": "None", "facebook": "None", "youtube": "None", "website": "None", "summary": "None", "logo": "None", "latitude": 44.051590669398415, "longitude": -79.53272599255362}, "801631383RR0001": {"name": "Horst M. Waibel Foundation", "designationCode": "B", "categoryCode": "03", "address": "1200-805 BROADWAY W", "city": "VANCOUVER", "province": "BC", "country": "CA", "postalCode": "V5Z1K1", "twitter": "None", "instagram": "None", "facebook": "None", "youtube": "None", "website": "None", "summary": "None", "logo": "None", "latitude": 49.26336346826103, "longitude": -123.12226036219633}, "750229726RR0001": {"name": "Hosanna \u00c9vang\u00e9lisation", "designationCode": "C", "categoryCode": "39", "address": "11772 AV LAURIER", "city": "MONTREAL-NORD", "province": "QC", "country": "CA", "postalCode": "H1G4A9", "twitter": "None", "instagram": "None", "facebook": "None", "youtube": "None", "website": "None", "summary": "None", "logo": "None", "latitude": 45.61246606243875, "longitude": -73.62150276798995}, "831453196RR0001": {"name": "Hosanna Karen Baptist Church", "designationCode": "C", "categoryCode": "31", "address": "613 WILEY STREET", "city": "THUNDER BAY", "province": "ON", "country": "CA", "postalCode": "P7C3N6", "twitter": "None", "instagram": "None", "facebook": "None", "youtube": "None", "website": "None", "summary": "None", "logo": "None", "latitude": 48.39448528282071, "longitude": -89.24431329061099}, "834950917RR0001": {"name": "Hosanna Life Center North Battleford Inc.", "designationCode": "B", "categoryCode": "39", "address": "11110 MACKENZIE KING CRES", "city": "NORTH BATTLEFORD", "province": "SK", "country": "CA", "postalCode": "S9A3E4", "twitter": "None", "instagram": "None", "facebook": "None", "youtube": "None", "website": "None", "summary": "None", "logo": "None", "latitude": 52.78034250678069, "longitude": -108.281511}, "823937289RR0001": {"name": "Hosanna Tabernacle", "designationCode": "C", "categoryCode": "36", "address": "7797 ELWELL STREET", "city": "BURNABY", "province": "BC", "country": "CA", "postalCode": "V5E1M1", "twitter": "None", "instagram": "None", "facebook": "None", "youtube": "None", "website": "None", "summary": "None", "logo": "None", "latitude": 49.22774000279861, "longitude": -122.94208649933617}, "830542403RR0001": {"name": "Hospice for Life Foundation of Windsor and Essex County", "designationCode": "A", "categoryCode": "13", "address": "6038 EMPRESS STREET,", "city": "WINDSOR", "province": "ON", "country": "CA", "postalCode": "N8T1B5", "twitter": "None", "instagram": "None", "facebook": "None", "youtube": "None", "website": "None", "summary": "None", "logo": "None", "latitude": 42.31194936786899, "longitude": -82.95407021623117}, "752772897RR0001": {"name": "Hospice Care Avon Maitland", "designationCode": "C", "categoryCode": "01", "address": "POST OFFICE BOX 25004         HURON STREET", "city": "STRATFORD", "province": "ON", "country": "CA", "postalCode": "N5A0B4", "twitter": "None", "instagram": "None", "facebook": "None", "youtube": "None", "website": "None", "summary": "None", "logo": "None", "latitude": 43.37649142403761, "longitude": -80.99361541061292}, "118963701RR0001": {"name": "Hospice Care Ottawa / La Maison de soins palliatifs d'Ottawa", "designationCode": "C", "categoryCode": "11", "address": "114 CAMERON AVE", "city": "OTTAWA", "province": "ON", "country": "CA", "postalCode": "K1S0X1", "twitter": "None", "instagram": "None", "facebook": "None", "youtube": "None", "website": "None", "summary": "None", "logo": "None", "latitude": 45.39030555141715, "longitude": -75.68347941543117}, "134517820RR0001": {"name": "Hospice King-Aurora", "designationCode": "C", "categoryCode": "11", "address": "350 INDUSTRIAL PARKWAY SOUTH  UNIT 4", "city": "AURORA", "province": "ON", "country": "CA", "postalCode": "L4G3V7", "twitter": "None", "instagram": "None", "facebook": "None", "youtube": "None", "website": "None", "summary": "None", "logo": "None", "latitude": 43.98553370304105, "longitude": -79.45460716521387}, "830570305RR0001": {"name": "Hospice Legacy Foundation", "designationCode": "A", "categoryCode": "13", "address": "385 DUFFERIN ROW", "city": "SAINT JOHN", "province": "NB", "country": "CA", "postalCode": "E2M2J9", "twitter": "None", "instagram": "None", "facebook": "None", "youtube": "None", "website": "None", "summary": "None", "logo": "None", "latitude": 45.252066552311206, "longitude": -66.07420100040403}}