{"872737309RR0001": {"name": "HAITI ARISE (ACTIVELY RAISING INDIVIDUALS TO SERVE & EVANGELIZE) MINISTRIES SOCIETY", "designationCode": "C", "categoryCode": "47", "address": "P O BOX 85267                 ALBERT PARK P.O", "city": "CALGARY", "province": "AB", "country": "CA", "postalCode": "T2A7R7", "twitter": "None", "instagram": "None", "facebook": "None", "youtube": "None", "website": "None", "summary": "None", "logo": "None", "latitude": 51.045150000000035, "longitude": -113.98388999999997}, "118950484RR0001": {"name": "HAITI LUTHERAN MISSION SOCIETY", "designationCode": "C", "categoryCode": "47", "address": "400 GLENRIDGE AVE", "city": "ST-CATHARINES", "province": "ON", "country": "CA", "postalCode": "L2T3L2", "twitter": "None", "instagram": "None", "facebook": "None", "youtube": "None", "website": "None", "summary": "None", "logo": "None", "latitude": 43.127443258381994, "longitude": -79.23875898366869}, "891747669RR0001": {"name": "HAJI USMAN DAWOOD CHOKSI FAMILY FOUNDATION", "designationCode": "B", "categoryCode": "39", "address": "2 COLEDALE ROAD", "city": "MARKHAM", "province": "ON", "country": "CA", "postalCode": "L3R7X3", "twitter": "None", "instagram": "None", "facebook": "None", "youtube": "None", "website": "None", "summary": "None", "logo": "None", "latitude": 43.863816867592035, "longitude": -79.33967462585845}, "892364134RR0001": {"name": "HAL JACKMAN FOUNDATION", "designationCode": "B", "categoryCode": "23", "address": "165 UNIVERSITY AVE. 10TH FLOOR", "city": "TORONTO", "province": "ON", "country": "CA", "postalCode": "M5H3B8", "twitter": "None", "instagram": "None", "facebook": "None", "youtube": "None", "website": "None", "summary": "None", "logo": "None", "latitude": 43.64861597919665, "longitude": -79.3853641082004}, "118951177RR0001": {"name": "HAL ROGERS ENDOWMENT FUND", "designationCode": "C", "categoryCode": "21", "address": "P.O. BOX 3460                 1920 ROGERS DRIVE", "city": "CAMBRIDGE", "province": "ON", "country": "CA", "postalCode": "N3H5C6", "twitter": "None", "instagram": "None", "facebook": "None", "youtube": "None", "website": "None", "summary": "None", "logo": "None", "latitude": 43.40931021178363, "longitude": -80.36057454322192}, "867505984RR0001": {"name": "HALACHIC ACADEMY RAVAD", "designationCode": "C", "categoryCode": "20", "address": "SUITE 209                     970 LAWRENCE AVENUE WEST", "city": "TORONTO", "province": "ON", "country": "CA", "postalCode": "M6A3B6", "twitter": "None", "instagram": "None", "facebook": "None", "youtube": "None", "website": "None", "summary": "None", "logo": "None", "latitude": 43.713414238444024, "longitude": -79.45809593770547}, "895323913RR0001": {"name": "HALADNER MEMORIAL FOUNDATION", "designationCode": "B", "categoryCode": "03", "address": "KOSTER SPINKS AND ASSOCIATES  4 GLENGROVE AVENUE WEST", "city": "TORONTO", "province": "ON", "country": "CA", "postalCode": "M4R1N4", "twitter": "None", "instagram": "None", "facebook": "None", "youtube": "None", "website": "None", "summary": "None", "logo": "None", "latitude": 43.71942018347844, "longitude": -79.40154981294354}, "889698841RR0001": {"name": "HALBSTADT BERGTHALER MENNONITE CHURCH", "designationCode": "C", "categoryCode": "34", "address": "BOX 60", "city": "HALBSTADT", "province": "MB", "country": "CA", "postalCode": "R0A0S0", "twitter": "None", "instagram": "None", "facebook": "None", "youtube": "None", "website": "None", "summary": "None", "logo": "None", "latitude": 49.01538000000005, "longitude": -97.33606999999995}, "890516826RR0001": {"name": "HALDIMAND AGRICULTURAL COMMUNITY CENTRE CORPORATION", "designationCode": "C", "categoryCode": "56", "address": "1084 KOHLER RD                RR#3", "city": "CAYUGA", "province": "ON", "country": "CA", "postalCode": "N0A1E0", "twitter": "None", "instagram": "None", "facebook": "None", "youtube": "None", "website": "None", "summary": "None", "logo": "None", "latitude": 42.90234708549247, "longitude": -79.86284025405416}, "870666013RR0001": {"name": "HALDIMAND ART WORKS", "designationCode": "C", "categoryCode": "22", "address": "144 QUEEN STREET", "city": "DUNNVILLE", "province": "ON", "country": "CA", "postalCode": "N1A1H7", "twitter": "None", "instagram": "None", "facebook": "None", "youtube": "None", "website": "None", "summary": "None", "logo": "None", "latitude": 42.902120536759305, "longitude": -79.61795585232858}, "866470081RR0001": {"name": "HALDIMAND BIRD OBSERVATORY", "designationCode": "C", "categoryCode": "54", "address": "600 CEDAR STREET \"B\"", "city": "DUNNVILLE", "province": "ON", "country": "CA", "postalCode": "N1A2J6", "twitter": "None", "instagram": "None", "facebook": "None", "youtube": "None", "website": "None", "summary": "None", "logo": "None", "latitude": 42.90747492728947, "longitude": -79.61681990065773}, "870770633RR0001": {"name": "HALDIMAND CHORALAIRS INC", "designationCode": "C", "categoryCode": "23", "address": "914 MAIN STREET               BOX 253", "city": "PORT DOVER", "province": "ON", "country": "CA", "postalCode": "N0A1N0", "twitter": "None", "instagram": "None", "facebook": "None", "youtube": "None", "website": "None", "summary": "None", "logo": "None", "latitude": 42.79479831141434, "longitude": -80.214882952392}, "875668816RR0001": {"name": "HALDIMAND COUNTY PUBLIC LIBRARY BOARD", "designationCode": "C", "categoryCode": "50", "address": "1 - 117 FOREST ST E", "city": "DUNNVILLE", "province": "ON", "country": "CA", "postalCode": "N1A1B9", "twitter": "None", "instagram": "None", "facebook": "None", "youtube": "None", "website": "None", "summary": "None", "logo": "None", "latitude": 42.90704645266871, "longitude": -79.61617636812866}, "118950518RR0001": {"name": "HALDIMAND COURT APARTMENTS", "designationCode": "C", "categoryCode": "09", "address": "121 HARNDEN DRIVE, #23, RR#1", "city": "GRAFTON", "province": "ON", "country": "CA", "postalCode": "K0K2G0", "twitter": "None", "instagram": "None", "facebook": "None", "youtube": "None", "website": "None", "summary": "None", "logo": "None", "latitude": 43.993782089120664, "longitude": -78.02853171908552}, "107460800RR0001": {"name": "HALDIMAND WAR MEMORIAL HOSPITAL", "designationCode": "C", "categoryCode": "10", "address": "206 JOHN", "city": "DUNNVILLE", "province": "ON", "country": "CA", "postalCode": "N1A2P7", "twitter": "None", "instagram": "None", "facebook": "None", "youtube": "None", "website": "None", "summary": "None", "logo": "None", "latitude": 42.906002659543056, "longitude": -79.6242925293119}, "119145373RR0001": {"name": "HALDIMAND-NORFOLK COMMUNITY SENIOR SUPPORT SERVICES INC.", "designationCode": "C", "categoryCode": "09", "address": "230 VICTORIA STREET", "city": "SIMCOE", "province": "ON", "country": "CA", "postalCode": "N3Y4K2", "twitter": "None", "instagram": "None", "facebook": "None", "youtube": "None", "website": "None", "summary": "None", "logo": "None", "latitude": 42.83681767831387, "longitude": -80.28413873244273}, "118950542RR0001": {"name": "HALDIMAND-NORFOLK LITERACY COUNCIL", "designationCode": "C", "categoryCode": "29", "address": "P.O. BOX 573", "city": "SIMCOE", "province": "ON", "country": "CA", "postalCode": "N3Y4N5", "twitter": "None", "instagram": "None", "facebook": "None", "youtube": "None", "website": "None", "summary": "None", "logo": "None", "latitude": 42.83590200000006, "longitude": -80.30531149999993}, "106914757RR0001": {"name": "HALDIMAND-NORFOLK RESOURCE, EDUCATION AND COUNSELLING HELP", "designationCode": "C", "categoryCode": "11", "address": "101 NANTICOKE CREEK PARKWAY", "city": "TOWNSEND", "province": "ON", "country": "CA", "postalCode": "N0A1S0", "twitter": "None", "instagram": "None", "facebook": "None", "youtube": "None", "website": "None", "summary": "None", "logo": "None", "latitude": 42.89295918143055, "longitude": -80.14412906575697}, "108083726RR0001": {"name": "HALDIMAND-NORFOLK WOMEN'S SERVICES", "designationCode": "C", "categoryCode": "09", "address": "PO BOX 731", "city": "SIMCOE", "province": "ON", "country": "CA", "postalCode": "N3Y4T1", "twitter": "None", "instagram": "None", "facebook": "None", "youtube": "None", "website": "None", "summary": "None", "logo": "None", "latitude": 42.847314000000054, "longitude": -80.29663549999994}, "107460784RR0001": {"name": "HALDIMAND-NORFOLK WORK GROUP OF SIMCOE", "designationCode": "C", "categoryCode": "01", "address": "447 QUEENSWAY WEST", "city": "SIMCOE", "province": "ON", "country": "CA", "postalCode": "N3Y2N4", "twitter": "None", "instagram": "None", "facebook": "None", "youtube": "None", "website": "None", "summary": "None", "logo": "None", "latitude": 42.84273616654155, "longitude": -80.3242119543539}, "106836372RR0001": {"name": "HALEY STREET ADULT SERVICES CENTRE SOCIETY", "designationCode": "C", "categoryCode": "59", "address": "26 HALEY ST", "city": "NORTH SYDNEY", "province": "NS", "country": "CA", "postalCode": "B2A3L3", "twitter": "None", "instagram": "None", "facebook": "None", "youtube": "None", "website": "None", "summary": "None", "logo": "None", "latitude": 46.2328480355472, "longitude": -60.25170012404078}, "892207648RR0001": {"name": "HALF ISLAND COVE UNITED BAPTIST CHURCH,", "designationCode": "C", "categoryCode": "31", "address": "RR#2", "city": "GUYSBOROUGH", "province": "NS", "country": "CA", "postalCode": "B0H1N0", "twitter": "None", "instagram": "None", "facebook": "None", "youtube": "None", "website": "None", "summary": "None", "logo": "None", "latitude": 45.37026600000006, "longitude": -61.50474349999993}, "118950591RR0001": {"name": "HALF MOON BAY FOUNDATION", "designationCode": "C", "categoryCode": "39", "address": "2061 DEER RIDGE DRIVE", "city": "GANANOQUE", "province": "ON", "country": "CA", "postalCode": "K7G2V5", "twitter": "None", "instagram": "None", "facebook": "None", "youtube": "None", "website": "None", "summary": "None", "logo": "None", "latitude": 44.323944000000054, "longitude": -76.18240249999994}, "118950617RR0001": {"name": "HALFWAY RIVER UNION CHURCH CEMETERY COMPANY", "designationCode": "C", "categoryCode": "59", "address": "6543 HIGHWAY 2                RR 3", "city": "SOUTHAMPTON", "province": "NS", "country": "CA", "postalCode": "B0M1W0", "twitter": "None", "instagram": "None", "facebook": "None", "youtube": "None", "website": "None", "summary": "None", "logo": "None", "latitude": 45.593090050366065, "longitude": -64.24894043379368}, "861045649RR0001": {"name": "HALIBURTON COMMUNITY ORGANIC FARM SOCIETY", "designationCode": "C", "categoryCode": "50", "address": "741 HALIBURTON RD", "city": "VICTORIA", "province": "BC", "country": "CA", "postalCode": "V8Y1H7", "twitter": "None", "instagram": "None", "facebook": "None", "youtube": "None", "website": "None", "summary": "None", "logo": "None", "latitude": 48.51413033814017, "longitude": -123.37991134856367}, "846245959RR0001": {"name": "HALIBURTON COUNTY NON-PROFIT PLACES FOR PEOPLE CORPORATION", "designationCode": "C", "categoryCode": "09", "address": "BOX 544", "city": "MINDEN", "province": "ON", "country": "CA", "postalCode": "K0M2K0", "twitter": "None", "instagram": "None", "facebook": "None", "youtube": "None", "website": "None", "summary": "None", "logo": "None", "latitude": 45.00243600000006, "longitude": -78.58882699999994}, "118950641RR0001": {"name": "HALIBURTON HIGHLANDS GUILD OF FINE ARTS", "designationCode": "C", "categoryCode": "20", "address": "BOX 912                       23 YORK STREET", "city": "HALIBURTON", "province": "ON", "country": "CA", "postalCode": "K0M1S0", "twitter": "None", "instagram": "None", "facebook": "None", "youtube": "None", "website": "None", "summary": "None", "logo": "None", "latitude": 45.04610288121673, "longitude": -78.51136884567724}, "899105035RR0001": {"name": "HALIBURTON HIGHLANDS HEALTH SERVICES CORPORATION", "designationCode": "C", "categoryCode": "10", "address": "PO BOX 115, 7199 GELERT ROAD", "city": "HALIBURTON", "province": "ON", "country": "CA", "postalCode": "K0M1S0", "twitter": "None", "instagram": "None", "facebook": "None", "youtube": "None", "website": "None", "summary": "None", "logo": "None", "latitude": 45.0383543458651, "longitude": -78.5285040789443}, "890280449RR0001": {"name": "HALIBURTON HIGHLANDS HEALTH SERVICES FOUNDATION", "designationCode": "A", "categoryCode": "13", "address": "P O BOX 1413", "city": "HALIBURTON", "province": "ON", "country": "CA", "postalCode": "K0M1S0", "twitter": "None", "instagram": "None", "facebook": "None", "youtube": "None", "website": "None", "summary": "None", "logo": "None", "latitude": 45.24560095765924, "longitude": -78.57868961447684}, "852004233RR0001": {"name": "HALIBURTON HIGHLANDS LAND TRUST", "designationCode": "C", "categoryCode": "52", "address": "PO BOX 1478", "city": "HALIBURTON", "province": "ON", "country": "CA", "postalCode": "K0M1S0", "twitter": "None", "instagram": "None", "facebook": "None", "youtube": "None", "website": "None", "summary": "None", "logo": "None", "latitude": 45.24560095765924, "longitude": -78.57868961447684}, "865127393RR0001": {"name": "HALIBURTON HIGHLANDS RESOURCE CENTRE", "designationCode": "C", "categoryCode": "54", "address": "PO BOX 266", "city": "HALIBURTON", "province": "ON", "country": "CA", "postalCode": "K0M1S0", "twitter": "None", "instagram": "None", "facebook": "None", "youtube": "None", "website": "None", "summary": "None", "logo": "None", "latitude": 45.24560095765924, "longitude": -78.57868961447684}, "118950633RR0001": {"name": "HALIBURTON HIGHLANDS SCHOLARSHIP ENDOWMENT FUND", "designationCode": "C", "categoryCode": "21", "address": "P.O. BOX 105,                 190 RIVERSIDE DRIVE", "city": "HALIBURTON", "province": "ON", "country": "CA", "postalCode": "K0M1S0", "twitter": "None", "instagram": "None", "facebook": "None", "youtube": "None", "website": "None", "summary": "None", "logo": "None", "latitude": 45.047780125596574, "longitude": -78.49467582981252}, "118950658RR0001": {"name": "HALIBURTON HIGHLANDS SECONDARY SCHOOL SCHOLARSHIP FUND", "designationCode": "C", "categoryCode": "21", "address": "BOX 390", "city": "HALIBURTON", "province": "ON", "country": "CA", "postalCode": "K0M1S0", "twitter": "None", "instagram": "None", "facebook": "None", "youtube": "None", "website": "None", "summary": "None", "logo": "None", "latitude": 45.24560095765924, "longitude": -78.57868961447684}, "119288918RR0113": {"name": "HALIBURTON ONTARIO CONGREGATION OF JEHOVAH'S WITNESSES", "designationCode": "C", "categoryCode": "61", "address": "1038 HILLTOP RD", "city": "HALIBURTON", "province": "ON", "country": "CA", "postalCode": "K0M1S0", "twitter": "None", "instagram": "None", "facebook": "None", "youtube": "None", "website": "None", "summary": "None", "logo": "None", "latitude": 45.032355736519044, "longitude": -78.56345027816691}, "118950690RR0001": {"name": "HALIBURTON UNITED CHURCH", "designationCode": "C", "categoryCode": "44", "address": "PO BOX 281                    10 GEORGE ST", "city": "HALIBURTON", "province": "ON", "country": "CA", "postalCode": "K0M1S0", "twitter": "None", "instagram": "None", "facebook": "None", "youtube": "None", "website": "None", "summary": "None", "logo": "None", "latitude": 45.04810883939641, "longitude": -78.50636955214708}, "107461006RR0001": {"name": "HALIBURTON, KAWARTHA, PINE RIDGE DISTRICT HEALTH UNIT HEALTH PROMOTION AND PROTECTION FUND", "designationCode": "C", "categoryCode": "11", "address": "200 ROSEGLEN RD", "city": "PORT HOPE", "province": "ON", "country": "CA", "postalCode": "L1A3V6", "twitter": "None", "instagram": "None", "facebook": "None", "youtube": "None", "website": "None", "summary": "None", "logo": "None", "latitude": 43.96883471068406, "longitude": -78.28463680225623}, "118950955RR0001": {"name": "HALIFAX & LUNENBURG PRESBYTERY", "designationCode": "C", "categoryCode": "37", "address": "4 PINEHILL RD", "city": "DARTMOUTH", "province": "NS", "country": "CA", "postalCode": "B3A2E6", "twitter": "None", "instagram": "None", "facebook": "None", "youtube": "None", "website": "None", "summary": "None", "logo": "None", "latitude": 44.681255579808315, "longitude": -63.576299819579994}, "870705829RR0001": {"name": "HALIFAX & REGION MILITARY FAMILY RESOURCE CENTRE", "designationCode": "C", "categoryCode": "09", "address": "P.O. BOX 9900                 STATION FORCES", "city": "HALIFAX", "province": "NS", "country": "CA", "postalCode": "B3K5X5", "twitter": "None", "instagram": "None", "facebook": "None", "youtube": "None", "website": "None", "summary": "None", "logo": "None", "latitude": 44.645478000000054, "longitude": -63.576552499999934}, "890783947RR0001": {"name": "HALIFAX AREA LEISURE THERAPEUTIC RIDING SOCIETY", "designationCode": "C", "categoryCode": "56", "address": "THE STABLES                   1690 BELL RD", "city": "HALIFAX", "province": "NS", "country": "CA", "postalCode": "B3H2Z3", "twitter": "None", "instagram": "None", "facebook": "None", "youtube": "None", "website": "None", "summary": "None", "logo": "None", "latitude": 44.64567277849287, "longitude": -63.58345155981301}, "106842537RR0001": {"name": "HALIFAX ASSOCIATION FOR COMMUNITY LIVING", "designationCode": "C", "categoryCode": "11", "address": "2557 MAYNARD STREET", "city": "HALIFAX", "province": "NS", "country": "CA", "postalCode": "B3K3V6", "twitter": "None", "instagram": "None", "facebook": "None", "youtube": "None", "website": "None", "summary": "None", "logo": "None", "latitude": 44.655528843758916, "longitude": -63.591534326649125}, "118950708RR0001": {"name": "HALIFAX ASSOCIATION FOR IMPROVING THE CONDITIONS OF THE POOR", "designationCode": "C", "categoryCode": "09", "address": "PO BOX 1644", "city": "HALIFAX", "province": "NS", "country": "CA", "postalCode": "B3J2Z1", "twitter": "None", "instagram": "None", "facebook": "None", "youtube": "None", "website": "None", "summary": "None", "logo": "None", "latitude": 44.645478000000054, "longitude": -63.576552499999934}, "118950732RR0001": {"name": "HALIFAX CAMERATA SINGERS", "designationCode": "C", "categoryCode": "22", "address": "PO BOX 27035 RPO FENWICK", "city": "HALIFAX", "province": "NS", "country": "CA", "postalCode": "B3H4M8", "twitter": "None", "instagram": "None", "facebook": "None", "youtube": "None", "website": "None", "summary": "None", "logo": "None", "latitude": 44.637551382568624, "longitude": -63.57530459982435}, "889637161RR0001": {"name": "HALIFAX CARDIAC SUPPORT AND EDUCATION SOCIETY", "designationCode": "C", "categoryCode": "11", "address": "2385 ARMCRESCENT EAST DR", "city": "HALIFAX", "province": "NS", "country": "CA", "postalCode": "B3L3E1", "twitter": "None", "instagram": "None", "facebook": "None", "youtube": "None", "website": "None", "summary": "None", "logo": "None", "latitude": 44.64473519401001, "longitude": -63.60911035732024}, "894945633RR0051": {"name": "HALIFAX CHINESE ALLIANCE CHURCH", "designationCode": "C", "categoryCode": "39", "address": "P.O.BOX 22070                 RPO BAYER'S RD", "city": "HALIFAX", "province": "NS", "country": "CA", "postalCode": "B3L4T7", "twitter": "None", "instagram": "None", "facebook": "None", "youtube": "None", "website": "None", "summary": "None", "logo": "None", "latitude": 44.65279109074529, "longitude": -63.613922256435785}, "107461147RR0001": {"name": "HALIFAX CHINESE CHRISTIAN CHURCH SOCIETY", "designationCode": "C", "categoryCode": "47", "address": "18 WHIMSICAL LAKE CRES", "city": "HALIFAX", "province": "NS", "country": "CA", "postalCode": "B3P2R2", "twitter": "None", "instagram": "None", "facebook": "None", "youtube": "None", "website": "None", "summary": "None", "logo": "None", "latitude": 44.62446720537831, "longitude": -63.61071136689954}, "107461170RR0001": {"name": "HALIFAX CHRISTIAN ACADEMY", "designationCode": "C", "categoryCode": "20", "address": "114 DOWNS AVE", "city": "HALIFAX", "province": "NS", "country": "CA", "postalCode": "B3N1Y6", "twitter": "None", "instagram": "None", "facebook": "None", "youtube": "None", "website": "None", "summary": "None", "logo": "None", "latitude": 44.641728829563334, "longitude": -63.63652004605012}, "131545253RR0001": {"name": "HALIFAX CHRISTIAN CHURCH", "designationCode": "C", "categoryCode": "39", "address": "51 FARNHAM GATE ROAD", "city": "HALIFAX", "province": "NS", "country": "CA", "postalCode": "B3M3T6", "twitter": "None", "instagram": "None", "facebook": "None", "youtube": "None", "website": "None", "summary": "None", "logo": "None", "latitude": 44.67323491369946, "longitude": -63.66555960159263}, "138152871RR0001": {"name": "HALIFAX CITADEL REGIMENTAL ASSOCIATION", "designationCode": "C", "categoryCode": "50", "address": "PO BOX 9080 STATION A", "city": "HALIFAX", "province": "NS", "country": "CA", "postalCode": "B3K5M7", "twitter": "None", "instagram": "None", "facebook": "None", "youtube": "None", "website": "None", "summary": "None", "logo": "None", "latitude": 44.645478000000054, "longitude": -63.576552499999934}, "858572472RR0001": {"name": "HALIFAX COMMUNITY CHAPLAINCY SOCIETY", "designationCode": "C", "categoryCode": "49", "address": "P.O. BOX 78 LAKESIDE", "city": "LAKESIDE", "province": "NS", "country": "CA", "postalCode": "B3T1M6", "twitter": "None", "instagram": "None", "facebook": "None", "youtube": "None", "website": "None", "summary": "None", "logo": "None", "latitude": 44.638128819658114, "longitude": -63.70207997038875}, "814063152RR0001": {"name": "HALIFAX COMMUNITY INVESTMENT FUND SOCIETY", "designationCode": "C", "categoryCode": "21", "address": "2151 GOTTINGEN STREET         POST OFFICE BOX 47001", "city": "HALIFAX", "province": "NS", "country": "CA", "postalCode": "B3K5Y2", "twitter": "None", "instagram": "None", "facebook": "None", "youtube": "None", "website": "None", "summary": "None", "logo": "None", "latitude": 44.652463595620034, "longitude": -63.58398481320335}, "132826751RR0001": {"name": "HALIFAX CORNWALLIS PROGRESS CLUB CHARITABLE FOUNDATION", "designationCode": "A", "categoryCode": "63", "address": "PO BOX 31170", "city": "HALIFAX", "province": "NS", "country": "CA", "postalCode": "B3K5Y1", "twitter": "None", "instagram": "None", "facebook": "None", "youtube": "None", "website": "None", "summary": "None", "logo": "None", "latitude": 44.645478000000054, "longitude": -63.576552499999934}, "118950849RR0001": {"name": "HALIFAX DANCE ASSOCIATION", "designationCode": "C", "categoryCode": "22", "address": "1505 BARRINGTON STREET        SUITE G6", "city": "HALIFAX", "province": "NS", "country": "CA", "postalCode": "B3J3K5", "twitter": "None", "instagram": "None", "facebook": "None", "youtube": "None", "website": "None", "summary": "None", "logo": "None", "latitude": 44.64428845213221, "longitude": -63.572540498297904}, "107461352RR0001": {"name": "HALIFAX EARLY CHILDHOOD SCHOOL", "designationCode": "C", "categoryCode": "20", "address": "5498 INGLIS STREET", "city": "HALIFAX", "province": "NS", "country": "CA", "postalCode": "B3H1J8", "twitter": "None", "instagram": "None", "facebook": "None", "youtube": "None", "website": "None", "summary": "None", "logo": "None", "latitude": 44.635126119049104, "longitude": -63.5730260405102}, "118950898RR0001": {"name": "HALIFAX FOUNDATION", "designationCode": "A", "categoryCode": "09", "address": "SUITE 1500 1959 UPPER WATER ST", "city": "HALIFAX", "province": "NS", "country": "CA", "postalCode": "B3J3N2", "twitter": "None", "instagram": "None", "facebook": "None", "youtube": "None", "website": "None", "summary": "None", "logo": "None", "latitude": 44.65116830396986, "longitude": -63.57483644359211}, "118950906RR0001": {"name": "HALIFAX FRIENDS MEETING", "designationCode": "C", "categoryCode": "39", "address": "47 ALBION ROAD", "city": "HALIFAX", "province": "NS", "country": "CA", "postalCode": "B3P1P8", "twitter": "None", "instagram": "None", "facebook": "None", "youtube": "None", "website": "None", "summary": "None", "logo": "None", "latitude": 44.625547320560955, "longitude": -63.595540364389365}, "858989213RR0001": {"name": "HALIFAX GOSPEL HALL ASSOCIATION", "designationCode": "C", "categoryCode": "39", "address": "6405 NORTH STREET             P.O. BOX 8564, STATION 'A'", "city": "HALIFAX", "province": "NS", "country": "CA", "postalCode": "B3K5M3", "twitter": "None", "instagram": "None", "facebook": "None", "youtube": "None", "website": "None", "summary": "None", "logo": "None", "latitude": 44.649149370132704, "longitude": -63.60279099839576}, "864790878RR0001": {"name": "HALIFAX HUMANITIES SOCIETY", "designationCode": "C", "categoryCode": "20", "address": "2222 BRUNSWICK STREET", "city": "HALIFAX", "province": "NS", "country": "CA", "postalCode": "B3K2Z3", "twitter": "None", "instagram": "None", "facebook": "None", "youtube": "None", "website": "None", "summary": "None", "logo": "None", "latitude": 44.65359515624111, "longitude": -63.5826271988861}, "871655262RR0001": {"name": "HALIFAX INDEPENDENT SCHOOL SOCIETY", "designationCode": "C", "categoryCode": "20", "address": "3331 CONNAUGHT AVE", "city": "HALIFAX", "province": "NS", "country": "CA", "postalCode": "B3L3B4", "twitter": "None", "instagram": "None", "facebook": "None", "youtube": "None", "website": "None", "summary": "None", "logo": "None", "latitude": 44.655776735529834, "longitude": -63.61742036652509}, "107461444RR0001": {"name": "HALIFAX LADIES' COLLEGE", "designationCode": "C", "categoryCode": "20", "address": "1400 OXFORD ST", "city": "HALIFAX", "province": "NS", "country": "CA", "postalCode": "B3H3Y8", "twitter": "None", "instagram": "None", "facebook": "None", "youtube": "None", "website": "None", "summary": "None", "logo": "None", "latitude": 44.6363047724047, "longitude": -63.59613458413615}, "865283477RR0001": {"name": "HALIFAX PROGRESS CLUB CHARITABLE FOUNDATION", "designationCode": "B", "categoryCode": "03", "address": "UNIT 5 - 3045 ROBIE STREET    SUITE 212", "city": "HALIFAX", "province": "NS", "country": "CA", "postalCode": "B3K4P6", "twitter": "None", "instagram": "None", "facebook": "None", "youtube": "None", "website": "None", "summary": "None", "logo": "None", "latitude": 44.658966843758904, "longitude": -63.60123649428719}, "891188948RR0001": {"name": "HALIFAX PROTESTANT INFANTS FOUNDATION", "designationCode": "A", "categoryCode": "03", "address": "5829 GRANT ST", "city": "HALIFAX", "province": "NS", "country": "CA", "postalCode": "B3H1C9", "twitter": "None", "instagram": "None", "facebook": "None", "youtube": "None", "website": "None", "summary": "None", "logo": "None", "latitude": 44.627314902590975, "longitude": -63.57653927644406}, "853287530RR0001": {"name": "HALIFAX REFUGEE CLINIC ASSOCIATION", "designationCode": "B", "categoryCode": "09", "address": "P. O. BOX 233                 HALIFAX CRO", "city": "HALIFAX", "province": "NS", "country": "CA", "postalCode": "B3J2M4", "twitter": "None", "instagram": "None", "facebook": "None", "youtube": "None", "website": "None", "summary": "None", "logo": "None", "latitude": 44.645478000000054, "longitude": -63.576552499999934}, "884857962RR0001": {"name": "HALIFAX REGION CHILDREN'S AID FOUNDATION", "designationCode": "A", "categoryCode": "03", "address": "301 - 1888 BRUNSWICK ST", "city": "HALIFAX", "province": "NS", "country": "CA", "postalCode": "B3J3J8", "twitter": "None", "instagram": "None", "facebook": "None", "youtube": "None", "website": "None", "summary": "None", "logo": "None", "latitude": 44.64937092838598, "longitude": -63.5781734293956}, "118951029RR0001": {"name": "HALIFAX REGIONAL CEREBRAL PALSY ASSOCIATION", "designationCode": "C", "categoryCode": "11", "address": "68 DANNY DRIVE", "city": "BEAVER BANK", "province": "NS", "country": "CA", "postalCode": "B4G1B2", "twitter": "None", "instagram": "None", "facebook": "None", "youtube": "None", "website": "None", "summary": "None", "logo": "None", "latitude": 44.82678017375491, "longitude": -63.68227331672312}, "874866551RR0001": {"name": "HALIFAX REGIONAL LIBRARY BOARD", "designationCode": "C", "categoryCode": "50", "address": "60 ALDERNEY DRIVE", "city": "DARTMOUTH", "province": "NS", "country": "CA", "postalCode": "B2Y4P8", "twitter": "None", "instagram": "None", "facebook": "None", "youtube": "None", "website": "None", "summary": "None", "logo": "None", "latitude": 44.66454076989452, "longitude": -63.56865599267106}, "883259236RR0001": {"name": "HALIFAX REGIONAL SCHOOL BOARD", "designationCode": "C", "categoryCode": "20", "address": "33 SPECTACLE LAKE DRIVE", "city": "DARTMOUTH", "province": "NS", "country": "CA", "postalCode": "B3B1X7", "twitter": "None", "instagram": "None", "facebook": "None", "youtube": "None", "website": "None", "summary": "None", "logo": "None", "latitude": 44.70168537108312, "longitude": -63.58279228847526}, "890480593RR0001": {"name": "HALIFAX REGIONAL SEARCH AND RESCUE TEAM", "designationCode": "C", "categoryCode": "59", "address": "116 LAKEVIEW ROAD", "city": "LAKEVIEW", "province": "NS", "country": "CA", "postalCode": "B4C4C7", "twitter": "None", "instagram": "None", "facebook": "None", "youtube": "None", "website": "None", "summary": "None", "logo": "None", "latitude": 44.767940636418686, "longitude": -63.62837592642409}, "118951037RR0001": {"name": "HALIFAX REGIONAL TRIBUNAL", "designationCode": "C", "categoryCode": "49", "address": "1531 GRAFTON STREET           P.O. BOX 1527", "city": "HALIFAX", "province": "NS", "country": "CA", "postalCode": "B3J2Y3", "twitter": "None", "instagram": "None", "facebook": "None", "youtube": "None", "website": "None", "summary": "None", "logo": "None", "latitude": 44.64439061139251, "longitude": -63.57409284393179}, "118951060RR0001": {"name": "HALIFAX SEVENTH-DAY ADVENTIST CHURCH", "designationCode": "C", "categoryCode": "41", "address": "121 SALISBURY ROAD", "city": "MONCTON", "province": "NB", "country": "CA", "postalCode": "E1E1A6", "twitter": "None", "instagram": "None", "facebook": "None", "youtube": "None", "website": "None", "summary": "None", "logo": "None", "latitude": 46.0711640413756, "longitude": -64.82144086984238}, "119094407RR0001": {"name": "HALIFAX SEXUAL HEALTH CENTRE", "designationCode": "C", "categoryCode": "11", "address": "6009 QUINPOOL RD SUITE 201", "city": "HALIFAX", "province": "NS", "country": "CA", "postalCode": "B3K5J7", "twitter": "None", "instagram": "None", "facebook": "None", "youtube": "None", "website": "None", "summary": "None", "logo": "None", "latitude": 44.6472290413756, "longitude": -63.59084845366141}, "118951094RR0001": {"name": "HALIFAX TRANSITION HOUSE ASSOCIATION", "designationCode": "C", "categoryCode": "01", "address": "3358 CONNAUGHT AVE", "city": "HALIFAX", "province": "NS", "country": "CA", "postalCode": "B3L3B5", "twitter": "None", "instagram": "None", "facebook": "None", "youtube": "None", "website": "None", "summary": "None", "logo": "None", "latitude": 44.65613719954992, "longitude": -63.61790159841864}, "893187773RR0001": {"name": "HALIFAX VISITING DISPENSARY", "designationCode": "A", "categoryCode": "03", "address": "7 BROCKHURST CLOSE", "city": "HALIFAX", "province": "NS", "country": "CA", "postalCode": "B3M3V4", "twitter": "None", "instagram": "None", "facebook": "None", "youtube": "None", "website": "None", "summary": "None", "logo": "None", "latitude": 44.66589765277865, "longitude": -63.65464243176152}, "888587466RR0001": {"name": "HALIFAX WEST ECUMENICAL FOOD BANK ASSOCIATION", "designationCode": "C", "categoryCode": "09", "address": "34 MARLWOOD DR", "city": "HALIFAX", "province": "NS", "country": "CA", "postalCode": "B3M3H2", "twitter": "None", "instagram": "None", "facebook": "None", "youtube": "None", "website": "None", "summary": "None", "logo": "None", "latitude": 44.68182822869183, "longitude": -63.67617364475723}, "118951102RR0001": {"name": "HALIFAX WILDLIFE ASSOCIATION", "designationCode": "C", "categoryCode": "54", "address": "116 HERITAGE HILLS DR", "city": "EASTERN PASSAGE", "province": "NS", "country": "CA", "postalCode": "B3G0A3", "twitter": "None", "instagram": "None", "facebook": "None", "youtube": "None", "website": "None", "summary": "None", "logo": "None", "latitude": 44.61040613379296, "longitude": -63.466010958912875}, "896307147RR0001": {"name": "HALIFAX YOUTH FOUNDATION", "designationCode": "A", "categoryCode": "03", "address": "SUITE 1500 1959 UPPER WATER ST", "city": "HALIFAX", "province": "NS", "country": "CA", "postalCode": "B3J3N2", "twitter": "None", "instagram": "None", "facebook": "None", "youtube": "None", "website": "None", "summary": "None", "logo": "None", "latitude": 44.65116830396986, "longitude": -63.57483644359211}, "845865740RR0001": {"name": "HALIFAX 57 RESCUE (CANADA)", "designationCode": "C", "categoryCode": "52", "address": "2704 DUNROBIN ROAD", "city": "DUNROBIN", "province": "ON", "country": "CA", "postalCode": "K0A1T0", "twitter": "None", "instagram": "None", "facebook": "None", "youtube": "None", "website": "None", "summary": "None", "logo": "None", "latitude": 45.4203187213629, "longitude": -76.01783311209556}, "871656666RR0001": {"name": "HALIFAX-DARTMOUTH CHURCH OF CHRIST", "designationCode": "C", "categoryCode": "39", "address": "38 DEERBROOKE DR.", "city": "DARTMOUTH", "province": "NS", "country": "CA", "postalCode": "B2V1W3", "twitter": "None", "instagram": "None", "facebook": "None", "youtube": "None", "website": "None", "summary": "None", "logo": "None", "latitude": 44.66257109798596, "longitude": -63.4930824935947}, "894036649RR0001": {"name": "HALKIRK TWP FIRE PROTECTION TEAM", "designationCode": "C", "categoryCode": "59", "address": "SITE 300-17                   RR 3", "city": "FORT FRANCES", "province": "ON", "country": "CA", "postalCode": "P9A0A1", "twitter": "None", "instagram": "None", "facebook": "None", "youtube": "None", "website": "None", "summary": "None", "logo": "None", "latitude": 48.610023000000055, "longitude": -93.39111349999993}, "822156717RR0001": {"name": "HALL'S HARBOUR BAPTIST CHURCH", "designationCode": "C", "categoryCode": "31", "address": "RR3", "city": "CENTREVILLE KINGS CO", "province": "NS", "country": "CA", "postalCode": "B0P1J0", "twitter": "None", "instagram": "None", "facebook": "None", "youtube": "None", "website": "None", "summary": "None", "logo": "None", "latitude": 45.14065816541881, "longitude": -64.48438511708392}, "894773928RR0001": {"name": "HALL'S HARBOUR FUNDY VIEW COMMUNITY SOCIETY", "designationCode": "C", "categoryCode": "56", "address": "3586 HIGHWAY 359              RR 3", "city": "CENTREVILLE", "province": "NS", "country": "CA", "postalCode": "B0P1J0", "twitter": "None", "instagram": "None", "facebook": "None", "youtube": "None", "website": "None", "summary": "None", "logo": "None", "latitude": 45.18738090731222, "longitude": -64.58743864425212}, "878018142RR0001": {"name": "HALL'S HARBOUR HISTORICAL SOCIETY", "designationCode": "C", "categoryCode": "50", "address": "3586 HIGHWAY 359              RR3", "city": "CENTREVILLE", "province": "NS", "country": "CA", "postalCode": "B0P1J0", "twitter": "None", "instagram": "None", "facebook": "None", "youtube": "None", "website": "None", "summary": "None", "logo": "None", "latitude": 45.18738090731222, "longitude": -64.58743864425212}, "861327955RR0001": {"name": "HALL'S PRAIRIE PARENT ADVISORY COUNCIL (SCHOOL DISTRICT #36)", "designationCode": "C", "categoryCode": "21", "address": "18035 - 8TH AVE.", "city": "SURREY", "province": "BC", "country": "CA", "postalCode": "V4P1M7", "twitter": "None", "instagram": "None", "facebook": "None", "youtube": "None", "website": "None", "summary": "None", "logo": "None", "latitude": 49.016736530439964, "longitude": -122.72284260935426}, "874204910RR0001": {"name": "HALLADAY BURIAL PLACE ASSOCIATION", "designationCode": "C", "categoryCode": "59", "address": "P.O. BOX 219                  4 JOHN STREET", "city": "DELTA", "province": "ON", "country": "CA", "postalCode": "K0E1G0", "twitter": "None", "instagram": "None", "facebook": "None", "youtube": "None", "website": "None", "summary": "None", "logo": "None", "latitude": 44.60830062753189, "longitude": -76.12066907862582}, "133028217RR0001": {"name": "HALLELUJAH CHINESE EVANGELICAL FREE CHURCH INC", "designationCode": "C", "categoryCode": "39", "address": "393 MIDDLEFIELD RD", "city": "SCARBOROUGH", "province": "ON", "country": "CA", "postalCode": "M1S5A9", "twitter": "None", "instagram": "None", "facebook": "None", "youtube": "None", "website": "None", "summary": "None", "logo": "None", "latitude": 43.80669788871251, "longitude": -79.2551858280341}, "895508349RR0001": {"name": "HALLELUJAH CHRISTIAN ASSEMBLY", "designationCode": "C", "categoryCode": "36", "address": "425 RUE SAINT-JACQUES", "city": "LACHINE", "province": "QC", "country": "CA", "postalCode": "H8R1E9", "twitter": "None", "instagram": "None", "facebook": "None", "youtube": "None", "website": "None", "summary": "None", "logo": "None", "latitude": 45.442392714697796, "longitude": -73.65034650556858}, "862521820RR0001": {"name": "HALLELUJAH CHRISTIAN CHURCH OF CANADA", "designationCode": "C", "categoryCode": "39", "address": "10610 GLENWOOD DR", "city": "SURREY", "province": "BC", "country": "CA", "postalCode": "V4N1T6", "twitter": "None", "instagram": "None", "facebook": "None", "youtube": "None", "website": "None", "summary": "None", "logo": "None", "latitude": 49.19535050291418, "longitude": -122.77280899166146}, "891724841RR0001": {"name": "HALLELUJAH FELLOWSHIP BAPTIST CHURCH", "designationCode": "C", "categoryCode": "31", "address": "425 PACIFIC AVENUE", "city": "TORONTO", "province": "ON", "country": "CA", "postalCode": "M6P2R3", "twitter": "None", "instagram": "None", "facebook": "None", "youtube": "None", "website": "None", "summary": "None", "logo": "None", "latitude": 43.66595892783772, "longitude": -79.46858362375232}, "740203294RR0001": {"name": "HALLELUJAH INSPIRATIONAL MINISTRIES", "designationCode": "B", "categoryCode": "47", "address": "6040 BATHURST STREET,         UNIT 1502", "city": "TORONTO", "province": "ON", "country": "CA", "postalCode": "M2R2A1", "twitter": "None", "instagram": "None", "facebook": "None", "youtube": "None", "website": "None", "summary": "None", "logo": "None", "latitude": 43.78946389837871, "longitude": -79.44685504281789}, "107461824RR0001": {"name": "HALLMARK SOCIETY", "designationCode": "C", "categoryCode": "52", "address": "15-1594 FAIRFIELD RD   PO BOX 50013 FAIRFIELD PLAZA PO", "city": "VICTORIA", "province": "BC", "country": "CA", "postalCode": "V8V1G1", "twitter": "None", "instagram": "None", "facebook": "None", "youtube": "None", "website": "None", "summary": "None", "logo": "None", "latitude": 48.41809364896485, "longitude": -123.35616176832616}, "133978148RR0001": {"name": "HALLS HARBOUR DISTRICT FIREFIGHTERS ASSOCIATION", "designationCode": "C", "categoryCode": "59", "address": "3586 HWY 359                  RR3 HALL'S HARBOUR", "city": "CENTREVILLE", "province": "NS", "country": "CA", "postalCode": "B0P1J0", "twitter": "None", "instagram": "None", "facebook": "None", "youtube": "None", "website": "None", "summary": "None", "logo": "None", "latitude": 45.178633345573694, "longitude": -64.60882401836054}, "890641160RR0001": {"name": "HALLS LAKE COMMUNITY CHURCH", "designationCode": "C", "categoryCode": "39", "address": "1570 LITTLE HAWK LAKE ROAD", "city": "ALGONQUIN HIGHLANDS", "province": "ON", "country": "CA", "postalCode": "K0M1J2", "twitter": "None", "instagram": "None", "facebook": "None", "youtube": "None", "website": "None", "summary": "None", "logo": "None", "latitude": 45.11831439877643, "longitude": -78.73516195663865}, "118951151RR0001": {"name": "HALLVILLE UNITED CHURCH", "designationCode": "C", "categoryCode": "44", "address": "10418 PLEASANT VALLEY ROAD    RR#1", "city": "SOUTH MOUNTAIN", "province": "ON", "country": "CA", "postalCode": "K0E1W0", "twitter": "None", "instagram": "None", "facebook": "None", "youtube": "None", "website": "None", "summary": "None", "logo": "None", "latitude": 44.95896852899769, "longitude": -75.44621216472387}, "120523097RR0001": {"name": "HALTE BOIS-FRANCS", "designationCode": "C", "categoryCode": "59", "address": "90 RUE GIROUARD", "city": "VICTORIAVILLE", "province": "QC", "country": "CA", "postalCode": "G6P5T5", "twitter": "None", "instagram": "None", "facebook": "None", "youtube": "None", "website": "None", "summary": "None", "logo": "None", "latitude": 46.04822188954924, "longitude": -71.92884065777032}, "139677025RR0001": {"name": "HALTE DRUMMOND", "designationCode": "C", "categoryCode": "09", "address": "152 RUE COCKBURN", "city": "DRUMMONDVILLE", "province": "QC", "country": "CA", "postalCode": "J2C4L3", "twitter": "None", "instagram": "None", "facebook": "None", "youtube": "None", "website": "None", "summary": "None", "logo": "None", "latitude": 45.884508202608345, "longitude": -72.49166417485141}, "118951201RR0001": {"name": "HALTE LA RESSOURCE INC.", "designationCode": "C", "categoryCode": "09", "address": "6365 RUE DE SAINT-VALLIER", "city": "MONTREAL", "province": "QC", "country": "CA", "postalCode": "H2S2P6", "twitter": "None", "instagram": "None", "facebook": "None", "youtube": "None", "website": "None", "summary": "None", "logo": "None", "latitude": 45.53430316654154, "longitude": -73.60321796612622}, "102253788RR0001": {"name": "HALTE SOLEIL", "designationCode": "C", "categoryCode": "01", "address": "404 RUE FILIATRAULT", "city": "SAINT-JOSEPH-DE-SOREL", "province": "QC", "country": "CA", "postalCode": "J3R3S8", "twitter": "None", "instagram": "None", "facebook": "None", "youtube": "None", "website": "None", "summary": "None", "logo": "None", "latitude": 46.04132059838997, "longitude": -73.12929311169152}, "892157967RR0001": {"name": "HALTE-FEMME HAUTE-GATINEAU", "designationCode": "C", "categoryCode": "09", "address": "209 RUE PRINCIPALE SUD", "city": "MANIWAKI", "province": "QC", "country": "CA", "postalCode": "J9E2A3", "twitter": "None", "instagram": "None", "facebook": "None", "youtube": "None", "website": "None", "summary": "None", "logo": "None", "latitude": 46.37360383596862, "longitude": -75.98167441753728}, "102253663RR0001": {"name": "HALTE-FEMMES MONTR\u00c9AL-NORD", "designationCode": "C", "categoryCode": "01", "address": "6532, BOUL. LEGER", "city": "MONTREAL-NORD", "province": "QC", "country": "CA", "postalCode": "H1G1L5", "twitter": "None", "instagram": "None", "facebook": "None", "youtube": "None", "website": "None", "summary": "None", "logo": "None", "latitude": 45.6237501248775, "longitude": -73.62112656284278}, "135208577RR0001": {"name": "HALTE-GARDERIE LA PIROUETTE", "designationCode": "C", "categoryCode": "09", "address": "2-1901 RUE GILFORD", "city": "MONTREAL", "province": "QC", "country": "CA", "postalCode": "H2H1G8", "twitter": "None", "instagram": "None", "facebook": "None", "youtube": "None", "website": "None", "summary": "None", "logo": "None", "latitude": 45.535442227047064, "longitude": -73.57716513131145}, "140967894RR0001": {"name": "HALTE-PARENTS DE LA VALLEE", "designationCode": "C", "categoryCode": "09", "address": "39-D, ST-FRANCOIS XAVIER EST", "city": "GRANDE-VALLEE", "province": "QC", "country": "CA", "postalCode": "G0E1K0", "twitter": "None", "instagram": "None", "facebook": "None", "youtube": "None", "website": "None", "summary": "None", "logo": "None", "latitude": 49.227069518754554, "longitude": -65.11538516625309}}