{"118830744RR0001": {"name": "CANADIAN DIABETES ASSOCIATION/ASSOCIATION CANADIENNE DU DIAB\u00c8TE", "designationCode": "C", "categoryCode": "11", "address": "1400-522 UNIVERSITY AVE", "city": "TORONTO", "province": "ON", "country": "CA", "postalCode": "M5G2R5", "twitter": "None", "instagram": "None", "facebook": "None", "youtube": "None", "website": "None", "summary": "None", "logo": "None", "latitude": 43.65597971994926, "longitude": -79.38900529894951}, "889968269RR0001": {"name": "CANADIAN DIGESTIVE HEALTH FOUNDATION / FONDATION CANADIENNE POUR LA PROMOTION DE LA SANTE DIGESTIVE", "designationCode": "C", "categoryCode": "11", "address": "300 - 2525 OLD BRONTE RD", "city": "OAKVILLE", "province": "ON", "country": "CA", "postalCode": "L6M4J2", "twitter": "None", "instagram": "None", "facebook": "None", "youtube": "None", "website": "None", "summary": "None", "logo": "None", "latitude": 43.4353283735933, "longitude": -79.77598582082075}, "755361524RR0001": {"name": "CANADIAN DISASTER ANIMAL RESPONSE TEAM SOUTHWEST BC SOCIETY", "designationCode": "C", "categoryCode": "54", "address": "51-13650 80 AVE", "city": "SURREY", "province": "BC", "country": "CA", "postalCode": "V3W6J8", "twitter": "None", "instagram": "None", "facebook": "None", "youtube": "None", "website": "None", "summary": "None", "logo": "None", "latitude": 49.14811002111445, "longitude": -122.84338060207776}, "896111408RR0001": {"name": "CANADIAN DISASTER CHILD CARE SOCIETY", "designationCode": "C", "categoryCode": "01", "address": "706 10TH STREET SOUTH", "city": "CRANBROOK", "province": "BC", "country": "CA", "postalCode": "V1C1S6", "twitter": "None", "instagram": "None", "facebook": "None", "youtube": "None", "website": "None", "summary": "None", "logo": "None", "latitude": 49.499065486005975, "longitude": -115.7709499417162}, "118830751RR0001": {"name": "CANADIAN DOWN SYNDROME SOCIETY", "designationCode": "C", "categoryCode": "11", "address": "103-2003 14 ST NW", "city": "CALGARY", "province": "AB", "country": "CA", "postalCode": "T2M3N4", "twitter": "None", "instagram": "None", "facebook": "None", "youtube": "None", "website": "None", "summary": "None", "logo": "None"}, "899588727RR0001": {"name": "CANADIAN DRILLING RIG MUSEUM INC", "designationCode": "C", "categoryCode": "50", "address": "259 KOHLER ROAD", "city": "SELKIRK", "province": "ON", "country": "CA", "postalCode": "N0A1P0", "twitter": "None", "instagram": "None", "facebook": "None", "youtube": "None", "website": "None", "summary": "None", "logo": "None", "latitude": 42.84713319732824, "longitude": -79.84394470070376}, "140953811RR0001": {"name": "CANADIAN DRUZE SOCIETY OF ONTARIO", "designationCode": "C", "categoryCode": "39", "address": "898 MARKHAM ROAD", "city": "TORONTO", "province": "ON", "country": "CA", "postalCode": "M1H2Y2", "twitter": "None", "instagram": "None", "facebook": "None", "youtube": "None", "website": "None", "summary": "None", "logo": "None", "latitude": 43.768464978619726, "longitude": -79.22870349991308}, "853752475RR0001": {"name": "CANADIAN EARTH INSTITUTE - L'INSTITUT CANADIEN DE LA TERRE", "designationCode": "C", "categoryCode": "29", "address": "1565 BALDY MOUNTAIN RD", "city": "SHAWNIGAN LAKE", "province": "BC", "country": "CA", "postalCode": "V0R2W2", "twitter": "None", "instagram": "None", "facebook": "None", "youtube": "None", "website": "None", "summary": "None", "logo": "None", "latitude": 48.6384199766993, "longitude": -123.60915889375913}, "100763416RR0001": {"name": "CANADIAN EDUCATION ASSOCIATION/ASSOCIATION CANADIENNE D'EDUCATION", "designationCode": "C", "categoryCode": "21", "address": "703 - 60 ST CLAIR AVE E", "city": "TORONTO", "province": "ON", "country": "CA", "postalCode": "M4T1N5", "twitter": "None", "instagram": "None", "facebook": "None", "youtube": "None", "website": "None", "summary": "None", "logo": "None"}, "891072092RR0001": {"name": "CANADIAN EDUCATION FORUM", "designationCode": "C", "categoryCode": "21", "address": "1250-1500 GEORGIA ST W        PO BOX 62", "city": "VANCOUVER", "province": "BC", "country": "CA", "postalCode": "V6G2Z6", "twitter": "None", "instagram": "None", "facebook": "None", "youtube": "None", "website": "None", "summary": "None", "logo": "None", "latitude": 49.29013479542975, "longitude": -123.1300069287031}, "894481993RR0001": {"name": "CANADIAN EGYPTIAN ORGANIZATION FOR HUMAN RIGHTS - ORGANISATION CANADO-\u00c9GYPTIENNE DES DROITS DE LA PERSONNE", "designationCode": "C", "categoryCode": "59", "address": "2161 HARBOUR ST", "city": "LAVAL", "province": "QC", "country": "CA", "postalCode": "H7T2M3", "twitter": "None", "instagram": "None", "facebook": "None", "youtube": "None", "website": "None", "summary": "None", "logo": "None", "latitude": 45.55285521593854, "longitude": -73.77873885815696}, "855472189RR0001": {"name": "CANADIAN ELECTRIC WHEELCHAIR HOCKEY ASSOCIATION", "designationCode": "C", "categoryCode": "09", "address": "53 RIVERCREST ROAD", "city": "TORONTO", "province": "ON", "country": "CA", "postalCode": "M6S4H5", "twitter": "None", "instagram": "None", "facebook": "None", "youtube": "None", "website": "None", "summary": "None", "logo": "None", "latitude": 43.650827067170596, "longitude": -79.48699079167883}, "895098515RR0001": {"name": "CANADIAN ENVIRONMENTAL GRANTMAKERS' NETWORK/RESEAU CANADIEN DES SUBVENTIONNEURS EN ENVIRONNEMENT", "designationCode": "C", "categoryCode": "59", "address": "300 - 2 ST CLAIR AVE E", "city": "TORONTO", "province": "ON", "country": "CA", "postalCode": "M4T2T5", "twitter": "None", "instagram": "None", "facebook": "None", "youtube": "None", "website": "None", "summary": "None", "logo": "None", "latitude": 43.68819219458694, "longitude": -79.39364569637594}, "887536522RR0001": {"name": "CANADIAN EPILEPSY ALLIANCE/ALLIANCE CANADIENNE DE L'EPILEPSIE", "designationCode": "C", "categoryCode": "09", "address": "710-60 COLUMBIA WAY", "city": "MARKHAM", "province": "ON", "country": "CA", "postalCode": "L3R0C9", "twitter": "None", "instagram": "None", "facebook": "None", "youtube": "None", "website": "None", "summary": "None", "logo": "None", "latitude": 43.852000517052446, "longitude": -79.36951673636653}, "118830850RR0001": {"name": "CANADIAN EXECUTIVE SERVICE ORGANIZATION/SERVICE D'ASSISTANCE CANADIENNE AUX ORGANISMES", "designationCode": "C", "categoryCode": "21", "address": "800-700 BAY ST.               BOX 800", "city": "TORONTO", "province": "ON", "country": "CA", "postalCode": "M5G1Z6", "twitter": "None", "instagram": "None", "facebook": "None", "youtube": "None", "website": "None", "summary": "None", "logo": "None", "latitude": 43.65825300000001, "longitude": -79.3847835}, "885186601RR0001": {"name": "CANADIAN EYESIGHT GLOBAL", "designationCode": "C", "categoryCode": "11", "address": "10563-148 ST", "city": "SURREY", "province": "BC", "country": "CA", "postalCode": "V3R3X7", "twitter": "None", "instagram": "None", "facebook": "None", "youtube": "None", "website": "None", "summary": "None", "logo": "None", "latitude": 49.194558, "longitude": -122.81250407051749}, "882146509RR0001": {"name": "CANADIAN FALLEN FIREFIGHTERS FOUNDATION / FONDATION CANADIENNE DES POMPIERS MORTS EN SERVICE", "designationCode": "C", "categoryCode": "59", "address": "440 LAURIER AVE W             SUITE 200", "city": "OTTAWA", "province": "ON", "country": "CA", "postalCode": "K1R7X6", "twitter": "None", "instagram": "None", "facebook": "None", "youtube": "None", "website": "None", "summary": "None", "logo": "None", "latitude": 45.416885596428095, "longitude": -75.70299045363275}, "865639447RR0001": {"name": "CANADIAN FALLEN HEROES FOUNDATION", "designationCode": "A", "categoryCode": "59", "address": "PO BOX 39", "city": "WELLS", "province": "BC", "country": "CA", "postalCode": "V0K2R0", "twitter": "None", "instagram": "None", "facebook": "None", "youtube": "None", "website": "None", "summary": "None", "logo": "None", "latitude": 53.10154000000006, "longitude": -121.57406999999995}, "875428062RR0001": {"name": "CANADIAN FAMILIES AND CORRECTIONS NETWORK / REGROUPEMENT CANADIEN D'AIDE AUX FAMILLES DES D\u00c9TENU(E)S", "designationCode": "C", "categoryCode": "59", "address": "PO BOX 35040", "city": "KINGSTON", "province": "ON", "country": "CA", "postalCode": "K7L1H2", "twitter": "None", "instagram": "None", "facebook": "None", "youtube": "None", "website": "None", "summary": "None", "logo": "None", "latitude": 44.242413000000056, "longitude": -76.51462849999993}, "868951724RR0001": {"name": "CANADIAN FANCONI ANEMIA RESEARCH FUND/LA FONDATION CANADIENNE DE RECHERCHE DE L'ANEMIE DE FANCONI", "designationCode": "C", "categoryCode": "19", "address": "72 CASTLEWOOD ROAD", "city": "TORONTO", "province": "ON", "country": "CA", "postalCode": "M5N2L2", "twitter": "None", "instagram": "None", "facebook": "None", "youtube": "None", "website": "None", "summary": "None", "logo": "None", "latitude": 43.70508261948181, "longitude": -79.41544579130347}, "886193515RR0001": {"name": "CANADIAN FARMERS WITH DISABILITIES REGISTRY", "designationCode": "C", "categoryCode": "11", "address": "P.O. BOX 42", "city": "DENHOLM", "province": "SK", "country": "CA", "postalCode": "S0M0R0", "twitter": "None", "instagram": "None", "facebook": "None", "youtube": "None", "website": "None", "summary": "None", "logo": "None", "latitude": 52.65013000000005, "longitude": -108.01802999999995}, "118830876RR0001": {"name": "CANADIAN FEDERATION OF FRIENDS OF MUSEUMS-FEDERATION CANADIENNE D'AMIS DE MUSEES", "designationCode": "C", "categoryCode": "50", "address": "280 METCALFE STREET           SUITE 400", "city": "OTTAWA", "province": "ON", "country": "CA", "postalCode": "K2P1R7", "twitter": "None", "instagram": "None", "facebook": "None", "youtube": "None", "website": "None", "summary": "None", "logo": "None", "latitude": 45.415843450718555, "longitude": -75.69137681256818}, "118830884RR0001": {"name": "CANADIAN FEDERATION OF HUMANE SOCIETIES", "designationCode": "C", "categoryCode": "54", "address": "102-30 CONCOURSE GATE", "city": "NEPEAN", "province": "ON", "country": "CA", "postalCode": "K2E7V7", "twitter": "None", "instagram": "None", "facebook": "None", "youtube": "None", "website": "None", "summary": "None", "logo": "None", "latitude": 45.34471949518123, "longitude": -75.70899350738625}, "864997291RR0001": {"name": "CANADIAN FEDERATION OF THE BLIND", "designationCode": "C", "categoryCode": "11", "address": "P.O. BOX 8007", "city": "VICTORIA", "province": "BC", "country": "CA", "postalCode": "V8W3R7", "twitter": "None", "instagram": "None", "facebook": "None", "youtube": "None", "website": "None", "summary": "None", "logo": "None", "latitude": 48.42854700000005, "longitude": -123.36445249999994}, "889221594RR0001": {"name": "CANADIAN FEDERATION OF UNIVERSITY WOMEN (SUNSHINE COAST) BURSARY SOCIETY", "designationCode": "C", "categoryCode": "21", "address": "859 OCEANMOUNT BLVD", "city": "GIBSONS", "province": "BC", "country": "CA", "postalCode": "V0N1V8", "twitter": "None", "instagram": "None", "facebook": "None", "youtube": "None", "website": "None", "summary": "None", "logo": "None", "latitude": 49.401203344971, "longitude": -123.51712342688545}, "890778392RR0001": {"name": "CANADIAN FEDERATION OF UNIVERSITY WOMEN - AJAX - PICKERING SCHOLARSHIP FUND", "designationCode": "C", "categoryCode": "21", "address": "4-1850 KINGSTON ROAD WEST", "city": "PICKERING", "province": "ON", "country": "CA", "postalCode": "L1V0A2", "twitter": "None", "instagram": "None", "facebook": "None", "youtube": "None", "website": "None", "summary": "None", "logo": "None", "latitude": 43.82824342250069, "longitude": -79.09903454456034}, "888996444RR0001": {"name": "CANADIAN FEDERATION OF UNIVERSITY WOMEN - CALGARY CLUB", "designationCode": "C", "categoryCode": "21", "address": "218103 76 ST E", "city": "FOOTHILLS", "province": "AB", "country": "CA", "postalCode": "T1S3V8", "twitter": "None", "instagram": "None", "facebook": "None", "youtube": "None", "website": "None", "summary": "None", "logo": "None", "latitude": 50.84997054227056, "longitude": -113.88672997720607}, "119228096RR0001": {"name": "CANADIAN FEDERATION OF UNIVERSITY WOMEN - COMOX VALLEY (CFUW-COMOX VALLEY) BURSARY TRUST", "designationCode": "C", "categoryCode": "21", "address": "BOX 3334", "city": "COURTENAY", "province": "BC", "country": "CA", "postalCode": "V9N5N5", "twitter": "None", "instagram": "None", "facebook": "None", "youtube": "None", "website": "None", "summary": "None", "logo": "None", "latitude": 49.68669300000006, "longitude": -124.99317349999993}, "889007043RR0001": {"name": "CANADIAN FEDERATION OF UNIVERSITY WOMEN - EDMONTON ACADEMIC AWARDS FUND", "designationCode": "C", "categoryCode": "21", "address": "16109-86 AVENUE NW", "city": "EDMONTON", "province": "AB", "country": "CA", "postalCode": "T5R4C6", "twitter": "None", "instagram": "None", "facebook": "None", "youtube": "None", "website": "None", "summary": "None", "logo": "None", "latitude": 53.51852947403209, "longitude": -113.60080341618097}, "888257441RR0001": {"name": "CANADIAN FEDERATION OF UNIVERSITY WOMEN - GEORGETOWN SCHOLARSHIP FUND", "designationCode": "C", "categoryCode": "21", "address": "12 - 76 RIVER DR", "city": "GEORGETOWN", "province": "ON", "country": "CA", "postalCode": "L7G2J2", "twitter": "None", "instagram": "None", "facebook": "None", "youtube": "None", "website": "None", "summary": "None", "logo": "None", "latitude": 43.66065296681041, "longitude": -79.91047817256593}, "858676315RR0001": {"name": "CANADIAN FEDERATION OF UNIVERSITY WOMEN - GRIMSBY CLUB SCHOLARSHIP FUND", "designationCode": "C", "categoryCode": "21", "address": "4 DEER PARK CRT", "city": "GRIMSBY", "province": "ON", "country": "CA", "postalCode": "L3M2R2", "twitter": "None", "instagram": "None", "facebook": "None", "youtube": "None", "website": "None", "summary": "None", "logo": "None", "latitude": 43.1836016230885, "longitude": -79.53018183845012}, "886528470RR0001": {"name": "CANADIAN FEDERATION OF UNIVERSITY WOMEN - MUSKOKA CHARITABLE TRUST FUND", "designationCode": "C", "categoryCode": "21", "address": "PO BOX 1553", "city": "BRACEBRIDGE", "province": "ON", "country": "CA", "postalCode": "P1L1V6", "twitter": "None", "instagram": "None", "facebook": "None", "youtube": "None", "website": "None", "summary": "None", "logo": "None", "latitude": 45.055572000000055, "longitude": -79.28863099999994}, "897223533RR0001": {"name": "CANADIAN FEDERATION OF UNIVERSITY WOMEN - OWEN SOUND CLUB SCHOLARSHIP FUND", "designationCode": "C", "categoryCode": "21", "address": "180 OLD BEACH DRIVE", "city": "OWEN SOUND", "province": "ON", "country": "CA", "postalCode": "N4K5N4", "twitter": "None", "instagram": "None", "facebook": "None", "youtube": "None", "website": "None", "summary": "None", "logo": "None", "latitude": 44.621810176897895, "longitude": -80.9396638092742}, "868192766RR0001": {"name": "CANADIAN FEDERATION OF UNIVERSITY WOMEN - SAANICH PENINSULA EDUCATION TRUST FUND", "designationCode": "A", "categoryCode": "21", "address": "P.O. BOX 20062", "city": "SIDNEY", "province": "BC", "country": "CA", "postalCode": "V8L5C9", "twitter": "None", "instagram": "None", "facebook": "None", "youtube": "None", "website": "None", "summary": "None", "logo": "None", "latitude": 48.65020800000005, "longitude": -123.39842299999994}, "891345597RR0001": {"name": "CANADIAN FEDERATION OF UNIVERSITY WOMEN - SAUGEEN SCHOLARSHIP FUND", "designationCode": "C", "categoryCode": "21", "address": "28 ELM STREET S               BOX 1922", "city": "WALKERTON", "province": "ON", "country": "CA", "postalCode": "N0G2V0", "twitter": "None", "instagram": "None", "facebook": "None", "youtube": "None", "website": "None", "summary": "None", "logo": "None", "latitude": 44.13306895420966, "longitude": -81.14138531455967}, "889088365RR0001": {"name": "CANADIAN FEDERATION OF UNIVERSITY WOMEN - ST. CATHARINES CHARITABLE FUND", "designationCode": "C", "categoryCode": "21", "address": "125 CARLTON STREET            PO BOX 23011", "city": "ST-CATHARINES", "province": "ON", "country": "CA", "postalCode": "L2R1R5", "twitter": "None", "instagram": "None", "facebook": "None", "youtube": "None", "website": "None", "summary": "None", "logo": "None", "latitude": 43.17146747626054, "longitude": -79.25268044754725}, "892445446RR0001": {"name": "CANADIAN FEDERATION OF UNIVERSITY WOMEN -NANAIMO", "designationCode": "C", "categoryCode": "22", "address": "8180 SOUTHWIND DR", "city": "LANTZVILLE", "province": "BC", "country": "CA", "postalCode": "V0R2H0", "twitter": "None", "instagram": "None", "facebook": "None", "youtube": "None", "website": "None", "summary": "None", "logo": "None", "latitude": 49.24705264577869, "longitude": -124.12901844650847}, "138024013RR0001": {"name": "CANADIAN FEDERATION OF UNIVERSITY WOMEN CHARITABLE TRUST", "designationCode": "C", "categoryCode": "21", "address": "62 THOMPSON AVE", "city": "ETOBICOKE", "province": "ON", "country": "CA", "postalCode": "M8Z3T4", "twitter": "None", "instagram": "None", "facebook": "None", "youtube": "None", "website": "None", "summary": "None", "logo": "None", "latitude": 43.6446364612788, "longitude": -79.51391555081065}, "890032170RR0001": {"name": "CANADIAN FEDERATION OF UNIVERSITY WOMEN COWICHAN VALLEY", "designationCode": "C", "categoryCode": "21", "address": "2268 RENFREW RD", "city": "SHAWNIGAN LAKE", "province": "BC", "country": "CA", "postalCode": "V0R2W1", "twitter": "None", "instagram": "None", "facebook": "None", "youtube": "None", "website": "None", "summary": "None", "logo": "None", "latitude": 48.65259130625391, "longitude": -123.65549461991523}, "889541777RR0001": {"name": "CANADIAN FEDERATION OF UNIVERSITY WOMEN HAMILTON BRANCH SCHOLARSHIP FUND", "designationCode": "C", "categoryCode": "21", "address": "146 ROTHSAY AVE", "city": "HAMILTON", "province": "ON", "country": "CA", "postalCode": "L8M3G4", "twitter": "None", "instagram": "None", "facebook": "None", "youtube": "None", "website": "None", "summary": "None", "logo": "None", "latitude": 43.239122402446746, "longitude": -79.82672567987174}, "118830900RR0001": {"name": "CANADIAN FEDERATION OF UNIVERSITY WOMEN KINGSTON CLUB SCHOLARSHIP TRUST FUND", "designationCode": "A", "categoryCode": "25", "address": "3131 PRINCESS STREET RR 3", "city": "KINGSTON", "province": "ON", "country": "CA", "postalCode": "K7P0K6", "twitter": "None", "instagram": "None", "facebook": "None", "youtube": "None", "website": "None", "summary": "None", "logo": "None", "latitude": 44.262232724912266, "longitude": -76.60018657397994}, "890773799RR0001": {"name": "CANADIAN FEDERATION OF UNIVERSITY WOMEN NIAGARA FALLS ONTARIO BRANCH SCHOLARSHIP TRUST FUND", "designationCode": "C", "categoryCode": "21", "address": "6309 FOREST RIDGE DR.", "city": "NIAGARA FALLS", "province": "ON", "country": "CA", "postalCode": "L2J4K2", "twitter": "None", "instagram": "None", "facebook": "None", "youtube": "None", "website": "None", "summary": "None", "logo": "None", "latitude": 43.14093042050879, "longitude": -79.10315849694157}, "890273048RR0001": {"name": "CANADIAN FEDERATION OF UNIVERSITY WOMEN OF NORTH BAY SCHOLARSHIP AND BURSARY FUND ORGANIZATION TRUST", "designationCode": "C", "categoryCode": "21", "address": "11 CANTERBURY CRES", "city": "NORTH BAY", "province": "ON", "country": "CA", "postalCode": "P1C1K9", "twitter": "None", "instagram": "None", "facebook": "None", "youtube": "None", "website": "None", "summary": "None", "logo": "None", "latitude": 46.34216550678067, "longitude": -79.43328411226844}, "890560246RR0001": {"name": "CANADIAN FEDERATION OF UNIVERSITY WOMEN PETERBOROUGH CLUB AWARDS FUND (CFUW PETERBOROUGH AWARDS FUND)", "designationCode": "C", "categoryCode": "21", "address": "1267 FRANKLIN DRIVE", "city": "PETERBOROUGH", "province": "ON", "country": "CA", "postalCode": "K9H6Z3", "twitter": "None", "instagram": "None", "facebook": "None", "youtube": "None", "website": "None", "summary": "None", "logo": "None", "latitude": 44.338562863177295, "longitude": -78.32846801445538}, "866524895RR0001": {"name": "CANADIAN FEDERATION OF UNIVERSITY WOMEN SOUTHPORT SCHOLARSHIP FUND", "designationCode": "C", "categoryCode": "21", "address": "611 CREEKWOOD DR              SS 1", "city": "SOUTHAMPTON", "province": "ON", "country": "CA", "postalCode": "N0H2L0", "twitter": "None", "instagram": "None", "facebook": "None", "youtube": "None", "website": "None", "summary": "None", "logo": "None", "latitude": 44.47911324259897, "longitude": -81.37588120431045}, "119260768RR0001": {"name": "CANADIAN FEDERATION OF UNIVERSITY WOMEN VICTORIA SCHOLARSHIP AND BURSARY SOCIETY", "designationCode": "C", "categoryCode": "21", "address": "201 - 1270 JOHNSON ST", "city": "VICTORIA", "province": "BC", "country": "CA", "postalCode": "V8V3P1", "twitter": "None", "instagram": "None", "facebook": "None", "youtube": "None", "website": "None", "summary": "None", "logo": "None", "latitude": 48.42547047879261, "longitude": -123.34838069455826}, "890355241RR0001": {"name": "CANADIAN FEDERATION OF UNIVERSITY WOMEN-BRAMPTON SCHOLARSHIP FUND", "designationCode": "C", "categoryCode": "21", "address": "4 ROBERTS CRESCENT", "city": "BRAMPTON", "province": "ON", "country": "CA", "postalCode": "L6W1G8", "twitter": "None", "instagram": "None", "facebook": "None", "youtube": "None", "website": "None", "summary": "None", "logo": "None", "latitude": 43.67968072271921, "longitude": -79.73281564902774}, "887448280RR0001": {"name": "CANADIAN FEDERATION OF UNIVERSITY WOMEN-GUELPH CHAPTER SCHOLARSHIPS AND AWARDS TRUST FUND", "designationCode": "A", "categoryCode": "21", "address": "10 - 10 STUART ST", "city": "GUELPH", "province": "ON", "country": "CA", "postalCode": "N1E6T4", "twitter": "None", "instagram": "None", "facebook": "None", "youtube": "None", "website": "None", "summary": "None", "logo": "None", "latitude": 43.55066760029457, "longitude": -80.24422057429706}, "131849978RR0001": {"name": "CANADIAN FEDERATION OF UNIVERSITY WOMEN-NORTH VANCOUVER EDUCATION TRUST FUND", "designationCode": "C", "categoryCode": "21", "address": "2930 LONSDALE AVE             BOX 37062", "city": "NORTH VANCOUVER", "province": "BC", "country": "CA", "postalCode": "V7N4M0", "twitter": "None", "instagram": "None", "facebook": "None", "youtube": "None", "website": "None", "summary": "None", "logo": "None", "latitude": 49.33587031329991, "longitude": -123.07193671519987}, "119260743RR0001": {"name": "CANADIAN FEDERATION OF UNIVERSITY WOMEN-PARKSVILLE/QUALICUM,B.C. SCHOLARSHIP AND BURSARY TRUST", "designationCode": "C", "categoryCode": "21", "address": "P.O. BOX 113", "city": "QUALICUM BEACH", "province": "BC", "country": "CA", "postalCode": "V9K1S7", "twitter": "None", "instagram": "None", "facebook": "None", "youtube": "None", "website": "None", "summary": "None", "logo": "None", "latitude": 49.34772600000005, "longitude": -124.44434449999994}, "870723129RR0001": {"name": "CANADIAN FEDERATION OF UNIVERSITY WOMEN/BARRIE DISTRICT SCHOLARSHIP TRUST FUND", "designationCode": "C", "categoryCode": "21", "address": "3 SILVERWOOD CRES", "city": "MIDHURST", "province": "ON", "country": "CA", "postalCode": "L9X0P3", "twitter": "None", "instagram": "None", "facebook": "None", "youtube": "None", "website": "None", "summary": "None", "logo": "None", "latitude": 44.445222745744275, "longitude": -79.714909709389}, "809222276RR0001": {"name": "CANADIAN FEDERATION OF UNIVERSITY WOMEN/KANATA SCHOLARSHIP TRUST", "designationCode": "C", "categoryCode": "21", "address": "174 KNUDSON DR", "city": "KANATA", "province": "ON", "country": "CA", "postalCode": "K2K2C6", "twitter": "None", "instagram": "None", "facebook": "None", "youtube": "None", "website": "None", "summary": "None", "logo": "None", "latitude": 45.32330889757066, "longitude": -75.9087558423739}, "893039248RR0001": {"name": "CANADIAN FEDERATION OF UNIVERSITY WOMEN/NEPEAN SCHOLARSHIP TRUST", "designationCode": "C", "categoryCode": "21", "address": "36 RIVERBEND DRIVE", "city": "NEPEAN", "province": "ON", "country": "CA", "postalCode": "K2H7C1", "twitter": "None", "instagram": "None", "facebook": "None", "youtube": "None", "website": "None", "summary": "None", "logo": "None", "latitude": 45.34693065999202, "longitude": -75.82200796127881}, "882853575RR0001": {"name": "CANADIAN FEDERATION OF UNIVERSITY WOMEN/NORTHUMBERLAND SCHOLARSHIP TRUST", "designationCode": "C", "categoryCode": "21", "address": "50 CROSSLEY DR", "city": "PORT HOPE", "province": "ON", "country": "CA", "postalCode": "L1A3T5", "twitter": "None", "instagram": "None", "facebook": "None", "youtube": "None", "website": "None", "summary": "None", "logo": "None", "latitude": 43.96761940608207, "longitude": -78.30347419331751}, "866097421RR0001": {"name": "CANADIAN FEDERATION OF UNIVERSITY WOMEN/SALT SPRING ISLAND SCHOLARSHIP BURSARY FUND", "designationCode": "C", "categoryCode": "21", "address": "100 - 121 ATKINS RD", "city": "SALT SPRING ISLAND", "province": "BC", "country": "CA", "postalCode": "V8K2X7", "twitter": "None", "instagram": "None", "facebook": "None", "youtube": "None", "website": "None", "summary": "None", "logo": "None", "latitude": 48.86112265560418, "longitude": -123.51506799963627}, "888787660RR0001": {"name": "CANADIAN FEDERATION OF UNIVERSITY WOMEN/SARNIA", "designationCode": "C", "categoryCode": "21", "address": "1500 VENETIAN BLVD, UNIT W51", "city": "POINT EDWARD", "province": "ON", "country": "CA", "postalCode": "N7T7W4", "twitter": "None", "instagram": "None", "facebook": "None", "youtube": "None", "website": "None", "summary": "None", "logo": "None", "latitude": 42.99037323102348, "longitude": -82.41097386049694}, "119279545RR0001": {"name": "CANADIAN FEDERATION OF UNIVERSITY WOMEN/SASKATOON INC. SCHOLARSHIP TRUST FUND", "designationCode": "C", "categoryCode": "21", "address": "BOX 7405", "city": "SASKATOON", "province": "SK", "country": "CA", "postalCode": "S7K4J3", "twitter": "None", "instagram": "None", "facebook": "None", "youtube": "None", "website": "None", "summary": "None", "logo": "None", "latitude": 52.13049000000005, "longitude": -106.65926449999994}, "891235145RR0001": {"name": "CANADIAN FEDERATION OF UNIVERSITY WOMEN/ST THOMAS SCHOLARSHIP FUND", "designationCode": "C", "categoryCode": "21", "address": "57 VANBUSKIRK DR", "city": "ST. THOMAS", "province": "ON", "country": "CA", "postalCode": "N5R4Z3", "twitter": "None", "instagram": "None", "facebook": "None", "youtube": "None", "website": "None", "summary": "None", "logo": "None", "latitude": 42.76453697167807, "longitude": -81.1622528361438}, "892966185RR0001": {"name": "CANADIAN FEDERATION OF UNIVERSITY WOMEN/STRATFORD SCHOLARSHIP FUND", "designationCode": "C", "categoryCode": "21", "address": "5142 LINE 42, R.R.#1", "city": "SEBRINGVILLE", "province": "ON", "country": "CA", "postalCode": "N0K1X0", "twitter": "None", "instagram": "None", "facebook": "None", "youtube": "None", "website": "None", "summary": "None", "logo": "None", "latitude": 43.475193940404736, "longitude": -81.0678981164679}, "888989779RR0001": {"name": "CANADIAN FEDERATION OF UNIVERSITY WOMEN, CAMBRIDGE", "designationCode": "C", "categoryCode": "21", "address": "9 BALL AVE", "city": "CAMBRIDGE", "province": "ON", "country": "CA", "postalCode": "N1R2A2", "twitter": "None", "instagram": "None", "facebook": "None", "youtube": "None", "website": "None", "summary": "None", "logo": "None", "latitude": 43.35919464167016, "longitude": -80.30583617069648}, "889490397RR0001": {"name": "CANADIAN FEDERATION OF UNIVERSITY WOMEN, CORNWALL SCHOLARSHI", "designationCode": "C", "categoryCode": "21", "address": "3453 SUNNYVIEW AVE", "city": "CORNWALL", "province": "ON", "country": "CA", "postalCode": "K6K1P9", "twitter": "None", "instagram": "None", "facebook": "None", "youtube": "None", "website": "None", "summary": "None", "logo": "None", "latitude": 45.06262972162269, "longitude": -74.77924734748115}, "891530743RR0001": {"name": "CANADIAN FEDERATION OF UNIVERSITY WOMEN, MARKHAM/UNIONVILLE EDUCATION FUND", "designationCode": "C", "categoryCode": "21", "address": "5762 HIGHWAY 7, P.O. BOX 54071RPO GALWORTHY", "city": "MARKHAM", "province": "ON", "country": "CA", "postalCode": "L3P7Y4", "twitter": "None", "instagram": "None", "facebook": "None", "youtube": "None", "website": "None", "summary": "None", "logo": "None", "latitude": 43.85650200000005, "longitude": -79.33982299999994}, "118830983RR0001": {"name": "CANADIAN FEED THE CHILDREN", "designationCode": "C", "categoryCode": "09", "address": "123-6 LANSING SQ", "city": "TORONTO", "province": "ON", "country": "CA", "postalCode": "M2J1T5", "twitter": "None", "instagram": "None", "facebook": "None", "youtube": "None", "website": "None", "summary": "None", "logo": "None", "latitude": 43.7739065495699, "longitude": -79.32397110214089}, "119679439RR0001": {"name": "CANADIAN FELLOWSHIP FOUNDATION FONDATION CANADIENNE DE LA F RATERNITE", "designationCode": "C", "categoryCode": "47", "address": "PO BOX 74058 RPO BEECHWOOD", "city": "OTTAWA", "province": "ON", "country": "CA", "postalCode": "K1M2H9", "twitter": "None", "instagram": "None", "facebook": "None", "youtube": "None", "website": "None", "summary": "None", "logo": "None", "latitude": 45.440527262020375, "longitude": -75.67482522007047}, "106844251RR0001": {"name": "CANADIAN FILM CENTRE", "designationCode": "C", "categoryCode": "22", "address": "2489 BAYVIEW AVENUE", "city": "NORTH YORK", "province": "ON", "country": "CA", "postalCode": "M2L1A8", "twitter": "None", "instagram": "None", "facebook": "None", "youtube": "None", "website": "None", "summary": "None", "logo": "None", "latitude": 43.74220658174158, "longitude": -79.38296501633131}, "118831023RR0001": {"name": "CANADIAN FILM INSTITUTE / INSTITUT CANADIEN DU FILM", "designationCode": "C", "categoryCode": "22", "address": "2 DALY AVENUE", "city": "OTTAWA", "province": "ON", "country": "CA", "postalCode": "K1N6E2", "twitter": "None", "instagram": "None", "facebook": "None", "youtube": "None", "website": "None", "summary": "None", "logo": "None", "latitude": 45.42564301552326, "longitude": -75.68902925893026}, "853251163RR0001": {"name": "CANADIAN FINANCIAL EXECUTIVES RESEARCH FOUNDATION / FONDATION DE RECHERCHE DES DIRIGEANTS FINANCIERS DU CANADA", "designationCode": "C", "categoryCode": "21", "address": "300 - 116 SIMCOE ST", "city": "TORONTO", "province": "ON", "country": "CA", "postalCode": "M5H4E2", "twitter": "None", "instagram": "None", "facebook": "None", "youtube": "None", "website": "None", "summary": "None", "logo": "None"}, "118831031RR0001": {"name": "CANADIAN FINNISH EVANGELIZATION SOCIETY INC.", "designationCode": "C", "categoryCode": "47", "address": "BOX 1332 STATION B", "city": "SUDBURY", "province": "ON", "country": "CA", "postalCode": "P3E5K4", "twitter": "None", "instagram": "None", "facebook": "None", "youtube": "None", "website": "None", "summary": "None", "logo": "None", "latitude": 46.48958700000006, "longitude": -80.99011249999994}, "118831049RR0001": {"name": "CANADIAN FIRE FIGHTERS MUSEUM (PORT HOPE)", "designationCode": "C", "categoryCode": "50", "address": "PO BOX 325 STN MAIN", "city": "PORT HOPE", "province": "ON", "country": "CA", "postalCode": "L1A3W4", "twitter": "None", "instagram": "None", "facebook": "None", "youtube": "None", "website": "None", "summary": "None", "logo": "None", "latitude": 43.95010200000006, "longitude": -78.29160199999993}, "118831056RR0001": {"name": "CANADIAN FITNESS AND LIFESTYLE RESEARCH INSTITUTE/INSTITUT CANADIEN DE LA RECHERCHE SUR LA CONDITION PHYSIQUE ET LE MODE", "designationCode": "C", "categoryCode": "21", "address": "201-185 SOMERSET ST W", "city": "OTTAWA", "province": "ON", "country": "CA", "postalCode": "K2P0J2", "twitter": "None", "instagram": "None", "facebook": "None", "youtube": "None", "website": "None", "summary": "None", "logo": "None", "latitude": 45.41776946906909, "longitude": -75.69065171830448}, "841410756RR0001": {"name": "CANADIAN FLOWERS FOR FOOD SOCIETY", "designationCode": "A", "categoryCode": "03", "address": "754 DOGWOOD ROAD", "city": "GIBSONS", "province": "BC", "country": "CA", "postalCode": "V0N1V8", "twitter": "None", "instagram": "None", "facebook": "None", "youtube": "None", "website": "None", "summary": "None", "logo": "None", "latitude": 49.39552413240797, "longitude": -123.51155554633858}, "118831080RR0001": {"name": "CANADIAN FOOD FOR CHILDREN", "designationCode": "C", "categoryCode": "09", "address": "1258 LAKESHORE RD E", "city": "MISSISSAUGA", "province": "ON", "country": "CA", "postalCode": "L5E1E9", "twitter": "None", "instagram": "None", "facebook": "None", "youtube": "None", "website": "None", "summary": "None", "logo": "None", "latitude": 43.58187231995537, "longitude": -79.55344950669469}, "890170798RR0001": {"name": "CANADIAN FOOD FOR CHILDREN CO-WORKERS B C DIVISION", "designationCode": "C", "categoryCode": "09", "address": "3218 224 ST", "city": "LANGLEY", "province": "BC", "country": "CA", "postalCode": "V2Z2G8", "twitter": "None", "instagram": "None", "facebook": "None", "youtube": "None", "website": "None", "summary": "None", "logo": "None", "latitude": 49.05994466472387, "longitude": -122.60392054994526}, "833006075RR0001": {"name": "CANADIAN FOOD FOR CHILDREN OKANAGAN DIVISION", "designationCode": "C", "categoryCode": "09", "address": "BOX 339,#113-437 MARTIN ST", "city": "PENTICTON", "province": "BC", "country": "CA", "postalCode": "V2A5L1", "twitter": "None", "instagram": "None", "facebook": "None", "youtube": "None", "website": "None", "summary": "None", "logo": "None", "latitude": 49.49611582431186, "longitude": -119.5923936051993}, "118831106RR0001": {"name": "CANADIAN FOODGRAINS BANK ASSOCIATION INC/ASSOCIATION DE LA BANQUE CANADIENNE DE GRAINS INC.", "designationCode": "C", "categoryCode": "09", "address": "PO BOX 767", "city": "WINNIPEG", "province": "MB", "country": "CA", "postalCode": "R3C2L4", "twitter": "None", "instagram": "None", "facebook": "None", "youtube": "None", "website": "None", "summary": "None", "logo": "None", "latitude": 49.899525000000054, "longitude": -97.14112999999993}, "106845993RR0001": {"name": "CANADIAN FOOTBALL HALL OF FAME AND MUSEUM", "designationCode": "C", "categoryCode": "50", "address": "58 JACKSON STREET WEST", "city": "HAMILTON", "province": "ON", "country": "CA", "postalCode": "L8P1L4", "twitter": "None", "instagram": "None", "facebook": "None", "youtube": "None", "website": "None", "summary": "None", "logo": "None", "latitude": 43.2551169425529, "longitude": -79.87238324770618}, "887688711RR0001": {"name": "CANADIAN FORCES BASE CHILLIWACK HISTORICAL SOCIETY", "designationCode": "C", "categoryCode": "50", "address": "6760 SCHOOL LANE RD", "city": "CHILLIWACK", "province": "BC", "country": "CA", "postalCode": "V2R2C9", "twitter": "None", "instagram": "None", "facebook": "None", "youtube": "None", "website": "None", "summary": "None", "logo": "None"}, "132955253RR0001": {"name": "CANADIAN FORCES BASE GANDER FAMILY RESOURCE CENTRE INC", "designationCode": "C", "categoryCode": "09", "address": "P O BOX 6000", "city": "GANDER", "province": "NL", "country": "CA", "postalCode": "A1V1X1", "twitter": "None", "instagram": "None", "facebook": "None", "youtube": "None", "website": "None", "summary": "None", "logo": "None", "latitude": 48.95684700000005, "longitude": -54.60917299999993}, "121491807RR0002": {"name": "CANADIAN FORCES BASE SUFFIELD EMPLOYEES' CHARITY TRUST", "designationCode": "A", "categoryCode": "03", "address": "CFB SUFFIELD                  P.O. BOX 6000, STATION MAIN", "city": "MEDICINE HAT", "province": "AB", "country": "CA", "postalCode": "T1A8K8", "twitter": "None", "instagram": "None", "facebook": "None", "youtube": "None", "website": "None", "summary": "None", "logo": "None", "latitude": 50.04107700000006, "longitude": -110.67813349999993}, "118831296RR0001": {"name": "CANADIAN FORCES CHAPEL FUND (PROTESTANT)", "designationCode": "C", "categoryCode": "39", "address": "NATION DEFENCE HEADQUARTERS   101 COLONEL BY DR.", "city": "OTTAWA", "province": "ON", "country": "CA", "postalCode": "K1A0K2", "twitter": "None", "instagram": "None", "facebook": "None", "youtube": "None", "website": "None", "summary": "None", "logo": "None", "latitude": 45.42359147570553, "longitude": -75.6909639665312}, "821878311RR0001": {"name": "CANADIAN FORCES COLLEGE FOUNDATION", "designationCode": "A", "categoryCode": "23", "address": "215 YONGE BOULEVARD,", "city": "TORONTO", "province": "ON", "country": "CA", "postalCode": "M5M3H9", "twitter": "None", "instagram": "None", "facebook": "None", "youtube": "None", "website": "None", "summary": "None", "logo": "None", "latitude": 43.74164976054544, "longitude": -79.41556903165299}, "118831379RR0001": {"name": "CANADIAN FORESTERS PROJECT (EASTERN) GROUP", "designationCode": "C", "categoryCode": "01", "address": "108 LIBERTY ST N", "city": "BOWMANVILLE", "province": "ON", "country": "CA", "postalCode": "L1C3Z5", "twitter": "None", "instagram": "None", "facebook": "None", "youtube": "None", "website": "None", "summary": "None", "logo": "None", "latitude": 43.91723527280873, "longitude": -78.68322273267296}, "888535440RR0001": {"name": "CANADIAN FORESTRY ASSOCIATION OF NEW BRUNSWICK INC", "designationCode": "C", "categoryCode": "52", "address": "1350 REGENT ST", "city": "FREDERICTON", "province": "NB", "country": "CA", "postalCode": "E3C2G6", "twitter": "None", "instagram": "None", "facebook": "None", "youtube": "None", "website": "None", "summary": "None", "logo": "None", "latitude": 45.93318442806793, "longitude": -66.6627597061873}, "887610392RR0001": {"name": "CANADIAN FORUM FOUNDATION", "designationCode": "C", "categoryCode": "21", "address": "5502 ATLANTIC STREET", "city": "HALIFAX", "province": "NS", "country": "CA", "postalCode": "B3H1G4", "twitter": "None", "instagram": "None", "facebook": "None", "youtube": "None", "website": "None", "summary": "None", "logo": "None", "latitude": 44.63317079430459, "longitude": -63.57196464319936}, "119045953RR0001": {"name": "CANADIAN FOSSIL DISCOVERY CENTRE INC.", "designationCode": "C", "categoryCode": "50", "address": "111B GILMOUR STREET", "city": "MORDEN", "province": "MB", "country": "CA", "postalCode": "R6M1N9", "twitter": "None", "instagram": "None", "facebook": "None", "youtube": "None", "website": "None", "summary": "None", "logo": "None", "latitude": 49.196633382171626, "longitude": -98.09486498629181}, "137467726RR0001": {"name": "CANADIAN FOSTER FAMILY ASSOCIATION/ASSOCIATION DES FAMILLES D'ACCUEIL DU CANADA", "designationCode": "C", "categoryCode": "59", "address": "32 DOC BLANCHARD CRES", "city": "CHARLOTTETOWN", "province": "PE", "country": "CA", "postalCode": "C1A9K3", "twitter": "None", "instagram": "None", "facebook": "None", "youtube": "None", "website": "None", "summary": "None", "logo": "None", "latitude": 46.25717681848349, "longitude": -63.14643032904371}, "118831437RR0001": {"name": "CANADIAN FOUNDATION FOR AIDS RESEARCH/FONDATION CANADIENNE DE RECHERCHE SUR LE SIDA", "designationCode": "C", "categoryCode": "13", "address": "200 WELLINGTON STREET WEST    SUITE 602", "city": "TORONTO", "province": "ON", "country": "CA", "postalCode": "M5V3C7", "twitter": "None", "instagram": "None", "facebook": "None", "youtube": "None", "website": "None", "summary": "None", "logo": "None", "latitude": 43.64606116408101, "longitude": -79.38581968608906}, "831576475RR0001": {"name": "CANADIAN FOUNDATION FOR ASIAN CULTURE (CENTRAL ONTARIO) INC.", "designationCode": "C", "categoryCode": "22", "address": "SUITE 416                     220 DUNCAN MILL ROAD", "city": "TORONTO", "province": "ON", "country": "CA", "postalCode": "M3B3J5", "twitter": "None", "instagram": "None", "facebook": "None", "youtube": "None", "website": "None", "summary": "None", "logo": "None", "latitude": 43.76188434058491, "longitude": -79.35286719579902}, "118831445RR0001": {"name": "CANADIAN FOUNDATION FOR CHILDREN, YOUTH AND THE LAW INC.", "designationCode": "A", "categoryCode": "09", "address": "55 UNIVERSITY AVENUE          SUITE 1500", "city": "TORONTO", "province": "ON", "country": "CA", "postalCode": "M5J2H7", "twitter": "None", "instagram": "None", "facebook": "None", "youtube": "None", "website": "None", "summary": "None", "logo": "None", "latitude": 43.64683659867845, "longitude": -79.38431430818304}, "858456916RR0001": {"name": "CANADIAN FOUNDATION FOR DENTAL HYGIENE RESEARCH AND EDUCATION", "designationCode": "C", "categoryCode": "13", "address": "1122 WELLINGTON ST W", "city": "OTTAWA", "province": "ON", "country": "CA", "postalCode": "K1Y2Y7", "twitter": "None", "instagram": "None", "facebook": "None", "youtube": "None", "website": "None", "summary": "None", "logo": "None", "latitude": 45.40223414042941, "longitude": -75.72632454619435}, "892702150RR0001": {"name": "CANADIAN FOUNDATION FOR DIETETIC RESEARCH/FONDATION CANADIENNE DE LA RECHERCHE EN DI\u00c9T\u00c9TIQUE", "designationCode": "A", "categoryCode": "13", "address": "480 UNIVERSITY AVE SUITE 604", "city": "TORONTO", "province": "ON", "country": "CA", "postalCode": "M5G1V2", "twitter": "None", "instagram": "None", "facebook": "None", "youtube": "None", "website": "None", "summary": "None", "logo": "None", "latitude": 43.655170275318866, "longitude": -79.38868546367338}, "876118100RR0001": {"name": "CANADIAN FOUNDATION FOR GOVERNANCE RESEARCH (CFGR) FONDATIONCANADIENNE DE RECHERCHE SUR LA GOUVERNANCE (FCRG)", "designationCode": "A", "categoryCode": "20", "address": "2701-250 YONGE STREET", "city": "TORONTO", "province": "ON", "country": "CA", "postalCode": "M5B2L7", "twitter": "None", "instagram": "None", "facebook": "None", "youtube": "None", "website": "None", "summary": "None", "logo": "None", "latitude": 43.653549719949254, "longitude": -79.37976575956449}, "118929322RR0001": {"name": "CANADIAN FOUNDATION FOR HEALTHCARE IMPROVEMENT (CFHI) / Fondation canadienne pour l'am\u00e9lioration des services de sant\u00e9 (FCASS)", "designationCode": "C", "categoryCode": "59", "address": "200 - 150 KENT ST", "city": "OTTAWA", "province": "ON", "country": "CA", "postalCode": "K1P0B2", "twitter": "None", "instagram": "None", "facebook": "None", "youtube": "None", "website": "None", "summary": "None", "logo": "None", "latitude": 45.41876868327687, "longitude": -75.70216818564187}, "123651333RR0001": {"name": "CANADIAN FOUNDATION FOR INFECTIOUS DISEASES-LA FONDATION CANADIENNE DES MALADIES INFECTIEUSES", "designationCode": "A", "categoryCode": "11", "address": "3654 ATRIUM 555 UNIVERSITY AVE", "city": "TORONTO", "province": "ON", "country": "CA", "postalCode": "M5G1X8", "twitter": "None", "instagram": "None", "facebook": "None", "youtube": "None", "website": "None", "summary": "None", "logo": "None", "latitude": 43.65701607885604, "longitude": -79.3890803209659}, "118831494RR0001": {"name": "CANADIAN FOUNDATION FOR JEWISH EDUCATION", "designationCode": "C", "categoryCode": "21", "address": "21 NADOLNY SACHS PRIVATE", "city": "OTTAWA", "province": "ON", "country": "CA", "postalCode": "K2A1R9", "twitter": "None", "instagram": "None", "facebook": "None", "youtube": "None", "website": "None", "summary": "None", "logo": "None", "latitude": 45.375832560101486, "longitude": -75.75231223766554}, "129713988RR0001": {"name": "CANADIAN FOUNDATION FOR MASORTI JUDAISM", "designationCode": "C", "categoryCode": "47", "address": "201 - 55 YEOMANS RD", "city": "NORTH YORK", "province": "ON", "country": "CA", "postalCode": "M3H3J7", "twitter": "None", "instagram": "None", "facebook": "None", "youtube": "None", "website": "None", "summary": "None", "logo": "None", "latitude": 43.749016688614326, "longitude": -79.44086751627398}, "121270037RR0001": {"name": "CANADIAN FOUNDATION FOR PHYSICALLY DISABLED PERSONS", "designationCode": "A", "categoryCode": "13", "address": "6 GARAMOND CRT.               SUITE 265", "city": "TORONTO", "province": "ON", "country": "CA", "postalCode": "M3C1Z5", "twitter": "None", "instagram": "None", "facebook": "None", "youtube": "None", "website": "None", "summary": "None", "logo": "None", "latitude": 43.72599970912922, "longitude": -79.33380922150714}, "106846421RR0001": {"name": "CANADIAN FOUNDATION FOR PIONEERING ISRAEL", "designationCode": "C", "categoryCode": "21", "address": "809-736 SPADINA AVENUE", "city": "TORONTO", "province": "ON", "country": "CA", "postalCode": "M5S2J6", "twitter": "None", "instagram": "None", "facebook": "None", "youtube": "None", "website": "None", "summary": "None", "logo": "None", "latitude": 43.665838250620375, "longitude": -79.40341061714454}, "890478365RR0001": {"name": "CANADIAN FOUNDATION FOR THE BLIND (CFB)", "designationCode": "C", "categoryCode": "09", "address": "5112 BELLECHASSE", "city": "MONTREAL", "province": "QC", "country": "CA", "postalCode": "H1T2A7", "twitter": "None", "instagram": "None", "facebook": "None", "youtube": "None", "website": "None", "summary": "None", "logo": "None", "latitude": 45.57138104134693, "longitude": -73.56717749290222}, "891606865RR0001": {"name": "CANADIAN FOUNDATION FOR THE DEVELOPMENT OF MICROSCOPY/FOUNDATION CANADIENNE POUR LE DEVELOPPEMENT DE LA MICROSCOPIE", "designationCode": "C", "categoryCode": "21", "address": "12 UNIVERSITY AVE.", "city": "WOLFVILLE", "province": "NS", "country": "CA", "postalCode": "B4P2R6", "twitter": "None", "instagram": "None", "facebook": "None", "youtube": "None", "website": "None", "summary": "None", "logo": "None", "latitude": 45.08958997140637, "longitude": -64.36837580145968}}