{"845682418RR0001": {"name": "ANBA KIRILLOS SOCIETY FOR SENIORS", "designationCode": "C", "categoryCode": "09", "address": "41 GLENDINNING AVENUE", "city": "TORONTO", "province": "ON", "country": "CA", "postalCode": "M1W3E2", "twitter": "None", "instagram": "None", "facebook": "None", "youtube": "None", "website": "None", "summary": "None", "logo": "None", "latitude": 43.81209177266451, "longitude": -79.3326152993249}, "878346766RR0001": {"name": "ANBA RUEISS INTERNATIONAL AID FOUNDATION", "designationCode": "C", "categoryCode": "09", "address": "141 BOND AVE", "city": "NORTH YORK", "province": "ON", "country": "CA", "postalCode": "M3B1M1", "twitter": "None", "instagram": "None", "facebook": "None", "youtube": "None", "website": "None", "summary": "None", "logo": "None", "latitude": 43.74597883094831, "longitude": -79.3475055478678}, "118786334RR0001": {"name": "ANCASTER AGRICULTURAL SOCIETY", "designationCode": "C", "categoryCode": "56", "address": "630 TRINITY RD", "city": "JERSEYVILLE", "province": "ON", "country": "CA", "postalCode": "L0R1R0", "twitter": "None", "instagram": "None", "facebook": "None", "youtube": "None", "website": "None", "summary": "None", "logo": "None", "latitude": 43.18883056090954, "longitude": -80.04050560052477}, "130652548RR0001": {"name": "ANCASTER CHRISTIAN REFORMED CHURCH", "designationCode": "C", "categoryCode": "39", "address": "70 GARNER ROAD EAST", "city": "ANCASTER", "province": "ON", "country": "CA", "postalCode": "L9G2J8", "twitter": "None", "instagram": "None", "facebook": "None", "youtube": "None", "website": "None", "summary": "None", "logo": "None", "latitude": 43.20227165941509, "longitude": -79.9788265681229}, "889255642RR0001": {"name": "ANCASTER HORTICULTURAL SOCIETY", "designationCode": "C", "categoryCode": "52", "address": "BOX 81056 FIDDLERS GREEN", "city": "ANCASTER", "province": "ON", "country": "CA", "postalCode": "L9G4X1", "twitter": "None", "instagram": "None", "facebook": "None", "youtube": "None", "website": "None", "summary": "None", "logo": "None", "latitude": 43.20251811299157, "longitude": -79.98262771238686}, "118786375RR0001": {"name": "ANCASTER INFORMATION CENTRE AND COMMUNITY SERVICES INC.", "designationCode": "C", "categoryCode": "09", "address": "300 WILSON ST EAST", "city": "ANCASTER", "province": "ON", "country": "CA", "postalCode": "L9G2B9", "twitter": "None", "instagram": "None", "facebook": "None", "youtube": "None", "website": "None", "summary": "None", "logo": "None", "latitude": 43.225331071873825, "longitude": -79.97713173587654}, "888315249RR0001": {"name": "ANCASTER TOWNSHIP HISTORICAL SOCIETY", "designationCode": "C", "categoryCode": "50", "address": "PO BOX 81123", "city": "ANCASTER", "province": "ON", "country": "CA", "postalCode": "L9G4X1", "twitter": "None", "instagram": "None", "facebook": "None", "youtube": "None", "website": "None", "summary": "None", "logo": "None", "latitude": 43.22590800000006, "longitude": -79.97685199999994}, "861049286RR0001": {"name": "ANCHOR ACADEMY SOCIETY", "designationCode": "B", "categoryCode": "49", "address": "P. O. BOX 3015", "city": "SALMON ARM", "province": "BC", "country": "CA", "postalCode": "V1E4R8", "twitter": "None", "instagram": "None", "facebook": "None", "youtube": "None", "website": "None", "summary": "None", "logo": "None", "latitude": 50.70318000000006, "longitude": -119.26884049999992}, "865563118RR0001": {"name": "ANCHOR BAPTIST CHURCH", "designationCode": "C", "categoryCode": "39", "address": "7768 WEDGEWOOD ST", "city": "BURNABY", "province": "BC", "country": "CA", "postalCode": "V5E2E6", "twitter": "None", "instagram": "None", "facebook": "None", "youtube": "None", "website": "None", "summary": "None", "logo": "None", "latitude": 49.22518847829861, "longitude": -122.94022695433034}, "106709454RR0001": {"name": "ANCHOR CANADIAN REFORMED ASSOCIATION FOR THE HANDICAPPED", "designationCode": "C", "categoryCode": "11", "address": "RR#2, 361 THIRTY ROAD", "city": "BEAMSVILLE", "province": "ON", "country": "CA", "postalCode": "L0R1B2", "twitter": "None", "instagram": "None", "facebook": "None", "youtube": "None", "website": "None", "summary": "None", "logo": "None", "latitude": 43.12708188777846, "longitude": -79.53211379238356}, "892159278RR0001": {"name": "ANCHOR MINISTERIAL FELLOWSHIP", "designationCode": "C", "categoryCode": "47", "address": "151 ST. DAVID ST N", "city": "FERGUS", "province": "ON", "country": "CA", "postalCode": "N1M2J5", "twitter": "None", "instagram": "None", "facebook": "None", "youtube": "None", "website": "None", "summary": "None", "logo": "None", "latitude": 43.705917702464134, "longitude": -80.37819293311784}, "892882762RR0001": {"name": "ANCIENT FOREST EXPLORATION & RESEARCH", "designationCode": "C", "categoryCode": "21", "address": "3492 MEMORIAL PARK DRIVE", "city": "POWASSAN", "province": "ON", "country": "CA", "postalCode": "P0H1Z0", "twitter": "None", "instagram": "None", "facebook": "None", "youtube": "None", "website": "None", "summary": "None", "logo": "None", "latitude": 46.143158256846306, "longitude": -79.14542319257895}, "866114242RR0001": {"name": "ANCIENT ORDER OF DOERS ANONYMOUS SOCIETY (2000)", "designationCode": "C", "categoryCode": "59", "address": "2183 AMELIA AVE", "city": "SIDNEY", "province": "BC", "country": "CA", "postalCode": "V8L2H5", "twitter": "None", "instagram": "None", "facebook": "None", "youtube": "None", "website": "None", "summary": "None", "logo": "None", "latitude": 48.65870754674262, "longitude": -123.4092507485429}, "132021924RR0001": {"name": "ANCLICAN DIOCESAN CENTRE CORPORATION", "designationCode": "C", "categoryCode": "59", "address": "1340 CATHEDRAL LANE", "city": "HALIFAX", "province": "NS", "country": "CA", "postalCode": "B3H2Z1", "twitter": "None", "instagram": "None", "facebook": "None", "youtube": "None", "website": "None", "summary": "None", "logo": "None", "latitude": 44.63498400000006, "longitude": -63.584094499999935}, "879350312RR0001": {"name": "ANCOP INTERNATIONAL (CANADA), INC.", "designationCode": "C", "categoryCode": "09", "address": "3-418A HANLAN ROAD", "city": "VAUGHAN", "province": "ON", "country": "CA", "postalCode": "L4L4Z1", "twitter": "None", "instagram": "None", "facebook": "None", "youtube": "None", "website": "None", "summary": "None", "logo": "None", "latitude": 43.77140740211939, "longitude": -79.55324683943999}, "140222944RR0001": {"name": "ANCRE ET AILES DU HAUT ST-LAURENT", "designationCode": "C", "categoryCode": "10", "address": "10, RUE BRIDGE C.P.102", "city": "ORMSTOWN", "province": "QC", "country": "CA", "postalCode": "J0S1K0", "twitter": "None", "instagram": "None", "facebook": "None", "youtube": "None", "website": "None", "summary": "None", "logo": "None", "latitude": 45.1228289106124, "longitude": -73.99148875439994}, "891808883RR0001": {"name": "ANDERSON FAMILY MEMORIAL SCHOLARSHIP FUND", "designationCode": "B", "categoryCode": "25", "address": "138 GREENPOINT RD             RR 4", "city": "POWASSAN", "province": "ON", "country": "CA", "postalCode": "P0H1Z0", "twitter": "None", "instagram": "None", "facebook": "None", "youtube": "None", "website": "None", "summary": "None", "logo": "None", "latitude": 46.12552042315894, "longitude": -79.23231566468283}, "118786425RR0001": {"name": "ANDERSONVILLE UNITED BAPTIST CHURCH", "designationCode": "C", "categoryCode": "31", "address": "171 HARVEY RD", "city": "MCADAM", "province": "NB", "country": "CA", "postalCode": "E6J1A1", "twitter": "None", "instagram": "None", "facebook": "None", "youtube": "None", "website": "None", "summary": "None", "logo": "None", "latitude": 45.593582131859726, "longitude": -67.31016605159004}, "870267762RR0001": {"name": "ANDERTON THERAPEUTIC GARDENS SOCIETY", "designationCode": "C", "categoryCode": "13", "address": "PO 1416", "city": "COMOX", "province": "BC", "country": "CA", "postalCode": "V9M7Z9", "twitter": "None", "instagram": "None", "facebook": "None", "youtube": "None", "website": "None", "summary": "None", "logo": "None", "latitude": 49.673733000000055, "longitude": -124.92743299999994}, "118786433RR0001": {"name": "ANDOVER CANADIAN FUND INC.", "designationCode": "C", "categoryCode": "21", "address": "ANDOVER CANADIAN FUND INC.    SUITE 4700, TD BANK TOWER", "city": "TORONTO", "province": "ON", "country": "CA", "postalCode": "M5K1E6", "twitter": "None", "instagram": "None", "facebook": "None", "youtube": "None", "website": "None", "summary": "None", "logo": "None", "latitude": 43.64868300000006, "longitude": -79.38544399999994}, "131175325RR0001": {"name": "ANDOVER GARDENS SENIORS APARTMENTS INC", "designationCode": "C", "categoryCode": "01", "address": "1 ANDOVER DR", "city": "LONDON", "province": "ON", "country": "CA", "postalCode": "N6J4H2", "twitter": "None", "instagram": "None", "facebook": "None", "youtube": "None", "website": "None", "summary": "None", "logo": "None", "latitude": 42.95419904079867, "longitude": -81.27569269605881}, "108153693RR0001": {"name": "ANDOVER KINCARDINE PASTORAL CHARGE", "designationCode": "C", "categoryCode": "44", "address": "17 FORT ROAD", "city": "PERTH-ANDOVER", "province": "NB", "country": "CA", "postalCode": "E7H2B4", "twitter": "None", "instagram": "None", "facebook": "None", "youtube": "None", "website": "None", "summary": "None", "logo": "None", "latitude": 46.751148433865396, "longitude": -67.69981758008191}, "817135668RR0001": {"name": "ANDREAS BAUR FOUNDATION", "designationCode": "B", "categoryCode": "09", "address": "70 COLWELL RD", "city": "NANAIMO", "province": "BC", "country": "CA", "postalCode": "V9X1E4", "twitter": "None", "instagram": "None", "facebook": "None", "youtube": "None", "website": "None", "summary": "None", "logo": "None", "latitude": 49.08266837335265, "longitude": -123.92889345162575}, "865347728RR0001": {"name": "ANDREW & DISTRICT HISTORICAL ARCHIVES MUSEUM SOCIETY", "designationCode": "C", "categoryCode": "50", "address": "BOX 233", "city": "ANDREW", "province": "AB", "country": "CA", "postalCode": "T0B0C0", "twitter": "None", "instagram": "None", "facebook": "None", "youtube": "None", "website": "None", "summary": "None", "logo": "None", "latitude": 53.88346000000007, "longitude": -112.35188999999997}, "866373236RR0001": {"name": "ANDREW & LAURA MCCAIN PUBLIC LIBRARY BOARD", "designationCode": "C", "categoryCode": "50", "address": "8 MCCAIN STREET", "city": "FLORENCEVILLE", "province": "NB", "country": "CA", "postalCode": "E7L3H6", "twitter": "None", "instagram": "None", "facebook": "None", "youtube": "None", "website": "None", "summary": "None", "logo": "None", "latitude": 46.43971057617299, "longitude": -67.61943417499566}, "140784448RR0002": {"name": "ANDREW CONGREGATION OF JEHOVAH'S WITNESSES", "designationCode": "C", "categoryCode": "61", "address": "BOX 150", "city": "ANDREW", "province": "AB", "country": "CA", "postalCode": "T0B0C0", "twitter": "None", "instagram": "None", "facebook": "None", "youtube": "None", "website": "None", "summary": "None", "logo": "None", "latitude": 53.88346000000007, "longitude": -112.35188999999997}, "106710932RR0001": {"name": "ANDREW DONALD PASTORAL CHARGE", "designationCode": "C", "categoryCode": "44", "address": "657 SALT SPRINGS RD", "city": "SOUTHFIELD", "province": "NB", "country": "CA", "postalCode": "E4E5W5", "twitter": "None", "instagram": "None", "facebook": "None", "youtube": "None", "website": "None", "summary": "None", "logo": "None", "latitude": 45.59459303361397, "longitude": -65.622867262046}, "106710965RR0001": {"name": "ANDREW FLECK CHILD CARE SERVICES", "designationCode": "C", "categoryCode": "01", "address": "700 INDUSTRIAL AVENUE, SUITE  600", "city": "OTTAWA", "province": "ON", "country": "CA", "postalCode": "K1G0Y9", "twitter": "None", "instagram": "None", "facebook": "None", "youtube": "None", "website": "None", "summary": "None", "logo": "None", "latitude": 45.410259910872185, "longitude": -75.63891982266708}, "118786482RR0001": {"name": "ANDREW FOUNDATION", "designationCode": "B", "categoryCode": "03", "address": "648 AYR COURT", "city": "OSHAWA", "province": "ON", "country": "CA", "postalCode": "L1J3E3", "twitter": "None", "instagram": "None", "facebook": "None", "youtube": "None", "website": "None", "summary": "None", "logo": "None", "latitude": 43.90768836609147, "longitude": -78.89426638201874}, "118786490RR0001": {"name": "ANDREW FULL GOSPEL CHURCH", "designationCode": "C", "categoryCode": "36", "address": "12140 103 ST NW", "city": "EDMONTON", "province": "AB", "country": "CA", "postalCode": "T5G2J9", "twitter": "None", "instagram": "None", "facebook": "None", "youtube": "None", "website": "None", "summary": "None", "logo": "None", "latitude": 53.575749, "longitude": -113.49743926319982}, "866795255RR0002": {"name": "ANDREW MYNARSKI V.C. ROYAL CANADIAN AIR CADET SQUADRON #573 - PARENT COUNCIL", "designationCode": "C", "categoryCode": "29", "address": "551 MACHRAY AVENUE", "city": "WINNIPEG", "province": "MB", "country": "CA", "postalCode": "R2W1A8", "twitter": "None", "instagram": "None", "facebook": "None", "youtube": "None", "website": "None", "summary": "None", "logo": "None", "latitude": 49.92737894312983, "longitude": -97.13962534052759}, "118786516RR0001": {"name": "ANDREW PASTORAL CHARGE", "designationCode": "C", "categoryCode": "44", "address": "PO BOX 392", "city": "ANDREW", "province": "AB", "country": "CA", "postalCode": "T0B0C0", "twitter": "None", "instagram": "None", "facebook": "None", "youtube": "None", "website": "None", "summary": "None", "logo": "None", "latitude": 53.88346000000007, "longitude": -112.35188999999997}, "897833885RR0001": {"name": "ANDREWS STREET FAMILY CENTRE, INC.", "designationCode": "C", "categoryCode": "09", "address": "220 ANDREWS ST", "city": "WINNIPEG", "province": "MB", "country": "CA", "postalCode": "R2W4T1", "twitter": "None", "instagram": "None", "facebook": "None", "youtube": "None", "website": "None", "summary": "None", "logo": "None", "latitude": 49.91810587483403, "longitude": -97.1449598323906}, "118786524RR0001": {"name": "ANDUHYAUN INC.", "designationCode": "C", "categoryCode": "01", "address": "1296 WESTON RD", "city": "TORONTO", "province": "ON", "country": "CA", "postalCode": "M6M4R3", "twitter": "None", "instagram": "None", "facebook": "None", "youtube": "None", "website": "None", "summary": "None", "logo": "None", "latitude": 43.689217348866116, "longitude": -79.4959733916267}, "892197245RR0001": {"name": "ANEROID 50 PLUS INC", "designationCode": "C", "categoryCode": "56", "address": "P.O BOX 42", "city": "ANEROID", "province": "SK", "country": "CA", "postalCode": "S0N0C0", "twitter": "None", "instagram": "None", "facebook": "None", "youtube": "None", "website": "None", "summary": "None", "logo": "None", "latitude": 49.71616000000006, "longitude": -107.29713999999996}, "118786557RR0001": {"name": "ANGEL'S VALLEY RETREAT CENTRES SOCIETY", "designationCode": "C", "categoryCode": "49", "address": "BOX 192", "city": "FORT ASSINIBOINE", "province": "AB", "country": "CA", "postalCode": "T0G1A0", "twitter": "None", "instagram": "None", "facebook": "None", "youtube": "None", "website": "None", "summary": "None", "logo": "None", "latitude": 54.33400000000006, "longitude": -114.77396999999996}, "890666076RR0001": {"name": "ANGELA H PEDLEY (CHARITY) TRUST", "designationCode": "B", "categoryCode": "15", "address": "1402 - 1 KING ST W", "city": "HAMILTON", "province": "ON", "country": "CA", "postalCode": "L8P1A4", "twitter": "None", "instagram": "None", "facebook": "None", "youtube": "None", "website": "None", "summary": "None", "logo": "None", "latitude": 43.26019321073324, "longitude": -79.88135629363086}, "825230741RR0001": {"name": "ANGELS OF MERCY", "designationCode": "C", "categoryCode": "09", "address": "5065 LANGEVIN", "city": "PIERREFONDS", "province": "QC", "country": "CA", "postalCode": "H8Z2C2", "twitter": "None", "instagram": "None", "facebook": "None", "youtube": "None", "website": "None", "summary": "None", "logo": "None", "latitude": 45.5092522178718, "longitude": -73.83152449275796}, "726063092RR0001": {"name": "ANGELS REST DOG RESCUE", "designationCode": "C", "categoryCode": "54", "address": "1079 QUEENSTON RD", "city": "NIAGARA ON THE LAKE", "province": "ON", "country": "CA", "postalCode": "L0S1J0", "twitter": "None", "instagram": "None", "facebook": "None", "youtube": "None", "website": "None", "summary": "None", "logo": "None", "latitude": 43.16343782096497, "longitude": -79.11860861353784}, "875349904RR0001": {"name": "ANGLICAN CATHOLIC CHURCH OF CANADA PARISH OF THE AVALON INC", "designationCode": "C", "categoryCode": "39", "address": "31A FRONTENAC AVE", "city": "MOUNT PEARL", "province": "NL", "country": "CA", "postalCode": "A1N4V4", "twitter": "None", "instagram": "None", "facebook": "None", "youtube": "None", "website": "None", "summary": "None", "logo": "None", "latitude": 47.528374537958086, "longitude": -52.81215513287688}, "891959769RR0001": {"name": "ANGLICAN CHORALE OF OTTAWA", "designationCode": "C", "categoryCode": "22", "address": "3960 ARMITAGE AVENUE", "city": "DUNROBIN", "province": "ON", "country": "CA", "postalCode": "K0A1T0", "twitter": "None", "instagram": "None", "facebook": "None", "youtube": "None", "website": "None", "summary": "None", "logo": "None", "latitude": 45.48784944993917, "longitude": -76.03863396309647}, "871220422RR0001": {"name": "ANGLICAN CHURCH MINISTRIES FOUNDATION", "designationCode": "A", "categoryCode": "03", "address": "252 JAMES STREET NORTH        CATHEDRAL PLACE", "city": "HAMILTON", "province": "ON", "country": "CA", "postalCode": "L8R2L3", "twitter": "None", "instagram": "None", "facebook": "None", "youtube": "None", "website": "None", "summary": "None", "logo": "None", "latitude": 43.26303055231121, "longitude": -79.866250127359}, "106713365RR0001": {"name": "ANGLICAN CHURCH OF CANADA ANGLICAN PARISH OF GRAND MANAN", "designationCode": "C", "categoryCode": "30", "address": "1199 ROUTE 776", "city": "GRAND MANAN", "province": "NB", "country": "CA", "postalCode": "E5G1G2", "twitter": "None", "instagram": "None", "facebook": "None", "youtube": "None", "website": "None", "summary": "None", "logo": "None", "latitude": 44.685475923047086, "longitude": -66.7717297907627}, "118786599RR0002": {"name": "ANGLICAN CHURCH OF CANADA PARISH OF ATHABASCA", "designationCode": "C", "categoryCode": "30", "address": "4904-51ST STREET", "city": "ATHABASCA", "province": "AB", "country": "CA", "postalCode": "T9S1E6", "twitter": "None", "instagram": "None", "facebook": "None", "youtube": "None", "website": "None", "summary": "None", "logo": "None", "latitude": 54.719666497085825, "longitude": -113.28732295181509}, "119238210RR0009": {"name": "ANGLICAN CHURCH OF ST JAMES", "designationCode": "C", "categoryCode": "30", "address": "BOX 147", "city": "SMITHERS", "province": "BC", "country": "CA", "postalCode": "V0J2N0", "twitter": "None", "instagram": "None", "facebook": "None", "youtube": "None", "website": "None", "summary": "None", "logo": "None", "latitude": 54.78190002943043, "longitude": -127.16272999999995}, "814348603RR0001": {"name": "ANGLICAN CHURCH OF THE ASCENSION", "designationCode": "C", "categoryCode": "30", "address": "19764 43A AVENUE", "city": "LANGLEY", "province": "BC", "country": "CA", "postalCode": "V3A4V3", "twitter": "None", "instagram": "None", "facebook": "None", "youtube": "None", "website": "None", "summary": "None", "logo": "None", "latitude": 49.08103953563411, "longitude": -122.67582979961335}, "846353472RR0001": {"name": "ANGLICAN CHURCH OF THE REDEEMER INC.", "designationCode": "C", "categoryCode": "30", "address": "5000 8TH AVENUE", "city": "REGINA", "province": "SK", "country": "CA", "postalCode": "S4T0W3", "twitter": "None", "instagram": "None", "facebook": "None", "youtube": "None", "website": "None", "summary": "None", "logo": "None", "latitude": 50.4568764676841, "longitude": -104.65285402553522}, "106712912RR0001": {"name": "ANGLICAN CHURCH WOMEN DIOCESE OF HURON", "designationCode": "C", "categoryCode": "49", "address": "190 QUEENS AVE", "city": "LONDON", "province": "ON", "country": "CA", "postalCode": "N6A6H7", "twitter": "None", "instagram": "None", "facebook": "None", "youtube": "None", "website": "None", "summary": "None", "logo": "None", "latitude": 42.98528093202135, "longitude": -81.24920754760798}, "889846069RR0001": {"name": "ANGLICAN CHURCH WOMEN DIOCESE OF NOVA SCOTIA", "designationCode": "C", "categoryCode": "49", "address": "1340 MARTELLO STREET", "city": "HALIFAX", "province": "NS", "country": "CA", "postalCode": "B3H2Z1", "twitter": "None", "instagram": "None", "facebook": "None", "youtube": "None", "website": "None", "summary": "None", "logo": "None", "latitude": 44.64051669885744, "longitude": -63.579855245109115}, "888953973RR0001": {"name": "ANGLICAN CHURCH WOMEN OF THE EDMONTON DIOCESE", "designationCode": "C", "categoryCode": "49", "address": "13511-61 STREET NW", "city": "EDMONTON", "province": "AB", "country": "CA", "postalCode": "T5A0T6", "twitter": "None", "instagram": "None", "facebook": "None", "youtube": "None", "website": "None", "summary": "None", "logo": "None", "latitude": 53.59781795337295, "longitude": -113.43511383288154}, "891855447RR0001": {"name": "ANGLICAN CHURCH WOMEN OTTAWA DIOCESE", "designationCode": "C", "categoryCode": "49", "address": "15 MOWAT ST.", "city": "OTTAWA", "province": "ON", "country": "CA", "postalCode": "K1J6R1", "twitter": "None", "instagram": "None", "facebook": "None", "youtube": "None", "website": "None", "summary": "None", "logo": "None", "latitude": 45.44275294451481, "longitude": -75.61052713125413}, "853422244RR0001": {"name": "ANGLICAN CHURCHES OF PICTOU COUNTY", "designationCode": "C", "categoryCode": "49", "address": "PO BOX 1350", "city": "STELLARTON", "province": "NS", "country": "CA", "postalCode": "B0K1S0", "twitter": "None", "instagram": "None", "facebook": "None", "youtube": "None", "website": "None", "summary": "None", "logo": "None", "latitude": 45.56177000000008, "longitude": -62.65966999999995}, "893884528RR0001": {"name": "ANGLICAN DIOCESE OF TORONTO FOUNDATION", "designationCode": "A", "categoryCode": "03", "address": "135 ADELAIDE ST E", "city": "TORONTO", "province": "ON", "country": "CA", "postalCode": "M5C1L8", "twitter": "None", "instagram": "None", "facebook": "None", "youtube": "None", "website": "None", "summary": "None", "logo": "None", "latitude": 43.651317845951944, "longitude": -79.37416675353457}, "873016448RR0001": {"name": "ANGLICAN EDUCATIONAL CHAPLAINCY", "designationCode": "C", "categoryCode": "49", "address": "13059 207 ST NW", "city": "EDMONTON", "province": "AB", "country": "CA", "postalCode": "T5S0J3", "twitter": "None", "instagram": "None", "facebook": "None", "youtube": "None", "website": "None", "summary": "None", "logo": "None", "latitude": 53.59069264749853, "longitude": -113.6747395445209}, "118786698RR0001": {"name": "ANGLICAN FELLOWSHIP OF PRAYER (CANADA)", "designationCode": "C", "categoryCode": "47", "address": "P.O.BOX 78084", "city": "NEPEAN", "province": "ON", "country": "CA", "postalCode": "K2E1B1", "twitter": "None", "instagram": "None", "facebook": "None", "youtube": "None", "website": "None", "summary": "None", "logo": "None", "latitude": 45.34429200000005, "longitude": -75.76434349999994}, "118786706RR0001": {"name": "ANGLICAN HOMES INCORPORATED", "designationCode": "C", "categoryCode": "01", "address": "24 ROAD DELUXE", "city": "ST. JOHN'S", "province": "NL", "country": "CA", "postalCode": "A1E5Z3", "twitter": "None", "instagram": "None", "facebook": "None", "youtube": "None", "website": "None", "summary": "None", "logo": "None", "latitude": 47.53724100000005, "longitude": -52.73804149999994}, "868473315RR0001": {"name": "ANGLICAN MILITARY ORDINARIATE", "designationCode": "C", "categoryCode": "49", "address": "31 MCKEAN CRES", "city": "COLLINGWOOD", "province": "ON", "country": "CA", "postalCode": "L9Y0C2", "twitter": "None", "instagram": "None", "facebook": "None", "youtube": "None", "website": "None", "summary": "None", "logo": "None", "latitude": 44.489358133522884, "longitude": -80.20049763479753}, "886412196RR0001": {"name": "ANGLICAN MISSIONS SERVICE COMMITTEE", "designationCode": "C", "categoryCode": "47", "address": "P.O.BOX # 1072", "city": "SAULT STE MARIE", "province": "ON", "country": "CA", "postalCode": "P6A5N7", "twitter": "None", "instagram": "None", "facebook": "None", "youtube": "None", "website": "None", "summary": "None", "logo": "None", "latitude": 46.517883000000054, "longitude": -84.34795399999993}, "861172401RR0001": {"name": "ANGLICAN NETWORK CHURCH OF THE GOOD SHEPHERD", "designationCode": "C", "categoryCode": "20", "address": "189 11TH AVE W", "city": "VANCOUVER", "province": "BC", "country": "CA", "postalCode": "V5Y1S8", "twitter": "None", "instagram": "None", "facebook": "None", "youtube": "None", "website": "None", "summary": "None", "logo": "None", "latitude": 49.26125946047075, "longitude": -123.1089702485429}, "861091981RR0001": {"name": "ANGLICAN NETWORK IN CANADA", "designationCode": "C", "categoryCode": "30", "address": "PO BOX 1013", "city": "BURLINGTON", "province": "ON", "country": "CA", "postalCode": "L7R4L8", "twitter": "None", "instagram": "None", "facebook": "None", "youtube": "None", "website": "None", "summary": "None", "logo": "None", "latitude": 43.326195000000055, "longitude": -79.79863399999994}, "107020232RR0029": {"name": "ANGLICAN PARISH OF BADGER'S QUAY - POOL'S ISLAND", "designationCode": "C", "categoryCode": "30", "address": "P.O.59", "city": "BADGER'S QUAY", "province": "NL", "country": "CA", "postalCode": "A0G1B0", "twitter": "None", "instagram": "None", "facebook": "None", "youtube": "None", "website": "None", "summary": "None", "logo": "None", "latitude": 49.11328500000006, "longitude": -53.58555349999993}, "106713183RR0001": {"name": "ANGLICAN PARISH OF BIRCH HILLS/ KINISTINO", "designationCode": "C", "categoryCode": "30", "address": "PO BOX 340", "city": "BIRCH HILLS", "province": "SK", "country": "CA", "postalCode": "S0J0G0", "twitter": "None", "instagram": "None", "facebook": "None", "youtube": "None", "website": "None", "summary": "None", "logo": "None", "latitude": 56.325968466910076, "longitude": -103.2432009425047}, "107020232RR0027": {"name": "ANGLICAN PARISH OF CATALINA", "designationCode": "C", "categoryCode": "30", "address": "P.O. BOX 52", "city": "CATALINA", "province": "NL", "country": "CA", "postalCode": "A0C1J0", "twitter": "None", "instagram": "None", "facebook": "None", "youtube": "None", "website": "None", "summary": "None", "logo": "None", "latitude": 48.632553000000016, "longitude": -53.041862249999994}, "136687209RR0002": {"name": "ANGLICAN PARISH OF CHRIST CHURCH", "designationCode": "C", "categoryCode": "30", "address": "227 MCLEAN AVE", "city": "SELKIRK", "province": "MB", "country": "CA", "postalCode": "R1A0T7", "twitter": "None", "instagram": "None", "facebook": "None", "youtube": "None", "website": "None", "summary": "None", "logo": "None", "latitude": 50.14177247814725, "longitude": -96.87292071267944}, "896411295RR0002": {"name": "ANGLICAN PARISH OF EASTERN PASSAGE", "designationCode": "C", "categoryCode": "30", "address": "346 COW BAY ROAD", "city": "EASTERN PASSAGE", "province": "NS", "country": "CA", "postalCode": "B3G1C6", "twitter": "None", "instagram": "None", "facebook": "None", "youtube": "None", "website": "None", "summary": "None", "logo": "None", "latitude": 44.611680478215696, "longitude": -63.47565486663973}, "106713282RR0001": {"name": "ANGLICAN PARISH OF EDWARDSBURGH", "designationCode": "C", "categoryCode": "30", "address": "P.O. BOX 29", "city": "CARDINAL", "province": "ON", "country": "CA", "postalCode": "K0E1E0", "twitter": "None", "instagram": "None", "facebook": "None", "youtube": "None", "website": "None", "summary": "None", "logo": "None", "latitude": 44.787750000000074, "longitude": -75.38421999999997}, "106713290RR0001": {"name": "ANGLICAN PARISH OF ESTEVAN", "designationCode": "C", "categoryCode": "30", "address": "317 12TH AVE", "city": "ESTEVAN", "province": "SK", "country": "CA", "postalCode": "S4A1E3", "twitter": "None", "instagram": "None", "facebook": "None", "youtube": "None", "website": "None", "summary": "None", "logo": "None", "latitude": 49.140008377405486, "longitude": -102.99522834853981}, "119229920RR0016": {"name": "ANGLICAN PARISH OF FORTEAU", "designationCode": "C", "categoryCode": "30", "address": "P.O. BOX 39", "city": "FORTEAU", "province": "NL", "country": "CA", "postalCode": "A0K2P0", "twitter": "None", "instagram": "None", "facebook": "None", "youtube": "None", "website": "None", "summary": "None", "logo": "None", "latitude": 51.466800000000035, "longitude": -56.96480999999994}, "107020232RR0016": {"name": "ANGLICAN PARISH OF FORTUNE LAMALINE", "designationCode": "C", "categoryCode": "30", "address": "BOX 490", "city": "FORTUNE", "province": "NL", "country": "CA", "postalCode": "A0E1P0", "twitter": "None", "instagram": "None", "facebook": "None", "youtube": "None", "website": "None", "summary": "None", "logo": "None", "latitude": 47.074110000000076, "longitude": -55.82591999999994}, "107020232RR0017": {"name": "ANGLICAN PARISH OF GANDER", "designationCode": "C", "categoryCode": "30", "address": "PO BOX 99", "city": "GANDER", "province": "NL", "country": "CA", "postalCode": "A1V1W7", "twitter": "None", "instagram": "None", "facebook": "None", "youtube": "None", "website": "None", "summary": "None", "logo": "None", "latitude": 48.95684700000005, "longitude": -54.60917299999993}, "107020232RR0031": {"name": "ANGLICAN PARISH OF GRAND BANK", "designationCode": "C", "categoryCode": "30", "address": "P O BOX 129", "city": "GRAND BANK", "province": "NL", "country": "CA", "postalCode": "A0E1W0", "twitter": "None", "instagram": "None", "facebook": "None", "youtube": "None", "website": "None", "summary": "None", "logo": "None", "latitude": 47.52674538996191, "longitude": -54.94957524421343}, "107020232RR0018": {"name": "ANGLICAN PARISH OF GREENSPOND - NEWTOWN - POUND COVE", "designationCode": "C", "categoryCode": "30", "address": "P.O. BOX 149", "city": "NEWTOWN", "province": "NL", "country": "CA", "postalCode": "A0G3L0", "twitter": "None", "instagram": "None", "facebook": "None", "youtube": "None", "website": "None", "summary": "None", "logo": "None", "latitude": 49.20267290196271, "longitude": -53.53713535027524}, "119229896RR0030": {"name": "ANGLICAN PARISH OF HARBOUR GRACE", "designationCode": "C", "categoryCode": "30", "address": "P O BOX 28", "city": "HARBOUR GRACE", "province": "NL", "country": "CA", "postalCode": "A0A2M0", "twitter": "None", "instagram": "None", "facebook": "None", "youtube": "None", "website": "None", "summary": "None", "logo": "None", "latitude": 47.68216000000007, "longitude": -53.24321999999995}, "107020232RR0020": {"name": "ANGLICAN PARISH OF INDIAN BAY", "designationCode": "C", "categoryCode": "30", "address": "PO BOX 27", "city": "TRINITY BB", "province": "NL", "country": "CA", "postalCode": "A0G4L0", "twitter": "None", "instagram": "None", "facebook": "None", "youtube": "None", "website": "None", "summary": "None", "logo": "None", "latitude": 48.36659000000003, "longitude": -53.364769999999965}, "118786896RR0001": {"name": "ANGLICAN PARISH OF LEASK", "designationCode": "C", "categoryCode": "30", "address": "BOX 11", "city": "LEASK", "province": "SK", "country": "CA", "postalCode": "S0J1M0", "twitter": "None", "instagram": "None", "facebook": "None", "youtube": "None", "website": "None", "summary": "None", "logo": "None", "latitude": 53.01679000000007, "longitude": -106.75113999999996}, "107020232RR0007": {"name": "ANGLICAN PARISH OF MARYSTOWN", "designationCode": "C", "categoryCode": "30", "address": "PO BOX 69", "city": "CRESTON SOUTH", "province": "NL", "country": "CA", "postalCode": "A0E1K0", "twitter": "None", "instagram": "None", "facebook": "None", "youtube": "None", "website": "None", "summary": "None", "logo": "None", "latitude": 47.14120606624959, "longitude": -55.205410937177106}, "895799351RR0001": {"name": "ANGLICAN PARISH OF NORTH HASTINGS", "designationCode": "C", "categoryCode": "30", "address": "P O BOX 92", "city": "BANCROFT", "province": "ON", "country": "CA", "postalCode": "K0L1C0", "twitter": "None", "instagram": "None", "facebook": "None", "youtube": "None", "website": "None", "summary": "None", "logo": "None", "latitude": 45.03567300000006, "longitude": -77.98000849999994}, "889835047RR0002": {"name": "ANGLICAN PARISH OF PORT DUFFERIN", "designationCode": "C", "categoryCode": "30", "address": "25515 HIGHWAY 7", "city": "PORT DUFFERIN", "province": "NS", "country": "CA", "postalCode": "B0J2R0", "twitter": "None", "instagram": "None", "facebook": "None", "youtube": "None", "website": "None", "summary": "None", "logo": "None", "latitude": 44.91671503169327, "longitude": -62.38291370408948}, "107020232RR0024": {"name": "ANGLICAN PARISH OF PORT REXTON", "designationCode": "C", "categoryCode": "30", "address": "BOX 119", "city": "PORT REXTON", "province": "NL", "country": "CA", "postalCode": "A0C2H0", "twitter": "None", "instagram": "None", "facebook": "None", "youtube": "None", "website": "None", "summary": "None", "logo": "None", "latitude": 48.396570000000054, "longitude": -53.325583999999935}, "119229920RR0030": {"name": "ANGLICAN PARISH OF PORT SAUNDERS", "designationCode": "C", "categoryCode": "30", "address": "P.O. BOX 11", "city": "HAWKES BAY", "province": "NL", "country": "CA", "postalCode": "A0K3B0", "twitter": "None", "instagram": "None", "facebook": "None", "youtube": "None", "website": "None", "summary": "None", "logo": "None", "latitude": 50.61677000000003, "longitude": -57.214909999999975}, "819179748RR0001": {"name": "ANGLICAN PARISH OF SHELLBROOK ST MARTIN'S CHURCH BRIARLEA", "designationCode": "C", "categoryCode": "30", "address": "SITE 5, BOX 25, RR1", "city": "SHELLBROOK", "province": "SK", "country": "CA", "postalCode": "S0J2E0", "twitter": "None", "instagram": "None", "facebook": "None", "youtube": "None", "website": "None", "summary": "None", "logo": "None", "latitude": 53.22314758848429, "longitude": -106.39109243267896}, "108140237RR0001": {"name": "ANGLICAN PARISH OF SOUTH QUEENS", "designationCode": "C", "categoryCode": "30", "address": "PO BOX 1369", "city": "LIVERPOOL", "province": "NS", "country": "CA", "postalCode": "B0T1K0", "twitter": "None", "instagram": "None", "facebook": "None", "youtube": "None", "website": "None", "summary": "None", "logo": "None", "latitude": 44.03577000000007, "longitude": -64.72067999999996}, "131711095RR0001": {"name": "ANGLICAN PARISH OF ST GEORGE", "designationCode": "C", "categoryCode": "30", "address": "BOX 335", "city": "FORT LANGLEY", "province": "BC", "country": "CA", "postalCode": "V1M2R6", "twitter": "None", "instagram": "None", "facebook": "None", "youtube": "None", "website": "None", "summary": "None", "logo": "None", "latitude": 49.16854007718262, "longitude": -122.57416995556595}, "118787001RR0001": {"name": "ANGLICAN PARISH OF ST. ANDREW'S", "designationCode": "C", "categoryCode": "30", "address": "20955 OLD YALE ROAD", "city": "LANGLEY", "province": "BC", "country": "CA", "postalCode": "V3A7P8", "twitter": "None", "instagram": "None", "facebook": "None", "youtube": "None", "website": "None", "summary": "None", "logo": "None", "latitude": 49.098891827533066, "longitude": -122.64077410337754}, "119229920RR0011": {"name": "ANGLICAN PARISH OF ST. AUGUSTINE", "designationCode": "C", "categoryCode": "30", "address": "55 HILLVIEW AVE", "city": "STEPHENVILLE", "province": "NL", "country": "CA", "postalCode": "A2N1T3", "twitter": "None", "instagram": "None", "facebook": "None", "youtube": "None", "website": "None", "summary": "None", "logo": "None", "latitude": 48.55380747180436, "longitude": -58.58341214104901}, "118787019RR0001": {"name": "ANGLICAN PARISH OF ST. DAVID", "designationCode": "C", "categoryCode": "30", "address": "500-24TH ST EAST", "city": "PRINCE ALBERT", "province": "SK", "country": "CA", "postalCode": "S6V1S2", "twitter": "None", "instagram": "None", "facebook": "None", "youtube": "None", "website": "None", "summary": "None", "logo": "None", "latitude": 53.19131451154121, "longitude": -105.74112060935425}, "131380024RR0002": {"name": "ANGLICAN PARISH OF ST. JOSEPH & ST. GEORGE", "designationCode": "C", "categoryCode": "30", "address": "BOX 61", "city": "RICHARD'S LANDING", "province": "ON", "country": "CA", "postalCode": "P0R1J0", "twitter": "None", "instagram": "None", "facebook": "None", "youtube": "None", "website": "None", "summary": "None", "logo": "None", "latitude": 46.283998418832695, "longitude": -84.03190314670739}, "132350109RR0001": {"name": "ANGLICAN PARISH OF ST. MARGARET, EDMONTON", "designationCode": "C", "categoryCode": "30", "address": "12603 ELLERSLIE ROAD SW", "city": "EDMONTON", "province": "AB", "country": "CA", "postalCode": "T6W1A3", "twitter": "None", "instagram": "None", "facebook": "None", "youtube": "None", "website": "None", "summary": "None", "logo": "None", "latitude": 53.42478764512874, "longitude": -113.53935687293203}, "118787035RR0001": {"name": "ANGLICAN PARISH OF ST. MATTHEW FOXLEIGH AND WINNETKA", "designationCode": "C", "categoryCode": "30", "address": "240 DOROTHY STREET", "city": "REGINA", "province": "SK", "country": "CA", "postalCode": "S4T5V6", "twitter": "None", "instagram": "None", "facebook": "None", "youtube": "None", "website": "None", "summary": "None", "logo": "None", "latitude": 50.46181163336027, "longitude": -104.68267665352846}, "129759569RR0001": {"name": "ANGLICAN PARISH OF ST. PATRICK, EDMONTON", "designationCode": "C", "categoryCode": "30", "address": "334 KNOTTWOOD RD. N NW", "city": "EDMONTON", "province": "AB", "country": "CA", "postalCode": "T6K2Z7", "twitter": "None", "instagram": "None", "facebook": "None", "youtube": "None", "website": "None", "summary": "None", "logo": "None", "latitude": 53.450010885675276, "longitude": -113.45992870696261}, "119229920RR0023": {"name": "ANGLICAN PARISH OF STEPHENVILLE CROSSING", "designationCode": "C", "categoryCode": "30", "address": "P.O. BOX 249", "city": "STEPHENVILLE CROSSING", "province": "NL", "country": "CA", "postalCode": "A0N2C0", "twitter": "None", "instagram": "None", "facebook": "None", "youtube": "None", "website": "None", "summary": "None", "logo": "None", "latitude": 48.50488000000007, "longitude": -58.44321999999994}, "119187029RR0002": {"name": "ANGLICAN PARISH OF THE GOOD SHEPHERD", "designationCode": "C", "categoryCode": "30", "address": "BOX 160", "city": "EMSDALE", "province": "ON", "country": "CA", "postalCode": "P0A1J0", "twitter": "None", "instagram": "None", "facebook": "None", "youtube": "None", "website": "None", "summary": "None", "logo": "None", "latitude": 45.520201928995085, "longitude": -79.31388920338162}, "107020232RR0022": {"name": "ANGLICAN PARISH OF TWILLINGATE", "designationCode": "C", "categoryCode": "30", "address": "P. O. BOX 278", "city": "TWILLINGATE", "province": "NL", "country": "CA", "postalCode": "A0G4M0", "twitter": "None", "instagram": "None", "facebook": "None", "youtube": "None", "website": "None", "summary": "None", "logo": "None", "latitude": 49.65692000000007, "longitude": -54.77596999999997}, "867995771RR0001": {"name": "ANGLICAN PARISH OF TYENDINAGA", "designationCode": "C", "categoryCode": "30", "address": "1295 RIDGE RD", "city": "DESERONTO", "province": "ON", "country": "CA", "postalCode": "K0K1X0", "twitter": "None", "instagram": "None", "facebook": "None", "youtube": "None", "website": "None", "summary": "None", "logo": "None", "latitude": 44.18192381525026, "longitude": -77.13903338661312}, "119229920RR0017": {"name": "ANGLICAN PARISH OF WHITE BAY", "designationCode": "C", "categoryCode": "30", "address": "P.O. BOX 69", "city": "JACKSON'S ARM", "province": "NL", "country": "CA", "postalCode": "A0K3H0", "twitter": "None", "instagram": "None", "facebook": "None", "youtube": "None", "website": "None", "summary": "None", "logo": "None", "latitude": 49.866063000000054, "longitude": -56.794080499999936}, "892234444RR0001": {"name": "ANGLICAN PARISH OF WYNYARD,", "designationCode": "C", "categoryCode": "30", "address": "BOX 1658", "city": "WYNYARD", "province": "SK", "country": "CA", "postalCode": "S0A4T0", "twitter": "None", "instagram": "None", "facebook": "None", "youtube": "None", "website": "None", "summary": "None", "logo": "None", "latitude": 51.76523000000003, "longitude": -104.18008999999995}, "106713753RR0002": {"name": "ANGLICAN PARISHES OF THE CENTRAL INTERIOR", "designationCode": "C", "categoryCode": "30", "address": "360 NICOLA STREET", "city": "KAMLOOPS", "province": "BC", "country": "CA", "postalCode": "V2C2P5", "twitter": "None", "instagram": "None", "facebook": "None", "youtube": "None", "website": "None", "summary": "None", "logo": "None", "latitude": 50.672311500432684, "longitude": -120.33266302553523}, "118787126RR0001": {"name": "ANGLICAN RENEWAL MINISTRIES OF CANADA", "designationCode": "C", "categoryCode": "47", "address": "P.O. BOX 13612", "city": "KANATA", "province": "ON", "country": "CA", "postalCode": "K2K1X6", "twitter": "None", "instagram": "None", "facebook": "None", "youtube": "None", "website": "None", "summary": "None", "logo": "None", "latitude": 45.36639600000005, "longitude": -75.89211649999993}, "118787142RR0001": {"name": "ANGLICAN SYNOD OF THE DIOCESE OF BRITISH COLUMBIA", "designationCode": "C", "categoryCode": "30", "address": "900 VANCOUVER STREET", "city": "VICTORIA", "province": "BC", "country": "CA", "postalCode": "V8V3V7", "twitter": "None", "instagram": "None", "facebook": "None", "youtube": "None", "website": "None", "summary": "None", "logo": "None", "latitude": 48.42170864599994, "longitude": -123.35749388759996}, "833436546RR0001": {"name": "ANGLICAN TOWNSITE CEMETERY COMMITTEE", "designationCode": "C", "categoryCode": "59", "address": "44 CLARENCE ST", "city": "CORNER BROOK", "province": "NL", "country": "CA", "postalCode": "A2H1K9", "twitter": "None", "instagram": "None", "facebook": "None", "youtube": "None", "website": "None", "summary": "None", "logo": "None", "latitude": 48.96165167716005, "longitude": -57.92942547749453}}