{"118944610RR0001": {"name": "GRACE RETIREMENT AND COMMUNITY ENTERPRISES INC.", "designationCode": "C", "categoryCode": "09", "address": "17 SCOTT ST", "city": "BRAMPTON", "province": "ON", "country": "CA", "postalCode": "L6V3Y6", "twitter": "None", "instagram": "None", "facebook": "None", "youtube": "None", "website": "None", "summary": "None", "logo": "None", "latitude": 43.69020247010828, "longitude": -79.75710561607667}, "870220621RR0001": {"name": "GRACE SPARKES HOUSE, INCORPORATED", "designationCode": "C", "categoryCode": "01", "address": "PO BOX 327", "city": "MARYSTOWN", "province": "NL", "country": "CA", "postalCode": "A0E2M0", "twitter": "None", "instagram": "None", "facebook": "None", "youtube": "None", "website": "None", "summary": "None", "logo": "None", "latitude": 47.17724000000004, "longitude": -55.15096999999997}, "892004011RR0001": {"name": "GRACE SPIRITUAL HEALING TEMPLE OF JESUS CHRIST OF THE FULL GOSPEL", "designationCode": "C", "categoryCode": "39", "address": "1179 FINCH AVENUE WEST        UNIT 5", "city": "TORONTO", "province": "ON", "country": "CA", "postalCode": "M3J2G1", "twitter": "None", "instagram": "None", "facebook": "None", "youtube": "None", "website": "None", "summary": "None", "logo": "None", "latitude": 43.765407782042224, "longitude": -79.4821372519767}, "107445272RR0001": {"name": "GRACE TABERNACLE", "designationCode": "C", "categoryCode": "39", "address": "PO BOX 188                    STN A", "city": "ABBOTSFORD", "province": "BC", "country": "CA", "postalCode": "V2T6Z5", "twitter": "None", "instagram": "None", "facebook": "None", "youtube": "None", "website": "None", "summary": "None", "logo": "None", "latitude": 49.05161700000005, "longitude": -122.32930399999994}, "118944636RR0001": {"name": "GRACE TABERNACLE", "designationCode": "C", "categoryCode": "39", "address": "22 GLEN PARK AVENUE", "city": "TORONTO", "province": "ON", "country": "CA", "postalCode": "M6B2B9", "twitter": "None", "instagram": "None", "facebook": "None", "youtube": "None", "website": "None", "summary": "None", "logo": "None", "latitude": 43.71282212519461, "longitude": -79.43035800611683}, "800512303RR0001": {"name": "GRACE THAT REIGNS SOCIETY", "designationCode": "C", "categoryCode": "39", "address": "215-265 EAST 15TH AVENUE", "city": "VANCOUVER", "province": "BC", "country": "CA", "postalCode": "V5T4K4", "twitter": "None", "instagram": "None", "facebook": "None", "youtube": "None", "website": "None", "summary": "None", "logo": "None", "latitude": 49.25752649321934, "longitude": -123.09914208090484}, "856420377RR0001": {"name": "GRACE TO CHINESE INTERNATIONAL", "designationCode": "C", "categoryCode": "47", "address": "110 RIVIERA DRIVE             UNIT 6A", "city": "MARKHAM", "province": "ON", "country": "CA", "postalCode": "L3R5M1", "twitter": "None", "instagram": "None", "facebook": "None", "youtube": "None", "website": "None", "summary": "None", "logo": "None", "latitude": 43.83264215130678, "longitude": -79.34088728700429}, "119304145RR0001": {"name": "GRACE TO YOU CANADA INC. /GRACE TO YOU DU CANADA INC.", "designationCode": "C", "categoryCode": "49", "address": "4196 LEVESQUE BLVD O", "city": "LAVAL", "province": "QC", "country": "CA", "postalCode": "H7W2P7", "twitter": "None", "instagram": "None", "facebook": "None", "youtube": "None", "website": "None", "summary": "None", "logo": "None", "latitude": 45.53148034358601, "longitude": -73.74702575018769}, "140868811RR0001": {"name": "GRACE TORONTO CHURCH", "designationCode": "C", "categoryCode": "37", "address": "383 JARVIS ST", "city": "TORONTO", "province": "ON", "country": "CA", "postalCode": "M5B2C7", "twitter": "None", "instagram": "None", "facebook": "None", "youtube": "None", "website": "None", "summary": "None", "logo": "None", "latitude": 43.66221320927345, "longitude": -79.37658099206548}, "894926112RR0001": {"name": "GRACE TRINITY COMMUNITY CHURCH", "designationCode": "C", "categoryCode": "39", "address": "47 KEYS CRESCENT", "city": "GUELPH", "province": "ON", "country": "CA", "postalCode": "N1G5J7", "twitter": "None", "instagram": "None", "facebook": "None", "youtube": "None", "website": "None", "summary": "None", "logo": "None", "latitude": 43.500677910612396, "longitude": -80.20103128423433}, "107445389RR0001": {"name": "GRACE UNITED CHURCH", "designationCode": "C", "categoryCode": "44", "address": "350 GROVE ST E", "city": "BARRIE", "province": "ON", "country": "CA", "postalCode": "L4M2R7", "twitter": "None", "instagram": "None", "facebook": "None", "youtube": "None", "website": "None", "summary": "None", "logo": "None", "latitude": 44.406554405505155, "longitude": -79.66847740882336}, "107445439RR0001": {"name": "GRACE UNITED CHURCH", "designationCode": "C", "categoryCode": "44", "address": "BOX 189", "city": "TAVISTOCK", "province": "ON", "country": "CA", "postalCode": "N0B2R0", "twitter": "None", "instagram": "None", "facebook": "None", "youtube": "None", "website": "None", "summary": "None", "logo": "None", "latitude": 43.32137000000006, "longitude": -80.83615999999995}, "107445454RR0001": {"name": "GRACE UNITED CHURCH", "designationCode": "C", "categoryCode": "44", "address": "310 - 12TH STREET", "city": "HANOVER", "province": "ON", "country": "CA", "postalCode": "N4N1V6", "twitter": "None", "instagram": "None", "facebook": "None", "youtube": "None", "website": "None", "summary": "None", "logo": "None", "latitude": 44.15378531836791, "longitude": -81.02782422759532}, "107445488RR0001": {"name": "GRACE UNITED CHURCH", "designationCode": "C", "categoryCode": "44", "address": "990 CATHCART BOULEVARD", "city": "SARNIA", "province": "ON", "country": "CA", "postalCode": "N7S2H2", "twitter": "None", "instagram": "None", "facebook": "None", "youtube": "None", "website": "None", "summary": "None", "logo": "None", "latitude": 43.008050837074855, "longitude": -82.37462807826645}, "107445512RR0001": {"name": "GRACE UNITED CHURCH", "designationCode": "C", "categoryCode": "44", "address": "210 3RD ST NE", "city": "WEYBURN", "province": "SK", "country": "CA", "postalCode": "S4H0W6", "twitter": "None", "instagram": "None", "facebook": "None", "youtube": "None", "website": "None", "summary": "None", "logo": "None", "latitude": 49.65638576550297, "longitude": -103.8549725607666}, "107445520RR0001": {"name": "GRACE UNITED CHURCH", "designationCode": "C", "categoryCode": "44", "address": "1038-4 AVE", "city": "WAINWRIGHT", "province": "AB", "country": "CA", "postalCode": "T9W1H2", "twitter": "None", "instagram": "None", "facebook": "None", "youtube": "None", "website": "None", "summary": "None", "logo": "None", "latitude": 52.83459268056425, "longitude": -110.85763308462708}, "107445538RR0001": {"name": "GRACE UNITED CHURCH", "designationCode": "C", "categoryCode": "44", "address": "6215-104 AVE", "city": "EDMONTON", "province": "AB", "country": "CA", "postalCode": "T6A0X9", "twitter": "None", "instagram": "None", "facebook": "None", "youtube": "None", "website": "None", "summary": "None", "logo": "None", "latitude": 53.54666122119003, "longitude": -113.42817030665383}, "118944685RR0001": {"name": "GRACE UNITED CHURCH", "designationCode": "C", "categoryCode": "44", "address": "70 KING ST", "city": "DARTMOUTH", "province": "NS", "country": "CA", "postalCode": "B2Y4R3", "twitter": "None", "instagram": "None", "facebook": "None", "youtube": "None", "website": "None", "summary": "None", "logo": "None", "latitude": 44.66641432835123, "longitude": -63.568105539673475}, "118944701RR0001": {"name": "GRACE UNITED CHURCH", "designationCode": "C", "categoryCode": "44", "address": "120 PINE STREET", "city": "GANANOQUE", "province": "ON", "country": "CA", "postalCode": "K7G1C7", "twitter": "None", "instagram": "None", "facebook": "None", "youtube": "None", "website": "None", "summary": "None", "logo": "None", "latitude": 44.32924326622289, "longitude": -76.16133256678268}, "118944735RR0001": {"name": "GRACE UNITED CHURCH", "designationCode": "C", "categoryCode": "44", "address": "581 HOWDEN AVENUE", "city": "PETERBOROUGH", "province": "ON", "country": "CA", "postalCode": "K9J4B4", "twitter": "None", "instagram": "None", "facebook": "None", "youtube": "None", "website": "None", "summary": "None", "logo": "None", "latitude": 44.278861988054786, "longitude": -78.32582667401469}, "118944768RR0001": {"name": "GRACE UNITED CHURCH", "designationCode": "C", "categoryCode": "44", "address": "156 MAIN STREET NORTH", "city": "BRAMPTON", "province": "ON", "country": "CA", "postalCode": "L6V1N9", "twitter": "None", "instagram": "None", "facebook": "None", "youtube": "None", "website": "None", "summary": "None", "logo": "None", "latitude": 43.688606162675065, "longitude": -79.76355285729159}, "118944784RR0001": {"name": "GRACE UNITED CHURCH", "designationCode": "C", "categoryCode": "44", "address": "BOX 212", "city": "DUNNVILLE", "province": "ON", "country": "CA", "postalCode": "N1A2X5", "twitter": "None", "instagram": "None", "facebook": "None", "youtube": "None", "website": "None", "summary": "None", "logo": "None", "latitude": 42.90442800000005, "longitude": -79.62015049999994}, "118944834RR0001": {"name": "GRACE UNITED CHURCH", "designationCode": "C", "categoryCode": "44", "address": "BOX 248", "city": "NIPIGON", "province": "ON", "country": "CA", "postalCode": "P0T2J0", "twitter": "None", "instagram": "None", "facebook": "None", "youtube": "None", "website": "None", "summary": "None", "logo": "None", "latitude": 49.43220506449858, "longitude": -88.12945411505873}, "118944842RR0001": {"name": "GRACE UNITED CHURCH", "designationCode": "C", "categoryCode": "44", "address": "PO BOX 353", "city": "LEMBERG", "province": "SK", "country": "CA", "postalCode": "S0A2B0", "twitter": "None", "instagram": "None", "facebook": "None", "youtube": "None", "website": "None", "summary": "None", "logo": "None", "latitude": 50.725130000000036, "longitude": -103.20305999999994}, "118944867RR0001": {"name": "GRACE UNITED CHURCH", "designationCode": "C", "categoryCode": "44", "address": "BOX 577", "city": "STOUGHTON", "province": "SK", "country": "CA", "postalCode": "S0G4T0", "twitter": "None", "instagram": "None", "facebook": "None", "youtube": "None", "website": "None", "summary": "None", "logo": "None", "latitude": 49.676720000000046, "longitude": -103.02253999999999}, "118944883RR0001": {"name": "GRACE UNITED CHURCH", "designationCode": "C", "categoryCode": "44", "address": "BOX 12", "city": "LOVERNA", "province": "SK", "country": "CA", "postalCode": "S0L1Y0", "twitter": "None", "instagram": "None", "facebook": "None", "youtube": "None", "website": "None", "summary": "None", "logo": "None", "latitude": 51.661050000000046, "longitude": -109.99246999999997}, "118944891RR0001": {"name": "GRACE UNITED CHURCH", "designationCode": "C", "categoryCode": "44", "address": "PO BOX 659", "city": "MACKLIN", "province": "SK", "country": "CA", "postalCode": "S0L2C0", "twitter": "None", "instagram": "None", "facebook": "None", "youtube": "None", "website": "None", "summary": "None", "logo": "None", "latitude": 52.33280000000008, "longitude": -109.93590999999998}, "118944909RR0001": {"name": "GRACE UNITED CHURCH", "designationCode": "C", "categoryCode": "44", "address": "BOX 212", "city": "VAL MARIE", "province": "SK", "country": "CA", "postalCode": "S0N2T0", "twitter": "None", "instagram": "None", "facebook": "None", "youtube": "None", "website": "None", "summary": "None", "logo": "None", "latitude": 50.61918000000003, "longitude": -108.45853999999997}, "118944958RR0001": {"name": "GRACE UNITED CHURCH", "designationCode": "C", "categoryCode": "44", "address": "BOX 348", "city": "GRIMSHAW", "province": "AB", "country": "CA", "postalCode": "T0H1W0", "twitter": "None", "instagram": "None", "facebook": "None", "youtube": "None", "website": "None", "summary": "None", "logo": "None", "latitude": 56.191580000000044, "longitude": -117.60929999999996}, "130177728RR0001": {"name": "GRACE UNITED CHURCH", "designationCode": "C", "categoryCode": "44", "address": "4708 50TH AVE", "city": "LLOYDMINSTER", "province": "AB", "country": "CA", "postalCode": "T9V0W4", "twitter": "None", "instagram": "None", "facebook": "None", "youtube": "None", "website": "None", "summary": "None", "logo": "None", "latitude": 53.28109841909517, "longitude": -110.00555895951845}, "131473878RR0001": {"name": "GRACE UNITED CHURCH", "designationCode": "C", "categoryCode": "44", "address": "P.O. BOX 211", "city": "NIAGARA-ON-THE-LAKE", "province": "ON", "country": "CA", "postalCode": "L0S1J0", "twitter": "None", "instagram": "None", "facebook": "None", "youtube": "None", "website": "None", "summary": "None", "logo": "None", "latitude": 43.23448500000005, "longitude": -79.16177149999993}, "107445504RR0001": {"name": "GRACE UNITED CHURCH, HORNEPAYNE", "designationCode": "C", "categoryCode": "44", "address": "36 THIRD AVENUE               P.O. BOX 690", "city": "HORNEPAYNE", "province": "ON", "country": "CA", "postalCode": "P0M1Z0", "twitter": "None", "instagram": "None", "facebook": "None", "youtube": "None", "website": "None", "summary": "None", "logo": "None", "latitude": 49.218099288060856, "longitude": -84.77656270452927}, "889814992RR0001": {"name": "GRACE UNITED REFORMED CHURCH (OF SIMCOE COUNTY)", "designationCode": "C", "categoryCode": "39", "address": "PO BOX 2668", "city": "ORILLIA", "province": "ON", "country": "CA", "postalCode": "L3V7C1", "twitter": "None", "instagram": "None", "facebook": "None", "youtube": "None", "website": "None", "summary": "None", "logo": "None", "latitude": 44.60657100000006, "longitude": -79.41824449999993}, "863489142RR0001": {"name": "GRACE VALLEY CHURCH INC.", "designationCode": "C", "categoryCode": "39", "address": "PO BOX 4574", "city": "ROTHESAY", "province": "NB", "country": "CA", "postalCode": "E2E5X3", "twitter": "None", "instagram": "None", "facebook": "None", "youtube": "None", "website": "None", "summary": "None", "logo": "None", "latitude": 45.380919929916686, "longitude": -65.99681338202436}, "887222321RR0001": {"name": "GRACE VANCOUVER REFORMED PRESBYTERIAN SOCIETY", "designationCode": "C", "categoryCode": "39", "address": "1696 WEST 7TH AVE", "city": "VANCOUVER", "province": "BC", "country": "CA", "postalCode": "V6J1S5", "twitter": "None", "instagram": "None", "facebook": "None", "youtube": "None", "website": "None", "summary": "None", "logo": "None", "latitude": 49.26541554674262, "longitude": -123.1430744701656}, "840627764RR0001": {"name": "GRACE WALK CANADA", "designationCode": "C", "categoryCode": "47", "address": "PO BOX 377", "city": "ELMIRA", "province": "ON", "country": "CA", "postalCode": "N3B3A9", "twitter": "None", "instagram": "None", "facebook": "None", "youtube": "None", "website": "None", "summary": "None", "logo": "None", "latitude": 43.59864300000005, "longitude": -80.55873349999993}, "118945013RR0001": {"name": "GRACE WESTMINSTER UNITED CHURCH", "designationCode": "C", "categoryCode": "44", "address": "505 10TH STREET EAST", "city": "SASKATOON", "province": "SK", "country": "CA", "postalCode": "S7N0E3", "twitter": "None", "instagram": "None", "facebook": "None", "youtube": "None", "website": "None", "summary": "None", "logo": "None", "latitude": 52.11779952986307, "longitude": -106.65896238634657}, "897283230RR0001": {"name": "GRACE-CARMAN SENIOR CITIZENS' HOME INC.", "designationCode": "C", "categoryCode": "99", "address": "180 SHERIDAN AVENUE           MAIN OFFICE", "city": "TORONTO", "province": "ON", "country": "CA", "postalCode": "M6K3C7", "twitter": "None", "instagram": "None", "facebook": "None", "youtube": "None", "website": "None", "summary": "None", "logo": "None", "latitude": 43.65163812600267, "longitude": -79.43442429214019}, "118944016RR0001": {"name": "GRACE-LINWELL RETIREMENT COMMUNITY INC.", "designationCode": "C", "categoryCode": "09", "address": "531 LAKE STREET", "city": "ST CATHARINES", "province": "ON", "country": "CA", "postalCode": "L2N4H6", "twitter": "None", "instagram": "None", "facebook": "None", "youtube": "None", "website": "None", "summary": "None", "logo": "None", "latitude": 43.189144292255776, "longitude": -79.25195800822297}, "118944628RR0001": {"name": "GRACE-ST. ANDREW'S UNITED CHURCH", "designationCode": "C", "categoryCode": "44", "address": "269 JOHN ST NORTH", "city": "ARNPRIOR", "province": "ON", "country": "CA", "postalCode": "K7S2P3", "twitter": "None", "instagram": "None", "facebook": "None", "youtube": "None", "website": "None", "summary": "None", "logo": "None", "latitude": 45.43808465000869, "longitude": -76.35249454307862}, "895681930RR0001": {"name": "GRACEFIELD CAMP AND CONFERENCE CENTER", "designationCode": "C", "categoryCode": "37", "address": "BOX 420", "city": "GRACEFIELD", "province": "QC", "country": "CA", "postalCode": "J0X1W0", "twitter": "None", "instagram": "None", "facebook": "None", "youtube": "None", "website": "None", "summary": "None", "logo": "None", "latitude": 46.10643000000006, "longitude": -76.13844649999993}, "866055114RR0001": {"name": "GRACELAND MINISTRIES", "designationCode": "C", "categoryCode": "47", "address": "610 WRIGHT AVE., SUITE 232", "city": "DARTMOUTH", "province": "NS", "country": "CA", "postalCode": "B3B0H8", "twitter": "None", "instagram": "None", "facebook": "None", "youtube": "None", "website": "None", "summary": "None", "logo": "None", "latitude": 44.709774666628455, "longitude": -63.568435132263744}, "864100367RR0001": {"name": "GRACEPOINT COMMUNITY CHURCH", "designationCode": "C", "categoryCode": "34", "address": "3487 KING GEORGE BLVD", "city": "SURREY", "province": "BC", "country": "CA", "postalCode": "V4P1B7", "twitter": "None", "instagram": "None", "facebook": "None", "youtube": "None", "website": "None", "summary": "None", "logo": "None", "latitude": 49.06534765194193, "longitude": -122.81811091773885}, "107445116RR0001": {"name": "GRACEVIEW PRESBYTERIAN CHURCH", "designationCode": "C", "categoryCode": "37", "address": "588 RENFORTH DRIVE", "city": "ETOBICOKE", "province": "ON", "country": "CA", "postalCode": "M9C2N5", "twitter": "None", "instagram": "None", "facebook": "None", "youtube": "None", "website": "None", "summary": "None", "logo": "None", "latitude": 43.65351003246013, "longitude": -79.58044536017618}, "133236158RR0001": {"name": "GRACEVIEW PRESBYTERIAN CHURCH WOMENS GUILD", "designationCode": "C", "categoryCode": "47", "address": "588 RENFORTH DRIVE", "city": "ETOBICOKE", "province": "ON", "country": "CA", "postalCode": "M9C2N5", "twitter": "None", "instagram": "None", "facebook": "None", "youtube": "None", "website": "None", "summary": "None", "logo": "None", "latitude": 43.65351003246013, "longitude": -79.58044536017618}, "118945005RR0001": {"name": "GRACEWAY BAPTIST CHURCH", "designationCode": "C", "categoryCode": "31", "address": "103 MARTIN ST", "city": "MILTON ST", "province": "ON", "country": "CA", "postalCode": "L9T2R3", "twitter": "None", "instagram": "None", "facebook": "None", "youtube": "None", "website": "None", "summary": "None", "logo": "None", "latitude": 43.51555122038196, "longitude": -79.88563458047216}, "119269173RR0001": {"name": "GRACEWAY BIBLE SOCIETY", "designationCode": "C", "categoryCode": "47", "address": "39 CALDWELL CRES.", "city": "BRAMPTON", "province": "ON", "country": "CA", "postalCode": "L6W1A2", "twitter": "None", "instagram": "None", "facebook": "None", "youtube": "None", "website": "None", "summary": "None", "logo": "None", "latitude": 43.67305827090415, "longitude": -79.72682122130558}, "860032770RR0001": {"name": "GRACEWAY CHURCH INC.", "designationCode": "C", "categoryCode": "39", "address": "PO BOX 627", "city": "GRUNTHAL", "province": "MB", "country": "CA", "postalCode": "R0A0R0", "twitter": "None", "instagram": "None", "facebook": "None", "youtube": "None", "website": "None", "summary": "None", "logo": "None", "latitude": 49.40668000000005, "longitude": -96.85131999999999}, "844616540RR0001": {"name": "GRACIOUS LIGHT CHRISTIAN CENTRE INC.", "designationCode": "C", "categoryCode": "47", "address": "2/F-752 SOMERSET STREET WEST", "city": "OTTAWA", "province": "ON", "country": "CA", "postalCode": "K1R6P8", "twitter": "None", "instagram": "None", "facebook": "None", "youtube": "None", "website": "None", "summary": "None", "logo": "None", "latitude": 45.410384154918674, "longitude": -75.70851409863155}, "892622044RR0001": {"name": "GRADUATE CHRISTIAN FELLOWSHIP CONFERENCE", "designationCode": "C", "categoryCode": "56", "address": "32 CHERITAN AVE", "city": "TORONTO", "province": "ON", "country": "CA", "postalCode": "M4R1S5", "twitter": "None", "instagram": "None", "facebook": "None", "youtube": "None", "website": "None", "summary": "None", "logo": "None", "latitude": 43.72292338386508, "longitude": -79.4035550059726}, "866672231RR0001": {"name": "GRAFFITI ART PROGRAMMING INC", "designationCode": "C", "categoryCode": "09", "address": "109 HIGGINS AVENUE", "city": "WINNIPEG", "province": "MB", "country": "CA", "postalCode": "R3B0B5", "twitter": "None", "instagram": "None", "facebook": "None", "youtube": "None", "website": "None", "summary": "None", "logo": "None", "latitude": 49.90353139497358, "longitude": -97.12581799832655}, "886754712RR0001": {"name": "GRAFFITI THEATRE COMPANY SOCIETY", "designationCode": "C", "categoryCode": "22", "address": "155 DON ORE ROAD", "city": "SALT SPRING ISLAND", "province": "BC", "country": "CA", "postalCode": "V8K2H3", "twitter": "None", "instagram": "None", "facebook": "None", "youtube": "None", "website": "None", "summary": "None", "logo": "None", "latitude": 48.83674200000006, "longitude": -123.49483099999993}, "107445942RR0001": {"name": "GRAFTON BAPTIST CHURCH", "designationCode": "C", "categoryCode": "31", "address": "48 SAUNDERS ST", "city": "GRAFTON", "province": "NB", "country": "CA", "postalCode": "E7N1H3", "twitter": "None", "instagram": "None", "facebook": "None", "youtube": "None", "website": "None", "summary": "None", "logo": "None", "latitude": 46.16286954501185, "longitude": -67.55918892752061}, "865061592RR0001": {"name": "GRAHAM C. LOUNT FAMILY FOUNDATION, INC.", "designationCode": "B", "categoryCode": "03", "address": "1810-1712 PORTAGE AVENUE", "city": "WINNIPEG", "province": "MB", "country": "CA", "postalCode": "R3J0E3", "twitter": "None", "instagram": "None", "facebook": "None", "youtube": "None", "website": "None", "summary": "None", "logo": "None", "latitude": 49.879048520093924, "longitude": -97.20564877567556}, "895304285RR0001": {"name": "GRAHAM MUNRO CHARITABLE FOUNDATION", "designationCode": "B", "categoryCode": "03", "address": "1 MARITIME ONTARIO BLVD", "city": "BRAMPTON", "province": "ON", "country": "CA", "postalCode": "L6S6G4", "twitter": "None", "instagram": "None", "facebook": "None", "youtube": "None", "website": "None", "summary": "None", "logo": "None", "latitude": 43.74748428429165, "longitude": -79.694653695309}, "118945096RR0001": {"name": "GRAIN OF WHEAT CHURCH-COMMUNITY INCORPORATED", "designationCode": "C", "categoryCode": "39", "address": "365 MCGEE STREET", "city": "WINNIPEG", "province": "MB", "country": "CA", "postalCode": "R3G3M5", "twitter": "None", "instagram": "None", "facebook": "None", "youtube": "None", "website": "None", "summary": "None", "logo": "None", "latitude": 49.88998555227612, "longitude": -97.16102882525803}, "140909557RR0001": {"name": "GRAINS DE SOLEIL COTE-NORD INC", "designationCode": "C", "categoryCode": "20", "address": "4, DE L'ECOLE", "city": "CHUTES-AUX-OUTARDES", "province": "QC", "country": "CA", "postalCode": "G0H1C0", "twitter": "None", "instagram": "None", "facebook": "None", "youtube": "None", "website": "None", "summary": "None", "logo": "None", "latitude": 49.123405433002276, "longitude": -68.39068094292828}, "118945104RR0001": {"name": "GRAMI INC.", "designationCode": "A", "categoryCode": "11", "address": "570 RUE HERIOT", "city": "DRUMMONDVILLE", "province": "QC", "country": "CA", "postalCode": "J2B1C1", "twitter": "None", "instagram": "None", "facebook": "None", "youtube": "None", "website": "None", "summary": "None", "logo": "None", "latitude": 45.87954375731457, "longitude": -72.47858764576445}, "892416595RR0001": {"name": "GRAN-FOR-LINE ASSOCIATION FOR COMMUNITY LIVING", "designationCode": "C", "categoryCode": "09", "address": "POST OFFICE BOX 1090", "city": "GRAND BANK", "province": "NL", "country": "CA", "postalCode": "A0E1W0", "twitter": "None", "instagram": "None", "facebook": "None", "youtube": "None", "website": "None", "summary": "None", "logo": "None", "latitude": 47.52674538996191, "longitude": -54.94957524421343}, "107446288RR0001": {"name": "GRANBY PASTORAL CHARGE", "designationCode": "C", "categoryCode": "44", "address": "101 PRINCIPALE", "city": "GRANBY", "province": "QC", "country": "CA", "postalCode": "J2G2T9", "twitter": "None", "instagram": "None", "facebook": "None", "youtube": "None", "website": "None", "summary": "None", "logo": "None", "latitude": 45.39859967724602, "longitude": -72.72336461890488}, "871747143RR0001": {"name": "GRANBY PENTECOSTAL CHURCH,", "designationCode": "C", "categoryCode": "36", "address": "525 SIMONDS S", "city": "GRANBY", "province": "QC", "country": "CA", "postalCode": "J2G1G6", "twitter": "None", "instagram": "None", "facebook": "None", "youtube": "None", "website": "None", "summary": "None", "logo": "None", "latitude": 45.3948597238444, "longitude": -72.75736302550656}, "896875838RR0001": {"name": "GRAND BANK HERITAGE SOCIETY INC.", "designationCode": "C", "categoryCode": "50", "address": "BOX 417", "city": "GRAND BANK", "province": "NL", "country": "CA", "postalCode": "A0E1W0", "twitter": "None", "instagram": "None", "facebook": "None", "youtube": "None", "website": "None", "summary": "None", "logo": "None", "latitude": 47.09441400000006, "longitude": -55.75790149999993}, "118945161RR0001": {"name": "GRAND BANK UNITED CHURCH", "designationCode": "C", "categoryCode": "44", "address": "PO BOX 369", "city": "GRAND BANK", "province": "NL", "country": "CA", "postalCode": "A0E1W0", "twitter": "None", "instagram": "None", "facebook": "None", "youtube": "None", "website": "None", "summary": "None", "logo": "None", "latitude": 47.52674538996191, "longitude": -54.94957524421343}, "118945179RR0001": {"name": "GRAND BAY UNITED BAPTIST CHURCH", "designationCode": "C", "categoryCode": "31", "address": "77 WOOLASTOOK DRIVE", "city": "GRAND BAY-WESTFIELD", "province": "NB", "country": "CA", "postalCode": "E5K1S3", "twitter": "None", "instagram": "None", "facebook": "None", "youtube": "None", "website": "None", "summary": "None", "logo": "None", "latitude": 45.31284473604942, "longitude": -66.19597928054074}, "886552124RR0001": {"name": "GRAND BEND AREA COMMUNITY HEALTH CENTRE INC", "designationCode": "C", "categoryCode": "11", "address": "PO BOX 1269", "city": "GRAND BEND", "province": "ON", "country": "CA", "postalCode": "N0M1T0", "twitter": "None", "instagram": "None", "facebook": "None", "youtube": "None", "website": "None", "summary": "None", "logo": "None", "latitude": 43.235389489558244, "longitude": -81.68905893037018}, "886738418RR0001": {"name": "GRAND BEND AREA HEALTH SERVICES FOUNDATION", "designationCode": "A", "categoryCode": "13", "address": "PO BOX 760", "city": "GRAND BEND", "province": "ON", "country": "CA", "postalCode": "N0M1T0", "twitter": "None", "instagram": "None", "facebook": "None", "youtube": "None", "website": "None", "summary": "None", "logo": "None", "latitude": 43.235389489558244, "longitude": -81.68905893037018}, "865368526RR0001": {"name": "GRAND BEND COMMUNITY FOUNDATION", "designationCode": "A", "categoryCode": "03", "address": "P.O. BOX 1150                 16 MUNICIPAL DR", "city": "GRAND BOND", "province": "ON", "country": "CA", "postalCode": "N0M1T0", "twitter": "None", "instagram": "None", "facebook": "None", "youtube": "None", "website": "None", "summary": "None", "logo": "None", "latitude": 43.31222359674522, "longitude": -81.75482206451622}, "118945195RR0001": {"name": "GRAND BEND GOSPEL HALL", "designationCode": "C", "categoryCode": "39", "address": "BOX 605", "city": "GRAND BEND", "province": "ON", "country": "CA", "postalCode": "N0M1T0", "twitter": "None", "instagram": "None", "facebook": "None", "youtube": "None", "website": "None", "summary": "None", "logo": "None", "latitude": 43.235389489558244, "longitude": -81.68905893037018}, "118945203RR0001": {"name": "GRAND BEND NON PROFIT HOUSING CORPORATION", "designationCode": "C", "categoryCode": "01", "address": "P.O. BOX 674", "city": "GRAND BEND", "province": "ON", "country": "CA", "postalCode": "N0M1T0", "twitter": "None", "instagram": "None", "facebook": "None", "youtube": "None", "website": "None", "summary": "None", "logo": "None", "latitude": 43.235389489558244, "longitude": -81.68905893037018}, "129880076RR0001": {"name": "GRAND CENTRE ALLIANCE CHURCH,", "designationCode": "C", "categoryCode": "39", "address": "5403 56 ST", "city": "COLD LAKE", "province": "AB", "country": "CA", "postalCode": "T9M1R4", "twitter": "None", "instagram": "None", "facebook": "None", "youtube": "None", "website": "None", "summary": "None", "logo": "None", "latitude": 54.41920162449349, "longitude": -110.21568086890552}, "118945278RR0001": {"name": "GRAND CHAPTER OF SASKATCHEWAN ORDER OF THE EASTERN STAR, CHARITY TRUST", "designationCode": "C", "categoryCode": "65", "address": "CHARITY TRUST                 P.O. BOX 169", "city": "MACOUN", "province": "SK", "country": "CA", "postalCode": "S0C1P0", "twitter": "None", "instagram": "None", "facebook": "None", "youtube": "None", "website": "None", "summary": "None", "logo": "None", "latitude": 49.393172595367744, "longitude": -103.41340357241975}, "108083304RR0001": {"name": "GRAND CHAPTER ROYAL ARCH MASONS CANADA PROVINCE ONTARIO SCHOLARSHIP BURSARY FUND", "designationCode": "C", "categoryCode": "21", "address": "361 KING ST WEST", "city": "HAMILTON", "province": "ON", "country": "CA", "postalCode": "L8P1B4", "twitter": "None", "instagram": "None", "facebook": "None", "youtube": "None", "website": "None", "summary": "None", "logo": "None", "latitude": 43.259700908816164, "longitude": -79.88007661419223}, "884323502RR0001": {"name": "GRAND CHARITABLE TRUST", "designationCode": "B", "categoryCode": "39", "address": "780 SAKATCHEWAN AVE W", "city": "PORTAGE LA PRAIRIE", "province": "MB", "country": "CA", "postalCode": "R1N0N7", "twitter": "None", "instagram": "None", "facebook": "None", "youtube": "None", "website": "None", "summary": "None", "logo": "None", "latitude": 49.97373494820344, "longitude": -98.30132080652011}, "867089294RR0001": {"name": "GRAND ERIE DISTRICT SCHOOL BOARD", "designationCode": "C", "categoryCode": "20", "address": "349 ERIE AVE", "city": "BRANTFORD", "province": "ON", "country": "CA", "postalCode": "N3T5V3", "twitter": "None", "instagram": "None", "facebook": "None", "youtube": "None", "website": "None", "summary": "None", "logo": "None", "latitude": 43.11933292441014, "longitude": -80.25107377323043}, "898525423RR0001": {"name": "GRAND FALLS - WINDSOR HERITAGE SOCIETY INC.", "designationCode": "C", "categoryCode": "52", "address": "7 HIGH STREET                 P.O. BOX 439", "city": "GRAND FALLS-WINDSOR", "province": "NL", "country": "CA", "postalCode": "A2A2J8", "twitter": "None", "instagram": "None", "facebook": "None", "youtube": "None", "website": "None", "summary": "None", "logo": "None", "latitude": 48.927837403680925, "longitude": -55.6585755619096}, "888727666RR0001": {"name": "GRAND FALLS BAPTIST CHURCH", "designationCode": "C", "categoryCode": "31", "address": "96 COURT STREET", "city": "GRAND FALLS", "province": "NB", "country": "CA", "postalCode": "E3Y2P7", "twitter": "None", "instagram": "None", "facebook": "None", "youtube": "None", "website": "None", "summary": "None", "logo": "None", "latitude": 47.04533628005073, "longitude": -67.73961250178901}, "107446924RR0001": {"name": "GRAND FALLS MANOR INC.", "designationCode": "C", "categoryCode": "10", "address": "CP 7008", "city": "GRAND SAUTS", "province": "NB", "country": "CA", "postalCode": "E3Z1G5", "twitter": "None", "instagram": "None", "facebook": "None", "youtube": "None", "website": "None", "summary": "None", "logo": "None", "latitude": 46.92817500000005, "longitude": -67.73318899999994}, "122662877RR0001": {"name": "GRAND FORKS ART GALLERY SOCIETY", "designationCode": "C", "categoryCode": "50", "address": "BOX 2140", "city": "GRAND FORKS", "province": "BC", "country": "CA", "postalCode": "V0H1H0", "twitter": "None", "instagram": "None", "facebook": "None", "youtube": "None", "website": "None", "summary": "None", "logo": "None", "latitude": 49.032020000000045, "longitude": -118.43659999999994}, "107446981RR0001": {"name": "GRAND FORKS CHRISTIAN CENTRE SOCIETY", "designationCode": "C", "categoryCode": "39", "address": "P.O. BOX 2287", "city": "GRAND FORKS", "province": "BC", "country": "CA", "postalCode": "V0H1H0", "twitter": "None", "instagram": "None", "facebook": "None", "youtube": "None", "website": "None", "summary": "None", "logo": "None", "latitude": 49.03245000000004, "longitude": -118.44297999999998}, "882873318RR0001": {"name": "GRAND FORKS COMMUNITY TRAILS SOCIETY", "designationCode": "C", "categoryCode": "52", "address": "P.O. 2921", "city": "GRAND FORKS", "province": "BC", "country": "CA", "postalCode": "V0H1H0", "twitter": "None", "instagram": "None", "facebook": "None", "youtube": "None", "website": "None", "summary": "None", "logo": "None"}, "119288918RR0352": {"name": "GRAND FORKS CONGREGATION OF JEHOVAH'S WITNESSES", "designationCode": "C", "categoryCode": "61", "address": "5390 ALMOND GARDENS ROAD", "city": "GRAND PARKS", "province": "BC", "country": "CA", "postalCode": "V0H1H4", "twitter": "None", "instagram": "None", "facebook": "None", "youtube": "None", "website": "None", "summary": "None", "logo": "None", "latitude": 49.008372829021255, "longitude": -118.49491471192336}, "871044764RR0001": {"name": "GRAND FORKS HOUSING SOCIETY", "designationCode": "C", "categoryCode": "03", "address": "7130 9TH STREET               UNIT 200", "city": "GRAND FORKS", "province": "BC", "country": "CA", "postalCode": "V0H1H4", "twitter": "None", "instagram": "None", "facebook": "None", "youtube": "None", "website": "None", "summary": "None", "logo": "None", "latitude": 49.028697506585154, "longitude": -118.44463378682904}, "118945708RR0001": {"name": "GRAND FORKS PUBLIC LIBRARY ASSOCIATION", "designationCode": "C", "categoryCode": "50", "address": "PO BOX 1539", "city": "GRAND FORKS", "province": "BC", "country": "CA", "postalCode": "V0H1H0", "twitter": "None", "instagram": "None", "facebook": "None", "youtube": "None", "website": "None", "summary": "None", "logo": "None", "latitude": 49.03245000000004, "longitude": -118.44297999999998}, "118818491RR0016": {"name": "GRAND FORKS SEVENTH-DAY ADVENTIST CHURCH", "designationCode": "C", "categoryCode": "41", "address": "PO 1000", "city": "ABBOTSFORD", "province": "BC", "country": "CA", "postalCode": "V2S4P5", "twitter": "None", "instagram": "None", "facebook": "None", "youtube": "None", "website": "None", "summary": "None", "logo": "None", "latitude": 49.03851300000005, "longitude": -122.29441549999993}, "887688356RR0001": {"name": "GRAND IMPERIAL CONCLAVE OF CANADA CHARITABLE FOUNDATION", "designationCode": "C", "categoryCode": "53", "address": "865 PARKHILL ROAD WEST", "city": "PETERBOROUGH", "province": "ON", "country": "CA", "postalCode": "K9J6P2", "twitter": "None", "instagram": "None", "facebook": "None", "youtube": "None", "website": "None", "summary": "None", "logo": "None", "latitude": 44.30823585258838, "longitude": -78.35217758491554}, "888954195RR0001": {"name": "GRAND LAKE FIRST UNITED BAPTIST CHURCH,", "designationCode": "C", "categoryCode": "31", "address": "95 FOSHAY BEACH RD", "city": "CUMBERLAND BAY", "province": "NB", "country": "CA", "postalCode": "E4A3L8", "twitter": "None", "instagram": "None", "facebook": "None", "youtube": "None", "website": "None", "summary": "None", "logo": "None", "latitude": 45.95504739952779, "longitude": -65.9774860278423}, "897841748RR0001": {"name": "GRAND LAKE ROAD VOLUNTEER FIRE DEPARTMENT", "designationCode": "C", "categoryCode": "59", "address": "850 GRAND LAKE ROAD SUITE 1", "city": "SYDNEY", "province": "NS", "country": "CA", "postalCode": "B1P5T9", "twitter": "None", "instagram": "None", "facebook": "None", "youtube": "None", "website": "None", "summary": "None", "logo": "None", "latitude": 46.150217075492726, "longitude": -60.13651257807023}, "107447153RR0001": {"name": "GRAND LODGE OF ALBERTA A.F. & A.M. HIGHER EDUCATION BURSARY FUND COMMITTEE", "designationCode": "C", "categoryCode": "21", "address": "330 12 AVE SW", "city": "CALGARY", "province": "AB", "country": "CA", "postalCode": "T2R0H2", "twitter": "None", "instagram": "None", "facebook": "None", "youtube": "None", "website": "None", "summary": "None", "logo": "None", "latitude": 51.04163046047075, "longitude": -114.06988885928213}, "118945765RR0001": {"name": "GRAND LODGE OF ALBERTA, I.O.O.F.-BURSARY FUND", "designationCode": "C", "categoryCode": "21", "address": "432 28 ST NE", "city": "CALGARY", "province": "AB", "country": "CA", "postalCode": "T2A6T3", "twitter": "None", "instagram": "None", "facebook": "None", "youtube": "None", "website": "None", "summary": "None", "logo": "None", "latitude": 51.055784947544566, "longitude": -113.99327984298043}, "888618790RR0001": {"name": "GRAND LODGE OF SASKATCHEWAN A F & A M, (FREEMASONRY & YOUTH COMMITTEE), MASON", "designationCode": "C", "categoryCode": "21", "address": "1930 LORNE ST", "city": "REGINA", "province": "SK", "country": "CA", "postalCode": "S4P2M1", "twitter": "None", "instagram": "None", "facebook": "None", "youtube": "None", "website": "None", "summary": "None", "logo": "None", "latitude": 50.44803249708582, "longitude": -104.61372317516854}, "868029703RR0001": {"name": "GRAND MANAN LIBRARY BOARD", "designationCode": "C", "categoryCode": "50", "address": "1144, ROUTE 776", "city": "GRAND MANAN", "province": "NB", "country": "CA", "postalCode": "E5G4E8", "twitter": "None", "instagram": "None", "facebook": "None", "youtube": "None", "website": "None", "summary": "None", "logo": "None", "latitude": 44.68703494448118, "longitude": -66.76481507484027}, "118945807RR0001": {"name": "GRAND MANAN MUSEUM INC.", "designationCode": "C", "categoryCode": "50", "address": "1141 ROUTE 776", "city": "GRAND MANAN", "province": "NB", "country": "CA", "postalCode": "E5G4E9", "twitter": "None", "instagram": "None", "facebook": "None", "youtube": "None", "website": "None", "summary": "None", "logo": "None", "latitude": 44.6869382524865, "longitude": -66.76454276150976}, "859542532RR0001": {"name": "GRAND MANAN NURSING HOME FOUNDATION INC.", "designationCode": "A", "categoryCode": "19", "address": "642 ROUTE 776", "city": "GRAND MANAN", "province": "NB", "country": "CA", "postalCode": "E5G3C1", "twitter": "None", "instagram": "None", "facebook": "None", "youtube": "None", "website": "None", "summary": "None", "logo": "None", "latitude": 44.722907995079304, "longitude": -66.75671587855535}, "118945815RR0001": {"name": "GRAND MANAN NURSING HOME INC.", "designationCode": "C", "categoryCode": "01", "address": "642 ROUTE 776", "city": "GRAND MANAN", "province": "NB", "country": "CA", "postalCode": "E5G3C1", "twitter": "None", "instagram": "None", "facebook": "None", "youtube": "None", "website": "None", "summary": "None", "logo": "None", "latitude": 44.722907995079304, "longitude": -66.75671587855535}, "891350985RR0001": {"name": "GRAND MANAN WHALE AND SEABIRD RESEARCH STATION, INC", "designationCode": "C", "categoryCode": "54", "address": "24 ROUTE 776", "city": "GRAND MANAN", "province": "NB", "country": "CA", "postalCode": "E5G1A1", "twitter": "None", "instagram": "None", "facebook": "None", "youtube": "None", "website": "None", "summary": "None", "logo": "None", "latitude": 44.763659471980894, "longitude": -66.74547532709015}, "118945849RR0001": {"name": "GRAND MARAIS DISTRICT SENIOR CITIZENS INCORPORATED", "designationCode": "C", "categoryCode": "56", "address": "P.O. BOX 238", "city": "GRAND MARAIS", "province": "MB", "country": "CA", "postalCode": "R0E0T0", "twitter": "None", "instagram": "None", "facebook": "None", "youtube": "None", "website": "None", "summary": "None", "logo": "None", "latitude": 50.55020476890258, "longitude": -96.63362244326943}, "130227259RR0001": {"name": "GRAND PLAINS HANDIVAN INC", "designationCode": "C", "categoryCode": "09", "address": "PO BOX 254", "city": "GRANDVIEW", "province": "MB", "country": "CA", "postalCode": "R0L0Y0", "twitter": "None", "instagram": "None", "facebook": "None", "youtube": "None", "website": "None", "summary": "None", "logo": "None", "latitude": 51.17220000000003, "longitude": -100.69866999999994}, "816602270RR0001": {"name": "GRAND PRIORY OF CANADA SOVEREIGN MILITARY ORDER OF THE TEMPLE OF JERUSALEM", "designationCode": "A", "categoryCode": "03", "address": "1200-374 OUELLETTE AVENUE", "city": "WINDSOR", "province": "ON", "country": "CA", "postalCode": "N9A1A8", "twitter": "None", "instagram": "None", "facebook": "None", "youtube": "None", "website": "None", "summary": "None", "logo": "None", "latitude": 42.31671942211798, "longitude": -83.03846026278273}, "119108298RR0001": {"name": "GRAND RABBINAT DU QUEBEC", "designationCode": "C", "categoryCode": "39", "address": "5850 AV. VICTORIA", "city": "MONTREAL", "province": "QC", "country": "CA", "postalCode": "H3W2R5", "twitter": "None", "instagram": "None", "facebook": "None", "youtube": "None", "website": "None", "summary": "None", "logo": "None", "latitude": 45.4932578151366, "longitude": -73.63524241009279}, "131781445RR0001": {"name": "GRAND RASSEMBLEMENT DES AINES DE VAUDREUIL ET SOULANGES", "designationCode": "C", "categoryCode": "09", "address": "418, AVE. ST-CHARLES          BUREAU 303", "city": "VAUDREUIL-DORION", "province": "QC", "country": "CA", "postalCode": "J7V2N1", "twitter": "None", "instagram": "None", "facebook": "None", "youtube": "None", "website": "None", "summary": "None", "logo": "None", "latitude": 45.39914393531088, "longitude": -74.02659726011275}}