{"809524242RR0001": {"name": "USCAP Canada Foundation", "designationCode": "C", "categoryCode": "21", "address": "SUITE 505                     4211 KINGSWAY", "city": "BURNABY", "province": "BC", "country": "CA", "postalCode": "V5H1Z6", "twitter": "None", "instagram": "None", "facebook": "None", "youtube": "None", "website": "None", "summary": "None", "logo": "None", "latitude": 49.23230381100505, "longitude": -123.0109238701624}, "100804939RR0001": {"name": "USINE C", "designationCode": "C", "categoryCode": "22", "address": "1345 AVE LALONDE", "city": "MONTREAL", "province": "QC", "country": "CA", "postalCode": "H2L5A9", "twitter": "None", "instagram": "None", "facebook": "None", "youtube": "None", "website": "None", "summary": "None", "logo": "None", "latitude": 45.52216928143573, "longitude": -73.56048396309647}, "871986410RR0001": {"name": "UTICA CEMETERY BOARD", "designationCode": "C", "categoryCode": "59", "address": "14150 MARSH HILL RD", "city": "PORT PERRY", "province": "ON", "country": "CA", "postalCode": "L9L1Z2", "twitter": "None", "instagram": "None", "facebook": "None", "youtube": "None", "website": "None", "summary": "None", "logo": "None", "latitude": 44.06944373244276, "longitude": -79.02598322274788}, "853751964RR0001": {"name": "UTS FOUNDATION", "designationCode": "A", "categoryCode": "23", "address": "371 BLOOR STREET WEST-ROOM 124", "city": "TORONTO", "province": "ON", "country": "CA", "postalCode": "M5S2R7", "twitter": "None", "instagram": "None", "facebook": "None", "youtube": "None", "website": "None", "summary": "None", "logo": "None", "latitude": 43.666892845375024, "longitude": -79.4025973874431}, "851599860RR0001": {"name": "UTSS Charities International", "designationCode": "C", "categoryCode": "11", "address": "200 - 15127 100 AVE", "city": "SURREY", "province": "BC", "country": "CA", "postalCode": "V3R0N9", "twitter": "None", "instagram": "None", "facebook": "None", "youtube": "None", "website": "None", "summary": "None", "logo": "None", "latitude": 49.1842764893242, "longitude": -122.80312282944774}, "119280162RR0001": {"name": "UTTERSON UNITED CHURCH", "designationCode": "C", "categoryCode": "44", "address": "1039 RUSS HAMMELL ROAD        RR #1", "city": "UTTERSON", "province": "ON", "country": "CA", "postalCode": "P0B1M0", "twitter": "None", "instagram": "None", "facebook": "None", "youtube": "None", "website": "None", "summary": "None", "logo": "None", "latitude": 45.20061900000002, "longitude": -79.42968399414296}, "708618095RR0001": {"name": "UWC NATIONAL COMMITTEE OF CANADA", "designationCode": "C", "categoryCode": "21", "address": "650 PEARSON COLLEGE DRIVE", "city": "VICTORIA", "province": "BC", "country": "CA", "postalCode": "V9C4H7", "twitter": "None", "instagram": "None", "facebook": "None", "youtube": "None", "website": "None", "summary": "None", "logo": "None", "latitude": 48.348342899821, "longitude": -123.56199204890606}, "851917179RR0001": {"name": "UXBRIDGE BAPTIST CHURCH", "designationCode": "C", "categoryCode": "31", "address": "PO BOX 694 BROCK & BALSAM STS", "city": "UXBRIDGE", "province": "ON", "country": "CA", "postalCode": "L9P1N1", "twitter": "None", "instagram": "None", "facebook": "None", "youtube": "None", "website": "None", "summary": "None", "logo": "None", "latitude": 44.10714599999999, "longitude": -79.130043}, "119280196RR0001": {"name": "UXBRIDGE CELEBRATION OF THE ARTS INC.", "designationCode": "C", "categoryCode": "22", "address": "P.O. BOX 113", "city": "UXBRIDGE", "province": "ON", "country": "CA", "postalCode": "L9P1M6", "twitter": "None", "instagram": "None", "facebook": "None", "youtube": "None", "website": "None", "summary": "None", "logo": "None", "latitude": 44.10619800000005, "longitude": -79.12382299999993}, "891269193RR0001": {"name": "UXBRIDGE CHAMBER CHOIR", "designationCode": "C", "categoryCode": "22", "address": "PO BOX 943 STN MAIN", "city": "UXBRIDGE", "province": "ON", "country": "CA", "postalCode": "L9P1N3", "twitter": "None", "instagram": "None", "facebook": "None", "youtube": "None", "website": "None", "summary": "None", "logo": "None", "latitude": 44.11807253629662, "longitude": -79.12434303588147}, "119280220RR0001": {"name": "UXBRIDGE COTTAGE HOSPITAL FOUNDATION", "designationCode": "A", "categoryCode": "13", "address": "4 CAMPBELL DRIVE              PO BOX 5003", "city": "UXBRIDGE", "province": "ON", "country": "CA", "postalCode": "L9P1S4", "twitter": "None", "instagram": "None", "facebook": "None", "youtube": "None", "website": "None", "summary": "None", "logo": "None", "latitude": 44.10201193286978, "longitude": -79.12745851452938}, "108164393RR0001": {"name": "UXBRIDGE FREE METHODIST CHURCH", "designationCode": "C", "categoryCode": "39", "address": "81 REACH ST", "city": "UXBRIDGE", "province": "ON", "country": "CA", "postalCode": "L9P1K4", "twitter": "None", "instagram": "None", "facebook": "None", "youtube": "None", "website": "None", "summary": "None", "logo": "None", "latitude": 44.105147431839896, "longitude": -79.11432800059889}, "119280246RR0001": {"name": "UXBRIDGE PASTORAL CHARGE,", "designationCode": "C", "categoryCode": "44", "address": "20 FIRST AVE", "city": "UXBRIDGE", "province": "ON", "country": "CA", "postalCode": "L9P1M4", "twitter": "None", "instagram": "None", "facebook": "None", "youtube": "None", "website": "None", "summary": "None", "logo": "None", "latitude": 44.11037777354281, "longitude": -79.1193902956223}, "119280253RR0001": {"name": "UXBRIDGE SCOTT HISTORICAL SOCIETY", "designationCode": "C", "categoryCode": "52", "address": "BOX 1301", "city": "UXBRIDGE", "province": "ON", "country": "CA", "postalCode": "L9P1N5", "twitter": "None", "instagram": "None", "facebook": "None", "youtube": "None", "website": "None", "summary": "None", "logo": "None", "latitude": 44.10619800000005, "longitude": -79.12382299999993}, "131995342RR0001": {"name": "UZUME TAIKO DRUM GROUP SOCIETY", "designationCode": "C", "categoryCode": "22", "address": "1254 FRANCES STREET", "city": "VANCOUVER", "province": "BC", "country": "CA", "postalCode": "V6A1Z5", "twitter": "None", "instagram": "None", "facebook": "None", "youtube": "None", "website": "None", "summary": "None", "logo": "None", "latitude": 49.279414506780675, "longitude": -123.07787019317328}, "119273332RR0001": {"name": "V B WALLS BURSARY FUND", "designationCode": "C", "categoryCode": "21", "address": "2042 LANGILLE DRIVE", "city": "COLDBROOK", "province": "NS", "country": "CA", "postalCode": "B4R1C3", "twitter": "None", "instagram": "None", "facebook": "None", "youtube": "None", "website": "None", "summary": "None", "logo": "None", "latitude": 45.0546293072594, "longitude": -64.58826714669047}, "886599992RR0001": {"name": "V R C RECREATIONAL CENTRES SOCIETY", "designationCode": "C", "categoryCode": "52", "address": "P.O. BOX 5206, STANLEY PARK", "city": "VANCOUVER", "province": "BC", "country": "CA", "postalCode": "V6B4B3", "twitter": "None", "instagram": "None", "facebook": "None", "youtube": "None", "website": "None", "summary": "None", "logo": "None", "latitude": 49.297270000000026, "longitude": -123.13586999999995}, "830298444RR0001": {"name": "V.A.S.T. Veterinarians Abroad Supporting and Teaching Inc.", "designationCode": "C", "categoryCode": "54", "address": "322 NEEDHAM CR", "city": "SASKATOON", "province": "SK", "country": "CA", "postalCode": "S7M4X5", "twitter": "None", "instagram": "None", "facebook": "None", "youtube": "None", "website": "None", "summary": "None", "logo": "None", "latitude": 52.12514392033591, "longitude": -106.74875687748843}, "119228930RR0001": {"name": "V.C. VOLUNTEER COWICHAN", "designationCode": "C", "categoryCode": "59", "address": "1 KENNETH PLACE", "city": "DUNCAN", "province": "BC", "country": "CA", "postalCode": "V9L5G3", "twitter": "None", "instagram": "None", "facebook": "None", "youtube": "None", "website": "None", "summary": "None", "logo": "None", "latitude": 48.77857468531044, "longitude": -123.70726918531044}, "842830929RR0001": {"name": "V\u00e9loroute Desjardins de la Matap\u00e9dia", "designationCode": "C", "categoryCode": "56", "address": "123, RUE DESBIENS             LOCAL 501", "city": "AMQUI", "province": "QC", "country": "CA", "postalCode": "G5J3P9", "twitter": "None", "instagram": "None", "facebook": "None", "youtube": "None", "website": "None", "summary": "None", "logo": "None", "latitude": 48.46891605075334, "longitude": -67.43123291043857}, "821284379RR0001": {"name": "V\u00e9t\u00e9rans Mauricie", "designationCode": "C", "categoryCode": "09", "address": "7 - 85 RUE DES JONQUILLES", "city": "TROIS-RIVIERES", "province": "QC", "country": "CA", "postalCode": "G8T8L7", "twitter": "None", "instagram": "None", "facebook": "None", "youtube": "None", "website": "None", "summary": "None", "logo": "None", "latitude": 46.38672001811481, "longitude": -72.48543566244848}, "891117772RR0001": {"name": "V-Kol Media Ministries", "designationCode": "C", "categoryCode": "39", "address": "15 MATCHEDASH STREET NORTH    UNIT #4", "city": "ORILLIA", "province": "ON", "country": "CA", "postalCode": "L3V4T4", "twitter": "None", "instagram": "None", "facebook": "None", "youtube": "None", "website": "None", "summary": "None", "logo": "None", "latitude": 44.61020339335269, "longitude": -79.41604775473616}, "803623107RR0001": {"name": "V\u00c9RITABLE-J\u00c9SUS-\u00c9GLISE \u00c0 MONTR\u00c9AL / TRUE JESUS CHURCH IN MONTR\u00c9AL", "designationCode": "C", "categoryCode": "39", "address": "38 MOHAWK", "city": "KIRKLAND", "province": "QC", "country": "CA", "postalCode": "H9H3W9", "twitter": "None", "instagram": "None", "facebook": "None", "youtube": "None", "website": "None", "summary": "None", "logo": "None", "latitude": 45.44714410796927, "longitude": -73.8402656720528}, "756265898RR0001": {"name": "Vaikuntam Vedic Centre", "designationCode": "C", "categoryCode": "48", "address": "2204 MARTELL PL NW", "city": "EDMONTON", "province": "AB", "country": "CA", "postalCode": "T6R0C8", "twitter": "None", "instagram": "None", "facebook": "None", "youtube": "None", "website": "None", "summary": "None", "logo": "None", "latitude": 53.44948732944775, "longitude": -113.55666242079727}, "818330516RR0001": {"name": "Val\u00e9rie's Flutter Foundation", "designationCode": "B", "categoryCode": "03", "address": "1901 HAIG DRIVE", "city": "OTTAWA", "province": "ON", "country": "CA", "postalCode": "K1G2J7", "twitter": "None", "instagram": "None", "facebook": "None", "youtube": "None", "website": "None", "summary": "None", "logo": "None", "latitude": 45.39937628974559, "longitude": -75.63456421423645}, "807697644RR0001": {"name": "Valemount Community Church", "designationCode": "C", "categoryCode": "39", "address": "PO BOX 9", "city": "VALEMOUNT", "province": "BC", "country": "CA", "postalCode": "V0E2Z0", "twitter": "None", "instagram": "None", "facebook": "None", "youtube": "None", "website": "None", "summary": "None", "logo": "None", "latitude": 52.82816000000008, "longitude": -119.27765}, "858246028RR0001": {"name": "Valentia Church and Community Centre Inc.", "designationCode": "C", "categoryCode": "56", "address": "49 GILSON STREET", "city": "LITTLE BRITAIN", "province": "ON", "country": "CA", "postalCode": "K0M2C0", "twitter": "None", "instagram": "None", "facebook": "None", "youtube": "None", "website": "None", "summary": "None", "logo": "None", "latitude": 44.21018930253763, "longitude": -78.90988548075487}, "881403216RR0001": {"name": "Valhalla Fine Arts Society", "designationCode": "C", "categoryCode": "22", "address": "P O BOX 163", "city": "SILVERTON", "province": "BC", "country": "CA", "postalCode": "V0G2B0", "twitter": "None", "instagram": "None", "facebook": "None", "youtube": "None", "website": "None", "summary": "None", "logo": "None", "latitude": 49.068424739590974, "longitude": -117.79352667184062}, "862802535RR0001": {"name": "Valhalla School Foundation", "designationCode": "C", "categoryCode": "20", "address": "PO BOX 148                    9901-100 AVE.", "city": "VALHALLA CENTRE", "province": "AB", "country": "CA", "postalCode": "T0H3M0", "twitter": "None", "instagram": "None", "facebook": "None", "youtube": "None", "website": "None", "summary": "None", "logo": "None", "latitude": 55.40313443291991, "longitude": -119.38170000157072}, "846826451RR0001": {"name": "Valises pour l'Afrique / Suitcases for Africa", "designationCode": "C", "categoryCode": "09", "address": "47 BRAS D'OR AVE.", "city": "POINTE CLAIRE", "province": "QC", "country": "CA", "postalCode": "H9R1W6", "twitter": "None", "instagram": "None", "facebook": "None", "youtube": "None", "website": "None", "summary": "None", "logo": "None", "latitude": 45.45986397726341, "longitude": -73.80315570832116}, "858428394RR0001": {"name": "Vallavambiga Sri Taiyalnayaki Sametha Vaithiyanatha Swamy Koil Inc.", "designationCode": "C", "categoryCode": "48", "address": "2104 ROGER STEVEN DR", "city": "NORTH GOWER", "province": "ON", "country": "CA", "postalCode": "K0A2T0", "twitter": "None", "instagram": "None", "facebook": "None", "youtube": "None", "website": "None", "summary": "None", "logo": "None", "latitude": 45.13914261085481, "longitude": -75.697473186768}, "817737380RR0001": {"name": "Valley of Calgary Scottish Rite Foundation", "designationCode": "A", "categoryCode": "23", "address": "330 12 AVE SW", "city": "CALGARY", "province": "AB", "country": "CA", "postalCode": "T2R0H2", "twitter": "None", "instagram": "None", "facebook": "None", "youtube": "None", "website": "None", "summary": "None", "logo": "None", "latitude": 51.04163046047075, "longitude": -114.06988885928213}, "804644680RR0001": {"name": "Valley Animal Rescue", "designationCode": "C", "categoryCode": "54", "address": "PO BOX 214 STN MAIN", "city": "RENFREW", "province": "ON", "country": "CA", "postalCode": "K7V4A3", "twitter": "None", "instagram": "None", "facebook": "None", "youtube": "None", "website": "None", "summary": "None", "logo": "None", "latitude": 45.47460300000006, "longitude": -76.68749149999994}, "892372285RR0001": {"name": "Valley Community Services Society", "designationCode": "C", "categoryCode": "59", "address": "PO BOX 187", "city": "CRESTON", "province": "BC", "country": "CA", "postalCode": "V0B1G0", "twitter": "None", "instagram": "None", "facebook": "None", "youtube": "None", "website": "None", "summary": "None", "logo": "None", "latitude": 49.738704000000055, "longitude": -115.87167349999993}, "789550092RR0001": {"name": "Valley Crossway Church", "designationCode": "C", "categoryCode": "39", "address": "33911 HAZELWOOD AVE", "city": "ABBOTSFORD", "province": "BC", "country": "CA", "postalCode": "V2S7V2", "twitter": "None", "instagram": "None", "facebook": "None", "youtube": "None", "website": "None", "summary": "None", "logo": "None", "latitude": 49.06372351659017, "longitude": -122.285484}, "870395738RR0001": {"name": "Valley Echoes Chorus Society", "designationCode": "C", "categoryCode": "22", "address": "10467 WILSON ST", "city": "MISSION", "province": "BC", "country": "CA", "postalCode": "V4S1B4", "twitter": "None", "instagram": "None", "facebook": "None", "youtube": "None", "website": "None", "summary": "None", "logo": "None", "latitude": 49.192173282820704, "longitude": -122.41330351223368}, "136862349RR0001": {"name": "Valley Employee And Family Assistance Program", "designationCode": "C", "categoryCode": "11", "address": "3-84 ISABELLA ST", "city": "PEMBROKE", "province": "ON", "country": "CA", "postalCode": "K8A5S5", "twitter": "None", "instagram": "None", "facebook": "None", "youtube": "None", "website": "None", "summary": "None", "logo": "None", "latitude": 45.82411912626247, "longitude": -77.11381196099033}, "119288918RR1699": {"name": "Valley Gardens Tagalog Congregation of Jehovah's Witnesses, Winnipeg, Manitoba", "designationCode": "C", "categoryCode": "61", "address": "937 GATEWAY RD", "city": "WINNIPEG", "province": "MB", "country": "CA", "postalCode": "R2K3L1", "twitter": "None", "instagram": "None", "facebook": "None", "youtube": "None", "website": "None", "summary": "None", "logo": "None", "latitude": 49.926051538115615, "longitude": -97.07476256610369}, "119280717RR0001": {"name": "Valley Manor Auxiliary", "designationCode": "C", "categoryCode": "19", "address": "88 MINTHA STREET              PO BOX 880", "city": "BARRY'S BAY", "province": "ON", "country": "CA", "postalCode": "K0J1B0", "twitter": "None", "instagram": "None", "facebook": "None", "youtube": "None", "website": "None", "summary": "None", "logo": "None", "latitude": 45.486679748604935, "longitude": -77.68700567491528}, "840502934RR0001": {"name": "Valley Mastiff Rescue", "designationCode": "C", "categoryCode": "54", "address": "67 CHEMIN LEGROS", "city": "LA P\u00caCHE", "province": "QC", "country": "CA", "postalCode": "J0X2W0", "twitter": "None", "instagram": "None", "facebook": "None", "youtube": "None", "website": "None", "summary": "None", "logo": "None", "latitude": 45.66905013688005, "longitude": -76.10050700279862}, "871269122RR0001": {"name": "Valley Student Transportation Assn.", "designationCode": "C", "categoryCode": "21", "address": "26026-48TH AVENUE", "city": "ALDERGROVE", "province": "BC", "country": "CA", "postalCode": "V4W1J2", "twitter": "None", "instagram": "None", "facebook": "None", "youtube": "None", "website": "None", "summary": "None", "logo": "None"}, "820049203RR0001": {"name": "Valley SPCA La Vall\u00e9e Inc.", "designationCode": "C", "categoryCode": "54", "address": "15 FALLS BROOK HILL RD", "city": "DSL DE DRUMMOND", "province": "NB", "country": "CA", "postalCode": "E3Y1X4", "twitter": "None", "instagram": "None", "facebook": "None", "youtube": "None", "website": "None", "summary": "None", "logo": "None"}, "815716154RR0001": {"name": "Valley View Charitable Trust", "designationCode": "B", "categoryCode": "45", "address": "780 SASKATCHEWAN AVE W", "city": "PORTAGE LA PRAIRIE", "province": "MB", "country": "CA", "postalCode": "R1N0M7", "twitter": "None", "instagram": "None", "facebook": "None", "youtube": "None", "website": "None", "summary": "None", "logo": "None", "latitude": 49.97373494820344, "longitude": -98.30132080652011}, "859277212RR0001": {"name": "Valley Worship Assembly of Drayton Valley", "designationCode": "C", "categoryCode": "36", "address": "BOX 7002", "city": "DRAYTON VALLEY", "province": "AB", "country": "CA", "postalCode": "T7A1S3", "twitter": "None", "instagram": "None", "facebook": "None", "youtube": "None", "website": "None", "summary": "None", "logo": "None", "latitude": 53.22798600000006, "longitude": -114.98692399999993}, "824317457RR0001": {"name": "Valleyview Community Church", "designationCode": "C", "categoryCode": "39", "address": "2891 MARTIN ROAD", "city": "BLEZARD VALLEY", "province": "ON", "country": "CA", "postalCode": "P0M1E0", "twitter": "None", "instagram": "None", "facebook": "None", "youtube": "None", "website": "None", "summary": "None", "logo": "None", "latitude": 46.60568337349857, "longitude": -81.04989562913447}, "133039248RR0001": {"name": "Valleyview Community Church Calgary", "designationCode": "C", "categoryCode": "37", "address": "7655 26 AVE SW", "city": "CALGARY", "province": "AB", "country": "CA", "postalCode": "T3H3X2", "twitter": "None", "instagram": "None", "facebook": "None", "youtube": "None", "website": "None", "summary": "None", "logo": "None", "latitude": 51.03050948124544, "longitude": -114.196671}, "892515008RR0001": {"name": "Vallum Society for Education in Arts & Letters", "designationCode": "C", "categoryCode": "22", "address": "5038 SHERBROOKE WEST          PO BOX 23077 CP VENDOME", "city": "MONTREAL", "province": "QC", "country": "CA", "postalCode": "H4A1S7", "twitter": "None", "instagram": "None", "facebook": "None", "youtube": "None", "website": "None", "summary": "None", "logo": "None", "latitude": 45.47663885954196, "longitude": -73.60610331109723}, "108076571RR0001": {"name": "Valoris pour enfants et adultes de Prescott-Russell/Valoris for Children and Adults of Prescott-Russell", "designationCode": "C", "categoryCode": "01", "address": "P O BOX 248", "city": "PLANTAGENET", "province": "ON", "country": "CA", "postalCode": "K0B1L0", "twitter": "None", "instagram": "None", "facebook": "None", "youtube": "None", "website": "None", "summary": "None", "logo": "None", "latitude": 45.535250000000076, "longitude": -74.99816999999996}, "753809292RR0001": {"name": "Valour - Veterans Advocacy For Long-Term Occupancy In The Unforgotten Regiment Foundation", "designationCode": "B", "categoryCode": "03", "address": "1067 CROSS COUNTRY RD         RR 5", "city": "BANCROFT", "province": "ON", "country": "CA", "postalCode": "K0L1C0", "twitter": "None", "instagram": "None", "facebook": "None", "youtube": "None", "website": "None", "summary": "None", "logo": "None", "latitude": 45.16450363913134, "longitude": -77.8311152996984}, "118823780RR0001": {"name": "Valour Canada", "designationCode": "C", "categoryCode": "50", "address": "1820 24 STREET SW", "city": "CALGARY", "province": "AB", "country": "CA", "postalCode": "T2T0G6", "twitter": "None", "instagram": "None", "facebook": "None", "youtube": "None", "website": "None", "summary": "None", "logo": "None", "latitude": 51.03687516180969, "longitude": -114.1178693480294}, "802933267RR0001": {"name": "Valour Place Society", "designationCode": "C", "categoryCode": "59", "address": "11109 111 AVENUE", "city": "EDMONTON", "province": "AB", "country": "CA", "postalCode": "T5G0C6", "twitter": "None", "instagram": "None", "facebook": "None", "youtube": "None", "website": "None", "summary": "None", "logo": "None", "latitude": 53.55869251399403, "longitude": -113.512941}, "846077972RR0001": {"name": "Valour Road Christian Ministries Inc.", "designationCode": "C", "categoryCode": "49", "address": "1052B MOIRA RD", "city": "STIRLING", "province": "ON", "country": "CA", "postalCode": "K0K3E0", "twitter": "None", "instagram": "None", "facebook": "None", "youtube": "None", "website": "None", "summary": "None", "logo": "None", "latitude": 44.35522980879394, "longitude": -77.41829650514156}, "895950202RR0001": {"name": "Valpabem Inc.", "designationCode": "C", "categoryCode": "11", "address": "375 AVENUE CENTRALE           C.P. 643", "city": "VAL D'OR", "province": "QC", "country": "CA", "postalCode": "J9P4P6", "twitter": "None", "instagram": "None", "facebook": "None", "youtube": "None", "website": "None", "summary": "None", "logo": "None", "latitude": 48.10108560892156, "longitude": -77.77786759270583}, "125146258RR0001": {"name": "Valspec Inc.", "designationCode": "C", "categoryCode": "22", "address": "169 RUE CHAMPLAIN", "city": "SALABERRY-DE-VALLEYFIELD", "province": "QC", "country": "CA", "postalCode": "J6T1X6", "twitter": "None", "instagram": "None", "facebook": "None", "youtube": "None", "website": "None", "summary": "None", "logo": "None", "latitude": 45.25331061806817, "longitude": -74.13346141698902}, "700842529RR0001": {"name": "Vamvakas Family Foundation", "designationCode": "B", "categoryCode": "03", "address": "3 BRIDGEWATER DR", "city": "RICHMOND HILL", "province": "ON", "country": "CA", "postalCode": "L4E3N4", "twitter": "None", "instagram": "None", "facebook": "None", "youtube": "None", "website": "None", "summary": "None", "logo": "None", "latitude": 43.93230699469123, "longitude": -79.41822388476004}, "843467531RR0001": {"name": "Van Johnson Ministries-Pentecostal Church of God Incorporated", "designationCode": "C", "categoryCode": "39", "address": "3727 MCTAVISH STREET", "city": "REGINA", "province": "SK", "country": "CA", "postalCode": "S4S2C9", "twitter": "None", "instagram": "None", "facebook": "None", "youtube": "None", "website": "None", "summary": "None", "logo": "None", "latitude": 50.41900707799064, "longitude": -104.63299891644077}, "777181728RR0001": {"name": "Vancouver Actor Project Foundation", "designationCode": "C", "categoryCode": "22", "address": "40-2688 MOUNTAIN HWY", "city": "NORTH VANCOUVER", "province": "BC", "country": "CA", "postalCode": "V7J2N5", "twitter": "None", "instagram": "None", "facebook": "None", "youtube": "None", "website": "None", "summary": "None", "logo": "None", "latitude": 49.3327522142651, "longitude": -123.03788839947522}, "823021811RR0001": {"name": "Vancouver Amen Church", "designationCode": "C", "categoryCode": "39", "address": "302-1353 1ST AVENUE EAST", "city": "VANCOUVER", "province": "BC", "country": "CA", "postalCode": "V5N1A1", "twitter": "None", "instagram": "None", "facebook": "None", "youtube": "None", "website": "None", "summary": "None", "logo": "None", "latitude": 49.269654, "longitude": -123.07686749999999}, "816307227RR0001": {"name": "Vancouver Antioch Methodist Church", "designationCode": "C", "categoryCode": "39", "address": "8330 CAPRI CRES", "city": "VANCOUVER", "province": "BC", "country": "CA", "postalCode": "V5S4J4", "twitter": "None", "instagram": "None", "facebook": "None", "youtube": "None", "website": "None", "summary": "None", "logo": "None", "latitude": 49.20849841795796, "longitude": -123.0275566373443}, "828786822RR0001": {"name": "Vancouver Arts in Our Hearts Society", "designationCode": "C", "categoryCode": "22", "address": "ATT: SHANE OBUFRENCHUK        2800-666 BURRARD STREET", "city": "VANCOUVER", "province": "BC", "country": "CA", "postalCode": "V6C2Z7", "twitter": "None", "instagram": "None", "facebook": "None", "youtube": "None", "website": "None", "summary": "None", "logo": "None", "latitude": 49.28527682817835, "longitude": -123.11971421339973}, "873011811RR0001": {"name": "Vancouver Asian Canadian Theatre", "designationCode": "C", "categoryCode": "22", "address": "665 QUEENS RD W", "city": "NORTH VANCOUVER", "province": "BC", "country": "CA", "postalCode": "V7N2L2", "twitter": "None", "instagram": "None", "facebook": "None", "youtube": "None", "website": "None", "summary": "None", "logo": "None", "latitude": 49.33648133874714, "longitude": -123.08722137093963}, "821182656RR0001": {"name": "Vancouver Avian Research Centre Society", "designationCode": "C", "categoryCode": "54", "address": "4115 BRAEMAR RD E", "city": "NORTH VANCOUVER", "province": "BC", "country": "CA", "postalCode": "V7K3C9", "twitter": "None", "instagram": "None", "facebook": "None", "youtube": "None", "website": "None", "summary": "None", "logo": "None", "latitude": 49.34784173440464, "longitude": -123.0507725212647}, "119281301RR0001": {"name": "Vancouver Botanical Gardens Association", "designationCode": "C", "categoryCode": "50", "address": "5251 OAK ST", "city": "VANCOUVER", "province": "BC", "country": "CA", "postalCode": "V6M4H1", "twitter": "None", "instagram": "None", "facebook": "None", "youtube": "None", "website": "None", "summary": "None", "logo": "None", "latitude": 49.2379727512057, "longitude": -123.12802314926847}, "829880392RR0001": {"name": "Vancouver Brain Injury Association", "designationCode": "C", "categoryCode": "11", "address": "201 - 935 MARINE DR", "city": "NORTH VANCOUVER", "province": "BC", "country": "CA", "postalCode": "V7P1S3", "twitter": "None", "instagram": "None", "facebook": "None", "youtube": "None", "website": "None", "summary": "None", "logo": "None", "latitude": 49.32273925278475, "longitude": -123.09914193565666}, "815784616RR0001": {"name": "Vancouver Bridge Community Church", "designationCode": "C", "categoryCode": "39", "address": "#41, 98 BEGIN ST", "city": "COQUITLAM", "province": "BC", "country": "CA", "postalCode": "V3K6M9", "twitter": "None", "instagram": "None", "facebook": "None", "youtube": "None", "website": "None", "summary": "None", "logo": "None", "latitude": 49.23841696139437, "longitude": -122.85971458277983}, "811565563RR0001": {"name": "Vancouver Chamber Music Society", "designationCode": "C", "categoryCode": "22", "address": "302-423 AGNES ST", "city": "NEW WESTMINSTER", "province": "BC", "country": "CA", "postalCode": "V3L1G2", "twitter": "None", "instagram": "None", "facebook": "None", "youtube": "None", "website": "None", "summary": "None", "logo": "None", "latitude": 49.205542933406306, "longitude": -122.90850510049611}, "855164380RR0001": {"name": "Vancouver Chapter, Turner Syndrome Society", "designationCode": "C", "categoryCode": "11", "address": "7015 WERKS DR", "city": "VANCOUVER", "province": "BC", "country": "CA", "postalCode": "V5S4M7", "twitter": "None", "instagram": "None", "facebook": "None", "youtube": "None", "website": "None", "summary": "None", "logo": "None", "latitude": 49.21973141438257, "longitude": -123.0318887859564}, "809309842RR0001": {"name": "Vancouver Child and Youth Advocacy Centre Society", "designationCode": "C", "categoryCode": "01", "address": "1800 - 510 GEORGIA ST W", "city": "VANCOUVER", "province": "BC", "country": "CA", "postalCode": "V6B0M3", "twitter": "None", "instagram": "None", "facebook": "None", "youtube": "None", "website": "None", "summary": "None", "logo": "None", "latitude": 49.281267759207665, "longitude": -123.11633309804196}, "841419955RR0001": {"name": "Vancouver Chin Baptist Church", "designationCode": "C", "categoryCode": "31", "address": "7650 JASPER CRESCENT", "city": "VANCOUVER", "province": "BC", "country": "CA", "postalCode": "V5P3S5", "twitter": "None", "instagram": "None", "facebook": "None", "youtube": "None", "website": "None", "summary": "None", "logo": "None", "latitude": 49.21499420382021, "longitude": -123.0700312027404}, "807895883RR0001": {"name": "Vancouver Chinatown Foundation for Community Revitalization", "designationCode": "C", "categoryCode": "09", "address": "THIRD FLOOR                   127 EAST PENDER STREET", "city": "VANCOUVER", "province": "BC", "country": "CA", "postalCode": "V6A1T6", "twitter": "None", "instagram": "None", "facebook": "None", "youtube": "None", "website": "None", "summary": "None", "logo": "None", "latitude": 49.28043748600598, "longitude": -123.10127941326678}, "835335035RR0001": {"name": "Vancouver Choral Arts Society", "designationCode": "C", "categoryCode": "22", "address": "200 BURRARD STREET            1200 WATERFRONT CENTRE", "city": "VANCOUVER", "province": "BC", "country": "CA", "postalCode": "V6C3L6", "twitter": "None", "instagram": "None", "facebook": "None", "youtube": "None", "website": "None", "summary": "None", "logo": "None", "latitude": 49.2867400533782, "longitude": -123.11400005395502}, "829619865RR0001": {"name": "Vancouver Christian Counselling Centre Society", "designationCode": "C", "categoryCode": "09", "address": "969 BURRARD STREET", "city": "VANCOUVER", "province": "BC", "country": "CA", "postalCode": "V6Z1Y1", "twitter": "None", "instagram": "None", "facebook": "None", "youtube": "None", "website": "None", "summary": "None", "logo": "None", "latitude": 49.281352288966204, "longitude": -123.12570954682859}, "883609711RR0001": {"name": "Vancouver Dream Church", "designationCode": "C", "categoryCode": "39", "address": "4550 KITCHENER ST", "city": "BURNABY", "province": "BC", "country": "CA", "postalCode": "V5C3M7", "twitter": "None", "instagram": "None", "facebook": "None", "youtube": "None", "website": "None", "summary": "None", "logo": "None", "latitude": 49.271957466818726, "longitude": -123.00238252553522}, "827580242RR0001": {"name": "Vancouver Eastside Vineyard Christian Fellowship", "designationCode": "C", "categoryCode": "39", "address": "2475 FRANKLIN ST", "city": "VANCOUVER", "province": "BC", "country": "CA", "postalCode": "V5K1X3", "twitter": "None", "instagram": "None", "facebook": "None", "youtube": "None", "website": "None", "summary": "None", "logo": "None", "latitude": 49.28211449321933, "longitude": -123.05503252553522}, "107396905RR0088": {"name": "Vancouver Foursquare Church", "designationCode": "C", "categoryCode": "39", "address": "PO BOX 78029", "city": "VANCOUVER", "province": "BC", "country": "CA", "postalCode": "V5N5W1", "twitter": "None", "instagram": "None", "facebook": "None", "youtube": "None", "website": "None", "summary": "None", "logo": "None", "latitude": 49.25483700000005, "longitude": -123.06737599999994}, "825116247RR0001": {"name": "Vancouver Gloria Presbyterian Church", "designationCode": "C", "categoryCode": "37", "address": "9347 WALLACE CRES", "city": "SURREY", "province": "BC", "country": "CA", "postalCode": "V3V1V5", "twitter": "None", "instagram": "None", "facebook": "None", "youtube": "None", "website": "None", "summary": "None", "logo": "None", "latitude": 49.17285849708583, "longitude": -122.86546201944704}, "828386185RR0001": {"name": "Vancouver Gospel Home Church", "designationCode": "C", "categoryCode": "39", "address": "4-901 LOUGHEED HWY", "city": "COQUITLAM", "province": "BC", "country": "CA", "postalCode": "V3K3T3", "twitter": "None", "instagram": "None", "facebook": "None", "youtube": "None", "website": "None", "summary": "None", "logo": "None", "latitude": 49.236932230653736, "longitude": -122.87272637301636}, "847803681RR0001": {"name": "Vancouver Hanmaum Presbyterian Church", "designationCode": "C", "categoryCode": "39", "address": "9 - 19932 70 AVE", "city": "LANGLEY", "province": "BC", "country": "CA", "postalCode": "V2Y3C6", "twitter": "None", "instagram": "None", "facebook": "None", "youtube": "None", "website": "None", "summary": "None", "logo": "None", "latitude": 49.12983149956732, "longitude": -122.67081369317329}, "816276695RR0001": {"name": "Vancouver Hansarang Church", "designationCode": "C", "categoryCode": "49", "address": "5950 179 ST", "city": "SURREY", "province": "BC", "country": "CA", "postalCode": "V3S4J9", "twitter": "None", "instagram": "None", "facebook": "None", "youtube": "None", "website": "None", "summary": "None", "logo": "None", "latitude": 49.110484043857085, "longitude": -122.72690998776632}, "808971865RR0001": {"name": "Vancouver Healing Rooms Society", "designationCode": "C", "categoryCode": "49", "address": "#1250-1500 WEST GEORGIA STREETBOX 62", "city": "VANCOUVER", "province": "BC", "country": "CA", "postalCode": "V6G2Z6", "twitter": "None", "instagram": "None", "facebook": "None", "youtube": "None", "website": "None", "summary": "None", "logo": "None", "latitude": 49.290187500000016, "longitude": -123.130035}, "823562335RR0001": {"name": "Vancouver Holy Spirit Full Gospel Prayer Church", "designationCode": "C", "categoryCode": "36", "address": "201 - 707 SEVENTH AVE", "city": "NEW WESTMINSTER", "province": "BC", "country": "CA", "postalCode": "V3M2J2", "twitter": "None", "instagram": "None", "facebook": "None", "youtube": "None", "website": "None", "summary": "None", "logo": "None", "latitude": 49.213446512144216, "longitude": -122.92394646448983}, "808189211RR0001": {"name": "Vancouver Homework Club Society", "designationCode": "C", "categoryCode": "21", "address": "1001 COTTON DRIVE", "city": "VANCOUVER", "province": "BC", "country": "CA", "postalCode": "V5L3T4", "twitter": "None", "instagram": "None", "facebook": "None", "youtube": "None", "website": "None", "summary": "None", "logo": "None", "latitude": 49.276455203433585, "longitude": -123.07150224666961}, "846498681RR0001": {"name": "Vancouver Independent Music Centre Society", "designationCode": "C", "categoryCode": "22", "address": "410-111 WEST HASTINGS STREET", "city": "VANCOUVER", "province": "BC", "country": "CA", "postalCode": "V6B1H4", "twitter": "None", "instagram": "None", "facebook": "None", "youtube": "None", "website": "None", "summary": "None", "logo": "None", "latitude": 49.282138914441255, "longitude": -123.10753795129177}, "119057073RR0001": {"name": "Vancouver Island Assembly Hall of Jehovah's Witnesses", "designationCode": "C", "categoryCode": "49", "address": "1724 VOWELS ROAD              PO BOX 128", "city": "CASSIDY", "province": "BC", "country": "CA", "postalCode": "V0R1H0", "twitter": "None", "instagram": "None", "facebook": "None", "youtube": "None", "website": "None", "summary": "None", "logo": "None", "latitude": 49.05758134252339, "longitude": -123.87968357682912}, "811387067RR0001": {"name": "Vancouver Island Chamber Choir Society", "designationCode": "C", "categoryCode": "22", "address": "762 CAMEO ST", "city": "VICTORIA", "province": "BC", "country": "CA", "postalCode": "V8X3R8", "twitter": "None", "instagram": "None", "facebook": "None", "youtube": "None", "website": "None", "summary": "None", "logo": "None", "latitude": 48.48000982125343, "longitude": -123.38407820762868}, "833948771RR0001": {"name": "Vancouver Island Compassion Dogs Society", "designationCode": "C", "categoryCode": "11", "address": "104-166 FIRST AVENUE WEST", "city": "QUALICUM BEACH", "province": "BC", "country": "CA", "postalCode": "V9K1G9", "twitter": "None", "instagram": "None", "facebook": "None", "youtube": "None", "website": "None", "summary": "None", "logo": "None", "latitude": 49.348234521207395, "longitude": -124.4452725}, "862569951RR0001": {"name": "Vancouver Island Integrated Counselling and Community Services Society", "designationCode": "C", "categoryCode": "09", "address": "305 - 285 PRIDEAUX ST", "city": "NANAIMO", "province": "BC", "country": "CA", "postalCode": "V9R2N2", "twitter": "None", "instagram": "None", "facebook": "None", "youtube": "None", "website": "None", "summary": "None", "logo": "None", "latitude": 49.16520084582465, "longitude": -123.94436978896013}, "122112816RR0001": {"name": "Vancouver Island Mental Health Society", "designationCode": "C", "categoryCode": "01", "address": "2356 ROSSTOWN RD", "city": "NANAIMO", "province": "BC", "country": "CA", "postalCode": "V9T3R7", "twitter": "None", "instagram": "None", "facebook": "None", "youtube": "None", "website": "None", "summary": "None", "logo": "None", "latitude": 49.19664022061038, "longitude": -123.9993154224064}, "849085196RR0001": {"name": "Vancouver Island Multiple Myeloma Support Group Society", "designationCode": "C", "categoryCode": "11", "address": "10910 DEEP COVE ROAD", "city": "NORTH SAANICH", "province": "BC", "country": "CA", "postalCode": "V8L5P9", "twitter": "None", "instagram": "None", "facebook": "None", "youtube": "None", "website": "None", "summary": "None", "logo": "None", "latitude": 48.67785061809684, "longitude": -123.47798455043528}, "852516251RR0001": {"name": "Vancouver Island Spine Trail Association", "designationCode": "C", "categoryCode": "56", "address": "2812 CADBORO BAY RD", "city": "VICTORIA", "province": "BC", "country": "CA", "postalCode": "V8R5J9", "twitter": "None", "instagram": "None", "facebook": "None", "youtube": "None", "website": "None", "summary": "None", "logo": "None", "latitude": 48.441818158203, "longitude": -123.31243390094619}, "818968638RR0001": {"name": "Vancouver Island Symphony Foundation", "designationCode": "A", "categoryCode": "23", "address": "150 COMMERCIAL STREET", "city": "NANAIMO", "province": "BC", "country": "CA", "postalCode": "V9R5G6", "twitter": "None", "instagram": "None", "facebook": "None", "youtube": "None", "website": "None", "summary": "None", "logo": "None", "latitude": 49.16615209325409, "longitude": -123.93682140354326}, "107657678RR0001": {"name": "Vancouver Island University", "designationCode": "C", "categoryCode": "20", "address": "900 FIFTH ST                  BUILDING 300", "city": "NANAIMO", "province": "BC", "country": "CA", "postalCode": "V9R5S5", "twitter": "None", "instagram": "None", "facebook": "None", "youtube": "None", "website": "None", "summary": "None", "logo": "None", "latitude": 49.154814551531814, "longitude": -123.97002666146297}, "841661127RR0001": {"name": "Vancouver Island Vipassana Association", "designationCode": "C", "categoryCode": "35", "address": "3137 EARL GREY ST", "city": "VICTORIA", "province": "BC", "country": "CA", "postalCode": "V9A1X1", "twitter": "None", "instagram": "None", "facebook": "None", "youtube": "None", "website": "None", "summary": "None", "logo": "None", "latitude": 48.44989575616298, "longitude": -123.38954497227306}, "842197816RR0001": {"name": "Vancouver Jeon Ha Ri Church", "designationCode": "B", "categoryCode": "43", "address": "14227 HARRIS RD", "city": "PITT MEADOWS", "province": "BC", "country": "CA", "postalCode": "V3Y2T2", "twitter": "None", "instagram": "None", "facebook": "None", "youtube": "None", "website": "None", "summary": "None", "logo": "None", "latitude": 49.260992766220824, "longitude": -122.68949388746469}, "119020857RR0001": {"name": "Vancouver Jewish Building Society", "designationCode": "C", "categoryCode": "01", "address": "500 - 1055 BROADWAY W", "city": "VANCOUVER", "province": "BC", "country": "CA", "postalCode": "V6H1E2", "twitter": "None", "instagram": "None", "facebook": "None", "youtube": "None", "website": "None", "summary": "None", "logo": "None", "latitude": 49.2634524532574, "longitude": -123.1278027485429}, "847837366RR0001": {"name": "Vancouver Jewish Day Schools Education Society", "designationCode": "C", "categoryCode": "20", "address": "1545 WEST 62ND AVENUE", "city": "VANCOUVER", "province": "BC", "country": "CA", "postalCode": "V6H1V9", "twitter": "None", "instagram": "None", "facebook": "None", "youtube": "None", "website": "None", "summary": "None", "logo": "None", "latitude": 49.21501246104766, "longitude": -123.14140939203072}, "892544065RR0001": {"name": "Vancouver Jewish Film Centre Society", "designationCode": "C", "categoryCode": "22", "address": "6184 ASH ST", "city": "VANCOUVER", "province": "BC", "country": "CA", "postalCode": "V5Z3G9", "twitter": "None", "instagram": "None", "facebook": "None", "youtube": "None", "website": "None", "summary": "None", "logo": "None", "latitude": 49.228899988343244, "longitude": -123.11794051661977}, "801915919RR0001": {"name": "Vancouver Jireh Presbyterian Church Society", "designationCode": "C", "categoryCode": "39", "address": "# 209, 2780 ACADIA ROAD", "city": "VANCOUVER", "province": "BC", "country": "CA", "postalCode": "V6T1N4", "twitter": "None", "instagram": "None", "facebook": "None", "youtube": "None", "website": "None", "summary": "None", "logo": "None", "latitude": 49.26231827093259, "longitude": -123.2348778099159}, "820042190RR0001": {"name": "Vancouver Joyous Community Church", "designationCode": "C", "categoryCode": "39", "address": "21686 90B AVE", "city": "LANGLEY", "province": "BC", "country": "CA", "postalCode": "V1M4C8", "twitter": "None", "instagram": "None", "facebook": "None", "youtube": "None", "website": "None", "summary": "None", "logo": "None", "latitude": 49.16717552842077, "longitude": -122.62184338343238}, "810987412RR0001": {"name": "Vancouver Kiwanis Music Festivals Society", "designationCode": "C", "categoryCode": "22", "address": "835 GRANVILLE STREET          2ND FLOOR", "city": "VANCOUVER", "province": "BC", "country": "CA", "postalCode": "V6Z1K7", "twitter": "None", "instagram": "None", "facebook": "None", "youtube": "None", "website": "None", "summary": "None", "logo": "None", "latitude": 49.28093729560265, "longitude": -123.12051744021564}}