{"119126969RR0001": {"name": "ROYAL CANADIAN LEGION, NEW BRUNSWICK COMMAND CHATHAM BRANCH #3 POPPY FUND", "designationCode": "C", "categoryCode": "09", "address": "PO BOX 86                     4470 WATER ST.", "city": "MIRAMICHI", "province": "NB", "country": "CA", "postalCode": "E1N3A5", "twitter": "None", "instagram": "None", "facebook": "None", "youtube": "None", "website": "None", "summary": "None", "logo": "None", "latitude": 47.07177854342439, "longitude": -65.37584222745109}, "892094178RR0001": {"name": "ROYAL CANADIAN LEGION, NORTH YORK (ONTARIO NO 66) BRANCH POPPY FUND, THE", "designationCode": "C", "categoryCode": "09", "address": "6 SPRING GARDEN AVE", "city": "WILLOWDALE", "province": "ON", "country": "CA", "postalCode": "M2N3G2", "twitter": "None", "instagram": "None", "facebook": "None", "youtube": "None", "website": "None", "summary": "None", "logo": "None", "latitude": 43.764505165156564, "longitude": -79.41088934569214}, "119128155RR0001": {"name": "ROYAL CANADIAN LEGION, OXBOW SASK. BRANCH #187 POPPY FUND", "designationCode": "C", "categoryCode": "09", "address": "BOX 132", "city": "OXBOW", "province": "SK", "country": "CA", "postalCode": "S0C2B0", "twitter": "None", "instagram": "None", "facebook": "None", "youtube": "None", "website": "None", "summary": "None", "logo": "None", "latitude": 49.23346331645773, "longitude": -102.17827573496838}, "119128239RR0001": {"name": "ROYAL CANADIAN LEGION, POPPY TRUST FUND, GULL LAKE, SASKATCHEWAN", "designationCode": "C", "categoryCode": "09", "address": "PO BOX 637", "city": "GULL LAKE", "province": "SK", "country": "CA", "postalCode": "S0N1A0", "twitter": "None", "instagram": "None", "facebook": "None", "youtube": "None", "website": "None", "summary": "None", "logo": "None"}, "107931552RR0001": {"name": "ROYAL CANADIAN LEGION, PORT COLBORNE (ONT. NO. 56) BRANCH POPPY FUND", "designationCode": "C", "categoryCode": "09", "address": "PO BOX 31", "city": "PORT COLBORNE", "province": "ON", "country": "CA", "postalCode": "L3K2G7", "twitter": "None", "instagram": "None", "facebook": "None", "youtube": "None", "website": "None", "summary": "None", "logo": "None", "latitude": 42.89946900000005, "longitude": -79.24251049999994}, "119128270RR0001": {"name": "ROYAL CANADIAN LEGION, PRINCE ALBERT (SASK NO. 2) BRANCH, POPPY FUND", "designationCode": "C", "categoryCode": "09", "address": "133-8 STREET EAST", "city": "PRINCE ALBERT", "province": "SK", "country": "CA", "postalCode": "S6V0V8", "twitter": "None", "instagram": "None", "facebook": "None", "youtube": "None", "website": "None", "summary": "None", "logo": "None"}, "892469578RR0001": {"name": "ROYAL CANADIAN LEGION, PUGWASH BRANCH N S #60, POPPY FUND, THE", "designationCode": "C", "categoryCode": "09", "address": "P.O. BOX 111", "city": "PUBWASH", "province": "NS", "country": "CA", "postalCode": "B0K1L0", "twitter": "None", "instagram": "None", "facebook": "None", "youtube": "None", "website": "None", "summary": "None", "logo": "None", "latitude": 45.80128373751312, "longitude": -63.63643739508734}, "119128346RR0001": {"name": "ROYAL CANADIAN LEGION, ROSETOWN, SASK. BRANCH NO. 66 POPPY FUND", "designationCode": "C", "categoryCode": "09", "address": "BOX 1083", "city": "ROSETOWN", "province": "SK", "country": "CA", "postalCode": "S0L2V0", "twitter": "None", "instagram": "None", "facebook": "None", "youtube": "None", "website": "None", "summary": "None", "logo": "None", "latitude": 51.16386860615565, "longitude": -106.82425899521579}, "890783665RR0001": {"name": "ROYAL CANADIAN LEGION, SASKATCHEWAN BRANCH NO 001, REGINA FOR THE WELFARE FUND", "designationCode": "C", "categoryCode": "09", "address": "1820 CORNWALL STREET", "city": "REGINA", "province": "SK", "country": "CA", "postalCode": "S4P2K2", "twitter": "None", "instagram": "None", "facebook": "None", "youtube": "None", "website": "None", "summary": "None", "logo": "None", "latitude": 50.45004618253171, "longitude": -104.61237424181121}, "892375577RR0001": {"name": "ROYAL CANADIAN LEGION, SASKATOON (SASK NO 63) BRANCH, POPPY FUND", "designationCode": "C", "categoryCode": "09", "address": "3021 LOUISE STREET", "city": "SASKATOON", "province": "SK", "country": "CA", "postalCode": "S7J3L1", "twitter": "None", "instagram": "None", "facebook": "None", "youtube": "None", "website": "None", "summary": "None", "logo": "None", "latitude": 52.1019, "longitude": -106.60670573166334}, "119128528RR0001": {"name": "ROYAL CANADIAN LEGION, TECUMSEH (SASK #133) BRANCH, POPPY FUND", "designationCode": "C", "categoryCode": "09", "address": "BOX 4", "city": "STOUGHTON", "province": "SK", "country": "CA", "postalCode": "S0G4T0", "twitter": "None", "instagram": "None", "facebook": "None", "youtube": "None", "website": "None", "summary": "None", "logo": "None", "latitude": 49.676720000000046, "longitude": -103.02253999999999}, "119128627RR0001": {"name": "ROYAL CANADIAN LEGION, WAKAW #195 BRANCH POPPY FUND", "designationCode": "C", "categoryCode": "09", "address": "BOX 400", "city": "WAKAW", "province": "SK", "country": "CA", "postalCode": "S0K4P0", "twitter": "None", "instagram": "None", "facebook": "None", "youtube": "None", "website": "None", "summary": "None", "logo": "None", "latitude": 52.65295000000003, "longitude": -105.74270999999999}, "863806964RR0001": {"name": "ROYAL CANADIAN LEGION, WESTLOCK BRANCH #97, POPPY TRUST FUND", "designationCode": "A", "categoryCode": "05", "address": "10004-106 STREET", "city": "WESTLOCK", "province": "AB", "country": "CA", "postalCode": "T7P2K4", "twitter": "None", "instagram": "None", "facebook": "None", "youtube": "None", "website": "None", "summary": "None", "logo": "None", "latitude": 54.155263797131866, "longitude": -113.8605829452073}, "893202176RR0001": {"name": "ROYAL CANADIAN LEGION, WHITBY (ONTARIO NO 112) BRANCH POPPY FUND", "designationCode": "C", "categoryCode": "09", "address": "117 BYRON ST S", "city": "WHITBY", "province": "ON", "country": "CA", "postalCode": "L1H4P5", "twitter": "None", "instagram": "None", "facebook": "None", "youtube": "None", "website": "None", "summary": "None", "logo": "None", "latitude": 43.87894870497429, "longitude": -78.94317778348453}, "878734110RR0001": {"name": "ROYAL CANADIAN MILITARY INSTITUTE/INSTITUT ROYAL MILITAIRE CANADIEN", "designationCode": "C", "categoryCode": "50", "address": "COMMERCE SOURT WEST, BOX 25   SUITE 4000", "city": "TORONTO", "province": "ON", "country": "CA", "postalCode": "M5L1A9", "twitter": "None", "instagram": "None", "facebook": "None", "youtube": "None", "website": "None", "summary": "None", "logo": "None", "latitude": 43.64868300000006, "longitude": -79.38544399999994}, "893020768RR0001": {"name": "ROYAL CDN LEGION BEAVERBROOK BR NO 80 BRANCH POPPY FUND", "designationCode": "C", "categoryCode": "09", "address": "2808 ROUTE 148", "city": "NASHWAAK BRIDGE", "province": "NB", "country": "CA", "postalCode": "E6C2C5", "twitter": "None", "instagram": "None", "facebook": "None", "youtube": "None", "website": "None", "summary": "None", "logo": "None", "latitude": 46.2372400115386, "longitude": -66.60874621683519}, "866775794RR0001": {"name": "ROYAL CITY BAPTIST CHURCH", "designationCode": "C", "categoryCode": "39", "address": "100 RIDGEWOOD AVE", "city": "GUELPH", "province": "ON", "country": "CA", "postalCode": "N1H6C5", "twitter": "None", "instagram": "None", "facebook": "None", "youtube": "None", "website": "None", "summary": "None", "logo": "None", "latitude": 43.539172007460586, "longitude": -80.27358600032548}, "129811121RR0001": {"name": "ROYAL CITY CHRISTIAN CENTRE", "designationCode": "C", "categoryCode": "39", "address": "601 8TH AVE", "city": "NEW WESTMINSTER", "province": "BC", "country": "CA", "postalCode": "V3M2R2", "twitter": "None", "instagram": "None", "facebook": "None", "youtube": "None", "website": "None", "summary": "None", "logo": "None", "latitude": 49.216073541931, "longitude": -122.92399857554504}, "845427871RR0001": {"name": "ROYAL CITY EVANGELICAL MISSIONARY CHURCH", "designationCode": "C", "categoryCode": "39", "address": "50 QUEBEC STREET", "city": "GUELPH", "province": "ON", "country": "CA", "postalCode": "N1H2T4", "twitter": "None", "instagram": "None", "facebook": "None", "youtube": "None", "website": "None", "summary": "None", "logo": "None", "latitude": 43.54572723454888, "longitude": -80.25037578157995}, "896832532RR0001": {"name": "ROYAL CITY HUMANE SOCIETY", "designationCode": "C", "categoryCode": "54", "address": "PO BOX 47243 RPO ROYAL CITY", "city": "NEW WESTMINSTER", "province": "BC", "country": "CA", "postalCode": "V3L0A5", "twitter": "None", "instagram": "None", "facebook": "None", "youtube": "None", "website": "None", "summary": "None", "logo": "None", "latitude": 49.20705600000005, "longitude": -122.90841349999994}, "119128833RR0001": {"name": "ROYAL CITY MUSICAL PRODUCTIONS INC.", "designationCode": "C", "categoryCode": "22", "address": "C18 - 100 CRIMEA ST", "city": "GUELPH", "province": "ON", "country": "CA", "postalCode": "N1H2Y6", "twitter": "None", "instagram": "None", "facebook": "None", "youtube": "None", "website": "None", "summary": "None", "logo": "None", "latitude": 43.537107669138614, "longitude": -80.26259243531089}, "136618089RR0001": {"name": "ROYAL CITY MUSICAL THEATRE SOCIETY", "designationCode": "C", "categoryCode": "22", "address": "735 EIGHTH AVENUE", "city": "NEW WESTMINSTER", "province": "BC", "country": "CA", "postalCode": "V3M2R2", "twitter": "None", "instagram": "None", "facebook": "None", "youtube": "None", "website": "None", "summary": "None", "logo": "None", "latitude": 49.21476118752592, "longitude": -122.92647113776748}, "891407942RR0001": {"name": "ROYAL CITY YOUTH BALLET COMPANY SOCIETY", "designationCode": "C", "categoryCode": "22", "address": "511 COLUMBIA ST", "city": "NEW WESTMINSTER", "province": "BC", "country": "CA", "postalCode": "V3L1B2", "twitter": "None", "instagram": "None", "facebook": "None", "youtube": "None", "website": "None", "summary": "None", "logo": "None", "latitude": 49.20382499169013, "longitude": -122.90676529796858}, "138629977RR0001": {"name": "ROYAL COLUMBIAN HOSPITAL AUXILIARY", "designationCode": "C", "categoryCode": "19", "address": "330 EAST COLUMBIA ST.", "city": "NEW WESTMINSTER", "province": "BC", "country": "CA", "postalCode": "V3L3W7", "twitter": "None", "instagram": "None", "facebook": "None", "youtube": "None", "website": "None", "summary": "None", "logo": "None", "latitude": 49.226604789341565, "longitude": -122.89281120200276}, "119128866RR0001": {"name": "ROYAL COLUMBIAN HOSPITAL FOUNDATION", "designationCode": "A", "categoryCode": "13", "address": "330 EAST COLUMBIA STREET", "city": "NEW WESTMINSTER", "province": "BC", "country": "CA", "postalCode": "V3L3W7", "twitter": "None", "instagram": "None", "facebook": "None", "youtube": "None", "website": "None", "summary": "None", "logo": "None", "latitude": 49.226604789341565, "longitude": -122.89281120200276}, "821507548RR0001": {"name": "ROYAL COLUMBIAN HOSPITAL NURSES ALUMNAE SOCIETY", "designationCode": "C", "categoryCode": "21", "address": "1207 - 320 ROYAL AVE", "city": "NEW WESTMINSTER", "province": "BC", "country": "CA", "postalCode": "V3L5C6", "twitter": "None", "instagram": "None", "facebook": "None", "youtube": "None", "website": "None", "summary": "None", "logo": "None", "latitude": 49.20749411376901, "longitude": -122.90755794667919}, "894763432RR0002": {"name": "ROYAL CONSERVATORY OF MUSIC FOUNDATION", "designationCode": "A", "categoryCode": "23", "address": "273 BLOOR STREET WEST", "city": "TORONTO", "province": "ON", "country": "CA", "postalCode": "M5S1W2", "twitter": "None", "instagram": "None", "facebook": "None", "youtube": "None", "website": "None", "summary": "None", "logo": "None", "latitude": 43.66824877598271, "longitude": -79.39616458782973}, "107935587RR0001": {"name": "ROYAL HEIGHTS BAPTIST CHURCH", "designationCode": "C", "categoryCode": "31", "address": "11706 96 AVENUE", "city": "DELTA", "province": "BC", "country": "CA", "postalCode": "V4C3W7", "twitter": "None", "instagram": "None", "facebook": "None", "youtube": "None", "website": "None", "summary": "None", "logo": "None", "latitude": 49.17705225520043, "longitude": -122.89818841189546}, "888640216RR0001": {"name": "ROYAL HOUSE OF MERCY INTERNATIONAL", "designationCode": "C", "categoryCode": "39", "address": "1684 BALLANTRAE DR", "city": "OSHAWA", "province": "ON", "country": "CA", "postalCode": "L1K0B1", "twitter": "None", "instagram": "None", "facebook": "None", "youtube": "None", "website": "None", "summary": "None", "logo": "None", "latitude": 43.9500546480468, "longitude": -78.83937020139626}, "875286106RR0001": {"name": "ROYAL ICON MINISTRIES INTERNATIONAL", "designationCode": "C", "categoryCode": "49", "address": "1 RIVERGLEN STREET", "city": "BRAMPTON", "province": "ON", "country": "CA", "postalCode": "L6P2N2", "twitter": "None", "instagram": "None", "facebook": "None", "youtube": "None", "website": "None", "summary": "None", "logo": "None", "latitude": 43.77763310768081, "longitude": -79.67920215124944}, "119128965RR0001": {"name": "ROYAL INLAND HOSPITAL FOUNDATION", "designationCode": "A", "categoryCode": "13", "address": "311 COLUMBIA STREET", "city": "KAMLOOPS", "province": "BC", "country": "CA", "postalCode": "V2C2T1", "twitter": "None", "instagram": "None", "facebook": "None", "youtube": "None", "website": "None", "summary": "None", "logo": "None", "latitude": 50.67138548845881, "longitude": -120.33365230252755}, "119128981RR0001": {"name": "ROYAL INSTITUTION FOR THE ADVANCEMENT OF LEARNING MCGILL UNIVERSITY", "designationCode": "C", "categoryCode": "20", "address": "3465 DUROCHER STREET          SUITE 412", "city": "MONTREAL", "province": "QC", "country": "CA", "postalCode": "H2X0A8", "twitter": "None", "instagram": "None", "facebook": "None", "youtube": "None", "website": "None", "summary": "None", "logo": "None", "latitude": 45.507835141006325, "longitude": -73.57380040784243}, "130918808RR0001": {"name": "ROYAL JUBILEE HOSPITAL AUXILIARY", "designationCode": "C", "categoryCode": "19", "address": "1952 BAY STREET", "city": "VICTORIA", "province": "BC", "country": "CA", "postalCode": "V8R1J8", "twitter": "None", "instagram": "None", "facebook": "None", "youtube": "None", "website": "None", "summary": "None", "logo": "None", "latitude": 48.434090528160986, "longitude": -123.32646771202904}, "121085922RR0001": {"name": "ROYAL KIDS, INC", "designationCode": "C", "categoryCode": "01", "address": "450 LAXDAL ROAD", "city": "WINNIPEG", "province": "MB", "country": "CA", "postalCode": "R3R0W4", "twitter": "None", "instagram": "None", "facebook": "None", "youtube": "None", "website": "None", "summary": "None", "logo": "None", "latitude": 49.85963884707711, "longitude": -97.25995195625755}, "882531304RR0001": {"name": "ROYAL LEPAGE SHELTER FOUNDATION", "designationCode": "A", "categoryCode": "03", "address": "39 WYNFORD DRIVE", "city": "TORONTO", "province": "ON", "country": "CA", "postalCode": "M3C3K5", "twitter": "None", "instagram": "None", "facebook": "None", "youtube": "None", "website": "None", "summary": "None", "logo": "None", "latitude": 43.72371327168355, "longitude": -79.33552180777899}, "107788663RR0001": {"name": "ROYAL LIFE SAVING SOCIETY CANADA NOVA SCOTIA BRANCH", "designationCode": "C", "categoryCode": "56", "address": "5516 SPRING GARDEN ROAD       4TH FLOOR", "city": "HALIFAX", "province": "NS", "country": "CA", "postalCode": "B3J1G6", "twitter": "None", "instagram": "None", "facebook": "None", "youtube": "None", "website": "None", "summary": "None", "logo": "None", "latitude": 44.64288100637664, "longitude": -63.57740502178431}, "119129070RR0001": {"name": "ROYAL LIFE SAVING SOCIETY CANADA SASKATCHEWAN BRANCH INC", "designationCode": "C", "categoryCode": "59", "address": "2224 SMITH ST", "city": "REGINA", "province": "SK", "country": "CA", "postalCode": "S4P2P4", "twitter": "None", "instagram": "None", "facebook": "None", "youtube": "None", "website": "None", "summary": "None", "logo": "None", "latitude": 50.44347925145709, "longitude": -104.61524313852482}, "891421844RR0001": {"name": "ROYAL MONTREAL REGIMENT FOUNDATION/FONDATION ROYAL MONTREAL REGIMENT", "designationCode": "C", "categoryCode": "51", "address": "4625 RUE SAINTE-CATHERINE O", "city": "WESTMOUNT", "province": "QC", "country": "CA", "postalCode": "H3Z1S4", "twitter": "None", "instagram": "None", "facebook": "None", "youtube": "None", "website": "None", "summary": "None", "logo": "None", "latitude": 45.47942085235724, "longitude": -73.5953894721275}, "132521170RR0001": {"name": "ROYAL NEWFOUNDLAND CONSTABULARY HISTORICAL SOCIETY INCORPORATED", "designationCode": "C", "categoryCode": "50", "address": "1 FORT TOWNSEND", "city": "ST. JOHN'S", "province": "NL", "country": "CA", "postalCode": "A1C2G2", "twitter": "None", "instagram": "None", "facebook": "None", "youtube": "None", "website": "None", "summary": "None", "logo": "None", "latitude": 47.566868409204695, "longitude": -52.7125186938338}, "119129138RR0001": {"name": "ROYAL NOVA SCOTIA HISTORICAL SOCIETY", "designationCode": "C", "categoryCode": "50", "address": "PO BOX 2622 STN CENTRAL", "city": "HALIFAX", "province": "NS", "country": "CA", "postalCode": "B3J3P7", "twitter": "None", "instagram": "None", "facebook": "None", "youtube": "None", "website": "None", "summary": "None", "logo": "None", "latitude": 44.645478000000054, "longitude": -63.576552499999934}, "105248256RR0001": {"name": "ROYAL ONTARIO MUSEUM", "designationCode": "C", "categoryCode": "50", "address": "100 QUEENS PARK", "city": "TORONTO", "province": "ON", "country": "CA", "postalCode": "M5S2C6", "twitter": "None", "instagram": "None", "facebook": "None", "youtube": "None", "website": "None", "summary": "None", "logo": "None", "latitude": 43.66786635192456, "longitude": -79.39380648531348}, "119129179RR0001": {"name": "ROYAL OTTAWA FOUNDATION FOR MENTAL HEALTH / LA FONDATION DE SANT\u00c9 MENTALE ROYAL OTTAWA", "designationCode": "A", "categoryCode": "13", "address": "1145 CARLING AVE", "city": "OTTAWA", "province": "ON", "country": "CA", "postalCode": "K1Z7K4", "twitter": "None", "instagram": "None", "facebook": "None", "youtube": "None", "website": "None", "summary": "None", "logo": "None", "latitude": 45.38798532927393, "longitude": -75.72995527791501}, "865245641RR0001": {"name": "ROYAL OTTAWA HEALTH CARE GROUP/SERVICES DE SANTE ROYAL OTTAWA", "designationCode": "C", "categoryCode": "10", "address": "1145 CARLING AVE", "city": "OTTAWA", "province": "ON", "country": "CA", "postalCode": "K1Z7K4", "twitter": "None", "instagram": "None", "facebook": "None", "youtube": "None", "website": "None", "summary": "None", "logo": "None", "latitude": 45.38798532927393, "longitude": -75.72995527791501}, "122669534RR0001": {"name": "ROYAL OTTAWA HOSPITAL VOLUNTEER ASSOCIATION", "designationCode": "A", "categoryCode": "19", "address": "1145 CARLING AVENUE", "city": "OTTAWA", "province": "ON", "country": "CA", "postalCode": "K1Z7K4", "twitter": "None", "instagram": "None", "facebook": "None", "youtube": "None", "website": "None", "summary": "None", "logo": "None", "latitude": 45.38798532927393, "longitude": -75.72995527791501}, "853151819RR0001": {"name": "ROYAL PARISH - REDEEMED CHRISTIAN CHURCH OF GOD", "designationCode": "C", "categoryCode": "39", "address": "95 CHURCH STREET", "city": "ST CATHARINES", "province": "ON", "country": "CA", "postalCode": "L2R3C7", "twitter": "None", "instagram": "None", "facebook": "None", "youtube": "None", "website": "None", "summary": "None", "logo": "None", "latitude": 43.16181382627376, "longitude": -79.24531386542763}, "894345578RR0001": {"name": "ROYAL REGIMENT OF CANADA FOUNDATION", "designationCode": "B", "categoryCode": "53", "address": "59A ROOSEVELT DRIVE", "city": "RICHMOND HILL", "province": "ON", "country": "CA", "postalCode": "L4C6V2", "twitter": "None", "instagram": "None", "facebook": "None", "youtube": "None", "website": "None", "summary": "None", "logo": "None", "latitude": 43.8404152822766, "longitude": -79.43981707246527}, "899570063RR0001": {"name": "ROYAL ROADS UNIVERSITY", "designationCode": "C", "categoryCode": "20", "address": "2005 SOOKE ROAD", "city": "VICTORIA", "province": "BC", "country": "CA", "postalCode": "V9B5Y2", "twitter": "None", "instagram": "None", "facebook": "None", "youtube": "None", "website": "None", "summary": "None", "logo": "None", "latitude": 48.43983086759202, "longitude": -123.47745399096897}, "881174528RR0001": {"name": "ROYAL ROADS UNIVERSITY FOUNDATION", "designationCode": "A", "categoryCode": "21", "address": "2005 SOOKE ROAD", "city": "VICTORIA", "province": "BC", "country": "CA", "postalCode": "V9B5Y2", "twitter": "None", "instagram": "None", "facebook": "None", "youtube": "None", "website": "None", "summary": "None", "logo": "None", "latitude": 48.43983086759202, "longitude": -123.47745399096897}, "107935991RR0001": {"name": "ROYAL SOCIETY OF CANADA", "designationCode": "C", "categoryCode": "21", "address": "282 SOMERSET STREET WEST", "city": "OTTAWA", "province": "ON", "country": "CA", "postalCode": "K2P0J6", "twitter": "None", "instagram": "None", "facebook": "None", "youtube": "None", "website": "None", "summary": "None", "logo": "None", "latitude": 45.41652364749852, "longitude": -75.69352942088418}, "119175255RR0001": {"name": "ROYAL ST. GEORGE'S COLLEGE", "designationCode": "C", "categoryCode": "20", "address": "120 HOWLAND AVENUE", "city": "TORONTO", "province": "ON", "country": "CA", "postalCode": "M5R3B5", "twitter": "None", "instagram": "None", "facebook": "None", "youtube": "None", "website": "None", "summary": "None", "logo": "None", "latitude": 43.669602964193, "longitude": -79.41023491162198}, "136334570RR0001": {"name": "ROYAL TYRRELL MUSEUM COOPERATING SOCIETY", "designationCode": "A", "categoryCode": "50", "address": "PO BOX 7500", "city": "DRUMHELLER", "province": "AB", "country": "CA", "postalCode": "T0J0Y0", "twitter": "None", "instagram": "None", "facebook": "None", "youtube": "None", "website": "None", "summary": "None", "logo": "None", "latitude": 51.46154700000005, "longitude": -112.70878099999993}, "140591900RR0001": {"name": "ROYAL UNITED SERVICES INSTITUTE OF NEW BRUNSWICK", "designationCode": "C", "categoryCode": "51", "address": "15 POLARS CRT                 APT 3", "city": "SAINT JOHN", "province": "NB", "country": "CA", "postalCode": "E2K4L8", "twitter": "None", "instagram": "None", "facebook": "None", "youtube": "None", "website": "None", "summary": "None", "logo": "None", "latitude": 45.295836191788304, "longitude": -66.08829752524676}, "890306640RR0001": {"name": "ROYAL UNITED SERVICES INSTITUTE OF REGINA TRUST FUND", "designationCode": "C", "categoryCode": "51", "address": "14 - 105 ANGUS RD", "city": "REGINA", "province": "SK", "country": "CA", "postalCode": "S4R3L4", "twitter": "None", "instagram": "None", "facebook": "None", "youtube": "None", "website": "None", "summary": "None", "logo": "None", "latitude": 50.481765922009345, "longitude": -104.62036783204482}, "119279131RR0001": {"name": "ROYAL UNIVERSITY HOSPITAL FOUNDATION INC.", "designationCode": "A", "categoryCode": "13", "address": "103 HOSPITAL DRIVE", "city": "SASKATOON", "province": "SK", "country": "CA", "postalCode": "S7N0W8", "twitter": "None", "instagram": "None", "facebook": "None", "youtube": "None", "website": "None", "summary": "None", "logo": "None", "latitude": 52.13004270348365, "longitude": -106.64217694051077}, "806137022RR0001": {"name": "ROYAL VICTORIA HOSPITAL AUXILIARY", "designationCode": "C", "categoryCode": "19", "address": "201 GEORGIAN DRIVE", "city": "BARRIE", "province": "ON", "country": "CA", "postalCode": "L4M6M2", "twitter": "None", "instagram": "None", "facebook": "None", "youtube": "None", "website": "None", "summary": "None", "logo": "None", "latitude": 44.41574080930822, "longitude": -79.66401492838598}, "894713544RR0001": {"name": "ROYAL VIEW DEAF CHURCH", "designationCode": "C", "categoryCode": "36", "address": "218 CLARKE ROAD", "city": "LONDON", "province": "ON", "country": "CA", "postalCode": "N5W5E4", "twitter": "None", "instagram": "None", "facebook": "None", "youtube": "None", "website": "None", "summary": "None", "logo": "None", "latitude": 42.996080429107145, "longitude": -81.17173987059311}, "846707727RR0001": {"name": "ROYAL VIEW PENTECOSTAL CHURCH INC.", "designationCode": "C", "categoryCode": "36", "address": "218 CLARKE ROAD", "city": "LONDON", "province": "ON", "country": "CA", "postalCode": "N5W5E4", "twitter": "None", "instagram": "None", "facebook": "None", "youtube": "None", "website": "None", "summary": "None", "logo": "None", "latitude": 42.996080429107145, "longitude": -81.17173987059311}, "129977880RR0001": {"name": "ROYAL YORK BAPTIST CHURCH,", "designationCode": "C", "categoryCode": "31", "address": "1520 ROYAL YORK RD", "city": "ETOBICOKE", "province": "ON", "country": "CA", "postalCode": "M9N3B5", "twitter": "None", "instagram": "None", "facebook": "None", "youtube": "None", "website": "None", "summary": "None", "logo": "None", "latitude": 43.69318623478, "longitude": -79.53144544765921}, "855877403RR0001": {"name": "ROYAL YORK CHRISTIAN FOUNDATION", "designationCode": "A", "categoryCode": "03", "address": "101 AMBER ST                  UNIT 16", "city": "MARKHAM", "province": "ON", "country": "CA", "postalCode": "L3R3B2", "twitter": "None", "instagram": "None", "facebook": "None", "youtube": "None", "website": "None", "summary": "None", "logo": "None", "latitude": 43.828189852011455, "longitude": -79.33134708102041}, "119288918RR1269": {"name": "ROYAL YORK CONGREGATION OF JEHOVAH'S WITNESSES, TORONTO, ON", "designationCode": "C", "categoryCode": "61", "address": "3 EDGECROFT ROAD", "city": "ETOBICOKE", "province": "ON", "country": "CA", "postalCode": "M8Z2B7", "twitter": "None", "instagram": "None", "facebook": "None", "youtube": "None", "website": "None", "summary": "None", "logo": "None", "latitude": 43.6298817948815, "longitude": -79.50606667262973}, "119688646RR0001": {"name": "ROYAL YORK ROAD SCHOOL", "designationCode": "C", "categoryCode": "20", "address": "851 ROYAL YORK ROAD", "city": "ETOBICOKE", "province": "ON", "country": "CA", "postalCode": "M8Y2V3", "twitter": "None", "instagram": "None", "facebook": "None", "youtube": "None", "website": "None", "summary": "None", "logo": "None", "latitude": 43.64262979545842, "longitude": -79.50939632523547}, "119129336RR0001": {"name": "ROYAL YORK ROAD UNITED CHURCH", "designationCode": "C", "categoryCode": "44", "address": "851 ROYAL YORK ROAD", "city": "TORONTO", "province": "ON", "country": "CA", "postalCode": "M8Y2V3", "twitter": "None", "instagram": "None", "facebook": "None", "youtube": "None", "website": "None", "summary": "None", "logo": "None", "latitude": 43.64262979545842, "longitude": -79.50939632523547}, "122517527RR0001": {"name": "ROZMAI-WINNIPEG CYMK UKRAINIAN DANCERS INC", "designationCode": "C", "categoryCode": "22", "address": "1175 MAIN ST", "city": "WINNIPEG", "province": "MB", "country": "CA", "postalCode": "R2W3S4", "twitter": "None", "instagram": "None", "facebook": "None", "youtube": "None", "website": "None", "summary": "None", "logo": "None", "latitude": 49.91881345071856, "longitude": -97.12964546427992}, "122606551RR0001": {"name": "ROZSA FOUNDATION", "designationCode": "B", "categoryCode": "23", "address": "490 - 1721 29 AVE SW", "city": "CALGARY", "province": "AB", "country": "CA", "postalCode": "T2T6T7", "twitter": "None", "instagram": "None", "facebook": "None", "youtube": "None", "website": "None", "summary": "None", "logo": "None", "latitude": 51.02757615663481, "longitude": -114.10008167885952}, "851923185RR0001": {"name": "RPC Congregation", "designationCode": "C", "categoryCode": "37", "address": "881 GLIDDEN AVE", "city": "WINDSOR", "province": "ON", "country": "CA", "postalCode": "N8S2N6", "twitter": "None", "instagram": "None", "facebook": "None", "youtube": "None", "website": "None", "summary": "None", "logo": "None", "latitude": 42.3277913829997, "longitude": -82.96438954348172}, "887735439RR0001": {"name": "RPDY FOUNDATION", "designationCode": "C", "categoryCode": "21", "address": "403 - 150 EGLINTON AVE E", "city": "TORONTO", "province": "ON", "country": "CA", "postalCode": "M4P1E8", "twitter": "None", "instagram": "None", "facebook": "None", "youtube": "None", "website": "None", "summary": "None", "logo": "None", "latitude": 43.7089009100495, "longitude": -79.38780176683875}, "801547977RR0001": {"name": "RPLACES Addictions Peer Support Society", "designationCode": "C", "categoryCode": "57", "address": "204 - 116 DALHOUSIE ST", "city": "BRANTFORD", "province": "ON", "country": "CA", "postalCode": "N3T2J3", "twitter": "None", "instagram": "None", "facebook": "None", "youtube": "None", "website": "None", "summary": "None", "logo": "None", "latitude": 43.13945744936225, "longitude": -80.26334514363205}, "823056437RR0001": {"name": "RR Rural Rides LTD.", "designationCode": "C", "categoryCode": "09", "address": "83 HORSMAN ST", "city": "SALISBURY", "province": "NB", "country": "CA", "postalCode": "E4J3M2", "twitter": "None", "instagram": "None", "facebook": "None", "youtube": "None", "website": "None", "summary": "None", "logo": "None", "latitude": 46.03126290397596, "longitude": -65.04201912305983}, "119129401RR0001": {"name": "RSDO REGROUPEMENT DES SEPAREES, SEPARES ET DIVORCEES, DIVORCES DE L'OUEST", "designationCode": "C", "categoryCode": "59", "address": "C.P. 89003                    COP ILE-BIZARD", "city": "ILE-BIZARD", "province": "QC", "country": "CA", "postalCode": "H9C2Z3", "twitter": "None", "instagram": "None", "facebook": "None", "youtube": "None", "website": "None", "summary": "None", "logo": "None", "latitude": 45.48802200000006, "longitude": -73.88086399999993}, "100306067RR0001": {"name": "RSEQ Montr\u00e9al", "designationCode": "C", "categoryCode": "21", "address": "6875 RUE JARRY EST", "city": "SAINT-LEONARD", "province": "QC", "country": "CA", "postalCode": "H1P1W7", "twitter": "None", "instagram": "None", "facebook": "None", "youtube": "None", "website": "None", "summary": "None", "logo": "None", "latitude": 45.59850275147307, "longitude": -73.57840425979683}, "836114934RR0001": {"name": "RSM Legacy Foundation", "designationCode": "B", "categoryCode": "03", "address": "33777 ENTERPRISE AVENUE", "city": "ABBOTSFORD", "province": "BC", "country": "CA", "postalCode": "V2S7T9", "twitter": "None", "instagram": "None", "facebook": "None", "youtube": "None", "website": "None", "summary": "None", "logo": "None", "latitude": 49.06048743608936, "longitude": -122.29058746751122}, "118857994RR0001": {"name": "RSVP Ministries", "designationCode": "C", "categoryCode": "47", "address": "PO BOX 38089", "city": "EDMONTON", "province": "AB", "country": "CA", "postalCode": "T6A3Y6", "twitter": "None", "instagram": "None", "facebook": "None", "youtube": "None", "website": "None", "summary": "None", "logo": "None", "latitude": 53.54623500000005, "longitude": -113.49037249999994}, "119129435RR0001": {"name": "RTDNA Foundation of Canada", "designationCode": "C", "categoryCode": "21", "address": "210 - 2800 14TH AVE", "city": "MARKHAM", "province": "ON", "country": "CA", "postalCode": "L3R0E4", "twitter": "None", "instagram": "None", "facebook": "None", "youtube": "None", "website": "None", "summary": "None", "logo": "None", "latitude": 43.83064087099621, "longitude": -79.35710040899627}, "891321366RR0001": {"name": "RUAH-A COMMUNITY OF FAITH", "designationCode": "C", "categoryCode": "39", "address": "765 QUEEN ST E", "city": "TORONTO", "province": "ON", "country": "CA", "postalCode": "M4M1H3", "twitter": "None", "instagram": "None", "facebook": "None", "youtube": "None", "website": "None", "summary": "None", "logo": "None", "latitude": 43.65934188591388, "longitude": -79.34760537010217}, "890118227RR0001": {"name": "RUBBER CHICKEN COMPANY", "designationCode": "C", "categoryCode": "49", "address": "P.O. BOX 668                  285 TALBOT ST EAST", "city": "LEAMINGTON", "province": "ON", "country": "CA", "postalCode": "L8H3X4", "twitter": "None", "instagram": "None", "facebook": "None", "youtube": "None", "website": "None", "summary": "None", "logo": "None", "latitude": 42.05902780620982, "longitude": -82.57575947016852}, "816945141RR0001": {"name": "RUBINOFF FAMILY CHARITABLE FOUNDATION", "designationCode": "B", "categoryCode": "03", "address": "4-150 CONNIE CRES", "city": "CONCORD", "province": "ON", "country": "CA", "postalCode": "L4K1L9", "twitter": "None", "instagram": "None", "facebook": "None", "youtube": "None", "website": "None", "summary": "None", "logo": "None", "latitude": 43.81925118520918, "longitude": -79.48738733184233}, "891549347RR0001": {"name": "RUBY FAMILY FOUNDATION", "designationCode": "B", "categoryCode": "03", "address": "P.O. BOX 38001, CASTLEWOOD    550 EGLINTON AVENUE WEST", "city": "TORONTO", "province": "ON", "country": "CA", "postalCode": "M5N3A8", "twitter": "None", "instagram": "None", "facebook": "None", "youtube": "None", "website": "None", "summary": "None", "logo": "None", "latitude": 43.703240216227, "longitude": -79.41521826187311}, "890921794RR0001": {"name": "RUBY SLIPPERS PRODUCTIONS SOCIETY", "designationCode": "C", "categoryCode": "22", "address": "1398 CARTWRIGHT ST", "city": "VANCOUVER", "province": "BC", "country": "CA", "postalCode": "V6H3R8", "twitter": "None", "instagram": "None", "facebook": "None", "youtube": "None", "website": "None", "summary": "None", "logo": "None", "latitude": 49.27000856677118, "longitude": -123.1351424230664}, "859298440RR0001": {"name": "RUCHAMA FRAIDEL RELIEF ORGANIZATION", "designationCode": "C", "categoryCode": "09", "address": "2770 DUFFERIN STREET          SUITE 201", "city": "TORONTO", "province": "ON", "country": "CA", "postalCode": "M6B3R7", "twitter": "None", "instagram": "None", "facebook": "None", "youtube": "None", "website": "None", "summary": "None", "logo": "None", "latitude": 43.70413018067982, "longitude": -79.4525475466557}, "119129534RR0001": {"name": "RUDOLF STEINER CENTRE TORONTO", "designationCode": "C", "categoryCode": "22", "address": "4-9100 BATHURST ST", "city": "THORNHILL", "province": "ON", "country": "CA", "postalCode": "L4J8C7", "twitter": "None", "instagram": "None", "facebook": "None", "youtube": "None", "website": "None", "summary": "None", "logo": "None", "latitude": 43.84329706514407, "longitude": -79.45771560010877}, "867095317RR0001": {"name": "RUE ACTION PREVENTION JEUNESSE", "designationCode": "C", "categoryCode": "09", "address": "10780 RUE LAVERDURE", "city": "MONTREAL", "province": "QC", "country": "CA", "postalCode": "H3L2L9", "twitter": "None", "instagram": "None", "facebook": "None", "youtube": "None", "website": "None", "summary": "None", "logo": "None", "latitude": 45.55253309351391, "longitude": -73.67173931738695}, "878670603RR0001": {"name": "RUEBENBAUER FOUNDATION INC", "designationCode": "A", "categoryCode": "03", "address": "45 CREEKWOOD CRESCENT", "city": "OTTAWA", "province": "ON", "country": "CA", "postalCode": "K2H1E1", "twitter": "None", "instagram": "None", "facebook": "None", "youtube": "None", "website": "None", "summary": "None", "logo": "None", "latitude": 45.34472344823706, "longitude": -75.8275995317963}, "832468326RR0001": {"name": "RUISSEAUX DE VIE / BROOKS OF LIFE", "designationCode": "C", "categoryCode": "09", "address": "1639 LAVOIE", "city": "VARENNES", "province": "QC", "country": "CA", "postalCode": "J3X1M9", "twitter": "None", "instagram": "None", "facebook": "None", "youtube": "None", "website": "None", "summary": "None", "logo": "None", "latitude": 45.677318134601016, "longitude": -73.41469655355195}, "118793074RR0046": {"name": "RUMANIAN SEVENTH-DAY ADVENTIST CHURCH", "designationCode": "C", "categoryCode": "39", "address": "757 BISHOP POWER #127", "city": "LASALLE", "province": "QC", "country": "CA", "postalCode": "H8P2R2", "twitter": "None", "instagram": "None", "facebook": "None", "youtube": "None", "website": "None", "summary": "None", "logo": "None", "latitude": 45.427729074124166, "longitude": -73.60523492977097}, "137076485RR0001": {"name": "RUMBLE PRODUCTIONS SOCIETY", "designationCode": "C", "categoryCode": "22", "address": "1422 WILLIAM ST", "city": "VANCOUVER", "province": "BC", "country": "CA", "postalCode": "V5L2P7", "twitter": "None", "instagram": "None", "facebook": "None", "youtube": "None", "website": "None", "summary": "None", "logo": "None", "latitude": 49.27403754674262, "longitude": -123.07524163780367}, "834223968RR0001": {"name": "RUN FREE MINISTRIES ASSOCIATION", "designationCode": "C", "categoryCode": "49", "address": "18 HONEYSUCKLE RD N", "city": "LETHBRIDGE", "province": "AB", "country": "CA", "postalCode": "T1H4J9", "twitter": "None", "instagram": "None", "facebook": "None", "youtube": "None", "website": "None", "summary": "None", "logo": "None"}, "866666639RR0001": {"name": "RUNAWAY MOON THEATRE ARTS SOCIETY", "designationCode": "C", "categoryCode": "22", "address": "PO BOX 230", "city": "GRINDROD", "province": "BC", "country": "CA", "postalCode": "V0E1Y0", "twitter": "None", "instagram": "None", "facebook": "None", "youtube": "None", "website": "None", "summary": "None", "logo": "None", "latitude": 50.62721000000005, "longitude": -119.12051999999994}, "107940892RR0001": {"name": "RUNDLE COLLEGE SOCIETY", "designationCode": "B", "categoryCode": "20", "address": "7379 17 AVE SW", "city": "CALGARY", "province": "AB", "country": "CA", "postalCode": "T3H3W5", "twitter": "None", "instagram": "None", "facebook": "None", "youtube": "None", "website": "None", "summary": "None", "logo": "None", "latitude": 51.03758616842829, "longitude": -114.19369138115835}, "107940926RR0001": {"name": "RUNDLE MEMORIAL UNITED CHURCH", "designationCode": "C", "categoryCode": "44", "address": "PO BOX 1086", "city": "BANFF", "province": "AB", "country": "CA", "postalCode": "T1L1B1", "twitter": "None", "instagram": "None", "facebook": "None", "youtube": "None", "website": "None", "summary": "None", "logo": "None", "latitude": 51.17577900000006, "longitude": -115.57274299999993}, "107940942RR0001": {"name": "RUNDLE'S MISSION SOCIETY", "designationCode": "C", "categoryCode": "39", "address": "SITE 8 BOX 12 RR1", "city": "THORSBY", "province": "AB", "country": "CA", "postalCode": "T0C2P0", "twitter": "None", "instagram": "None", "facebook": "None", "youtube": "None", "website": "None", "summary": "None", "logo": "None", "latitude": 53.07519149999999, "longitude": -113.99293349999999}, "893916445RR0001": {"name": "RUNEBERG CHORUS", "designationCode": "C", "categoryCode": "22", "address": "4840 ETON STREET", "city": "BURNABY", "province": "BC", "country": "CA", "postalCode": "V5C1K9", "twitter": "None", "instagram": "None", "facebook": "None", "youtube": "None", "website": "None", "summary": "None", "logo": "None", "latitude": 49.28723550678068, "longitude": -122.99337402844941}, "119129658RR0001": {"name": "RUNNYMEDE COMMUNITY CHURCH", "designationCode": "C", "categoryCode": "31", "address": "60 COLBECK ST", "city": "TORONTO", "province": "ON", "country": "CA", "postalCode": "M6S1T9", "twitter": "None", "instagram": "None", "facebook": "None", "youtube": "None", "website": "None", "summary": "None", "logo": "None", "latitude": 43.654656099659384, "longitude": -79.47823931585773}, "107941015RR0001": {"name": "RUNNYMEDE HEALTHCARE CENTRE", "designationCode": "C", "categoryCode": "10", "address": "625 RUNNYMEDE ROAD", "city": "TORONTO", "province": "ON", "country": "CA", "postalCode": "M6S3A3", "twitter": "None", "instagram": "None", "facebook": "None", "youtube": "None", "website": "None", "summary": "None", "logo": "None", "latitude": 43.66410045351718, "longitude": -79.48144009752461}, "129872628RR0001": {"name": "RUNNYMEDE PRESBYTERIAN CHURCH,", "designationCode": "C", "categoryCode": "37", "address": "680 ANNETTE STREET", "city": "TORONTO", "province": "ON", "country": "CA", "postalCode": "M6S2C8", "twitter": "None", "instagram": "None", "facebook": "None", "youtube": "None", "website": "None", "summary": "None", "logo": "None", "latitude": 43.65899009634118, "longitude": -79.48481680143101}, "885450015RR0001": {"name": "RUNNYMEDE PUBLIC SCHOOL COUNCIL", "designationCode": "C", "categoryCode": "21", "address": "357 RUNNYMEDE ROAD", "city": "TORONTO", "province": "ON", "country": "CA", "postalCode": "M6S2Y7", "twitter": "None", "instagram": "None", "facebook": "None", "youtube": "None", "website": "None", "summary": "None", "logo": "None", "latitude": 43.65577590342769, "longitude": -79.47812017395738}, "119129690RR0001": {"name": "RUNNYMEDE UNITED CHURCH", "designationCode": "C", "categoryCode": "44", "address": "432 RUNNYMEDE RD", "city": "TORONTO", "province": "ON", "country": "CA", "postalCode": "M6S2Y8", "twitter": "None", "instagram": "None", "facebook": "None", "youtube": "None", "website": "None", "summary": "None", "logo": "None", "latitude": 43.656882339431085, "longitude": -79.47865475858355}, "119129716RR0001": {"name": "RUPERT UNITED CHURCH", "designationCode": "C", "categoryCode": "44", "address": "92 MACLAREN", "city": "WAKEFIELD", "province": "QC", "country": "CA", "postalCode": "J0X3G0", "twitter": "None", "instagram": "None", "facebook": "None", "youtube": "None", "website": "None", "summary": "None", "logo": "None", "latitude": 45.65308488166568, "longitude": -75.93300917750148}, "104669148RR0001": {"name": "RUPERT'S LAND CAPITAL FUND INC.", "designationCode": "A", "categoryCode": "43", "address": "935 NESBITT BAY", "city": "WINNIPEG", "province": "MB", "country": "CA", "postalCode": "R3T1W6", "twitter": "None", "instagram": "None", "facebook": "None", "youtube": "None", "website": "None", "summary": "None", "logo": "None", "latitude": 49.834076979773556, "longitude": -97.14762844682343}, "132412222RR0001": {"name": "RUPERTSLAND DAYCARE CENTRE CORPORATION", "designationCode": "C", "categoryCode": "01", "address": "107-201 PRINCESS STREET", "city": "WINNIPEG", "province": "MB", "country": "CA", "postalCode": "R3B3E9", "twitter": "None", "instagram": "None", "facebook": "None", "youtube": "None", "website": "None", "summary": "None", "logo": "None", "latitude": 49.90110746417162, "longitude": -97.14029355460137}, "119129724RR0001": {"name": "RURAL ALTERNATIVES RESEARCH AND TRAINING SOCIETY", "designationCode": "C", "categoryCode": "56", "address": "3762 LITTLE SLOCAN SOUTH RD", "city": "WINLAW", "province": "BC", "country": "CA", "postalCode": "V0G2J0", "twitter": "None", "instagram": "None", "facebook": "None", "youtube": "None", "website": "None", "summary": "None", "logo": "None", "latitude": 49.557534105961025, "longitude": -117.67786951367103}}