{"108227877RR0001": {"name": "YOUNG WOMENS CHRISTIAN ASSOCIATION", "designationCode": "C", "categoryCode": "49", "address": "148 11 TH ST", "city": "BRANDON", "province": "MB", "country": "CA", "postalCode": "R7A4J4", "twitter": "None", "instagram": "None", "facebook": "None", "youtube": "None", "website": "None", "summary": "None", "logo": "None", "latitude": 49.84730999999999, "longitude": -99.95285360286205}, "108227919RR0001": {"name": "YOUNG WOMENS CHRISTIAN ASSOCIATION OF LETHBRIDGE & DISTRICT", "designationCode": "C", "categoryCode": "49", "address": "604 8 ST S", "city": "LETHBRIDGE", "province": "AB", "country": "CA", "postalCode": "T1J2K1", "twitter": "None", "instagram": "None", "facebook": "None", "youtube": "None", "website": "None", "summary": "None", "logo": "None", "latitude": 49.69087775214959, "longitude": -112.83507322860491}, "890401045RR0001": {"name": "YOUNG WOMENS CHRISTIAN ASSOCIATION OF METRO TORONTO EMPLOYEE CHARITY TRUST", "designationCode": "B", "categoryCode": "75", "address": "87 ELM STREET", "city": "TORONTO", "province": "ON", "country": "CA", "postalCode": "M5G0A8", "twitter": "None", "instagram": "None", "facebook": "None", "youtube": "None", "website": "None", "summary": "None", "logo": "None", "latitude": 43.656868006376655, "longitude": -79.38611685706044}, "119307262RR0001": {"name": "YOUNG'S POINT UNITED CHURCH,", "designationCode": "C", "categoryCode": "44", "address": "7369 HIGHWAY 28               GENERAL DELIVERY", "city": "WOODVIEW", "province": "ON", "country": "CA", "postalCode": "K0L3E0", "twitter": "None", "instagram": "None", "facebook": "None", "youtube": "None", "website": "None", "summary": "None", "logo": "None", "latitude": 44.605557026759584, "longitude": -78.12915799851336}, "860363530RR0001": {"name": "YOUNGNAK COMMUNITY CHURCH OF VANCOUVER", "designationCode": "C", "categoryCode": "39", "address": "930 CUMBERLAND ST", "city": "NEW WESTMINSTER", "province": "BC", "country": "CA", "postalCode": "V3L3H4", "twitter": "None", "instagram": "None", "facebook": "None", "youtube": "None", "website": "None", "summary": "None", "logo": "None", "latitude": 49.22665290835151, "longitude": -122.9114981394775}, "108227752RR0001": {"name": "YOUNGSTOWN KINDERGARTEN ASSOCIATION", "designationCode": "C", "categoryCode": "20", "address": "BOX 124", "city": "YOUNGSTOWN", "province": "AB", "country": "CA", "postalCode": "T0J3P0", "twitter": "None", "instagram": "None", "facebook": "None", "youtube": "None", "website": "None", "summary": "None", "logo": "None", "latitude": 51.52899000000008, "longitude": -111.20751999999999}, "889008595RR0001": {"name": "YOUNGSTOWN UNITED CHURCH,", "designationCode": "C", "categoryCode": "44", "address": "BOX 142", "city": "YOUNGSTOWN", "province": "AB", "country": "CA", "postalCode": "T0J3P0", "twitter": "None", "instagram": "None", "facebook": "None", "youtube": "None", "website": "None", "summary": "None", "logo": "None", "latitude": 51.52899000000008, "longitude": -111.20751999999999}, "128625365RR0001": {"name": "YOUR HOMES OF BRANTFORD", "designationCode": "C", "categoryCode": "09", "address": "425 MELVIN AVE", "city": "HAMILTON", "province": "ON", "country": "CA", "postalCode": "L8H2L4", "twitter": "None", "instagram": "None", "facebook": "None", "youtube": "None", "website": "None", "summary": "None", "logo": "None", "latitude": 43.241076008627005, "longitude": -79.77884546251956}, "108228008RR0001": {"name": "YOUR TEETH FOR A LIFETIME FOUNDATION", "designationCode": "A", "categoryCode": "59", "address": "PO BOX 10215", "city": "THUNDER BAY", "province": "ON", "country": "CA", "postalCode": "P7B6T7", "twitter": "None", "instagram": "None", "facebook": "None", "youtube": "None", "website": "None", "summary": "None", "logo": "None", "latitude": 48.38168400000005, "longitude": -89.24550199999993}, "890601396RR0001": {"name": "YOUR THRIFT SHOPPE INC", "designationCode": "C", "categoryCode": "09", "address": "BOX 310", "city": "PLUM COULEE", "province": "MB", "country": "CA", "postalCode": "R0G1R0", "twitter": "None", "instagram": "None", "facebook": "None", "youtube": "None", "website": "None", "summary": "None", "logo": "None", "latitude": 49.19050000000004, "longitude": -97.75855999999999}, "892320920RR0001": {"name": "YOUTH ACTION KOMMITTEE OF PERTH AND DISTRICT INC", "designationCode": "C", "categoryCode": "29", "address": "1 SHERBROOKE STREET EAST", "city": "PERTH", "province": "ON", "country": "CA", "postalCode": "K7H1A1", "twitter": "None", "instagram": "None", "facebook": "None", "youtube": "None", "website": "None", "summary": "None", "logo": "None", "latitude": 44.90384073910396, "longitude": -76.24672581003422}, "136303195RR0001": {"name": "YOUTH ACTION NETWORK/RESEAU ACTION JEUNESSE", "designationCode": "C", "categoryCode": "21", "address": "1489 DUPONT ST", "city": "TORONTO", "province": "ON", "country": "CA", "postalCode": "M6P3S2", "twitter": "None", "instagram": "None", "facebook": "None", "youtube": "None", "website": "None", "summary": "None", "logo": "None", "latitude": 43.665845135037785, "longitude": -79.450325778429}, "893579581RR0001": {"name": "YOUTH AND EDUCATION FUND", "designationCode": "C", "categoryCode": "21", "address": "2151 WINDING WAY", "city": "BURLINGTON", "province": "ON", "country": "CA", "postalCode": "L7M2Y2", "twitter": "None", "instagram": "None", "facebook": "None", "youtube": "None", "website": "None", "summary": "None", "logo": "None", "latitude": 43.37107887206409, "longitude": -79.82740150080805}, "119307478RR0001": {"name": "YOUTH ASSISTING YOUTH", "designationCode": "C", "categoryCode": "09", "address": "5734 YONGE STREET             SUITE 401", "city": "TORONTO", "province": "ON", "country": "CA", "postalCode": "M2M4E7", "twitter": "None", "instagram": "None", "facebook": "None", "youtube": "None", "website": "None", "summary": "None", "logo": "None", "latitude": 43.782829491805686, "longitude": -79.41634871195649}, "125230391RR0001": {"name": "YOUTH BALLET AND CONTEMPORARY DANCE OF SASKATCHEWAN INC. LE BALLET ET LA DANSE CONTEMPORAINE DE LA JEUNESSE DE LA SASKATCHEWAN", "designationCode": "C", "categoryCode": "22", "address": "1106 MCNIVEN AVE.", "city": "REGINA", "province": "SK", "country": "CA", "postalCode": "S4S3X3", "twitter": "None", "instagram": "None", "facebook": "None", "youtube": "None", "website": "None", "summary": "None", "logo": "None", "latitude": 50.41765764040695, "longitude": -104.59649245994893}, "140979915RR0001": {"name": "YOUTH CANADA ASSOCIATION (YOUCAN!) / ASSOCIATON DES JEUNES CANADIENS", "designationCode": "C", "categoryCode": "21", "address": "PO BOX 62041 RPO WESTMOUNT", "city": "EDMONTON", "province": "AB", "country": "CA", "postalCode": "T5M4B5", "twitter": "None", "instagram": "None", "facebook": "None", "youtube": "None", "website": "None", "summary": "None", "logo": "None", "latitude": 53.55254000000008, "longitude": -113.54029999999995}, "899067748RR0001": {"name": "YOUTH CENTRAL SOCIETY", "designationCode": "C", "categoryCode": "21", "address": "820 105 12TH AVE SE", "city": "CALGARY", "province": "AB", "country": "CA", "postalCode": "T2G1A1", "twitter": "None", "instagram": "None", "facebook": "None", "youtube": "None", "website": "None", "summary": "None", "logo": "None", "latitude": 51.04112640495218, "longitude": -114.05409219389539}, "119069078RR0001": {"name": "YOUTH CHALLENGE INTERNATIONAL", "designationCode": "C", "categoryCode": "29", "address": "585 DUNDAS ST. E, 3RD FLOOR", "city": "TORONTO", "province": "ON", "country": "CA", "postalCode": "M5A2B7", "twitter": "None", "instagram": "None", "facebook": "None", "youtube": "None", "website": "None", "summary": "None", "logo": "None", "latitude": 43.66027180930821, "longitude": -79.36201567984308}, "898567201RR0001": {"name": "YOUTH CHURCH", "designationCode": "C", "categoryCode": "39", "address": "41731 MAJUBA HILL RD", "city": "CHILLIWACK", "province": "BC", "country": "CA", "postalCode": "V2R5G8", "twitter": "None", "instagram": "None", "facebook": "None", "youtube": "None", "website": "None", "summary": "None", "logo": "None", "latitude": 49.05888606311163, "longitude": -122.07222909145369}, "108228172RR0001": {"name": "YOUTH DIVERSION PROGRAM", "designationCode": "C", "categoryCode": "59", "address": "559 BAGOT STREET", "city": "KINGSTON", "province": "ON", "country": "CA", "postalCode": "K7K3E1", "twitter": "None", "instagram": "None", "facebook": "None", "youtube": "None", "website": "None", "summary": "None", "logo": "None", "latitude": 44.23919087705574, "longitude": -76.4848696930004}, "893960013RR0001": {"name": "YOUTH EMERGENCY SHELTER OF PETERBOROUGH INCORPORATED", "designationCode": "C", "categoryCode": "01", "address": "196 BROCK STREET", "city": "PETERBOROUGH", "province": "ON", "country": "CA", "postalCode": "K9H2P4", "twitter": "None", "instagram": "None", "facebook": "None", "youtube": "None", "website": "None", "summary": "None", "logo": "None", "latitude": 44.30710751543635, "longitude": -78.3219536662531}, "129897278RR0001": {"name": "YOUTH EMPLOYMENT CENTRE-BOLD STREET", "designationCode": "C", "categoryCode": "59", "address": "67 VICTORIA AVE S", "city": "HAMILTON", "province": "ON", "country": "CA", "postalCode": "L8N2S8", "twitter": "None", "instagram": "None", "facebook": "None", "youtube": "None", "website": "None", "summary": "None", "logo": "None", "latitude": 43.25099752094759, "longitude": -79.8576909072655}, "832756720RR0001": {"name": "YOUTH EMPLOYMENT SERVICES YES", "designationCode": "C", "categoryCode": "09", "address": "711-555 RICHMOND ST WEST      BOX 115", "city": "TORONTO", "province": "ON", "country": "CA", "postalCode": "M5V3B1", "twitter": "None", "instagram": "None", "facebook": "None", "youtube": "None", "website": "None", "summary": "None", "logo": "None", "latitude": 43.64792255983254, "longitude": -79.39538964100468}, "886245190RR0001": {"name": "YOUTH ENHANCEMENT PROGRAM INC", "designationCode": "C", "categoryCode": "09", "address": "32 QUEEN SQ. SOUTH", "city": "SAINT JOHN", "province": "NB", "country": "CA", "postalCode": "E2L1R7", "twitter": "None", "instagram": "None", "facebook": "None", "youtube": "None", "website": "None", "summary": "None", "logo": "None", "latitude": 45.26861272217097, "longitude": -66.05598694823706}, "119088078RR0001": {"name": "YOUTH EVENTZ", "designationCode": "C", "categoryCode": "49", "address": "2168 SILVERDALE RD", "city": "ST ANNS", "province": "ON", "country": "CA", "postalCode": "L0R1Y0", "twitter": "None", "instagram": "None", "facebook": "None", "youtube": "None", "website": "None", "summary": "None", "logo": "None", "latitude": 43.068416867880494, "longitude": -79.45379952062859}, "136277944RR0001": {"name": "YOUTH EXCELLENCE SOCIETY", "designationCode": "C", "categoryCode": "29", "address": "1801 WILLINGDON AVE", "city": "BURNABY", "province": "BC", "country": "CA", "postalCode": "V5C5R3", "twitter": "None", "instagram": "None", "facebook": "None", "youtube": "None", "website": "None", "summary": "None", "logo": "None", "latitude": 49.268015779906506, "longitude": -123.0033030960527}, "895851053RR0001": {"name": "YOUTH FLIGHT CANADA EDUCATION FUND", "designationCode": "C", "categoryCode": "21", "address": "1028 ROYAL YORK RD", "city": "TORONTO", "province": "ON", "country": "CA", "postalCode": "M8X2G4", "twitter": "None", "instagram": "None", "facebook": "None", "youtube": "None", "website": "None", "summary": "None", "logo": "None", "latitude": 43.652477546482814, "longitude": -79.51364282586972}, "899825913RR0001": {"name": "YOUTH FOR CHRIST (MORRIS)", "designationCode": "C", "categoryCode": "49", "address": "PO BOX 876", "city": "MORRIS", "province": "MB", "country": "CA", "postalCode": "R0G1K0", "twitter": "None", "instagram": "None", "facebook": "None", "youtube": "None", "website": "None", "summary": "None", "logo": "None", "latitude": 49.35468000000003, "longitude": -97.36605999999995}, "132943721RR0001": {"name": "YOUTH FOR CHRIST (STEINBACH) INC", "designationCode": "C", "categoryCode": "49", "address": "220 LUMBER AVE", "city": "STEINBACH", "province": "MB", "country": "CA", "postalCode": "R5G0T6", "twitter": "None", "instagram": "None", "facebook": "None", "youtube": "None", "website": "None", "summary": "None", "logo": "None", "latitude": 49.52425769650449, "longitude": -96.68429623078225}, "132232521RR0001": {"name": "YOUTH FOR CHRIST (VICTORIA)", "designationCode": "C", "categoryCode": "49", "address": "PO BOX 637 STN CENTRAL", "city": "VICTORIA", "province": "BC", "country": "CA", "postalCode": "V8W2P3", "twitter": "None", "instagram": "None", "facebook": "None", "youtube": "None", "website": "None", "summary": "None", "logo": "None", "latitude": 48.42854700000005, "longitude": -123.36445249999994}, "119307619RR0001": {"name": "YOUTH FOR CHRIST (WINNIPEG) INCORPORATED", "designationCode": "C", "categoryCode": "49", "address": "333 KING STREET", "city": "WINNIPEG", "province": "MB", "country": "CA", "postalCode": "R3B0N1", "twitter": "None", "instagram": "None", "facebook": "None", "youtube": "None", "website": "None", "summary": "None", "logo": "None", "latitude": 49.90512788675062, "longitude": -97.13621081075144}, "892852062RR0001": {"name": "YOUTH FOR CHRIST ALTONA INC.", "designationCode": "C", "categoryCode": "59", "address": "68 1 ST NW", "city": "ALTONA", "province": "MB", "country": "CA", "postalCode": "R0G0B1", "twitter": "None", "instagram": "None", "facebook": "None", "youtube": "None", "website": "None", "summary": "None", "logo": "None", "latitude": 49.10540395954899, "longitude": -97.55927751800834}, "130764020RR0001": {"name": "YOUTH FOR CHRIST ASSOCIATION OF CALGARY", "designationCode": "C", "categoryCode": "49", "address": "BAY 15 1725 30 AVE NE", "city": "CALGARY", "province": "AB", "country": "CA", "postalCode": "T2E7P6", "twitter": "None", "instagram": "None", "facebook": "None", "youtube": "None", "website": "None", "summary": "None", "logo": "None", "latitude": 51.07963849177702, "longitude": -114.01658091618097}, "885720235RR0001": {"name": "YOUTH FOR CHRIST FELLOWSHIP", "designationCode": "C", "categoryCode": "49", "address": "186 WEDGEWOOD DR", "city": "TORONTO", "province": "ON", "country": "CA", "postalCode": "M2M2H9", "twitter": "None", "instagram": "None", "facebook": "None", "youtube": "None", "website": "None", "summary": "None", "logo": "None", "latitude": 43.79172910687275, "longitude": -79.40395806731483}, "852839034RR0001": {"name": "YOUTH FOR CHRIST MORDEN INC.", "designationCode": "C", "categoryCode": "49", "address": "809A STEPHEN STREET", "city": "MORDEN", "province": "MB", "country": "CA", "postalCode": "R6M1G2", "twitter": "None", "instagram": "None", "facebook": "None", "youtube": "None", "website": "None", "summary": "None", "logo": "None", "latitude": 49.189864748712914, "longitude": -98.11234670803526}, "119307585RR0001": {"name": "YOUTH FOR CHRIST PRINCE GEORGE", "designationCode": "C", "categoryCode": "49", "address": "PO BOX 1806 STN A", "city": "PRINCE GEORGE", "province": "BC", "country": "CA", "postalCode": "V2L4V7", "twitter": "None", "instagram": "None", "facebook": "None", "youtube": "None", "website": "None", "summary": "None", "logo": "None", "latitude": 53.91241800000006, "longitude": -122.74463149999994}, "129779237RR0001": {"name": "YOUTH FOR CHRIST WESTLOCK ASSOCIATION", "designationCode": "C", "categoryCode": "49", "address": "10612 102 ST", "city": "WESTLOCK", "province": "AB", "country": "CA", "postalCode": "T7P2E1", "twitter": "None", "instagram": "None", "facebook": "None", "youtube": "None", "website": "None", "summary": "None", "logo": "None", "latitude": 54.15440317380189, "longitude": -113.84370067239378}, "122440878RR0001": {"name": "YOUTH FOR CHRIST WILLIAMS LAKE", "designationCode": "C", "categoryCode": "49", "address": "289 THIRD AVE NORTH", "city": "WILLIAMS LAKE", "province": "BC", "country": "CA", "postalCode": "V2G2A6", "twitter": "None", "instagram": "None", "facebook": "None", "youtube": "None", "website": "None", "summary": "None", "logo": "None", "latitude": 52.13313771135091, "longitude": -122.14379718818162}, "119307577RR0001": {"name": "YOUTH FOR CHRIST/ PORTAGE, IN CORPORATED", "designationCode": "C", "categoryCode": "49", "address": "60 TUPPER STREET N.", "city": "PORTAGE LA PRAIRIE", "province": "MB", "country": "CA", "postalCode": "R1N1W8", "twitter": "None", "instagram": "None", "facebook": "None", "youtube": "None", "website": "None", "summary": "None", "logo": "None", "latitude": 49.97440325147609, "longitude": -98.29097934140191}, "106868847RR0001": {"name": "YOUTH FOR CHRIST/CANADA", "designationCode": "C", "categoryCode": "49", "address": "#308-8047-199 ST.", "city": "LANGLEY", "province": "BC", "country": "CA", "postalCode": "V2Y0E2", "twitter": "None", "instagram": "None", "facebook": "None", "youtube": "None", "website": "None", "summary": "None", "logo": "None", "latitude": 49.14881862698364, "longitude": -122.67118315081582}, "119307569RR0001": {"name": "YOUTH FOR CHRIST/KINGSTON", "designationCode": "C", "categoryCode": "49", "address": "255 KINGSCOURT AVE.", "city": "KINGSTON", "province": "ON", "country": "CA", "postalCode": "K7K4P9", "twitter": "None", "instagram": "None", "facebook": "None", "youtube": "None", "website": "None", "summary": "None", "logo": "None", "latitude": 44.25038198473657, "longitude": -76.5018458939353}, "899054282RR0001": {"name": "YOUTH FOR CHRIST, COMOX VALLEY", "designationCode": "C", "categoryCode": "49", "address": "4729 HEADQUARTERS RD", "city": "COURTENAY", "province": "BC", "country": "CA", "postalCode": "V9N9H4", "twitter": "None", "instagram": "None", "facebook": "None", "youtube": "None", "website": "None", "summary": "None", "logo": "None", "latitude": 49.70495314706585, "longitude": -124.99674429234173}, "119307627RR0001": {"name": "YOUTH HABILITATION QUINTE INC.", "designationCode": "C", "categoryCode": "09", "address": "210A FRONT ST", "city": "BELLEVILLE", "province": "ON", "country": "CA", "postalCode": "K8N2Z2", "twitter": "None", "instagram": "None", "facebook": "None", "youtube": "None", "website": "None", "summary": "None", "logo": "None", "latitude": 44.16393757312308, "longitude": -77.38430208688766}, "133328757RR0001": {"name": "YOUTH HAVEN (BARRIE)", "designationCode": "C", "categoryCode": "01", "address": "PO BOX 733  STN MAIN", "city": "BARRIE", "province": "ON", "country": "CA", "postalCode": "L4M4Y5", "twitter": "None", "instagram": "None", "facebook": "None", "youtube": "None", "website": "None", "summary": "None", "logo": "None", "latitude": 44.38929300000005, "longitude": -79.68626449999994}, "132025800RR0001": {"name": "YOUTH IN TRANSITION FREDERICTON INC", "designationCode": "C", "categoryCode": "01", "address": "PO BOX 22005", "city": "FREDERICTON", "province": "NB", "country": "CA", "postalCode": "E3A5T6", "twitter": "None", "instagram": "None", "facebook": "None", "youtube": "None", "website": "None", "summary": "None", "logo": "None", "latitude": 45.96062100000006, "longitude": -66.63911299999994}, "869047704RR0001": {"name": "YOUTH INITIATIVES & EDUCATION IN LIFESTYLES & DRIVING ASSOCITION (YIELD)", "designationCode": "C", "categoryCode": "59", "address": "68 MCKEAN WAY", "city": "SPRUCE GROVE", "province": "AB", "country": "CA", "postalCode": "T7X2R9", "twitter": "None", "instagram": "None", "facebook": "None", "youtube": "None", "website": "None", "summary": "None", "logo": "None", "latitude": 53.555934470136954, "longitude": -113.91166269317328}, "875266405RR0001": {"name": "YOUTH LIFE INTERNATIONAL RELIEF INC.", "designationCode": "C", "categoryCode": "09", "address": "66 FAITHFUL WAY", "city": "MARKHAM", "province": "ON", "country": "CA", "postalCode": "L3R1A1", "twitter": "None", "instagram": "None", "facebook": "None", "youtube": "None", "website": "None", "summary": "None", "logo": "None", "latitude": 43.82715410297761, "longitude": -79.30245627200065}, "871681276RR0001": {"name": "YOUTH OF TODAY SOCIETY", "designationCode": "C", "categoryCode": "09", "address": "404C OGILVIE ST", "city": "WHITEHORSE", "province": "YT", "country": "CA", "postalCode": "Y1A2S4", "twitter": "None", "instagram": "None", "facebook": "None", "youtube": "None", "website": "None", "summary": "None", "logo": "None", "latitude": 60.72568449332147, "longitude": -135.06257183121738}, "119307668RR0001": {"name": "YOUTH OPPORTUNITIES UNLIMITED", "designationCode": "C", "categoryCode": "59", "address": "200-141 DUNDAS ST", "city": "LONDON", "province": "ON", "country": "CA", "postalCode": "N6A1G3", "twitter": "None", "instagram": "None", "facebook": "None", "youtube": "None", "website": "None", "summary": "None", "logo": "None", "latitude": 42.983461111835744, "longitude": -81.25049478475394}, "119307692RR0001": {"name": "YOUTH PARLIAMENT OF BRITISH COLUMBIA ALUMNI SOCIETY", "designationCode": "C", "categoryCode": "21", "address": "201 - 1425 10TH AVE W", "city": "VANCOUVER", "province": "BC", "country": "CA", "postalCode": "V6H1J8", "twitter": "None", "instagram": "None", "facebook": "None", "youtube": "None", "website": "None", "summary": "None", "logo": "None", "latitude": 49.26265649321932, "longitude": -123.13680258090484}, "119307700RR0001": {"name": "YOUTH PARLIAMENT OF MANITOBA INC", "designationCode": "C", "categoryCode": "29", "address": "PO BOX 595  STN MAIN", "city": "WINNIPEG", "province": "MB", "country": "CA", "postalCode": "R3C2J3", "twitter": "None", "instagram": "None", "facebook": "None", "youtube": "None", "website": "None", "summary": "None", "logo": "None", "latitude": 49.886161958421624, "longitude": -97.13345310241456}, "108228545RR0001": {"name": "YOUTH SERVICES BUREAU OF OTTAWA/BUREAU DES SERVICES A LA JEUNESSE D'OTTAWA", "designationCode": "C", "categoryCode": "01", "address": "2675 QUEENSVIEW DR", "city": "OTTAWA", "province": "ON", "country": "CA", "postalCode": "K2B8K2", "twitter": "None", "instagram": "None", "facebook": "None", "youtube": "None", "website": "None", "summary": "None", "logo": "None", "latitude": 45.35284927257759, "longitude": -75.7874724182871}, "119307726RR0001": {"name": "YOUTH SERVICES OF LAMBTON COUNTY INCORPORATED", "designationCode": "C", "categoryCode": "01", "address": "2473 LAKESHORE ROAD", "city": "BRIGHT'S GROVE", "province": "ON", "country": "CA", "postalCode": "N0N1C0", "twitter": "None", "instagram": "None", "facebook": "None", "youtube": "None", "website": "None", "summary": "None", "logo": "None", "latitude": 43.02629451867551, "longitude": -82.26758878134241}, "127096030RR0001": {"name": "YOUTH SINGERS OF CALGARY SOCIETY", "designationCode": "C", "categoryCode": "22", "address": "1371 HASTINGS CRES SE", "city": "CALGARY", "province": "AB", "country": "CA", "postalCode": "T2G4C8", "twitter": "None", "instagram": "None", "facebook": "None", "youtube": "None", "website": "None", "summary": "None", "logo": "None", "latitude": 51.012340921172616, "longitude": -114.03164641785442}, "119307759RR0001": {"name": "YOUTH TRAINING CENTRE,", "designationCode": "C", "categoryCode": "56", "address": "PO BOX 1780", "city": "VIRDEN", "province": "MB", "country": "CA", "postalCode": "R0M2C0", "twitter": "None", "instagram": "None", "facebook": "None", "youtube": "None", "website": "None", "summary": "None", "logo": "None", "latitude": 49.85688000000005, "longitude": -100.92262999999997}, "849718952RR0001": {"name": "YOUTH VOICES OF NOVA SCOTIA SOCIETY", "designationCode": "C", "categoryCode": "09", "address": "PO BOX 33095                  QUINPOOL RPO", "city": "HALIFAX", "province": "NS", "country": "CA", "postalCode": "B3L4T6", "twitter": "None", "instagram": "None", "facebook": "None", "youtube": "None", "website": "None", "summary": "None", "logo": "None", "latitude": 44.64315378607501, "longitude": -63.60487969293097}, "119307775RR0001": {"name": "YOUTH WITH A MISSION (BC) SOCIETY", "designationCode": "C", "categoryCode": "49", "address": "PO BOX 21711 RPO LITTLE ITALY", "city": "VANCOUVER", "province": "BC", "country": "CA", "postalCode": "V5L5G3", "twitter": "None", "instagram": "None", "facebook": "None", "youtube": "None", "website": "None", "summary": "None", "logo": "None", "latitude": 49.280496000000056, "longitude": -123.06684499999994}, "888703436RR0001": {"name": "YOUTH WITH A MISSION (CANADA) INC", "designationCode": "C", "categoryCode": "47", "address": "PO BOX 57024 RPO EAST HASTINGS", "city": "VANCOUVER", "province": "BC", "country": "CA", "postalCode": "V5K5G6", "twitter": "None", "instagram": "None", "facebook": "None", "youtube": "None", "website": "None", "summary": "None", "logo": "None", "latitude": 49.28112899999999, "longitude": -123.04015854068042}, "108228552RR0001": {"name": "YOUTH WITH A MISSION SOCIETY", "designationCode": "C", "categoryCode": "49", "address": "20 - 1511 PARKLAND DR", "city": "PARKLAND COUNTY", "province": "AB", "country": "CA", "postalCode": "T7Y2T6", "twitter": "None", "instagram": "None", "facebook": "None", "youtube": "None", "website": "None", "summary": "None", "logo": "None", "latitude": 53.53895650206987, "longitude": -114.13177934018088}, "865923908RR0001": {"name": "YOUTH WITH A MISSION SOCIETY (MEXICO)", "designationCode": "C", "categoryCode": "09", "address": "88 WESTPOINT GARDENS SW", "city": "CALGARY", "province": "AB", "country": "CA", "postalCode": "T3H4M4", "twitter": "None", "instagram": "None", "facebook": "None", "youtube": "None", "website": "None", "summary": "None", "logo": "None", "latitude": 51.061050503462454, "longitude": -114.18914241618097}, "863918637RR0001": {"name": "YOUTH WITH A MISSION VICTORIA SOCIETY", "designationCode": "C", "categoryCode": "49", "address": "#102, 527 CONSTANCE AVE", "city": "VICTORIA", "province": "BC", "country": "CA", "postalCode": "V9A6N5", "twitter": "None", "instagram": "None", "facebook": "None", "youtube": "None", "website": "None", "summary": "None", "logo": "None", "latitude": 48.42921675437128, "longitude": -123.41818160003477}, "119307817RR0001": {"name": "YOUTH WITHOUT SHELTER TERRA HOUSE NORTH TORONTO EMERGENCY REFERRAL AGENCY", "designationCode": "C", "categoryCode": "01", "address": "6 WARRENDALE CRT              KATHRYN WAUGH", "city": "ETOBICOKE", "province": "ON", "country": "CA", "postalCode": "M9V1P9", "twitter": "None", "instagram": "None", "facebook": "None", "youtube": "None", "website": "None", "summary": "None", "logo": "None", "latitude": 43.73641504633858, "longitude": -79.58056664556528}, "896707262RR0001": {"name": "YOUTHCO HIV & HEP C SOCIETY", "designationCode": "C", "categoryCode": "59", "address": "205-568 SEYMOUR ST", "city": "VANCOUVER", "province": "BC", "country": "CA", "postalCode": "V6B3J5", "twitter": "None", "instagram": "None", "facebook": "None", "youtube": "None", "website": "None", "summary": "None", "logo": "None", "latitude": 49.28322870439735, "longitude": -123.11500646875197}, "108228156RR0001": {"name": "YOUTHDALE TREATMENT CENTRES", "designationCode": "C", "categoryCode": "11", "address": "227 VICTORIA ST", "city": "TORONTO", "province": "ON", "country": "CA", "postalCode": "M5B1T8", "twitter": "None", "instagram": "None", "facebook": "None", "youtube": "None", "website": "None", "summary": "None", "logo": "None", "latitude": 43.655272480437375, "longitude": -79.37910940533226}, "105776959RR0001": {"name": "YOUTHEATRE INC.", "designationCode": "C", "categoryCode": "22", "address": "507-5333 AV. CASGRAIN", "city": "MONTR\u00c9AL", "province": "QC", "country": "CA", "postalCode": "H2T1X3", "twitter": "None", "instagram": "None", "facebook": "None", "youtube": "None", "website": "None", "summary": "None", "logo": "None", "latitude": 45.52595122872049, "longitude": -73.59527018093961}, "126207786RR0001": {"name": "YOUTHLINK", "designationCode": "C", "categoryCode": "09", "address": "747  WARDEN AVE", "city": "SCARBOROUGH", "province": "ON", "country": "CA", "postalCode": "M1L4A8", "twitter": "None", "instagram": "None", "facebook": "None", "youtube": "None", "website": "None", "summary": "None", "logo": "None", "latitude": 43.71771691064106, "longitude": -79.28335811956872}, "878045301RR0001": {"name": "YOUTHS CAN FISH 2 SOCIETY", "designationCode": "C", "categoryCode": "09", "address": "35 SADDLEBROOK PLACE NE", "city": "CALGARY", "province": "AB", "country": "CA", "postalCode": "T3J5M3", "twitter": "None", "instagram": "None", "facebook": "None", "youtube": "None", "website": "None", "summary": "None", "logo": "None", "latitude": 51.13782455759133, "longitude": -113.93246541202603}, "119307734RR0001": {"name": "YOUTHS' FRIENDS ASSOCIATION OF CANADA INC", "designationCode": "B", "categoryCode": "23", "address": "1081 HALLS ROAD", "city": "PORT CARLING", "province": "ON", "country": "CA", "postalCode": "P0B1J0", "twitter": "None", "instagram": "None", "facebook": "None", "youtube": "None", "website": "None", "summary": "None", "logo": "None", "latitude": 45.135714410005875, "longitude": -79.64849489151113}, "866270085RR0001": {"name": "YOUVILLE PROVIDENT FUND INC", "designationCode": "A", "categoryCode": "43", "address": "700 MACKAY ST", "city": "PEMBROKE", "province": "ON", "country": "CA", "postalCode": "K8A1G6", "twitter": "None", "instagram": "None", "facebook": "None", "youtube": "None", "website": "None", "summary": "None", "logo": "None", "latitude": 45.81455873546046, "longitude": -77.10831354173837}, "869359471RR0001": {"name": "YSD FUND", "designationCode": "B", "categoryCode": "03", "address": "49 REGINA AVENUE", "city": "TORONTO", "province": "ON", "country": "CA", "postalCode": "M6A1R4", "twitter": "None", "instagram": "None", "facebook": "None", "youtube": "None", "website": "None", "summary": "None", "logo": "None", "latitude": 43.72703080209485, "longitude": -79.43533681473257}, "874181803RR0001": {"name": "YUBU DEVELOPMENT AGENCY INC.", "designationCode": "C", "categoryCode": "20", "address": "304C 4TH AVENUE", "city": "SASKATOON", "province": "SK", "country": "CA", "postalCode": "S7K2L7", "twitter": "None", "instagram": "None", "facebook": "None", "youtube": "None", "website": "None", "summary": "None", "logo": "None", "latitude": 52.12486172915641, "longitude": -106.66191435594634}, "898296496RR0001": {"name": "YUE TAK TEMPLE (ONTARIO) CORPORATION", "designationCode": "C", "categoryCode": "39", "address": "3 THEODORE DRIVE", "city": "MISSISSAUGA", "province": "ON", "country": "CA", "postalCode": "L5M1E5", "twitter": "None", "instagram": "None", "facebook": "None", "youtube": "None", "website": "None", "summary": "None", "logo": "None", "latitude": 43.58370351569612, "longitude": -79.72681428377298}, "891665846RR0001": {"name": "YUEL FAMILY FOUNDATION INC", "designationCode": "B", "categoryCode": "03", "address": "255 ROBIN CRES", "city": "SASKATOON", "province": "SK", "country": "CA", "postalCode": "S7L6M8", "twitter": "None", "instagram": "None", "facebook": "None", "youtube": "None", "website": "None", "summary": "None", "logo": "None", "latitude": 52.15817641326677, "longitude": -106.68528619562613}, "832145320RR0001": {"name": "YUEN KWONG TEMPLE", "designationCode": "C", "categoryCode": "39", "address": "9843 LESLIE STREET", "city": "RICHMOND HILL", "province": "ON", "country": "CA", "postalCode": "L4B3Y4", "twitter": "None", "instagram": "None", "facebook": "None", "youtube": "None", "website": "None", "summary": "None", "logo": "None", "latitude": 43.87656188149916, "longitude": -79.39048388611636}, "780561726RR0001": {"name": "YUGO CANADA MINISTRIES SOCIETY", "designationCode": "C", "categoryCode": "45", "address": "PO BOX 68", "city": "LEGAL", "province": "AB", "country": "CA", "postalCode": "T0G1L0", "twitter": "None", "instagram": "None", "facebook": "None", "youtube": "None", "website": "None", "summary": "None", "logo": "None", "latitude": 53.94802000000004, "longitude": -113.59432999999996}, "132938655RR0001": {"name": "YUKON ARTS CENTRE CORPORATION", "designationCode": "C", "categoryCode": "22", "address": "PO BOX 16                     300 COLLEGE DRIVE", "city": "WHITEHORSE", "province": "YT", "country": "CA", "postalCode": "Y1A5X9", "twitter": "None", "instagram": "None", "facebook": "None", "youtube": "None", "website": "None", "summary": "None", "logo": "None", "latitude": 60.75043882256507, "longitude": -135.094951074408}, "865108013RR0001": {"name": "YUKON ARTS CENTRE FOUNDATION", "designationCode": "C", "categoryCode": "53", "address": "P.O. BOX 16", "city": "WHITEHORSE", "province": "YT", "country": "CA", "postalCode": "Y1A5X9", "twitter": "None", "instagram": "None", "facebook": "None", "youtube": "None", "website": "None", "summary": "None", "logo": "None", "latitude": 60.72084600000005, "longitude": -135.05323399999992}, "108228891RR0001": {"name": "YUKON ASSOCIATION FOR COMMUNITY LIVING", "designationCode": "C", "categoryCode": "11", "address": "7 - 4230 4TH AVE", "city": "WHITEHORSE", "province": "YT", "country": "CA", "postalCode": "Y1A1K1", "twitter": "None", "instagram": "None", "facebook": "None", "youtube": "None", "website": "None", "summary": "None", "logo": "None", "latitude": 60.726359768997064, "longitude": -135.06358892266144}, "107396905RR0062": {"name": "YUKON BIBLE FELLOWSHIP FOURSQUARE CHURCH", "designationCode": "C", "categoryCode": "39", "address": "160 HILLCREST DRIVE", "city": "WHITEHORSE", "province": "YT", "country": "CA", "postalCode": "Y1A4N4", "twitter": "None", "instagram": "None", "facebook": "None", "youtube": "None", "website": "None", "summary": "None", "logo": "None", "latitude": 60.712241427145244, "longitude": -135.0854548215419}, "897120333RR0001": {"name": "YUKON BIRD CLUB", "designationCode": "C", "categoryCode": "54", "address": "4061 4TH AVE", "city": "WHITEHORSE", "province": "YT", "country": "CA", "postalCode": "Y1A1H1", "twitter": "None", "instagram": "None", "facebook": "None", "youtube": "None", "website": "None", "summary": "None", "logo": "None", "latitude": 60.71522942841034, "longitude": -135.0533227731282}, "119307882RR0001": {"name": "YUKON CHILD CARE ASSOCIATION", "designationCode": "C", "categoryCode": "01", "address": "PO 31103", "city": "WHITEHORSE", "province": "YT", "country": "CA", "postalCode": "Y1A5P7", "twitter": "None", "instagram": "None", "facebook": "None", "youtube": "None", "website": "None", "summary": "None", "logo": "None", "latitude": 60.72084600000005, "longitude": -135.05323399999992}, "108228925RR0001": {"name": "YUKON CHURCH HERITAGE SOCIETY", "designationCode": "C", "categoryCode": "53", "address": "BOX 31461", "city": "WHITEHORSE", "province": "YT", "country": "CA", "postalCode": "Y1A6K8", "twitter": "None", "instagram": "None", "facebook": "None", "youtube": "None", "website": "None", "summary": "None", "logo": "None", "latitude": 60.72084600000005, "longitude": -135.05323399999992}, "121937502RR0001": {"name": "YUKON COLLEGE", "designationCode": "C", "categoryCode": "20", "address": "PO BOX 2799 STN MAIN", "city": "WHITEHORSE", "province": "YT", "country": "CA", "postalCode": "Y1A5K4", "twitter": "None", "instagram": "None", "facebook": "None", "youtube": "None", "website": "None", "summary": "None", "logo": "None", "latitude": 60.71897187917898, "longitude": -135.05620969857728}, "119307890RR0001": {"name": "YUKON CONSERVATION SOCIETY", "designationCode": "C", "categoryCode": "59", "address": "302 HAWKINS STREET", "city": "WHITEHORSE", "province": "YT", "country": "CA", "postalCode": "Y1A1X6", "twitter": "None", "instagram": "None", "facebook": "None", "youtube": "None", "website": "None", "summary": "None", "logo": "None", "latitude": 60.716094379969924, "longitude": -135.05249742368278}, "134126937RR0001": {"name": "YUKON FISH AND GAME ASSOCIATION", "designationCode": "C", "categoryCode": "54", "address": "509 STRICKLAND ST", "city": "WHITEHORSE", "province": "YT", "country": "CA", "postalCode": "Y1A2K5", "twitter": "None", "instagram": "None", "facebook": "None", "youtube": "None", "website": "None", "summary": "None", "logo": "None", "latitude": 60.721331627243444, "longitude": -135.0622493860581}, "884111675RR0001": {"name": "YUKON FISH AND WILDLIFE ENHANCEMENT TRUST", "designationCode": "C", "categoryCode": "52", "address": "BOX 31022", "city": "WHITEHORSE", "province": "YT", "country": "CA", "postalCode": "Y1A5P7", "twitter": "None", "instagram": "None", "facebook": "None", "youtube": "None", "website": "None", "summary": "None", "logo": "None", "latitude": 60.72084600000005, "longitude": -135.05323399999992}, "883478000RR0001": {"name": "YUKON FOOD FOR LEARNING ASSOCIATION", "designationCode": "C", "categoryCode": "11", "address": "PO BOX 72 STN C S C", "city": "WHITEHORSE", "province": "YT", "country": "CA", "postalCode": "Y1A5X9", "twitter": "None", "instagram": "None", "facebook": "None", "youtube": "None", "website": "None", "summary": "None", "logo": "None", "latitude": 60.72084600000005, "longitude": -135.05323399999992}, "119307924RR0001": {"name": "YUKON HISTORICAL & MUSEUMS ASSOCIATION", "designationCode": "C", "categoryCode": "50", "address": "3126-3 AVE", "city": "WHITEHORSE", "province": "YT", "country": "CA", "postalCode": "Y1A1E7", "twitter": "None", "instagram": "None", "facebook": "None", "youtube": "None", "website": "None", "summary": "None", "logo": "None", "latitude": 60.72046993354904, "longitude": -135.05523444116483}, "131608770RR0001": {"name": "YUKON HOSPITAL CORPORATION", "designationCode": "C", "categoryCode": "10", "address": "5 HOSPITAL ROAD", "city": "WHITEHORSE", "province": "YT", "country": "CA", "postalCode": "Y1A3H7", "twitter": "None", "instagram": "None", "facebook": "None", "youtube": "None", "website": "None", "summary": "None", "logo": "None", "latitude": 60.71800993617772, "longitude": -135.04305039134306}, "856781372RR0001": {"name": "YUKON HOSPITAL FOUNDATION", "designationCode": "A", "categoryCode": "13", "address": "5 HOSPITAL ROAD", "city": "WHITEHORSE", "province": "YT", "country": "CA", "postalCode": "Y1A3H7", "twitter": "None", "instagram": "None", "facebook": "None", "youtube": "None", "website": "None", "summary": "None", "logo": "None", "latitude": 60.71800993617772, "longitude": -135.04305039134306}, "119307932RR0001": {"name": "YUKON LEARN SOCIETY", "designationCode": "C", "categoryCode": "29", "address": "B-2158 2ND AVENUE", "city": "WHITEHORSE", "province": "YT", "country": "CA", "postalCode": "Y1A5N9", "twitter": "None", "instagram": "None", "facebook": "None", "youtube": "None", "website": "None", "summary": "None", "logo": "None", "latitude": 60.72320752226014, "longitude": -135.0551382200879}, "815784079RR0001": {"name": "YUKON MUSIC CAMP SOCIETY", "designationCode": "C", "categoryCode": "22", "address": "P.O. BOX 33017", "city": "WHITEHORSE", "province": "YT", "country": "CA", "postalCode": "Y1A5Y5", "twitter": "None", "instagram": "None", "facebook": "None", "youtube": "None", "website": "None", "summary": "None", "logo": "None", "latitude": 60.72084600000005, "longitude": -135.05323399999992}, "119307957RR0001": {"name": "YUKON PUBLIC LEGAL EDUCATION ASSOCIATION", "designationCode": "C", "categoryCode": "59", "address": "102 - 2131 2ND AVE", "city": "WHITEHORSE", "province": "YT", "country": "CA", "postalCode": "Y1A1C3", "twitter": "None", "instagram": "None", "facebook": "None", "youtube": "None", "website": "None", "summary": "None", "logo": "None", "latitude": 60.72397200443559, "longitude": -135.05561400303918}, "852798875RR0001": {"name": "YUKON WILDLIFE PRESERVE OPERATING SOCIETY", "designationCode": "C", "categoryCode": "50", "address": "PO BOX 20191                  STN MAIN", "city": "WHITEHORSE", "province": "YT", "country": "CA", "postalCode": "Y1A7A2", "twitter": "None", "instagram": "None", "facebook": "None", "youtube": "None", "website": "None", "summary": "None", "logo": "None", "latitude": 60.71897187917898, "longitude": -135.05620969857728}, "108229089RR0001": {"name": "YUKON WOMEN'S TRANSITION HOME SOCIETY", "designationCode": "C", "categoryCode": "01", "address": "PO BOX 31392", "city": "WHITEHORSE", "province": "YT", "country": "CA", "postalCode": "Y1A6K8", "twitter": "None", "instagram": "None", "facebook": "None", "youtube": "None", "website": "None", "summary": "None", "logo": "None", "latitude": 60.72084600000005, "longitude": -135.05323399999992}, "860577774RR0001": {"name": "YULLIN COMMUNITY CHURCH", "designationCode": "C", "categoryCode": "39", "address": "61 - 9088 HALSTON CRT", "city": "BURNABY", "province": "BC", "country": "CA", "postalCode": "V3N0A7", "twitter": "None", "instagram": "None", "facebook": "None", "youtube": "None", "website": "None", "summary": "None", "logo": "None", "latitude": 49.247978679418736, "longitude": -122.90596036551243}, "891084048RR0001": {"name": "YUNNAN FOUNDATION", "designationCode": "B", "categoryCode": "53", "address": "1500 W GEORGIA ST SUITE 1250  BOX 62", "city": "VANCOUVER", "province": "BC", "country": "CA", "postalCode": "V6G2Z6", "twitter": "None", "instagram": "None", "facebook": "None", "youtube": "None", "website": "None", "summary": "None", "logo": "None", "latitude": 49.2900638104334, "longitude": -123.12989899362336}, "877413823RR0001": {"name": "YVES LANDRY FOUNDATION", "designationCode": "C", "categoryCode": "21", "address": "10 FOUR SEASONS PLACE         SUITE 602", "city": "TORONTO", "province": "ON", "country": "CA", "postalCode": "M9B6H7", "twitter": "None", "instagram": "None", "facebook": "None", "youtube": "None", "website": "None", "summary": "None", "logo": "None", "latitude": 43.64759491808554, "longitude": -79.56151605761997}, "139006779RR0001": {"name": "YVR ART FOUNDATION", "designationCode": "C", "categoryCode": "22", "address": "SUITE 207                     15240-56TH AVE", "city": "SURREY", "province": "BC", "country": "CA", "postalCode": "V3S5K7", "twitter": "None", "instagram": "None", "facebook": "None", "youtube": "None", "website": "None", "summary": "None", "logo": "None", "latitude": 49.10427860283084, "longitude": -122.7998987066814}, "890139413RR0001": {"name": "YWAM KMC MISSION SOCIETY", "designationCode": "C", "categoryCode": "47", "address": "18942 - 88 AVENUE", "city": "SURREY", "province": "BC", "country": "CA", "postalCode": "V4N3G5", "twitter": "None", "instagram": "None", "facebook": "None", "youtube": "None", "website": "None", "summary": "None", "logo": "None", "latitude": 49.162796466818726, "longitude": -122.69770119317329}}