{"869117507RR0001": {"name": "CENTRE D'AIDE OASIS CARE CENTRE", "designationCode": "C", "categoryCode": "09", "address": "501-5TH AVENUE", "city": "VERDUN", "province": "QC", "country": "CA", "postalCode": "H4G2Z2", "twitter": "None", "instagram": "None", "facebook": "None", "youtube": "None", "website": "None", "summary": "None", "logo": "None", "latitude": 45.456254474897484, "longitude": -73.57099030099833}, "868571068RR0001": {"name": "CENTRE D'AIDE PERSONNES TRAUMATISEES CRANIENNES ET HANDICAPEES PHYSIQUES LAURENTIDES", "designationCode": "C", "categoryCode": "01", "address": "C P 11", "city": "ST-JEROME", "province": "QC", "country": "CA", "postalCode": "J7Z5T7", "twitter": "None", "instagram": "None", "facebook": "None", "youtube": "None", "website": "None", "summary": "None", "logo": "None", "latitude": 45.772419399964576, "longitude": -73.98215643335821}, "131089450RR0001": {"name": "CENTRE D'AIDE POUR HOMMES DE LANAUDIERE (CAHO)", "designationCode": "C", "categoryCode": "11", "address": "688 BOULEVARD MANSEAU", "city": "JOLIETTE", "province": "QC", "country": "CA", "postalCode": "J6E3E6", "twitter": "None", "instagram": "None", "facebook": "None", "youtube": "None", "website": "None", "summary": "None", "logo": "None", "latitude": 46.02262884375891, "longitude": -73.44338100141364}, "892914045RR0001": {"name": "CENTRE D'AIDE POUR VICTIMES D'AGRESSION SEXUELLE RICHELIEU-YAMASKA ET SOREL-TRACY C.A.V.A.S.", "designationCode": "C", "categoryCode": "09", "address": "715 RUE STE-ANNE", "city": "SAINT-HYACINTHE", "province": "QC", "country": "CA", "postalCode": "J2S5G6", "twitter": "None", "instagram": "None", "facebook": "None", "youtube": "None", "website": "None", "summary": "None", "logo": "None", "latitude": 45.62482083068851, "longitude": -72.94770073218294}, "892509035RR0001": {"name": "CENTRE D'ALPHABETISATION \"L'ARDOISE\"", "designationCode": "C", "categoryCode": "21", "address": "145 BOUL. DE LA MONTAGNE", "city": "ST-CASIMIR", "province": "QC", "country": "CA", "postalCode": "G0A3L0", "twitter": "None", "instagram": "None", "facebook": "None", "youtube": "None", "website": "None", "summary": "None", "logo": "None", "latitude": 46.65561338882808, "longitude": -72.14026099668177}, "100878032RR0001": {"name": "CENTRE D'ALPHABETISATION DES BASQUES INC.", "designationCode": "C", "categoryCode": "21", "address": "15 RUE NOTRE-DAME EST", "city": "TROIS-PISTOLES", "province": "QC", "country": "CA", "postalCode": "G0L4K0", "twitter": "None", "instagram": "None", "facebook": "None", "youtube": "None", "website": "None", "summary": "None", "logo": "None", "latitude": 48.12569411157596, "longitude": -69.17449370053087}, "120506399RR0001": {"name": "CENTRE D'ALPHABETISATION N-A RIVE DE MONTREAL", "designationCode": "C", "categoryCode": "09", "address": "6971, RUE SAINT-DENIS", "city": "MONTREAL", "province": "QC", "country": "CA", "postalCode": "H2S2S5", "twitter": "None", "instagram": "None", "facebook": "None", "youtube": "None", "website": "None", "summary": "None", "logo": "None", "latitude": 45.537310203185264, "longitude": -73.61227118093962}, "868872615RR0001": {"name": "CENTRE D'AMITIE AUTOCHTONE DE LANAUDIERE INC.", "designationCode": "C", "categoryCode": "56", "address": "523 BOUL. SAINTE-ANNE", "city": "JOLIETTE", "province": "QC", "country": "CA", "postalCode": "J6E5A3", "twitter": "None", "instagram": "None", "facebook": "None", "youtube": "None", "website": "None", "summary": "None", "logo": "None", "latitude": 46.03211833498767, "longitude": -73.44733057703836}, "125109991RR0001": {"name": "CENTRE D'AMITIE AUTOCHTONE DE MONTREAL INC./ NATIVE FRIENDSHIP CENTRE OF MONTREAL INC.", "designationCode": "C", "categoryCode": "56", "address": "2001 BOUL SAINT-LAURENT", "city": "MONTREAL", "province": "QC", "country": "CA", "postalCode": "H2X2T3", "twitter": "None", "instagram": "None", "facebook": "None", "youtube": "None", "website": "None", "summary": "None", "logo": "None", "latitude": 45.511426141006325, "longitude": -73.56703143337765}, "106893001RR0001": {"name": "CENTRE D'AMITIE AUTOCHTONE DE QUEBEC INC.", "designationCode": "C", "categoryCode": "56", "address": "167 RUE CHEF-MAX-GROS-LOUIS", "city": "WENDAKE", "province": "QC", "country": "CA", "postalCode": "G0A4V0", "twitter": "None", "instagram": "None", "facebook": "None", "youtube": "None", "website": "None", "summary": "None", "logo": "None", "latitude": 46.86044410491085, "longitude": -71.35615431141434}, "124597428RR0001": {"name": "CENTRE D'AMITIE AUTOCHTONE DE VAL D'OR INC", "designationCode": "C", "categoryCode": "09", "address": "1272 7E RUE", "city": "VAL-D'OR", "province": "QC", "country": "CA", "postalCode": "J9P6W6", "twitter": "None", "instagram": "None", "facebook": "None", "youtube": "None", "website": "None", "summary": "None", "logo": "None"}, "118845262RR0001": {"name": "CENTRE D'AMITIE AUTOCHTONE LA TUQUE INC.", "designationCode": "C", "categoryCode": "09", "address": "544, ST ANTOINE", "city": "LA TUQUE", "province": "QC", "country": "CA", "postalCode": "G9X2Y4", "twitter": "None", "instagram": "None", "facebook": "None", "youtube": "None", "website": "None", "summary": "None", "logo": "None"}, "886135458RR0001": {"name": "CENTRE D'AMOUR ET DE PARTAGE NOTRE-DAME DE L'OUTAOUAIS", "designationCode": "C", "categoryCode": "09", "address": "297 NOTRE DAME", "city": "GATINEAU", "province": "QC", "country": "CA", "postalCode": "J8P1K9", "twitter": "None", "instagram": "None", "facebook": "None", "youtube": "None", "website": "None", "summary": "None", "logo": "None", "latitude": 45.481471500432704, "longitude": -75.64457263627446}, "106889272RR0001": {"name": "CENTRE D'ANIMATION DE DEVELOPEMENT ET DE RECHERCHE EN EDUCATION CADRE", "designationCode": "C", "categoryCode": "21", "address": "1940 EST HENRI BOURASSA", "city": "MONTREAL", "province": "QC", "country": "CA", "postalCode": "H2B1S2", "twitter": "None", "instagram": "None", "facebook": "None", "youtube": "None", "website": "None", "summary": "None", "logo": "None", "latitude": 45.570970676928894, "longitude": -73.65793940296633}, "118845304RR0001": {"name": "CENTRE D'ANIMATION SOCIALE FOI ET PARTAGE", "designationCode": "C", "categoryCode": "09", "address": "3312 CHEMIN ROYAL", "city": "ST-JEAN ILE D'ORL\u00c9ANS", "province": "QC", "country": "CA", "postalCode": "G0A3W0", "twitter": "None", "instagram": "None", "facebook": "None", "youtube": "None", "website": "None", "summary": "None", "logo": "None", "latitude": 46.92360213686598, "longitude": -70.88865790108069}, "138330386RR0001": {"name": "CENTRE D'APPUI AUX COMMUNAUTES IMMIGRANTES DE BORDEAUX-CARTIERVILLE", "designationCode": "C", "categoryCode": "09", "address": "4770 RUE DE SALABERRY", "city": "MONTREAL", "province": "QC", "country": "CA", "postalCode": "H4J1H6", "twitter": "None", "instagram": "None", "facebook": "None", "youtube": "None", "website": "None", "summary": "None", "logo": "None", "latitude": 45.53307889618566, "longitude": -73.7060530563219}, "888282753RR0001": {"name": "CENTRE D'ARCHIVES DE LA R\u00c9GION DE THETFORD", "designationCode": "C", "categoryCode": "50", "address": "671 BOUL. FRONTENAC O", "city": "THETFORD MINES", "province": "QC", "country": "CA", "postalCode": "G6G1N1", "twitter": "None", "instagram": "None", "facebook": "None", "youtube": "None", "website": "None", "summary": "None", "logo": "None", "latitude": 46.097582117177026, "longitude": -71.32218017328836}, "876043621RR0001": {"name": "CENTRE D'ARCHIVES REGIONAL DE PORTNEUF INC.", "designationCode": "C", "categoryCode": "50", "address": "12 RUE DES PINS", "city": "DESCHAMBAULT-GRONDINES", "province": "QC", "country": "CA", "postalCode": "G0A1S0", "twitter": "None", "instagram": "None", "facebook": "None", "youtube": "None", "website": "None", "summary": "None", "logo": "None", "latitude": 46.63943128117592, "longitude": -71.9960866831613}, "136272424RR0001": {"name": "CENTRE D'ARCHIVES REGIONAL DES ILES", "designationCode": "C", "categoryCode": "50", "address": "1-15 CHEMIN DE LA PISCINE", "city": "L'ETANG-DU NORD", "province": "QC", "country": "CA", "postalCode": "G4T3X4", "twitter": "None", "instagram": "None", "facebook": "None", "youtube": "None", "website": "None", "summary": "None", "logo": "None", "latitude": 47.37246326337366, "longitude": -61.916115398782736}, "119001949RR0001": {"name": "CENTRE D'ARTISTES VASTE ET VAGUE", "designationCode": "C", "categoryCode": "22", "address": "774 BOULEVARD PERRON", "city": "CARLETON", "province": "QC", "country": "CA", "postalCode": "G0C1J0", "twitter": "None", "instagram": "None", "facebook": "None", "youtube": "None", "website": "None", "summary": "None", "logo": "None", "latitude": 48.10119531173146, "longitude": -66.1075389076982}, "119008837RR0001": {"name": "CENTRE D'ASSISTANCE ET D'ACCOMPAGNEMENT AUX PLAINTES-CHAUDIERE-APPALACHES", "designationCode": "C", "categoryCode": "09", "address": "167, AVE NOTRE-DAME NORD      CP 790", "city": "SAINTE-MARIE", "province": "QC", "country": "CA", "postalCode": "G6E3B9", "twitter": "None", "instagram": "None", "facebook": "None", "youtube": "None", "website": "None", "summary": "None", "logo": "None", "latitude": 46.439249438513535, "longitude": -71.02515457397995}, "887549954RR0001": {"name": "CENTRE D'ASSISTANCE MONDIALE ARMENIEN DE MONTREAL", "designationCode": "C", "categoryCode": "09", "address": "3401 OLIVAR ASSELIN", "city": "MONTREAL", "province": "QC", "country": "CA", "postalCode": "H4J1L5", "twitter": "None", "instagram": "None", "facebook": "None", "youtube": "None", "website": "None", "summary": "None", "logo": "None", "latitude": 45.53229752873787, "longitude": -73.69718800790585}, "878987924RR0001": {"name": "CENTRE D'ECOUTE DE LAVAL", "designationCode": "C", "categoryCode": "09", "address": "4901 RUE ST-JOSEPH            BUREAU 216", "city": "LAVAL", "province": "QC", "country": "CA", "postalCode": "H7C1H6", "twitter": "None", "instagram": "None", "facebook": "None", "youtube": "None", "website": "None", "summary": "None", "logo": "None", "latitude": 45.611312678054084, "longitude": -73.64850496892485}, "100334994RR0001": {"name": "CENTRE D'ECOUTE ET DE PREVENTION SUICIDE DRUMMOND", "designationCode": "C", "categoryCode": "09", "address": "393, RUE HERIOT", "city": "DRUMMONDVILLE", "province": "QC", "country": "CA", "postalCode": "J2B1B1", "twitter": "None", "instagram": "None", "facebook": "None", "youtube": "None", "website": "None", "summary": "None", "logo": "None", "latitude": 45.88224424865848, "longitude": -72.48355473247139}, "894724384RR0001": {"name": "CENTRE D'ECOUTE ET DE REFERENCE HALTE AMI", "designationCode": "C", "categoryCode": "09", "address": "CP 8888 SUCC CENTRE VILLE     UNIVERSITE DU QUEBEC A MTL", "city": "MONTREAL", "province": "QC", "country": "CA", "postalCode": "H3C3P8", "twitter": "None", "instagram": "None", "facebook": "None", "youtube": "None", "website": "None", "summary": "None", "logo": "None", "latitude": 45.49833600000005, "longitude": -73.55148649999994}, "118845577RR0001": {"name": "CENTRE D'ECOUTE ET DE REFERENCE MULTI-ECOUTE", "designationCode": "C", "categoryCode": "09", "address": "3600 BARCLAY                  SUITE 460", "city": "MONTREAL", "province": "QC", "country": "CA", "postalCode": "H3S1K5", "twitter": "None", "instagram": "None", "facebook": "None", "youtube": "None", "website": "None", "summary": "None", "logo": "None", "latitude": 45.50239007937564, "longitude": -73.6356888918865}, "100879576RR0001": {"name": "CENTRE D'ECOUTE ET DE REFERENCES FACE A FACE", "designationCode": "C", "categoryCode": "09", "address": "101B - 980 RUE SAINT-ANTOINE O", "city": "MONTREAL", "province": "QC", "country": "CA", "postalCode": "H3C1A8", "twitter": "None", "instagram": "None", "facebook": "None", "youtube": "None", "website": "None", "summary": "None", "logo": "None", "latitude": 45.49693899227025, "longitude": -73.56674962220217}, "118845585RR0001": {"name": "CENTRE D'ECOUTE LE HAVRE INC.", "designationCode": "C", "categoryCode": "09", "address": "209-1260, RUE STE-CATHERINE E", "city": "MONTREAL", "province": "QC", "country": "CA", "postalCode": "H2L2H2", "twitter": "None", "instagram": "None", "facebook": "None", "youtube": "None", "website": "None", "summary": "None", "logo": "None", "latitude": 45.51814122806367, "longitude": -73.55642571896031}, "866379829RR0001": {"name": "CENTRE D'ECOUTE TELEPHONIQUE ET DE RENSEIGNEMENTS DES GAIS ET LESBIENNES DU QUEBEC INC", "designationCode": "C", "categoryCode": "09", "address": "2297 AV GASCON", "city": "MONTREAL", "province": "QC", "country": "CA", "postalCode": "H2K2W4", "twitter": "None", "instagram": "None", "facebook": "None", "youtube": "None", "website": "None", "summary": "None", "logo": "None", "latitude": 45.535709702204315, "longitude": -73.55627144073523}, "888633062RR0001": {"name": "CENTRE D'EDUCATION DE LANAUDIERE", "designationCode": "C", "categoryCode": "09", "address": "144 RUE ST-JOSEPH", "city": "JOLIETTE", "province": "QC", "country": "CA", "postalCode": "J6E5C4", "twitter": "None", "instagram": "None", "facebook": "None", "youtube": "None", "website": "None", "summary": "None", "logo": "None", "latitude": 46.026606530122855, "longitude": -73.44158207325879}, "131219412RR0001": {"name": "CENTRE D'EDUCATION ET D'ACTION DES FEMMES DE MONTREAL INC.", "designationCode": "C", "categoryCode": "09", "address": "2422 BOUL. DE MAISONNEUVE EST", "city": "MONTREAL", "province": "QC", "country": "CA", "postalCode": "H2K2E9", "twitter": "None", "instagram": "None", "facebook": "None", "youtube": "None", "website": "None", "summary": "None", "logo": "None", "latitude": 45.52924139632991, "longitude": -73.54817576850955}, "118900513RR0001": {"name": "CENTRE D'EDUCATION FINANCIERE EBO (ENTRAIDE BUDGETAIRE OTTAWA)", "designationCode": "C", "categoryCode": "09", "address": "300 RUE OLMSTEAD 2E", "city": "OTTAWA", "province": "ON", "country": "CA", "postalCode": "K1L7K1", "twitter": "None", "instagram": "None", "facebook": "None", "youtube": "None", "website": "None", "summary": "None", "logo": "None", "latitude": 45.43490791228583, "longitude": -75.66189918445937}, "119006765RR0001": {"name": "CENTRE D'EDUCATION POPULAIRE DE L'ESTRIE", "designationCode": "C", "categoryCode": "59", "address": "311 RUE MARQUETTE             BUREAU 10", "city": "SHERBROOKE", "province": "QC", "country": "CA", "postalCode": "J1H1M2", "twitter": "None", "instagram": "None", "facebook": "None", "youtube": "None", "website": "None", "summary": "None", "logo": "None", "latitude": 45.40115014628643, "longitude": -71.89561947005004}, "140968140RR0001": {"name": "CENTRE D'EDUCATION POPULAIRE DE POINTE-DU-LAC", "designationCode": "C", "categoryCode": "21", "address": "490, RUE GRANDE ALLEE", "city": "TROIS-RIVIERES", "province": "QC", "country": "CA", "postalCode": "G9B7S3", "twitter": "None", "instagram": "None", "facebook": "None", "youtube": "None", "website": "None", "summary": "None", "logo": "None", "latitude": 46.28959143161732, "longitude": -72.67128177976228}, "861680171RR0001": {"name": "CENTRE D'EDUCATION RELIGIEUSE/CENTRE FOR RELIGIOUS EDUCATION", "designationCode": "C", "categoryCode": "20", "address": "215 PLACE ANDR\u00c9-OUELLET", "city": "BOISBRIAND", "province": "QC", "country": "CA", "postalCode": "J7E4H4", "twitter": "None", "instagram": "None", "facebook": "None", "youtube": "None", "website": "None", "summary": "None", "logo": "None", "latitude": 45.61226751569614, "longitude": -73.87022793063635}, "875624819RR0001": {"name": "CENTRE D'ENCADREMENT POUR JEUNES FEMMES IMMIGRANTES (CEJFI) / THE SUPPORT CENTRE FOR YOUNG IMMIGRANT WOMEN (CEJFI)", "designationCode": "C", "categoryCode": "09", "address": "1745 BOUL EDOUARD-LAURIN", "city": "SAINT-LAURENT", "province": "QC", "country": "CA", "postalCode": "H4L5E9", "twitter": "None", "instagram": "None", "facebook": "None", "youtube": "None", "website": "None", "summary": "None", "logo": "None", "latitude": 45.510988734952896, "longitude": -73.68561894699631}, "897571410RR0001": {"name": "CENTRE D'ENFANTS SAINT CLAUDE CHILDREN'S CENTRE INC.", "designationCode": "C", "categoryCode": "01", "address": "BOX 219", "city": "ST CLAUDE", "province": "MB", "country": "CA", "postalCode": "R0G1Z0", "twitter": "None", "instagram": "None", "facebook": "None", "youtube": "None", "website": "None", "summary": "None", "logo": "None", "latitude": 49.65375240493102, "longitude": -98.34234710777315}, "100877505RR0001": {"name": "CENTRE D'ENTRAIDE \"CONTACT\" DE WARWICK", "designationCode": "C", "categoryCode": "56", "address": "1 RUE ST JOSEPH", "city": "WARWICK", "province": "QC", "country": "CA", "postalCode": "J0A1M0", "twitter": "None", "instagram": "None", "facebook": "None", "youtube": "None", "website": "None", "summary": "None", "logo": "None", "latitude": 45.9447547146978, "longitude": -71.98776713653426}, "118787324RR0001": {"name": "CENTRE D'ENTRAIDE AUX AINES", "designationCode": "C", "categoryCode": "01", "address": "331, BOUL. CITE-DES-JEUNES", "city": "GATINEAU", "province": "QC", "country": "CA", "postalCode": "J8Y6T3", "twitter": "None", "instagram": "None", "facebook": "None", "youtube": "None", "website": "None", "summary": "None", "logo": "None", "latitude": 45.45790048153392, "longitude": -75.76677589266497}, "136776358RR0001": {"name": "CENTRE D'ENTRAIDE AUX RAYONS DU SOLEIL INC", "designationCode": "C", "categoryCode": "09", "address": "268, AVENUE DE GRAND-M\u00c8RE", "city": "SHAWINIGAN", "province": "QC", "country": "CA", "postalCode": "G9T2G7", "twitter": "None", "instagram": "None", "facebook": "None", "youtube": "None", "website": "None", "summary": "None", "logo": "None", "latitude": 46.61753996032652, "longitude": -72.68785864060229}, "100883248RR0001": {"name": "CENTRE D'ENTRAIDE BENEVOLE DE ST-AMABLE INC.", "designationCode": "C", "categoryCode": "01", "address": "297 RUE PRINCIPALE", "city": "SAINT-AMABLE", "province": "QC", "country": "CA", "postalCode": "J0L1N0", "twitter": "None", "instagram": "None", "facebook": "None", "youtube": "None", "website": "None", "summary": "None", "logo": "None", "latitude": 45.63802203638394, "longitude": -73.31401504654013}, "118845882RR0001": {"name": "CENTRE D'ENTRAIDE COMMUNAUTAIRE BENEVOLE DE MONTMAGNY", "designationCode": "C", "categoryCode": "09", "address": "25 BOUL TACH\u00c9 OUEST", "city": "MONTMAGNY", "province": "QC", "country": "CA", "postalCode": "G5V2Z9", "twitter": "None", "instagram": "None", "facebook": "None", "youtube": "None", "website": "None", "summary": "None", "logo": "None", "latitude": 46.98093052366043, "longitude": -70.56571221369532}, "132611559RR0001": {"name": "CENTRE D'ENTRAIDE D'ARGENTEUIL", "designationCode": "C", "categoryCode": "09", "address": "171 RUE MARY", "city": "LACHUTE", "province": "QC", "country": "CA", "postalCode": "J8H2C1", "twitter": "None", "instagram": "None", "facebook": "None", "youtube": "None", "website": "None", "summary": "None", "logo": "None", "latitude": 45.653595024150256, "longitude": -74.3402174533443}, "889628954RR0001": {"name": "CENTRE D'ENTRAIDE DE LA REGION DE DISRAELI", "designationCode": "C", "categoryCode": "09", "address": "888, RUE ST-ANTOINE", "city": "DISRAELI", "province": "QC", "country": "CA", "postalCode": "G0N1E0", "twitter": "None", "instagram": "None", "facebook": "None", "youtube": "None", "website": "None", "summary": "None", "logo": "None", "latitude": 45.90744834277795, "longitude": -71.35883116010757}, "118845908RR0001": {"name": "CENTRE D'ENTRAIDE DES AINES DE BUCKINGHAM", "designationCode": "C", "categoryCode": "09", "address": "4890, CH. RIVER", "city": "L'ANGE-GARDIEN", "province": "QC", "country": "CA", "postalCode": "J8L0H5", "twitter": "None", "instagram": "None", "facebook": "None", "youtube": "None", "website": "None", "summary": "None", "logo": "None", "latitude": 45.67810310023632, "longitude": -75.4855362100815}, "140227646RR0001": {"name": "CENTRE D'ENTRAIDE DU TROUBLE AFFECTIF BIPOLAIRE DE QUEBEC", "designationCode": "C", "categoryCode": "11", "address": "165 DE CARILLON               LOCAL 318", "city": "QUEBEC", "province": "QC", "country": "CA", "postalCode": "G1K9E9", "twitter": "None", "instagram": "None", "facebook": "None", "youtube": "None", "website": "None", "summary": "None", "logo": "None", "latitude": 46.81343497752319, "longitude": -71.23847043337764}, "869229740RR0001": {"name": "CENTRE D'ENTRAIDE EMOTIONS", "designationCode": "C", "categoryCode": "09", "address": "3360, DE LA PERADE            SUITE 002", "city": "STE-FOY", "province": "QC", "country": "CA", "postalCode": "G1X2L7", "twitter": "None", "instagram": "None", "facebook": "None", "youtube": "None", "website": "None", "summary": "None", "logo": "None", "latitude": 46.76464170165606, "longitude": -71.31642021582299}, "889126157RR0001": {"name": "CENTRE D'ENTRAIDE EN SANTE MENTALE DU SECTEUR BRANDON \"LE CROISSANT DE LUNE\"", "designationCode": "C", "categoryCode": "09", "address": "168 RUE SAINT-PIERRE", "city": "SAINT-GABRIEL-DE-BRANDON", "province": "QC", "country": "CA", "postalCode": "J0K2N0", "twitter": "None", "instagram": "None", "facebook": "None", "youtube": "None", "website": "None", "summary": "None", "logo": "None", "latitude": 46.293541784898174, "longitude": -73.38174403774025}, "106895204RR0001": {"name": "CENTRE D'ENTRAIDE ET D'AMITI\u00c9 AUTOCHTONE DE SENNETERRE", "designationCode": "C", "categoryCode": "56", "address": "910 10E AVENUE", "city": "SENNETERRE", "province": "QC", "country": "CA", "postalCode": "J0Y2M0", "twitter": "None", "instagram": "None", "facebook": "None", "youtube": "None", "website": "None", "summary": "None", "logo": "None", "latitude": 48.39018147071387, "longitude": -77.25041394503441}, "118845924RR0001": {"name": "CENTRE D'ENTRAIDE ET DE DEPANNAGE DE ST-ZENON", "designationCode": "C", "categoryCode": "09", "address": "6245 RUE PRINCIPALE", "city": "ST-Z\u00c9NON", "province": "QC", "country": "CA", "postalCode": "J0K3N0", "twitter": "None", "instagram": "None", "facebook": "None", "youtube": "None", "website": "None", "summary": "None", "logo": "None", "latitude": 46.56323398251487, "longitude": -73.81840022690282}, "118845932RR0001": {"name": "CENTRE D'ENTRAIDE ET DE SERVICES COMMUNAUTAIRES DU MARIGOT", "designationCode": "C", "categoryCode": "01", "address": "131 BOUL. DE LA CONCORDE EST", "city": "LAVAL", "province": "QC", "country": "CA", "postalCode": "H7G2C3", "twitter": "None", "instagram": "None", "facebook": "None", "youtube": "None", "website": "None", "summary": "None", "logo": "None", "latitude": 45.573350187056455, "longitude": -73.68683978974559}, "891927477RR0001": {"name": "CENTRE D'ENTRAIDE ET DE TRAITEMENT DES AGRESSIONS SEXUELLES (PARENTS-UNIS LAURENTIDES)", "designationCode": "C", "categoryCode": "09", "address": "101C-8, DE LA SALETTE", "city": "ST-JEROME", "province": "QC", "country": "CA", "postalCode": "J7Y5C8", "twitter": "None", "instagram": "None", "facebook": "None", "youtube": "None", "website": "None", "summary": "None", "logo": "None", "latitude": 45.79713162302779, "longitude": -74.0163318226206}, "867246464RR0001": {"name": "CENTRE D'ENTRAIDE FAMILIALE DE LA MRC DE MONTMAGNY", "designationCode": "C", "categoryCode": "09", "address": "103, ROUTE DE L'EGLISE", "city": "STE-APOLLINE", "province": "QC", "country": "CA", "postalCode": "G0R2P0", "twitter": "None", "instagram": "None", "facebook": "None", "youtube": "None", "website": "None", "summary": "None", "logo": "None", "latitude": 46.806644701656055, "longitude": -70.1951544190665}, "135582377RR0001": {"name": "CENTRE D'ENTRAIDE L'HORIZON DE RIVIERE-DU-LOUP", "designationCode": "C", "categoryCode": "09", "address": "52 FRASERVILLE", "city": "RIVIERE-DU-LOUP", "province": "QC", "country": "CA", "postalCode": "G5R2B6", "twitter": "None", "instagram": "None", "facebook": "None", "youtube": "None", "website": "None", "summary": "None", "logo": "None", "latitude": 47.82409795060299, "longitude": -69.5300207153903}, "100883289RR0001": {"name": "CENTRE D'ENTRAIDE LA BOUSSOLE INC.", "designationCode": "C", "categoryCode": "57", "address": "96, RUE PRINCIPALE            BUREAU 202", "city": "GRANBY", "province": "QC", "country": "CA", "postalCode": "J2G2T4", "twitter": "None", "instagram": "None", "facebook": "None", "youtube": "None", "website": "None", "summary": "None", "logo": "None", "latitude": 45.398369486496925, "longitude": -72.72287222318056}, "140766361RR0001": {"name": "CENTRE D'ENTRAIDE LE PIVOT, C E L P", "designationCode": "C", "categoryCode": "09", "address": "3164 BOUL LANGELIER", "city": "MONTREAL", "province": "QC", "country": "CA", "postalCode": "H1N3A6", "twitter": "None", "instagram": "None", "facebook": "None", "youtube": "None", "website": "None", "summary": "None", "logo": "None", "latitude": 45.58236622840339, "longitude": -73.54100271386108}, "106895220RR0001": {"name": "CENTRE D'ENTRAIDE LE RAMEAU D'OLIVIER INC.", "designationCode": "C", "categoryCode": "09", "address": "6547 RUE DE MARSEILLE", "city": "MONTREAL", "province": "QC", "country": "CA", "postalCode": "H1N1M1", "twitter": "None", "instagram": "None", "facebook": "None", "youtube": "None", "website": "None", "summary": "None", "logo": "None", "latitude": 45.58108795420968, "longitude": -73.53951144797726}, "899152862RR0001": {"name": "CENTRE D'ENTRAIDE PLUS DE L'ESTRIE", "designationCode": "C", "categoryCode": "09", "address": "421 PAPINEAU", "city": "SHERBROOKE", "province": "QC", "country": "CA", "postalCode": "J1E1X4", "twitter": "None", "instagram": "None", "facebook": "None", "youtube": "None", "website": "None", "summary": "None", "logo": "None", "latitude": 45.40846100750182, "longitude": -71.87957680864439}, "107606709RR0001": {"name": "CENTRE D'ENTRAIDE RACINE-LAVOIE", "designationCode": "C", "categoryCode": "09", "address": "154 RUE DORION", "city": "ST EUSTACHE", "province": "QC", "country": "CA", "postalCode": "J7R2N9", "twitter": "None", "instagram": "None", "facebook": "None", "youtube": "None", "website": "None", "summary": "None", "logo": "None", "latitude": 45.55988001526345, "longitude": -73.89328506676658}, "140771460RR0001": {"name": "CENTRE D'ENTRAIDE REGIONAL D'HENRYVILLE (CERH)", "designationCode": "C", "categoryCode": "09", "address": "854 ST-JEAN BAPTISTE          LOCAL 101", "city": "HENRYVILLE", "province": "QC", "country": "CA", "postalCode": "J0J1E0", "twitter": "None", "instagram": "None", "facebook": "None", "youtube": "None", "website": "None", "summary": "None", "logo": "None", "latitude": 45.13624007648025, "longitude": -73.20767260378577}, "129422572RR0001": {"name": "CENTRE D'ENTRAIDE SOCIALE DU BAS DE LA FALAISE", "designationCode": "C", "categoryCode": "09", "address": "302-265, DE LA COURONNE       3E \u00c9TAGE", "city": "QU\u00c9BEC", "province": "QC", "country": "CA", "postalCode": "G1K6E1", "twitter": "None", "instagram": "None", "facebook": "None", "youtube": "None", "website": "None", "summary": "None", "logo": "None", "latitude": 46.81607100000005, "longitude": -71.22607549999994}, "119006732RR0001": {"name": "CENTRE D'ENTRAIDE THERESE-DE-BLAINVILLE INC.", "designationCode": "C", "categoryCode": "09", "address": "245 LEDUC", "city": "SAINTE-TH\u00c9R\u00c8SE", "province": "QC", "country": "CA", "postalCode": "J7E0A4", "twitter": "None", "instagram": "None", "facebook": "None", "youtube": "None", "website": "None", "summary": "None", "logo": "None", "latitude": 45.64539805799535, "longitude": -73.8352369946043}, "141229039RR0001": {"name": "CENTRE D'ENTREPRISES ET D'INNOVATION DE MONTREAL (CEIM)", "designationCode": "C", "categoryCode": "20", "address": "33 RUE PRINCE", "city": "MONTREAL", "province": "QC", "country": "CA", "postalCode": "H3C2M7", "twitter": "None", "instagram": "None", "facebook": "None", "youtube": "None", "website": "None", "summary": "None", "logo": "None", "latitude": 45.49632149070918, "longitude": -73.5536799276935}, "886612050RR0002": {"name": "CENTRE D'EQUITHERAPIE LA REMONTEE", "designationCode": "C", "categoryCode": "09", "address": "677 AV DE GASP\u00c9 OUEST", "city": "SAINT-JEAN-PORT-JOLI", "province": "QC", "country": "CA", "postalCode": "G0R3G0", "twitter": "None", "instagram": "None", "facebook": "None", "youtube": "None", "website": "None", "summary": "None", "logo": "None", "latitude": 47.17218504790598, "longitude": -70.306048720704}, "118846575RR0001": {"name": "CENTRE D'ETUDE ET DE COOPERATION INTERNATIONALE", "designationCode": "C", "categoryCode": "20", "address": "3000, RUE OMER-LAVALLEE", "city": "MONTREAL", "province": "QC", "country": "CA", "postalCode": "H1Y3R8", "twitter": "None", "instagram": "None", "facebook": "None", "youtube": "None", "website": "None", "summary": "None", "logo": "None", "latitude": 45.54580956895961, "longitude": -73.5616496818919}, "140901943RR0001": {"name": "CENTRE D'ETUDES DES RELIGIONS ET CROYANCES DE LA CHINE A MONTREAL", "designationCode": "C", "categoryCode": "49", "address": "1065 RUE DE BLEURY", "city": "MONTREAL", "province": "QC", "country": "CA", "postalCode": "H2Z1N1", "twitter": "None", "instagram": "None", "facebook": "None", "youtube": "None", "website": "None", "summary": "None", "logo": "None", "latitude": 45.504462089935885, "longitude": -73.56300015638533}, "100887082RR0001": {"name": "CENTRE D'ETUDES ET DE RECHERCHES POUR L'AVANCEMENT DE LA CONSTRUCTION AU QUEBEC", "designationCode": "C", "categoryCode": "21", "address": "223, RUE SAINT-JEAN", "city": "LONGUEUIL", "province": "QC", "country": "CA", "postalCode": "J4H2X4", "twitter": "None", "instagram": "None", "facebook": "None", "youtube": "None", "website": "None", "summary": "None", "logo": "None", "latitude": 45.53616260395857, "longitude": -73.50926995224776}, "872752696RR0001": {"name": "CENTRE D'ETUDES TALMUDIQUES DE COTE-ST-LUC", "designationCode": "C", "categoryCode": "42", "address": "5607 PALMER", "city": "COTE-ST-LUC", "province": "QC", "country": "CA", "postalCode": "H4W2P2", "twitter": "None", "instagram": "None", "facebook": "None", "youtube": "None", "website": "None", "summary": "None", "logo": "None", "latitude": 45.45797441799865, "longitude": -73.66836933276596}, "133865261RR0001": {"name": "CENTRE D'EVANGELISATION NOTRE-DAME DE LA SALETTE", "designationCode": "C", "categoryCode": "49", "address": "156 RUE DON-BOSCO", "city": "CHICOUTIMI", "province": "QC", "country": "CA", "postalCode": "G7H2Z7", "twitter": "None", "instagram": "None", "facebook": "None", "youtube": "None", "website": "None", "summary": "None", "logo": "None", "latitude": 48.40930613379296, "longitude": -71.06621739090554}, "106896947RR0001": {"name": "CENTRE D'EXPERIENCE PRESCOLAIRE ET PARASCOLAIRE (CEP)", "designationCode": "C", "categoryCode": "01", "address": "CP 48019                      8627 91 ST", "city": "EDMONTON", "province": "AB", "country": "CA", "postalCode": "T6C4S8", "twitter": "None", "instagram": "None", "facebook": "None", "youtube": "None", "website": "None", "summary": "None", "logo": "None", "latitude": 53.5223435029142, "longitude": -113.46738528455239}, "897611927RR0001": {"name": "CENTRE D'H\u00c9BERGEMENT ALTERNATIF DE SHERBROOKE", "designationCode": "C", "categoryCode": "09", "address": "1287, RUE BELVED\u00c8RE SUD", "city": "SHERBROOKE", "province": "QC", "country": "CA", "postalCode": "J1H4E2", "twitter": "None", "instagram": "None", "facebook": "None", "youtube": "None", "website": "None", "summary": "None", "logo": "None", "latitude": 45.386676356367964, "longitude": -71.89625202590966}, "131550436RR0001": {"name": "CENTRE D'HEBERGEMENT L'ENTRE-TOIT INC", "designationCode": "C", "categoryCode": "57", "address": "6177 RUE SAINT-JACQUES", "city": "MONTREAL", "province": "QC", "country": "CA", "postalCode": "H4B1T7", "twitter": "None", "instagram": "None", "facebook": "None", "youtube": "None", "website": "None", "summary": "None", "logo": "None", "latitude": 45.463930521524524, "longitude": -73.61641595019896}, "857141006RR0001": {"name": "CENTRE D'HEBERGEMENT RAYONS DU SOLEIL (PHASE II)", "designationCode": "C", "categoryCode": "57", "address": "272 AVENUE DE GRAND-M\u00c8RE", "city": "SHAWINIGAN", "province": "QC", "country": "CA", "postalCode": "G9T2G7", "twitter": "None", "instagram": "None", "facebook": "None", "youtube": "None", "website": "None", "summary": "None", "logo": "None", "latitude": 46.61753996032652, "longitude": -72.68785864060229}, "135537611RR0001": {"name": "CENTRE D'HISTOIRE DE SAINT-HYACINTHE INC", "designationCode": "C", "categoryCode": "50", "address": "650 GIROUARD EST", "city": "SAINT-HYACINTHE", "province": "QC", "country": "CA", "postalCode": "J2S2Y2", "twitter": "None", "instagram": "None", "facebook": "None", "youtube": "None", "website": "None", "summary": "None", "logo": "None", "latitude": 45.63261623495506, "longitude": -72.94180957057556}, "118846641RR0001": {"name": "CENTRE D'IMPLICATION LIBRE DE LAVAL EN READAPTATION SOCIALE C.I.L.L.", "designationCode": "C", "categoryCode": "11", "address": "156 BOULEVARD DES LAURENTIDES", "city": "LAVAL", "province": "QC", "country": "CA", "postalCode": "H7G2T5", "twitter": "None", "instagram": "None", "facebook": "None", "youtube": "None", "website": "None", "summary": "None", "logo": "None", "latitude": 45.56405843848487, "longitude": -73.68508179704494}, "118846625RR0001": {"name": "CENTRE D'INFORMATION ARTEXTE INFORMATION CENTRE", "designationCode": "C", "categoryCode": "22", "address": "301-2 RUE SAINTE-CATHERINE E", "city": "MONTREAL", "province": "QC", "country": "CA", "postalCode": "H2X1K4", "twitter": "None", "instagram": "None", "facebook": "None", "youtube": "None", "website": "None", "summary": "None", "logo": "None", "latitude": 45.51178410601765, "longitude": -73.56212382207886}, "890672264RR0001": {"name": "CENTRE D'INITIATIVES POUR LE DEVELOPPEMENT COMMUNAUTAIRE, L'UNITE", "designationCode": "C", "categoryCode": "59", "address": "1055, AV. SAINTE-CROIX", "city": "SAINT-LAURENT", "province": "QC", "country": "CA", "postalCode": "H4L3Z2", "twitter": "None", "instagram": "None", "facebook": "None", "youtube": "None", "website": "None", "summary": "None", "logo": "None", "latitude": 45.517014029718815, "longitude": -73.68115734399004}, "130709298RR0001": {"name": "CENTRE D'INT\u00c9GRATION \u00c0 LA VIE ACTIVE POUR LES PERSONNES VIVANT AVEC UN HANDICAP PHYSIQUE", "designationCode": "C", "categoryCode": "11", "address": "525 DOMINION BUREAU 330", "city": "MONTREAL", "province": "QC", "country": "CA", "postalCode": "H3J2B4", "twitter": "None", "instagram": "None", "facebook": "None", "youtube": "None", "website": "None", "summary": "None", "logo": "None", "latitude": 45.48452789621432, "longitude": -73.5735421333316}, "886411750RR0001": {"name": "CENTRE D'INTEGRATION PHYSIQUE DE L'ENVOL INC.", "designationCode": "C", "categoryCode": "56", "address": "532 3E AV", "city": "VAL-D'OR", "province": "QC", "country": "CA", "postalCode": "J9P1S4", "twitter": "None", "instagram": "None", "facebook": "None", "youtube": "None", "website": "None", "summary": "None", "logo": "None", "latitude": 48.10078332558127, "longitude": -77.78142754939701}, "100887835RR0001": {"name": "CENTRE D'INTEGRATION SCOLAIRE INC.", "designationCode": "C", "categoryCode": "20", "address": "6361, 6E AVENUE", "city": "MONTREAL", "province": "QC", "country": "CA", "postalCode": "H1Y2R7", "twitter": "None", "instagram": "None", "facebook": "None", "youtube": "None", "website": "None", "summary": "None", "logo": "None", "latitude": 45.55183390980433, "longitude": -73.5872322418778}, "875738221RR0001": {"name": "CENTRE D'INTENDANCE ECOLOGIQUE LATREILLE (CIEL)", "designationCode": "B", "categoryCode": "52", "address": "4985 MONTEE QUESNEL", "city": "ST-ANICET", "province": "QC", "country": "CA", "postalCode": "J0S1M0", "twitter": "None", "instagram": "None", "facebook": "None", "youtube": "None", "website": "None", "summary": "None", "logo": "None", "latitude": 45.09765887399734, "longitude": -74.27678274326279}, "131617615RR0001": {"name": "CENTRE D'INTERPRETATION DE L'AGRICULTURE ET DE LA RURALITE", "designationCode": "C", "categoryCode": "50", "address": "281 RUE ST-LOUIS", "city": "M\u00c9TABETCHOUAN LAC \u00c0 LA CROIX", "province": "QC", "country": "CA", "postalCode": "G8G2C8", "twitter": "None", "instagram": "None", "facebook": "None", "youtube": "None", "website": "None", "summary": "None", "logo": "None", "latitude": 48.404475262277124, "longitude": -71.77923853577833}, "862515764RR0001": {"name": "CENTRE D'INTERPRETATION DE L'EAU DE LAVAL", "designationCode": "C", "categoryCode": "50", "address": "12 RUE HOTTE", "city": "LAVAL", "province": "QC", "country": "CA", "postalCode": "H7L2R3", "twitter": "None", "instagram": "None", "facebook": "None", "youtube": "None", "website": "None", "summary": "None", "logo": "None", "latitude": 45.616415185411654, "longitude": -73.78697053840408}, "136338035RR0001": {"name": "CENTRE D'INTERPRETATION DE LA COTE-DE-BEAUPRE", "designationCode": "C", "categoryCode": "21", "address": "7976, AV. ROYALE", "city": "CH\u00c2TEAU-RICHER", "province": "QC", "country": "CA", "postalCode": "G0A1N0", "twitter": "None", "instagram": "None", "facebook": "None", "youtube": "None", "website": "None", "summary": "None", "logo": "None", "latitude": 46.969042830688515, "longitude": -71.0186118487219}, "106897176RR0001": {"name": "CENTRE D'INTERPRETATION DE LA NATURE DU LAC BOIVIN INC.", "designationCode": "C", "categoryCode": "52", "address": "700 RUE DRUMMOND", "city": "GRANBY", "province": "QC", "country": "CA", "postalCode": "J2H0K6", "twitter": "None", "instagram": "None", "facebook": "None", "youtube": "None", "website": "None", "summary": "None", "logo": "None", "latitude": 45.416543769688516, "longitude": -72.68638526874565}, "134177971RR0001": {"name": "CENTRE D'INTERPRETATION DES BATTURES ET DE REHABILITATION DES OISEAUX DE ST-FULGENCE INC", "designationCode": "C", "categoryCode": "50", "address": "100 CAP DES ROCHES", "city": "ST FULGENCE", "province": "QC", "country": "CA", "postalCode": "G0V1S0", "twitter": "None", "instagram": "None", "facebook": "None", "youtube": "None", "website": "None", "summary": "None", "logo": "None", "latitude": 48.446679310577615, "longitude": -70.90079837180429}, "136751146RR0001": {"name": "CENTRE D'INTERPRETATION DES BIOSCIENCES ARMAND-FRAPPIER", "designationCode": "C", "categoryCode": "29", "address": "531 BOUL DES PRAIRIES", "city": "LAVAL", "province": "QC", "country": "CA", "postalCode": "H7V1B7", "twitter": "None", "instagram": "None", "facebook": "None", "youtube": "None", "website": "None", "summary": "None", "logo": "None", "latitude": 45.540713149659794, "longitude": -73.71863892453574}, "106899891RR0001": {"name": "CENTRE D'INTERPRETATION DU MILIEU ECOLOGIQUE DU HAUT-RICHELIEU", "designationCode": "C", "categoryCode": "52", "address": "16 CHEMIN DU SOUS-BOIS", "city": "MONT-SAINT-GREGOIRE", "province": "QC", "country": "CA", "postalCode": "J0J1K0", "twitter": "None", "instagram": "None", "facebook": "None", "youtube": "None", "website": "None", "summary": "None", "logo": "None", "latitude": 45.35032799320999, "longitude": -73.14947474117454}, "898478649RR0001": {"name": "CENTRE D'INTERPRETATION FERROVIAIRE DE VALLEE-JONCTION INC.", "designationCode": "C", "categoryCode": "52", "address": "397, RUE JEAN-MARIE-ROUSSEAU", "city": "VALLEE-JONCTION", "province": "QC", "country": "CA", "postalCode": "G0S3J0", "twitter": "None", "instagram": "None", "facebook": "None", "youtube": "None", "website": "None", "summary": "None", "logo": "None", "latitude": 46.37472900000006, "longitude": -70.92793249999993}, "893750240RR0001": {"name": "CENTRE D'INTERPRETATION SUR LA DIVERSITE BIOLOGIQUE DU QUEBEC", "designationCode": "C", "categoryCode": "50", "address": "1800 AV DES JASMINS", "city": "STE-ANGELE", "province": "QC", "country": "CA", "postalCode": "G9H2S2", "twitter": "None", "instagram": "None", "facebook": "None", "youtube": "None", "website": "None", "summary": "None", "logo": "None", "latitude": 46.328071225056505, "longitude": -72.50284968795049}, "889955753RR0001": {"name": "CENTRE D'INTERVENTION EN ABUS SEXUELS POUR LA FAMILLE", "designationCode": "C", "categoryCode": "09", "address": "92 RUE ST-RAYMOND             SUITE 400 A", "city": "HULL", "province": "QC", "country": "CA", "postalCode": "J8Y1S7", "twitter": "None", "instagram": "None", "facebook": "None", "youtube": "None", "website": "None", "summary": "None", "logo": "None", "latitude": 48.84986788499491, "longitude": -67.52085818726307}, "876021569RR0001": {"name": "CENTRE D'INTERVENTION EN DELINQUANCE SEXUELLE (CIDS)", "designationCode": "C", "categoryCode": "09", "address": "CP 52008 CSP FABREVILLE", "city": "LAVAL", "province": "QC", "country": "CA", "postalCode": "H7P5S1", "twitter": "None", "instagram": "None", "facebook": "None", "youtube": "None", "website": "None", "summary": "None", "logo": "None", "latitude": 45.568170000000066, "longitude": -73.83966999999996}, "138192109RR0001": {"name": "CENTRE D'INTERVENTION EN HORTITHERAPIE LES SERRES DE CLARA", "designationCode": "C", "categoryCode": "09", "address": "181 RUE BRIERE", "city": "ST-JEROME", "province": "QC", "country": "CA", "postalCode": "J7Y3A7", "twitter": "None", "instagram": "None", "facebook": "None", "youtube": "None", "website": "None", "summary": "None", "logo": "None", "latitude": 45.77214757311457, "longitude": -74.0113561247046}, "138626643RR0001": {"name": "CENTRE D'INTERVENTION EN VIOLENCE ET ABUS SEXUELS DE L'ESTRIE INC", "designationCode": "C", "categoryCode": "09", "address": "CP 161", "city": "SHERBROOKE", "province": "QC", "country": "CA", "postalCode": "J1H5H8", "twitter": "None", "instagram": "None", "facebook": "None", "youtube": "None", "website": "None", "summary": "None", "logo": "None", "latitude": 45.403251000000054, "longitude": -71.88894349999994}, "138707955RR0001": {"name": "CENTRE D'INTERVENTION ET DE PREVENTION EN TOXICOMANIE DE L'OUTAOUAIS", "designationCode": "C", "categoryCode": "57", "address": "92 RUE ST-JACQUES", "city": "HULL", "province": "QC", "country": "CA", "postalCode": "J8X2Z2", "twitter": "None", "instagram": "None", "facebook": "None", "youtube": "None", "website": "None", "summary": "None", "logo": "None", "latitude": 45.42857295920135, "longitude": -75.71926508907049}, "897299152RR0001": {"name": "CENTRE D'INTERVENTION FAMILIALE LE TRANSIT", "designationCode": "C", "categoryCode": "09", "address": "2469 RUE SAINT-DOMINIQUE", "city": "JONQUI\u00c8RE", "province": "QC", "country": "CA", "postalCode": "G7X6K4", "twitter": "None", "instagram": "None", "facebook": "None", "youtube": "None", "website": "None", "summary": "None", "logo": "None", "latitude": 48.41099261365344, "longitude": -71.25572575921872}, "107410078RR0001": {"name": "CENTRE D'INTERVENTION LE ROND-POINT", "designationCode": "C", "categoryCode": "57", "address": "101 RUE TORTELLIER", "city": "SEPT-ILES", "province": "QC", "country": "CA", "postalCode": "G4R3Z7", "twitter": "None", "instagram": "None", "facebook": "None", "youtube": "None", "website": "None", "summary": "None", "logo": "None", "latitude": 50.21681500473186, "longitude": -66.39179829476592}, "140928359RR0001": {"name": "CENTRE D'ORIENTATION ET DE PREVENTION D'ALCOOLISME ET DE TOXICOMANIE POUR LES LATINO-AMERICAINS (COPATLA)", "designationCode": "C", "categoryCode": "57", "address": "660 RUE VILLERAY, 2E \u00c9TAGE", "city": "MONTR\u00c9AL", "province": "QC", "country": "CA", "postalCode": "H2R1J1", "twitter": "None", "instagram": "None", "facebook": "None", "youtube": "None", "website": "None", "summary": "None", "logo": "None", "latitude": 45.54332852316931, "longitude": -73.62167189589721}, "118846690RR0001": {"name": "CENTRE D'ORIENTATION PARALEGALE ET SOCIALE POUR IMMIGRANTS (C.O.P.S.I.) INC.", "designationCode": "C", "categoryCode": "09", "address": "435 BEAUBIEN E.               BUREAU 303", "city": "MONTREAL", "province": "QC", "country": "CA", "postalCode": "H2S2P7", "twitter": "None", "instagram": "None", "facebook": "None", "youtube": "None", "website": "None", "summary": "None", "logo": "None", "latitude": 45.534130061342225, "longitude": -73.60495137053486}, "138948997RR0001": {"name": "CENTRE D'UNION MULTICULTURELLE ET ARTISTIQUE DES JEUNES (CUMAJ)", "designationCode": "C", "categoryCode": "09", "address": "10125 RUE PARTHENAIS          BUREAU 201", "city": "MONTREAL", "province": "QC", "country": "CA", "postalCode": "H2B2L6", "twitter": "None", "instagram": "None", "facebook": "None", "youtube": "None", "website": "None", "summary": "None", "logo": "None", "latitude": 45.571660363609965, "longitude": -73.64798932595664}}