{"859858664RR0001": {"name": "JOHN BOSCO CHILD AND FAMILY SERVICES FOUNDATION", "designationCode": "A", "categoryCode": "03", "address": "6770 129 AVE                  ROOM 315", "city": "EDMONTON", "province": "AB", "country": "CA", "postalCode": "T5C1V7", "twitter": "None", "instagram": "None", "facebook": "None", "youtube": "None", "website": "None", "summary": "None", "logo": "None", "latitude": 53.587662523226626, "longitude": -113.44526163918864}, "118974864RR0001": {"name": "JOHN BRADFORD SENIOR EDUCATION FUND", "designationCode": "B", "categoryCode": "21", "address": "1002 SHERBROOKE ST. WEST      5TH FLOOR", "city": "MONTREAL", "province": "QC", "country": "CA", "postalCode": "H3A3L6", "twitter": "None", "instagram": "None", "facebook": "None", "youtube": "None", "website": "None", "summary": "None", "logo": "None", "latitude": 45.502789852876845, "longitude": -73.57558716772498}, "891327744RR0001": {"name": "JOHN BRIGHT FOUNDATION", "designationCode": "B", "categoryCode": "23", "address": "130 KING STREET WEST, 20TH FL PO BOX 430 STN FIRST CANADIAN", "city": "TORONTO", "province": "ON", "country": "CA", "postalCode": "M5X1K1", "twitter": "None", "instagram": "None", "facebook": "None", "youtube": "None", "website": "None", "summary": "None", "logo": "None", "latitude": 43.64826932503962, "longitude": -79.38190945606182}, "859440638RR0001": {"name": "JOHN C. KERR FAMILY FOUNDATION", "designationCode": "B", "categoryCode": "03", "address": "1320-999 WEST HASTINGS STREET", "city": "VANCOUVER", "province": "BC", "country": "CA", "postalCode": "V6C2W2", "twitter": "None", "instagram": "None", "facebook": "None", "youtube": "None", "website": "None", "summary": "None", "logo": "None", "latitude": 49.28691929811281, "longitude": -123.11643029791125}, "118974872RR0001": {"name": "JOHN CALVIN CHRISTIAN REFORMED CHURCH", "designationCode": "C", "categoryCode": "39", "address": "169 GLENWOOD DR.", "city": "TRURO", "province": "NS", "country": "CA", "postalCode": "B2N5E5", "twitter": "None", "instagram": "None", "facebook": "None", "youtube": "None", "website": "None", "summary": "None", "logo": "None", "latitude": 45.352052469414865, "longitude": -63.283771319464414}, "131970634RR0001": {"name": "JOHN CALVIN CHRISTIAN SCHOOL SOCIETY, GUELPH", "designationCode": "C", "categoryCode": "20", "address": "195 COLLEGE AVE. WEST", "city": "GUELPH", "province": "ON", "country": "CA", "postalCode": "N1G1S6", "twitter": "None", "instagram": "None", "facebook": "None", "youtube": "None", "website": "None", "summary": "None", "logo": "None", "latitude": 43.52361067183695, "longitude": -80.24428984772796}, "107540452RR0001": {"name": "JOHN CALVIN HUNGARIAN PRESBYTERIAN CHURCH", "designationCode": "C", "categoryCode": "37", "address": "121 BIRCH AVENUE", "city": "HAMILTON", "province": "ON", "country": "CA", "postalCode": "L8L6H8", "twitter": "None", "instagram": "None", "facebook": "None", "youtube": "None", "website": "None", "summary": "None", "logo": "None", "latitude": 43.2566267632581, "longitude": -79.84058542841464}, "887437838RR0001": {"name": "JOHN CAMPBELL ARMSTRONG EDUCATIONAL FOUNDATION", "designationCode": "C", "categoryCode": "21", "address": "123 DISCOVERY RIDGE BAY SW", "city": "CALGARY", "province": "AB", "country": "CA", "postalCode": "T3H5T7", "twitter": "None", "instagram": "None", "facebook": "None", "youtube": "None", "website": "None", "summary": "None", "logo": "None", "latitude": 51.0188004676841, "longitude": -114.22581072147848}, "890617574RR0001": {"name": "JOHN CARL MACISAAC FOUNDATION", "designationCode": "B", "categoryCode": "05", "address": "2070 OLD BURWASH ROAD", "city": "SUDBURY", "province": "ON", "country": "CA", "postalCode": "P3E4Z4", "twitter": "None", "instagram": "None", "facebook": "None", "youtube": "None", "website": "None", "summary": "None", "logo": "None"}, "871852661RR0001": {"name": "JOHN CLARENCE INMAN MEMORIAL BURSARY", "designationCode": "B", "categoryCode": "25", "address": "110 YONGE STREET, 12TH FL", "city": "TORONTO", "province": "ON", "country": "CA", "postalCode": "M5C1T4", "twitter": "None", "instagram": "None", "facebook": "None", "youtube": "None", "website": "None", "summary": "None", "logo": "None", "latitude": 43.650145351924564, "longitude": -79.37834446367339}, "858013873RR0001": {"name": "JOHN DEARNESS PUBLIC SCHOOL FOUNDATION", "designationCode": "C", "categoryCode": "21", "address": "555 SANITORIUM ROAD", "city": "LONDON", "province": "ON", "country": "CA", "postalCode": "N6H3W6", "twitter": "None", "instagram": "None", "facebook": "None", "youtube": "None", "website": "None", "summary": "None", "logo": "None", "latitude": 42.96529256148646, "longitude": -81.33108152187121}, "118974914RR0001": {"name": "JOHN DEERE FOUNDATION OF CANADA", "designationCode": "B", "categoryCode": "03", "address": "PO BOX 1000", "city": "GRIMSBY", "province": "ON", "country": "CA", "postalCode": "L3M4H5", "twitter": "None", "instagram": "None", "facebook": "None", "youtube": "None", "website": "None", "summary": "None", "logo": "None", "latitude": 43.199079000000054, "longitude": -79.58552299999994}, "855415840RR0001": {"name": "JOHN FISHER SCHOOL COUNCIL", "designationCode": "C", "categoryCode": "21", "address": "40 ERSKINE AVENUE", "city": "TORONTO", "province": "ON", "country": "CA", "postalCode": "M4P1Y2", "twitter": "None", "instagram": "None", "facebook": "None", "youtube": "None", "website": "None", "summary": "None", "logo": "None", "latitude": 43.7115161912687, "longitude": -79.39726829560263}, "118974963RR0001": {"name": "JOHN GEORGE AND EMILY MACDOUGALL BURSARY TRUST", "designationCode": "B", "categoryCode": "25", "address": "380 WELLINGTON ST, 12TH FLOOR", "city": "LONDON", "province": "ON", "country": "CA", "postalCode": "N6A5B5", "twitter": "None", "instagram": "None", "facebook": "None", "youtube": "None", "website": "None", "summary": "None", "logo": "None", "latitude": 42.98403487844074, "longitude": -81.24475227780037}, "810138743RR0001": {"name": "JOHN GORDON AUTISM FOUNDATION", "designationCode": "B", "categoryCode": "13", "address": "3519 POINT GREY RD", "city": "VANCOUVER", "province": "BC", "country": "CA", "postalCode": "V6R1A7", "twitter": "None", "instagram": "None", "facebook": "None", "youtube": "None", "website": "None", "summary": "None", "logo": "None", "latitude": 49.27203140218694, "longitude": -123.18192766457965}, "863518528RR0001": {"name": "JOHN H PETERS ENDOWMENT FUND TRUST", "designationCode": "A", "categoryCode": "03", "address": "3594 JEANNE MANCE", "city": "MONTREAL", "province": "QC", "country": "CA", "postalCode": "H2X2K3", "twitter": "None", "instagram": "None", "facebook": "None", "youtube": "None", "website": "None", "summary": "None", "logo": "None"}, "118974989RR0001": {"name": "JOHN HARDIE MITCHELL FAMILY FOUNDATION", "designationCode": "B", "categoryCode": "55", "address": "1302 LAWSON PL", "city": "PARKSVILLE", "province": "BC", "country": "CA", "postalCode": "V9P1X4", "twitter": "None", "instagram": "None", "facebook": "None", "youtube": "None", "website": "None", "summary": "None", "logo": "None", "latitude": 49.34407257230942, "longitude": -124.38303034903613}, "136831591RR0001": {"name": "JOHN HAYFORD EVANGELISTIC ASSOCIATION", "designationCode": "C", "categoryCode": "49", "address": "PO BOX 11123 STN MAIN", "city": "EDMONTON", "province": "AB", "country": "CA", "postalCode": "T5J3K4", "twitter": "None", "instagram": "None", "facebook": "None", "youtube": "None", "website": "None", "summary": "None", "logo": "None", "latitude": 53.54623500000005, "longitude": -113.49037249999994}, "857755847RR0001": {"name": "JOHN HOWARD SOCIETY (MIRAMICHI) INC.", "designationCode": "C", "categoryCode": "59", "address": "68 CARLETON ST", "city": "SAINT JOHN", "province": "NB", "country": "CA", "postalCode": "E2L2Z4", "twitter": "None", "instagram": "None", "facebook": "None", "youtube": "None", "website": "None", "summary": "None", "logo": "None", "latitude": 45.27576666388715, "longitude": -66.06204869969416}, "107542615RR0001": {"name": "JOHN HOWARD SOCIETY OF DURHAM REGION", "designationCode": "C", "categoryCode": "59", "address": "75 RICHMOND ST W", "city": "OSHAWA", "province": "ON", "country": "CA", "postalCode": "L1G1E3", "twitter": "None", "instagram": "None", "facebook": "None", "youtube": "None", "website": "None", "summary": "None", "logo": "None", "latitude": 43.8986309003406, "longitude": -78.86713501650419}, "119239663RR0001": {"name": "JOHN HOWARD SOCIETY OF KAWARTHA LAKES & HALIBURTON", "designationCode": "C", "categoryCode": "59", "address": "31 PEEL ST", "city": "LINDSAY", "province": "ON", "country": "CA", "postalCode": "K9V3L9", "twitter": "None", "instagram": "None", "facebook": "None", "youtube": "None", "website": "None", "summary": "None", "logo": "None", "latitude": 44.35574485312061, "longitude": -78.73943428125992}, "118975051RR0001": {"name": "JOHN HOWARD SOCIETY OF KINGSTON", "designationCode": "C", "categoryCode": "59", "address": "771 1/2 MONTREAL STREET", "city": "KINGSTON", "province": "ON", "country": "CA", "postalCode": "K7K3J4", "twitter": "None", "instagram": "None", "facebook": "None", "youtube": "None", "website": "None", "summary": "None", "logo": "None", "latitude": 44.25243717315754, "longitude": -76.48522859831554}, "107542706RR0001": {"name": "JOHN HOWARD SOCIETY OF NIAGARA", "designationCode": "C", "categoryCode": "59", "address": "210 KING STREET", "city": "ST. CATHARINES", "province": "ON", "country": "CA", "postalCode": "L2R3J9", "twitter": "None", "instagram": "None", "facebook": "None", "youtube": "None", "website": "None", "summary": "None", "logo": "None", "latitude": 43.16243256535295, "longitude": -79.24244864819102}, "118975101RR0002": {"name": "JOHN HOWARD SOCIETY OF ONTARIO", "designationCode": "C", "categoryCode": "59", "address": "342 QUEEN ST E", "city": "TORONTO", "province": "ON", "country": "CA", "postalCode": "M5A1S8", "twitter": "None", "instagram": "None", "facebook": "None", "youtube": "None", "website": "None", "summary": "None", "logo": "None", "latitude": 43.65555919069179, "longitude": -79.36467867805408}, "118975119RR0001": {"name": "JOHN HOWARD SOCIETY OF OTTAWA-CARLETON", "designationCode": "C", "categoryCode": "59", "address": "550 OLD ST-PATRICK STREET", "city": "OTTAWA", "province": "ON", "country": "CA", "postalCode": "K1N5L5", "twitter": "None", "instagram": "None", "facebook": "None", "youtube": "None", "website": "None", "summary": "None", "logo": "None", "latitude": 45.434995629176676, "longitude": -75.68302131874327}, "131698821RR0001": {"name": "JOHN HOWARD SOCIETY OF PEEL-HALTON-DUFFERIN", "designationCode": "C", "categoryCode": "59", "address": "134 MAIN ST N", "city": "BRAMPTON", "province": "ON", "country": "CA", "postalCode": "L6V1N8", "twitter": "None", "instagram": "None", "facebook": "None", "youtube": "None", "website": "None", "summary": "None", "logo": "None", "latitude": 43.68792822038197, "longitude": -79.76264605493692}, "107542789RR0001": {"name": "JOHN HOWARD SOCIETY OF PETERBOROUGH", "designationCode": "C", "categoryCode": "59", "address": "305 STEWART ST", "city": "PETERBOROUGH", "province": "ON", "country": "CA", "postalCode": "K9J3N2", "twitter": "None", "instagram": "None", "facebook": "None", "youtube": "None", "website": "None", "summary": "None", "logo": "None", "latitude": 44.30269612461771, "longitude": -78.32548219320195}, "107542839RR0001": {"name": "JOHN HOWARD SOCIETY OF SASKATCHEWAN", "designationCode": "C", "categoryCode": "59", "address": "2010 7TH AVE", "city": "REGINA", "province": "SK", "country": "CA", "postalCode": "S4R1C2", "twitter": "None", "instagram": "None", "facebook": "None", "youtube": "None", "website": "None", "summary": "None", "logo": "None", "latitude": 50.458295460470744, "longitude": -104.60978044463039}, "118975135RR0001": {"name": "JOHN HOWARD SOCIETY OF SAULT STE. MARIE AND DISTRICT", "designationCode": "C", "categoryCode": "59", "address": "27 KING ST", "city": "SAULT STE MARIE", "province": "ON", "country": "CA", "postalCode": "P6A6K3", "twitter": "None", "instagram": "None", "facebook": "None", "youtube": "None", "website": "None", "summary": "None", "logo": "None", "latitude": 46.513323597553274, "longitude": -84.33437035304972}, "892615261RR0001": {"name": "JOHN HOWARD SOCIETY OF SUDBURY", "designationCode": "C", "categoryCode": "59", "address": "204 PINE STREET", "city": "SUDBURY", "province": "ON", "country": "CA", "postalCode": "P3C1X5", "twitter": "None", "instagram": "None", "facebook": "None", "youtube": "None", "website": "None", "summary": "None", "logo": "None", "latitude": 46.49403051875456, "longitude": -81.00344275145709}, "131499642RR0001": {"name": "JOHN HOWARD SOCIETY OF THE THOMPSON REGION", "designationCode": "C", "categoryCode": "59", "address": "100 - 529 SEYMOUR ST", "city": "KAMLOOPS", "province": "BC", "country": "CA", "postalCode": "V2C0A1", "twitter": "None", "instagram": "None", "facebook": "None", "youtube": "None", "website": "None", "summary": "None", "logo": "None", "latitude": 50.67490552510254, "longitude": -120.32835113488949}, "107542854RR0001": {"name": "JOHN HOWARD SOCIETY OF THUNDER BAY AND DISTRICT", "designationCode": "C", "categoryCode": "59", "address": "315 SOUTH SYNDICATE AVE", "city": "THUNDER BAY", "province": "ON", "country": "CA", "postalCode": "P7E1E2", "twitter": "None", "instagram": "None", "facebook": "None", "youtube": "None", "website": "None", "summary": "None", "logo": "None", "latitude": 48.38009374854292, "longitude": -89.2478018272547}, "133412114RR0001": {"name": "JOHN HOWARD SOCIETY OF TORONTO", "designationCode": "C", "categoryCode": "59", "address": "1669 EGLINTON AVENUE WEST", "city": "TORONTO", "province": "ON", "country": "CA", "postalCode": "M6E2H5", "twitter": "None", "instagram": "None", "facebook": "None", "youtube": "None", "website": "None", "summary": "None", "logo": "None", "latitude": 43.69660887480537, "longitude": -79.44588651220502}, "107542896RR0001": {"name": "JOHN HOWARD SOCIETY OF WATERLOO - WELLINGTON", "designationCode": "C", "categoryCode": "59", "address": "310 CHARLES ST E", "city": "KITCHENER", "province": "ON", "country": "CA", "postalCode": "N2G2P9", "twitter": "None", "instagram": "None", "facebook": "None", "youtube": "None", "website": "None", "summary": "None", "logo": "None", "latitude": 43.44489889344436, "longitude": -80.48089025893026}, "107542870RR0001": {"name": "JOHN HOWARD SOCIETY OF WINDSOR AND ESSEX COUNTY", "designationCode": "C", "categoryCode": "59", "address": "275 OAK ST", "city": "WINDSOR", "province": "ON", "country": "CA", "postalCode": "N9A5E5", "twitter": "None", "instagram": "None", "facebook": "None", "youtube": "None", "website": "None", "summary": "None", "logo": "None", "latitude": 42.31460938095277, "longitude": -83.05123622522582}, "107542821RR0001": {"name": "JOHN HOWARD SOCIETY SARNIA LAMBTON", "designationCode": "C", "categoryCode": "59", "address": "300 CHRISTINA ST N", "city": "SARNIA", "province": "ON", "country": "CA", "postalCode": "N7T5V5", "twitter": "None", "instagram": "None", "facebook": "None", "youtube": "None", "website": "None", "summary": "None", "logo": "None", "latitude": 42.976576131459055, "longitude": -82.40511315333747}, "868703679RR0001": {"name": "JOHN HUMPHREY CENTRE FOR PEACE AND HUMAN RIGHTS", "designationCode": "C", "categoryCode": "20", "address": "8617 104 STREET               SECOND FLOOR", "city": "EDMONTON", "province": "AB", "country": "CA", "postalCode": "T5E4G6", "twitter": "None", "instagram": "None", "facebook": "None", "youtube": "None", "website": "None", "summary": "None", "logo": "None", "latitude": 53.61325316510249, "longitude": -113.50028647373428}, "108085440RR0001": {"name": "JOHN KNOX CHRISTIAN SCHOOL SOCIETY OF BRAMPTON", "designationCode": "C", "categoryCode": "20", "address": "82 MCLAUGHLIN ROAD SOUTH", "city": "BRAMPTON", "province": "ON", "country": "CA", "postalCode": "L6Y2C7", "twitter": "None", "instagram": "None", "facebook": "None", "youtube": "None", "website": "None", "summary": "None", "logo": "None", "latitude": 43.67151727924267, "longitude": -79.76441410153531}, "131800278RR0001": {"name": "JOHN KNOX CHRISTIAN SCHOOL SOCIETY OF MISSISSAUGA", "designationCode": "C", "categoryCode": "21", "address": "2232 SHERIDAN GARDEN DR", "city": "OAKVILLE", "province": "ON", "country": "CA", "postalCode": "L6J7T1", "twitter": "None", "instagram": "None", "facebook": "None", "youtube": "None", "website": "None", "summary": "None", "logo": "None", "latitude": 43.49025412932091, "longitude": -79.65706177892555}, "108085457RR0001": {"name": "JOHN KNOX CHRISTIAN SCHOOL SOCIETY OF WOODSTOCK", "designationCode": "C", "categoryCode": "20", "address": "PO BOX 1597", "city": "WOODSTOCK", "province": "ON", "country": "CA", "postalCode": "N4S0A8", "twitter": "None", "instagram": "None", "facebook": "None", "youtube": "None", "website": "None", "summary": "None", "logo": "None", "latitude": 43.13010300000006, "longitude": -80.75657149999994}, "107543472RR0001": {"name": "JOHN KNOX CHRISTIAN SCHOOL SOCIETY OF WYOMING", "designationCode": "C", "categoryCode": "20", "address": "BOX 81", "city": "WYOMING", "province": "ON", "country": "CA", "postalCode": "N0N1T0", "twitter": "None", "instagram": "None", "facebook": "None", "youtube": "None", "website": "None", "summary": "None", "logo": "None", "latitude": 42.950270000000046, "longitude": -82.11870999999996}, "133119099RR0001": {"name": "JOHN LAING SINGERS", "designationCode": "C", "categoryCode": "22", "address": "18 ELDORADO CRT", "city": "HAMILTON", "province": "ON", "country": "CA", "postalCode": "L9C2P9", "twitter": "None", "instagram": "None", "facebook": "None", "youtube": "None", "website": "None", "summary": "None", "logo": "None", "latitude": 43.227273121299476, "longitude": -79.8974153457208}, "889987335RR0001": {"name": "JOHN M LUND SCHOLARSHIP FUND", "designationCode": "B", "categoryCode": "21", "address": "333 3RD AVENUE NORTH", "city": "SASKATOON", "province": "SK", "country": "CA", "postalCode": "S7K2M2", "twitter": "None", "instagram": "None", "facebook": "None", "youtube": "None", "website": "None", "summary": "None", "logo": "None", "latitude": 52.13288527061568, "longitude": -106.66002880437387}, "118975242RR0001": {"name": "JOHN M. & BERNICE PARROTT FOUNDATION INC.", "designationCode": "B", "categoryCode": "03", "address": "P.O. BOX 20123", "city": "BELLEVILLE", "province": "ON", "country": "CA", "postalCode": "K8N5V1", "twitter": "None", "instagram": "None", "facebook": "None", "youtube": "None", "website": "None", "summary": "None", "logo": "None", "latitude": 44.16104400000006, "longitude": -77.38183249999993}, "107544132RR0001": {"name": "JOHN M. CUELENAERE PUBLIC LIBRARY", "designationCode": "C", "categoryCode": "50", "address": "125-12 STREET EAST", "city": "PRINCE ALBERT", "province": "SK", "country": "CA", "postalCode": "S6V1B7", "twitter": "None", "instagram": "None", "facebook": "None", "youtube": "None", "website": "None", "summary": "None", "logo": "None", "latitude": 53.202119481245454, "longitude": -105.7503735}, "119222446RR0001": {"name": "JOHN MCGIVNEY CHILDREN'S CENTRE", "designationCode": "C", "categoryCode": "11", "address": "3945 MATCHETTE RD", "city": "WINDSOR", "province": "ON", "country": "CA", "postalCode": "N9C4C2", "twitter": "None", "instagram": "None", "facebook": "None", "youtube": "None", "website": "None", "summary": "None", "logo": "None", "latitude": 42.28315211682743, "longitude": -83.06859869502054}, "889848594RR0001": {"name": "JOHN MCGREGOR SECONDARY SCHOOL BOOSTER CLUB", "designationCode": "A", "categoryCode": "25", "address": "300 CECILE AVENUE", "city": "CHATHAM", "province": "ON", "country": "CA", "postalCode": "N7M2C6", "twitter": "None", "instagram": "None", "facebook": "None", "youtube": "None", "website": "None", "summary": "None", "logo": "None", "latitude": 42.383653399907935, "longitude": -82.17504646817504}, "118975283RR0001": {"name": "JOHN ROSS ROBERTSON COMMUNITY TRUST", "designationCode": "C", "categoryCode": "21", "address": "130 GLENGROVE AVENUE WEST", "city": "TORONTO", "province": "ON", "country": "CA", "postalCode": "M4R1P2", "twitter": "None", "instagram": "None", "facebook": "None", "youtube": "None", "website": "None", "summary": "None", "logo": "None", "latitude": 43.71795517294686, "longitude": -79.4086682729816}, "886276591RR0001": {"name": "JOHN STEWART (HOME) ESTATE FOUNDATION", "designationCode": "B", "categoryCode": "01", "address": "101 - 109 PRINCESS ST", "city": "KINGSTON", "province": "ON", "country": "CA", "postalCode": "K7L1A8", "twitter": "None", "instagram": "None", "facebook": "None", "youtube": "None", "website": "None", "summary": "None", "logo": "None", "latitude": 44.23167532168612, "longitude": -76.48285601664843}, "851132761RR0001": {"name": "JOHN T. MCMILLAN JR. MEMORIAL FOUNDATION INC.", "designationCode": "C", "categoryCode": "13", "address": "P.O. BOX 635", "city": "SAINT JOHN", "province": "NB", "country": "CA", "postalCode": "E2L4A5", "twitter": "None", "instagram": "None", "facebook": "None", "youtube": "None", "website": "None", "summary": "None", "logo": "None", "latitude": 45.27342600000006, "longitude": -66.06407149999993}, "890666340RR0001": {"name": "JOHN W CASANAVE MEMORIAL FOUNDATION", "designationCode": "B", "categoryCode": "03", "address": "BOX 1089", "city": "PORT ALBERNI", "province": "BC", "country": "CA", "postalCode": "V9Y7L9", "twitter": "None", "instagram": "None", "facebook": "None", "youtube": "None", "website": "None", "summary": "None", "logo": "None", "latitude": 49.23443400000005, "longitude": -124.80757099999994}, "857325088RR0001": {"name": "JOHN WILLIAM & HANNAH & ROLAND FRANK WHITTAKER CHARITABLE TRUST NO. 2", "designationCode": "B", "categoryCode": "03", "address": "418-650 WEST GEORGIA STREET   PO BOX 11602", "city": "VANCOUVER", "province": "BC", "country": "CA", "postalCode": "V6B4N9", "twitter": "None", "instagram": "None", "facebook": "None", "youtube": "None", "website": "None", "summary": "None", "logo": "None", "latitude": 49.28012307167682, "longitude": -123.11442679241839}, "889811394RR0001": {"name": "JOHN ZDUNIC CHARITABLE FOUNDATION", "designationCode": "B", "categoryCode": "23", "address": "5135 TOMKEN RD", "city": "MISSISSAUGA", "province": "ON", "country": "CA", "postalCode": "L4W1P1", "twitter": "None", "instagram": "None", "facebook": "None", "youtube": "None", "website": "None", "summary": "None", "logo": "None", "latitude": 43.628831955623305, "longitude": -79.63506947374363}, "890616246RR0001": {"name": "JOHN, ANNIE AND JOHN SEME 11 MEMORIAL SCHOLARSHIP TRUST", "designationCode": "B", "categoryCode": "25", "address": "PO BOX 10085", "city": "VANCOUVER", "province": "BC", "country": "CA", "postalCode": "V7Y1B6", "twitter": "None", "instagram": "None", "facebook": "None", "youtube": "None", "website": "None", "summary": "None", "logo": "None", "latitude": 49.26037200000006, "longitude": -123.11336149999994}, "892350612RR0001": {"name": "JOHNSON GEO CENTRE FOUNDATION INC.", "designationCode": "C", "categoryCode": "50", "address": "138 RENNIES MILL RD", "city": "ST. JOHN'S", "province": "NL", "country": "CA", "postalCode": "A1B2P3", "twitter": "None", "instagram": "None", "facebook": "None", "youtube": "None", "website": "None", "summary": "None", "logo": "None", "latitude": 47.577231511541186, "longitude": -52.71534085928214}, "131373359RR0001": {"name": "JOHNSTON HEIGHTS EVANGELICAL FREE CHURCH", "designationCode": "C", "categoryCode": "39", "address": "9612 152 ST", "city": "SURREY", "province": "BC", "country": "CA", "postalCode": "V3R4G4", "twitter": "None", "instagram": "None", "facebook": "None", "youtube": "None", "website": "None", "summary": "None", "logo": "None", "latitude": 49.17700691035259, "longitude": -122.8009300316234}, "888216868RR0001": {"name": "JOHNSTONE STRAIT KILLER WHALE INTERPRETIVE CENTRE SOCIETY", "designationCode": "C", "categoryCode": "50", "address": "BOX 2-3", "city": "TELEGRAPH COVE", "province": "BC", "country": "CA", "postalCode": "V0N3J0", "twitter": "None", "instagram": "None", "facebook": "None", "youtube": "None", "website": "None", "summary": "None", "logo": "None", "latitude": 50.52576091145425, "longitude": -126.8648541559182}, "118975408RR0001": {"name": "JOHNVILLE CEMETERY ASSOCIATION INCORPORATED", "designationCode": "C", "categoryCode": "59", "address": "19 RUE PINE", "city": "STANSTEAD", "province": "QC", "country": "CA", "postalCode": "J0B3E5", "twitter": "None", "instagram": "None", "facebook": "None", "youtube": "None", "website": "None", "summary": "None", "logo": "None", "latitude": 45.008493137718816, "longitude": -72.14687857046181}, "118975465RR0001": {"name": "JOHNY HEIN MEMORIAL FUND", "designationCode": "C", "categoryCode": "21", "address": "333 3RD AVENUE NORTH", "city": "SASKATOON", "province": "SK", "country": "CA", "postalCode": "S7K2M2", "twitter": "None", "instagram": "None", "facebook": "None", "youtube": "None", "website": "None", "summary": "None", "logo": "None", "latitude": 52.13288527061568, "longitude": -106.66002880437387}, "106926892RR0001": {"name": "JOHREI FELLOWSHIP", "designationCode": "C", "categoryCode": "39", "address": "10380 ODLIN ROAD", "city": "RICHMOND", "province": "BC", "country": "CA", "postalCode": "V6X1E2", "twitter": "None", "instagram": "None", "facebook": "None", "youtube": "None", "website": "None", "summary": "None", "logo": "None", "latitude": 49.181711872977225, "longitude": -123.10868518134423}, "107547317RR0001": {"name": "JOIN THE FAMILY CHRISTIAN MINISTRIES", "designationCode": "C", "categoryCode": "47", "address": "50 GERVAIS DRIVE", "city": "NORTH YORK", "province": "ON", "country": "CA", "postalCode": "M3C1Z3", "twitter": "None", "instagram": "None", "facebook": "None", "youtube": "None", "website": "None", "summary": "None", "logo": "None", "latitude": 43.72524896808814, "longitude": -79.33757831660755}, "865982573RR0001": {"name": "JOINT AID MANAGEMENT - CANADA", "designationCode": "C", "categoryCode": "02", "address": "11613 BRAMALEA ROAD NORTH", "city": "BRAMPTON", "province": "ON", "country": "CA", "postalCode": "L6R0C2", "twitter": "None", "instagram": "None", "facebook": "None", "youtube": "None", "website": "None", "summary": "None", "logo": "None", "latitude": 43.768907315886416, "longitude": -79.77735514871061}, "102708260RR0001": {"name": "JONATHAN DE SOULANGES INC.", "designationCode": "C", "categoryCode": "09", "address": "48 STE-CATHERINE              CASIER POSTAL 1356", "city": "ST POLYCARPE", "province": "QC", "country": "CA", "postalCode": "J0P1X0", "twitter": "None", "instagram": "None", "facebook": "None", "youtube": "None", "website": "None", "summary": "None", "logo": "None", "latitude": 45.300552934791305, "longitude": -74.30667992910715}, "830465522RR0001": {"name": "JONATHAN MOORE MEMORIAL FOUNDATION", "designationCode": "C", "categoryCode": "21", "address": "1623 OSPREY LANE", "city": "ORILLIA", "province": "ON", "country": "CA", "postalCode": "L3V6H2", "twitter": "None", "instagram": "None", "facebook": "None", "youtube": "None", "website": "None", "summary": "None", "logo": "None", "latitude": 44.623520577878864, "longitude": -79.47953497595445}, "118824788RR0001": {"name": "JONES LAKE BAPTIST CHURCH (INDEPENDENT) OF MONCTON", "designationCode": "C", "categoryCode": "31", "address": "110 UPTON STREET", "city": "MONCTON", "province": "NB", "country": "CA", "postalCode": "E1E3A1", "twitter": "None", "instagram": "None", "facebook": "None", "youtube": "None", "website": "None", "summary": "None", "logo": "None", "latitude": 46.080855094639084, "longitude": -64.7999153205896}, "118975507RR0001": {"name": "JONES PACKAGING INC. EMPLOYEES' CHARITABLE TRUST", "designationCode": "B", "categoryCode": "05", "address": "3000 PAGE ST", "city": "LONDON", "province": "ON", "country": "CA", "postalCode": "N5V5H3", "twitter": "None", "instagram": "None", "facebook": "None", "youtube": "None", "website": "None", "summary": "None", "logo": "None", "latitude": 43.01583805571633, "longitude": -81.15938555006083}, "126114271RR0001": {"name": "JONQUIERE-MEDIC INC", "designationCode": "C", "categoryCode": "59", "address": "2354 RUE SAINT-DOMINIQUE      C.P. 781 CSP PL CENTRE VILLE", "city": "JONQUIERE", "province": "QC", "country": "CA", "postalCode": "G7X7W6", "twitter": "None", "instagram": "None", "facebook": "None", "youtube": "None", "website": "None", "summary": "None", "logo": "None", "latitude": 48.41324463448546, "longitude": -71.25410047936953}, "855428942RR0001": {"name": "JOO AN BAPTIST CHURCH OF VANCOUVER", "designationCode": "B", "categoryCode": "31", "address": "6344 SPERLING AVE", "city": "BURNABY", "province": "BC", "country": "CA", "postalCode": "V5E2V4", "twitter": "None", "instagram": "None", "facebook": "None", "youtube": "None", "website": "None", "summary": "None", "logo": "None", "latitude": 49.226435360811365, "longitude": -122.9647103955801}, "828242123RR0001": {"name": "JOONIM'S CHURCH", "designationCode": "C", "categoryCode": "37", "address": "22 BRIDGEPORT ROAD WEST", "city": "WATERLOO", "province": "ON", "country": "CA", "postalCode": "N2L2Y3", "twitter": "None", "instagram": "None", "facebook": "None", "youtube": "None", "website": "None", "summary": "None", "logo": "None", "latitude": 43.467461077442394, "longitude": -80.52469808174155}, "132006339RR0001": {"name": "JORDAN FALLS UNITED BAPTIST CHURCH,", "designationCode": "C", "categoryCode": "31", "address": "79 PINE LANE                  PO BOX 1107", "city": "SHELBURNE", "province": "NS", "country": "CA", "postalCode": "B0T1W0", "twitter": "None", "instagram": "None", "facebook": "None", "youtube": "None", "website": "None", "summary": "None", "logo": "None", "latitude": 43.79791765194554, "longitude": -65.28788104382444}, "879784825RR0001": {"name": "JORDAN LIFECARE CENTRE INC.", "designationCode": "C", "categoryCode": "10", "address": "747 SANATORIUM ROAD", "city": "THE GLADES", "province": "NB", "country": "CA", "postalCode": "E4J1W6", "twitter": "None", "instagram": "None", "facebook": "None", "youtube": "None", "website": "None", "summary": "None", "logo": "None", "latitude": 45.94354274957672, "longitude": -65.07559099631005}, "107548018RR0001": {"name": "JORDAN STATION PASTORAL CHARGE", "designationCode": "C", "categoryCode": "44", "address": "PO BOX 148", "city": "JORDAN STATION", "province": "ON", "country": "CA", "postalCode": "L0R1S0", "twitter": "None", "instagram": "None", "facebook": "None", "youtube": "None", "website": "None", "summary": "None", "logo": "None", "latitude": 43.1561250316656, "longitude": -79.35975663896875}, "889456448RR0001": {"name": "JOSEPH AND WOLF LEBOVIC JEWISH COMMUNITY CAMPUS", "designationCode": "C", "categoryCode": "59", "address": "4600 BATHURST STREET", "city": "TORONTO", "province": "ON", "country": "CA", "postalCode": "M2R3V2", "twitter": "None", "instagram": "None", "facebook": "None", "youtube": "None", "website": "None", "summary": "None", "logo": "None", "latitude": 43.764549213428396, "longitude": -79.4407190577642}, "123646002RR0001": {"name": "JOSEPH D CARRIER ART GALLERY INC", "designationCode": "C", "categoryCode": "50", "address": "901 LAWRENCE AVE WEST", "city": "NORTH YORK", "province": "ON", "country": "CA", "postalCode": "M6A1C3", "twitter": "None", "instagram": "None", "facebook": "None", "youtube": "None", "website": "None", "summary": "None", "logo": "None", "latitude": 43.713601768192426, "longitude": -79.45694700011556}, "891153348RR0001": {"name": "JOSEPH FOUNDATION", "designationCode": "B", "categoryCode": "03", "address": "14210 WHEATLEY AVENUE", "city": "WHITE ROCK", "province": "BC", "country": "CA", "postalCode": "V4B2W5", "twitter": "None", "instagram": "None", "facebook": "None", "youtube": "None", "website": "None", "summary": "None", "logo": "None", "latitude": 49.027358557851116, "longitude": -122.82881194615958}, "892703778RR0001": {"name": "JOSEPH STREET GOSPEL HALL", "designationCode": "C", "categoryCode": "39", "address": "P.O. BOX 329", "city": "CLINTON", "province": "ON", "country": "CA", "postalCode": "N0M1L0", "twitter": "None", "instagram": "None", "facebook": "None", "youtube": "None", "website": "None", "summary": "None", "logo": "None", "latitude": 43.617650000000026, "longitude": -81.53971999999999}, "885451815RR0001": {"name": "JOSEPH'S STOREHOUSE CHRISTIAN MINISTRIES (CALGARY)", "designationCode": "C", "categoryCode": "39", "address": "135 6220 17 AVE SE", "city": "CALGARY", "province": "AB", "country": "CA", "postalCode": "T2A0W6", "twitter": "None", "instagram": "None", "facebook": "None", "youtube": "None", "website": "None", "summary": "None", "logo": "None", "latitude": 51.03799367372291, "longitude": -113.94348180466909}, "118975549RR0001": {"name": "JOSEPHBURG AGRICULTURAL SOCIETY", "designationCode": "C", "categoryCode": "56", "address": "57-54569 RANGE ROAD 215", "city": "FORT SASKATCHEWAN", "province": "AB", "country": "CA", "postalCode": "T8L4B9", "twitter": "None", "instagram": "None", "facebook": "None", "youtube": "None", "website": "None", "summary": "None", "logo": "None", "latitude": 53.715262679735716, "longitude": -113.0695097418501}, "888657061RR0001": {"name": "JOSEPHBURG CHORAL SOCIETY", "designationCode": "C", "categoryCode": "22", "address": "BOX 3513", "city": "FORT SASKATCHEWAN", "province": "AB", "country": "CA", "postalCode": "T8L2T4", "twitter": "None", "instagram": "None", "facebook": "None", "youtube": "None", "website": "None", "summary": "None", "logo": "None", "latitude": 53.71287900000006, "longitude": -113.21417149999994}, "107548711RR0001": {"name": "JOSEPHBURG COMMUNITY CHURCH", "designationCode": "C", "categoryCode": "39", "address": "21380 TOWNSHIP ROAD 550", "city": "FORT SASKATCHEWAN", "province": "AB", "country": "CA", "postalCode": "T8L4B9", "twitter": "None", "instagram": "None", "facebook": "None", "youtube": "None", "website": "None", "summary": "None", "logo": "None", "latitude": 53.71584351154118, "longitude": -113.07410044463039}, "889096467RR0001": {"name": "JOSEPHINE NIXON-GRACE STONE W.M.S. AUXILIARY", "designationCode": "C", "categoryCode": "47", "address": "154 MANITOU DR", "city": "SAULT STE MARIE", "province": "ON", "country": "CA", "postalCode": "P6B5K9", "twitter": "None", "instagram": "None", "facebook": "None", "youtube": "None", "website": "None", "summary": "None", "logo": "None", "latitude": 46.53022625728548, "longitude": -84.27549314152591}, "138721691RR0001": {"name": "JOSEPHS STOREHOUSE CHRISTIAN MINISTRIES", "designationCode": "C", "categoryCode": "39", "address": "21530-103 AVENUE", "city": "EDMONTON", "province": "AB", "country": "CA", "postalCode": "T5S2C4", "twitter": "None", "instagram": "None", "facebook": "None", "youtube": "None", "website": "None", "summary": "None", "logo": "None", "latitude": 53.54399545441124, "longitude": -113.69139334499964}, "885286906RR0001": {"name": "JOSHUA CREEK CHURCH", "designationCode": "C", "categoryCode": "39", "address": "3109 OSBOURNE RD", "city": "MISSISSAUGA", "province": "ON", "country": "CA", "postalCode": "L5L3W4", "twitter": "None", "instagram": "None", "facebook": "None", "youtube": "None", "website": "None", "summary": "None", "logo": "None", "latitude": 43.53712806523736, "longitude": -79.70701058731014}, "119288918RR0311": {"name": "JOSHUA CREEK CONGREGATION OF JEHOVAH'S WITNESSES", "designationCode": "C", "categoryCode": "61", "address": "1570 PINERY CR", "city": "OAKVILLE", "province": "ON", "country": "CA", "postalCode": "L6H7J9", "twitter": "None", "instagram": "None", "facebook": "None", "youtube": "None", "website": "None", "summary": "None", "logo": "None", "latitude": 43.5006870446938, "longitude": -79.69756333443941}, "891243412RR0001": {"name": "JOSHUA GENERATION MINISTRIES", "designationCode": "C", "categoryCode": "39", "address": "451 THE WEST MALL             APT. 1006", "city": "ETOBICOKE", "province": "ON", "country": "CA", "postalCode": "M9C1G1", "twitter": "None", "instagram": "None", "facebook": "None", "youtube": "None", "website": "None", "summary": "None", "logo": "None", "latitude": 43.64662632001269, "longitude": -79.56776279528552}, "888684867RR0001": {"name": "JOSHUA MINISTRIES CANADA", "designationCode": "C", "categoryCode": "49", "address": "4922 223B STREET", "city": "LANGLEY", "province": "BC", "country": "CA", "postalCode": "V2Y0M6", "twitter": "None", "instagram": "None", "facebook": "None", "youtube": "None", "website": "None", "summary": "None", "logo": "None", "latitude": 49.0915039403603, "longitude": -122.60496860868741}, "140103607RR0001": {"name": "JOST HOUSE ENDOWMENT FUND INCORPORATED", "designationCode": "C", "categoryCode": "52", "address": "PO BOX 1741", "city": "SYDNEY", "province": "NS", "country": "CA", "postalCode": "B1P6T7", "twitter": "None", "instagram": "None", "facebook": "None", "youtube": "None", "website": "None", "summary": "None", "logo": "None", "latitude": 46.137372000000056, "longitude": -60.19552249999994}, "886737196RR0001": {"name": "JOST MISSION DAY CARE SOCIETY", "designationCode": "C", "categoryCode": "01", "address": "7 MONT ST", "city": "HALIFAX", "province": "NS", "country": "CA", "postalCode": "B3P1N3", "twitter": "None", "instagram": "None", "facebook": "None", "youtube": "None", "website": "None", "summary": "None", "logo": "None", "latitude": 44.62312213768811, "longitude": -63.6191015205149}, "869675066RR0001": {"name": "JOUJOUTH\u00c8QUE SAINT-MICHEL INC.", "designationCode": "C", "categoryCode": "50", "address": "C.P. 185                      SUCC. ST-MICHEL", "city": "MONTREAL", "province": "QC", "country": "CA", "postalCode": "H2A3L9", "twitter": "None", "instagram": "None", "facebook": "None", "youtube": "None", "website": "None", "summary": "None", "logo": "None", "latitude": 45.557373744886085, "longitude": -73.59418775487934}, "137788956RR0001": {"name": "JOUJOUTHEQUE BASSE-VILLE", "designationCode": "C", "categoryCode": "09", "address": "165 DE CARILLON", "city": "QUEBEC", "province": "QC", "country": "CA", "postalCode": "G1K9E9", "twitter": "None", "instagram": "None", "facebook": "None", "youtube": "None", "website": "None", "summary": "None", "logo": "None", "latitude": 46.81343497752319, "longitude": -71.23847043337764}, "860372853RR0001": {"name": "JOURNALISTS FOR HUMAN RIGHTS (JHR)-JOURNALISTES POUR LES DROITS HUMAINS (JDH)", "designationCode": "C", "categoryCode": "29", "address": "206-147 SPADINA AVE", "city": "TORONTO", "province": "ON", "country": "CA", "postalCode": "M5V2L7", "twitter": "None", "instagram": "None", "facebook": "None", "youtube": "None", "website": "None", "summary": "None", "logo": "None", "latitude": 43.64800778296494, "longitude": -79.395928127359}, "842963167RR0001": {"name": "JOURNEYS LUTHERAN CHURCH OF GRANDE PRAIRIE", "designationCode": "C", "categoryCode": "32", "address": "6117 93 STREET", "city": "GRANDE PRAIRIE", "province": "AB", "country": "CA", "postalCode": "T8W2E7", "twitter": "None", "instagram": "None", "facebook": "None", "youtube": "None", "website": "None", "summary": "None", "logo": "None", "latitude": 55.135591795169944, "longitude": -118.7701940982171}, "107550642RR0001": {"name": "JOUVENCE, BASE DE PLEIN AIR INC.", "designationCode": "C", "categoryCode": "56", "address": "131 CH. DE JOUVENCE", "city": "ORFORD", "province": "QC", "country": "CA", "postalCode": "J1X6R2", "twitter": "None", "instagram": "None", "facebook": "None", "youtube": "None", "website": "None", "summary": "None", "logo": "None", "latitude": 45.39698370463031, "longitude": -72.225788067831}, "118975705RR0001": {"name": "JOY BIBLE CAMP", "designationCode": "C", "categoryCode": "39", "address": "P.O. BOX 1480", "city": "BANCROFT", "province": "ON", "country": "CA", "postalCode": "K0L1C0", "twitter": "None", "instagram": "None", "facebook": "None", "youtube": "None", "website": "None", "summary": "None", "logo": "None", "latitude": 45.03567300000006, "longitude": -77.98000849999994}, "897532594RR0001": {"name": "JOY CITY CHURCH INC.", "designationCode": "C", "categoryCode": "39", "address": "1 MCCOWAN RD", "city": "SCARBOROUGH", "province": "ON", "country": "CA", "postalCode": "M1M3L7", "twitter": "None", "instagram": "None", "facebook": "None", "youtube": "None", "website": "None", "summary": "None", "logo": "None", "latitude": 43.725988602285135, "longitude": -79.23276765759742}, "886494087RR0001": {"name": "JOY FELLOWSHIP", "designationCode": "C", "categoryCode": "39", "address": "9866 157TH ST", "city": "SURREY", "province": "BC", "country": "CA", "postalCode": "V4N2V8", "twitter": "None", "instagram": "None", "facebook": "None", "youtube": "None", "website": "None", "summary": "None", "logo": "None", "latitude": 49.18179440743839, "longitude": -122.7870790316234}, "862387032RR0001": {"name": "JOY MINISTRIES NIAGARA", "designationCode": "C", "categoryCode": "39", "address": "P.O. BOX 29026", "city": "ST. CATHARINES", "province": "ON", "country": "CA", "postalCode": "L2R7P9", "twitter": "None", "instagram": "None", "facebook": "None", "youtube": "None", "website": "None", "summary": "None", "logo": "None", "latitude": 43.15634700000005, "longitude": -79.24869349999993}, "864662721RR0001": {"name": "JOY OF PRAISE MINISTRIES INCORPORATED", "designationCode": "C", "categoryCode": "39", "address": "879 SCARBOROUGH GOLF CLUB ROAD", "city": "SCARBOROUGH", "province": "ON", "country": "CA", "postalCode": "M1G1J6", "twitter": "None", "instagram": "None", "facebook": "None", "youtube": "None", "website": "None", "summary": "None", "logo": "None", "latitude": 43.772136505972625, "longitude": -79.21958027765615}, "862038155RR0001": {"name": "JOY WOMEN & CHILDREN'S MISSION SOCIETY OF CANADA", "designationCode": "C", "categoryCode": "47", "address": "4110 CHESSWOOD DR", "city": "TORONTO", "province": "ON", "country": "CA", "postalCode": "M3J2B9", "twitter": "None", "instagram": "None", "facebook": "None", "youtube": "None", "website": "None", "summary": "None", "logo": "None", "latitude": 43.75853387313195, "longitude": -79.47770737864226}, "119288918RR0241": {"name": "JOYCE CONGREGATION OF JEHOVAH'S WITNESSES, VANCOUVER, BRITISH COLUMBIA", "designationCode": "C", "categoryCode": "61", "address": "7325 NELSON AVENUE", "city": "BURNABY", "province": "BC", "country": "CA", "postalCode": "V5J4C5", "twitter": "None", "instagram": "None", "facebook": "None", "youtube": "None", "website": "None", "summary": "None", "logo": "None", "latitude": 49.21727232361937, "longitude": -122.99404495452679}}