{"823452115RR0001": {"name": "Helping Hands Microfinance Inc.", "designationCode": "B", "categoryCode": "09", "address": "115 MAIN STREET NORTH         PO BOX 190", "city": "GILBERT PLAINS", "province": "MB", "country": "CA", "postalCode": "R0L0X0", "twitter": "None", "instagram": "None", "facebook": "None", "youtube": "None", "website": "None", "summary": "None", "logo": "None", "latitude": 51.230461596698554, "longitude": -101.34938420002021}, "816893564RR0001": {"name": "Helping Hands Society of Cochrane & Area", "designationCode": "C", "categoryCode": "09", "address": "PO BOX 1045 STN MAIN", "city": "COCHRANE", "province": "AB", "country": "CA", "postalCode": "T4C1B1", "twitter": "None", "instagram": "None", "facebook": "None", "youtube": "None", "website": "None", "summary": "None", "logo": "None", "latitude": 51.19089900000006, "longitude": -114.46804249999994}, "853550820RR0001": {"name": "Helping Hands Street Mission", "designationCode": "C", "categoryCode": "09", "address": "349 BARTON STREET EAST", "city": "HAMILTON", "province": "ON", "country": "CA", "postalCode": "L8L2X8", "twitter": "None", "instagram": "None", "facebook": "None", "youtube": "None", "website": "None", "summary": "None", "logo": "None", "latitude": 43.260357037480446, "longitude": -79.85058294809284}, "847107950RR0001": {"name": "Helping Hands Uganda-Canada Aid", "designationCode": "C", "categoryCode": "09", "address": "36 HUNT CLUB DRIVE", "city": "SCARBOROUGH", "province": "ON", "country": "CA", "postalCode": "M1N2X1", "twitter": "None", "instagram": "None", "facebook": "None", "youtube": "None", "website": "None", "summary": "None", "logo": "None", "latitude": 43.68583896419299, "longitude": -79.27843449544102}, "107476442RR0001": {"name": "Helping Hands, Orillia", "designationCode": "C", "categoryCode": "09", "address": "13A - 575 WEST ST S", "city": "ORILLIA", "province": "ON", "country": "CA", "postalCode": "L3V7N6", "twitter": "None", "instagram": "None", "facebook": "None", "youtube": "None", "website": "None", "summary": "None", "logo": "None", "latitude": 44.59459430414551, "longitude": -79.40841327409802}, "803913060RR0001": {"name": "Helping Homeless Cats of Greater Victoria Society", "designationCode": "C", "categoryCode": "54", "address": "1520 SYLVAN PL", "city": "NORTH SAANICH", "province": "BC", "country": "CA", "postalCode": "V8L5L5", "twitter": "None", "instagram": "None", "facebook": "None", "youtube": "None", "website": "None", "summary": "None", "logo": "None", "latitude": 48.69565717294685, "longitude": -123.43585904276057}, "849722954RR0001": {"name": "Helping Homeless Pets", "designationCode": "C", "categoryCode": "54", "address": "736A THE QUEENSWAY            P.O BOX 57062", "city": "ETOBICOKE", "province": "ON", "country": "CA", "postalCode": "M8Y1L5", "twitter": "None", "instagram": "None", "facebook": "None", "youtube": "None", "website": "None", "summary": "None", "logo": "None", "latitude": 43.62649283708662, "longitude": -79.50225709968234}, "839467693RR0001": {"name": "Helping Other Parents Everywhere (HOPE), Inc.", "designationCode": "C", "categoryCode": "11", "address": "1740 KINGSTON ROAD            POST OFFICEBOX 64", "city": "PICKERING", "province": "ON", "country": "CA", "postalCode": "L1V2R2", "twitter": "None", "instagram": "None", "facebook": "None", "youtube": "None", "website": "None", "summary": "None", "logo": "None", "latitude": 43.84908354902163, "longitude": -79.07229019516384}, "812831592RR0001": {"name": "Helping Our People Community Projects", "designationCode": "C", "categoryCode": "21", "address": "30 ZEBRA TRAIL,", "city": "BRAMPTON", "province": "ON", "country": "CA", "postalCode": "L6R2J3", "twitter": "None", "instagram": "None", "facebook": "None", "youtube": "None", "website": "None", "summary": "None", "logo": "None", "latitude": 43.75831958840667, "longitude": -79.7461153859139}, "716171129RR0001": {"name": "Helping Out People Exploited Society", "designationCode": "C", "categoryCode": "09", "address": "118-715 BEAVER LAKE RD", "city": "KELOWNA", "province": "BC", "country": "CA", "postalCode": "V4V1E6", "twitter": "None", "instagram": "None", "facebook": "None", "youtube": "None", "website": "None", "summary": "None", "logo": "None", "latitude": 50.02003010128718, "longitude": -119.3990718316676}, "849875489RR0001": {"name": "Helping Point Canada Society", "designationCode": "C", "categoryCode": "09", "address": "1424 COMMERCIAL DRIVE         PO BOX 21653", "city": "VANCOUVER", "province": "BC", "country": "CA", "postalCode": "V5L3X9", "twitter": "None", "instagram": "None", "facebook": "None", "youtube": "None", "website": "None", "summary": "None", "logo": "None", "latitude": 49.271858533335184, "longitude": -123.06953653292588}, "118955921RR0001": {"name": "HelpAge Canada - Aide aux A\u00een\u00e9s (Canada)", "designationCode": "C", "categoryCode": "09", "address": "205-1300 CARLING AVE", "city": "OTTAWA", "province": "ON", "country": "CA", "postalCode": "K1Z7L2", "twitter": "None", "instagram": "None", "facebook": "None", "youtube": "None", "website": "None", "summary": "None", "logo": "None", "latitude": 45.38599367967019, "longitude": -75.73412858503112}, "804484210RR0001": {"name": "Heme Aqui", "designationCode": "C", "categoryCode": "47", "address": "959 STEELE STREET", "city": "PORT COLBORNE", "province": "ON", "country": "CA", "postalCode": "L3K4Z9", "twitter": "None", "instagram": "None", "facebook": "None", "youtube": "None", "website": "None", "summary": "None", "logo": "None", "latitude": 42.90461932944774, "longitude": -79.26012651788916}, "701542698RR0001": {"name": "Hemisphere Foundation", "designationCode": "B", "categoryCode": "05", "address": "603 - 734 7 AVE SW", "city": "CALGARY", "province": "AB", "country": "CA", "postalCode": "T2P3P8", "twitter": "None", "instagram": "None", "facebook": "None", "youtube": "None", "website": "None", "summary": "None", "logo": "None", "latitude": 51.04693146047075, "longitude": -114.07825911073922}, "809736606RR0001": {"name": "Henderson Early Learning Child Care Centre Inc.", "designationCode": "C", "categoryCode": "01", "address": "1490 HENDERSON HIGHWAY", "city": "WINNIPEG", "province": "MB", "country": "CA", "postalCode": "R2G1N5", "twitter": "None", "instagram": "None", "facebook": "None", "youtube": "None", "website": "None", "summary": "None", "logo": "None", "latitude": 49.946747183766895, "longitude": -97.0852073084419}, "809815889RR0001": {"name": "Henning Emergency Clinic of Kindness Society", "designationCode": "C", "categoryCode": "09", "address": "620 UPPER BENCH RD", "city": "PENTICTON", "province": "BC", "country": "CA", "postalCode": "V2A8V2", "twitter": "None", "instagram": "None", "facebook": "None", "youtube": "None", "website": "None", "summary": "None", "logo": "None", "latitude": 49.51580304662704, "longitude": -119.56462237287215}, "827743253RR0001": {"name": "Henry J. Rempel Foundation", "designationCode": "A", "categoryCode": "03", "address": "107-19789 92A AVE", "city": "LANGLEY", "province": "BC", "country": "CA", "postalCode": "V1M3B3", "twitter": "None", "instagram": "None", "facebook": "None", "youtube": "None", "website": "None", "summary": "None", "logo": "None", "latitude": 49.17086949653755, "longitude": -122.67502102553522}, "843289711RR0001": {"name": "Henry Schroeder Foundation", "designationCode": "B", "categoryCode": "03", "address": "1800 - 510 GEORGIA ST W", "city": "VANCOUVER", "province": "BC", "country": "CA", "postalCode": "V6B0M3", "twitter": "None", "instagram": "None", "facebook": "None", "youtube": "None", "website": "None", "summary": "None", "logo": "None", "latitude": 49.281267759207665, "longitude": -123.11633309804196}, "809524804RR0001": {"name": "Hepatitis C Global Initiatives", "designationCode": "C", "categoryCode": "11", "address": "10180 153 ST                  UNIT 208", "city": "SURREY", "province": "BC", "country": "CA", "postalCode": "V3R0B5", "twitter": "None", "instagram": "None", "facebook": "None", "youtube": "None", "website": "None", "summary": "None", "logo": "None", "latitude": 49.18758244463038, "longitude": -122.79808895501772}, "836860262RR0001": {"name": "Herbert and Maren Mueller Foundation", "designationCode": "B", "categoryCode": "05", "address": "350 7 AVENUE SOUTHWEST        7TH FLOOR", "city": "CALGARY", "province": "AB", "country": "CA", "postalCode": "T2P3N9", "twitter": "None", "instagram": "None", "facebook": "None", "youtube": "None", "website": "None", "summary": "None", "logo": "None", "latitude": 51.046676474897474, "longitude": -114.06982963627445}, "851235861RR0001": {"name": "Herbert Community Youth Ministry Inc.", "designationCode": "B", "categoryCode": "09", "address": "BOX 429                       504 ANNABLE ST.", "city": "HERBERT", "province": "SK", "country": "CA", "postalCode": "S0H2A0", "twitter": "None", "instagram": "None", "facebook": "None", "youtube": "None", "website": "None", "summary": "None", "logo": "None", "latitude": 50.43012914165899, "longitude": -107.22626118076926}, "803198001RR0001": {"name": "Here and Now Community Society", "designationCode": "C", "categoryCode": "56", "address": "14891 26TH AVE", "city": "SURREY", "province": "BC", "country": "CA", "postalCode": "V4P1N6", "twitter": "None", "instagram": "None", "facebook": "None", "youtube": "None", "website": "None", "summary": "None", "logo": "None", "latitude": 49.04967134722136, "longitude": -122.8098073889723}, "808367825RR0001": {"name": "Hereditary Neuropathy Foundation of Canada", "designationCode": "B", "categoryCode": "13", "address": "1066 - 999 W. HASTINGS STREET", "city": "VANCOUVER", "province": "BC", "country": "CA", "postalCode": "V6C2W2", "twitter": "None", "instagram": "None", "facebook": "None", "youtube": "None", "website": "None", "summary": "None", "logo": "None", "latitude": 49.28691929811281, "longitude": -123.11643029791125}, "862647203RR0001": {"name": "Heritage Baptist Church Inc.", "designationCode": "C", "categoryCode": "31", "address": "PO BOX 477", "city": "CRESTON", "province": "NL", "country": "CA", "postalCode": "A0E1K0", "twitter": "None", "instagram": "None", "facebook": "None", "youtube": "None", "website": "None", "summary": "None", "logo": "None", "latitude": 47.14120606624959, "longitude": -55.205410937177106}, "850040775RR0001": {"name": "Heritage Charitable Foundation", "designationCode": "A", "categoryCode": "03", "address": "1250-1500 WEST GEORGIA STREET POST OFFICE BOX 62", "city": "VANCOUVER", "province": "BC", "country": "CA", "postalCode": "V6G2Z6", "twitter": "None", "instagram": "None", "facebook": "None", "youtube": "None", "website": "None", "summary": "None", "logo": "None", "latitude": 49.290187500000016, "longitude": -123.130035}, "805110319RR0001": {"name": "Heritage Christian School Inc.", "designationCode": "C", "categoryCode": "20", "address": "5391 ROUTE 101", "city": "CENTRAL BLISSVILLE", "province": "NB", "country": "CA", "postalCode": "E5L1S7", "twitter": "None", "instagram": "None", "facebook": "None", "youtube": "None", "website": "None", "summary": "None", "logo": "None", "latitude": 45.633861262746805, "longitude": -66.58242217870108}, "101151520RR0001": {"name": "Heritage Community Association Inc.", "designationCode": "C", "categoryCode": "09", "address": "100 1654 11TH AVENUE", "city": "REGINA", "province": "SK", "country": "CA", "postalCode": "S4P0H4", "twitter": "None", "instagram": "None", "facebook": "None", "youtube": "None", "website": "None", "summary": "None", "logo": "None", "latitude": 50.45039650822298, "longitude": -104.60417302553522}, "850325457RR0001": {"name": "Heritage Fellowship Christian Reformed Church", "designationCode": "C", "categoryCode": "39", "address": "7900 MCLAUGHLIN ROAD, S", "city": "BRAMPTON", "province": "ON", "country": "CA", "postalCode": "L6Y5A7", "twitter": "None", "instagram": "None", "facebook": "None", "youtube": "None", "website": "None", "summary": "None", "logo": "None", "latitude": 43.654599767932616, "longitude": -79.74123851171407}, "133889188RR0001": {"name": "Heritage Green Presbyterian Church", "designationCode": "C", "categoryCode": "37", "address": "360 ISAAC BROCK DR", "city": "STONEY CREEK", "province": "ON", "country": "CA", "postalCode": "L8J2R2", "twitter": "None", "instagram": "None", "facebook": "None", "youtube": "None", "website": "None", "summary": "None", "logo": "None", "latitude": 43.19398253121939, "longitude": -79.7887691952221}, "862896586RR0001": {"name": "Heritage Green Retirement Home", "designationCode": "C", "categoryCode": "09", "address": "351 ISAAC BROCK DRIVE", "city": "STONEY CREEK", "province": "ON", "country": "CA", "postalCode": "L8J1Y1", "twitter": "None", "instagram": "None", "facebook": "None", "youtube": "None", "website": "None", "summary": "None", "logo": "None", "latitude": 43.19315974854291, "longitude": -79.788929230393}, "839573730RR0001": {"name": "Heritage Korean Methodist Church", "designationCode": "C", "categoryCode": "39", "address": "310 SHEPPARD AVE WEST B", "city": "TORONTO", "province": "ON", "country": "CA", "postalCode": "M2N2L5", "twitter": "None", "instagram": "None", "facebook": "None", "youtube": "None", "website": "None", "summary": "None", "logo": "None", "latitude": 43.75815213962135, "longitude": -79.4261490133302}, "863917035RR0001": {"name": "Heritage Legacy Society", "designationCode": "A", "categoryCode": "53", "address": "1459 BARCLAY ST", "city": "VANCOUVER", "province": "BC", "country": "CA", "postalCode": "V6G1J6", "twitter": "None", "instagram": "None", "facebook": "None", "youtube": "None", "website": "None", "summary": "None", "logo": "None", "latitude": 49.28714843358832, "longitude": -123.13295523921751}, "803772920RR0001": {"name": "Heritage Lodge Auxiliary Society", "designationCode": "A", "categoryCode": "03", "address": "PO BOX 780", "city": "ELK POINT", "province": "AB", "country": "CA", "postalCode": "T0A1A0", "twitter": "None", "instagram": "None", "facebook": "None", "youtube": "None", "website": "None", "summary": "None", "logo": "None", "latitude": 54.815265, "longitude": -111.92067675}, "893096776RR0001": {"name": "Heritage Ottawa/Patrimoine Ottawa", "designationCode": "C", "categoryCode": "52", "address": "2 DALY AVENUE", "city": "OTTAWA", "province": "ON", "country": "CA", "postalCode": "K1N6E2", "twitter": "None", "instagram": "None", "facebook": "None", "youtube": "None", "website": "None", "summary": "None", "logo": "None", "latitude": 45.42564301552326, "longitude": -75.68902925893026}, "119288918RR1383": {"name": "Heritage Spanish Congregation of Jehovah's Witnesses, Brampton, Ontario", "designationCode": "C", "categoryCode": "61", "address": "90 MCLAUGHLIN RD S", "city": "BRAMPTON", "province": "ON", "country": "CA", "postalCode": "L6Y2C7", "twitter": "None", "instagram": "None", "facebook": "None", "youtube": "None", "website": "None", "summary": "None", "logo": "None", "latitude": 43.672004591007315, "longitude": -79.76500779657255}, "106951668RR0001": {"name": "Heritage United Church", "designationCode": "C", "categoryCode": "44", "address": "BOX 396", "city": "COLBORNE", "province": "ON", "country": "CA", "postalCode": "K0K1S0", "twitter": "None", "instagram": "None", "facebook": "None", "youtube": "None", "website": "None", "summary": "None", "logo": "None", "latitude": 44.47739277748983, "longitude": -77.31137062647974}, "801545351RR0001": {"name": "Heritage Valley Pentecostal Assembly", "designationCode": "C", "categoryCode": "36", "address": "PO BOX 22588 SOUTHBROOK", "city": "EDMONTON", "province": "AB", "country": "CA", "postalCode": "T6W0C3", "twitter": "None", "instagram": "None", "facebook": "None", "youtube": "None", "website": "None", "summary": "None", "logo": "None", "latitude": 53.427426000000054, "longitude": -113.57704249999993}, "803767656RR0001": {"name": "Hermione Presents Interdisciplinary Arts Productions Inc.", "designationCode": "C", "categoryCode": "22", "address": "217 WELLINGTON STREET", "city": "STRATFORD", "province": "ON", "country": "CA", "postalCode": "N5A2L7", "twitter": "None", "instagram": "None", "facebook": "None", "youtube": "None", "website": "None", "summary": "None", "logo": "None", "latitude": 43.36595812516597, "longitude": -80.98600785662774}, "852530658RR0001": {"name": "Hermon United Church Graveyard Cemetery", "designationCode": "C", "categoryCode": "59", "address": "RR 4", "city": "BANCROFT", "province": "ON", "country": "CA", "postalCode": "K0L1C0", "twitter": "None", "instagram": "None", "facebook": "None", "youtube": "None", "website": "None", "summary": "None", "logo": "None", "latitude": 44.40232377275159, "longitude": -78.1827114745639}, "814820551RR0001": {"name": "Hernder Picasso's Foundation", "designationCode": "B", "categoryCode": "03", "address": "1607 8TH AVENUE", "city": "ST.CATHARINES", "province": "ON", "country": "CA", "postalCode": "L2R6P7", "twitter": "None", "instagram": "None", "facebook": "None", "youtube": "None", "website": "None", "summary": "None", "logo": "None", "latitude": 43.1176895929833, "longitude": -79.3019322803943}, "836166785RR0001": {"name": "Heroes For Humanity Foundation", "designationCode": "B", "categoryCode": "03", "address": "37 COLONIAL CRESCENT", "city": "OAKVILLE", "province": "ON", "country": "CA", "postalCode": "L6J4K8", "twitter": "None", "instagram": "None", "facebook": "None", "youtube": "None", "website": "None", "summary": "None", "logo": "None", "latitude": 43.46011668053557, "longitude": -79.64945011099903}, "817027881RR0001": {"name": "Heron Park Community Building Fund", "designationCode": "A", "categoryCode": "03", "address": "2459 CARLSEN AVENUE", "city": "OTTAWA", "province": "ON", "country": "CA", "postalCode": "K1V8G2", "twitter": "None", "instagram": "None", "facebook": "None", "youtube": "None", "website": "None", "summary": "None", "logo": "None", "latitude": 45.37582469248081, "longitude": -75.67533423019239}, "841198583RR0001": {"name": "HeroWork Program Society", "designationCode": "C", "categoryCode": "59", "address": "1075 ALSTON ST", "city": "VICTORIA", "province": "BC", "country": "CA", "postalCode": "V9A3S6", "twitter": "None", "instagram": "None", "facebook": "None", "youtube": "None", "website": "None", "summary": "None", "logo": "None"}, "119288918RR1622": {"name": "Hespeler Sign Language Congregation of Jehovah's Witnesses, Cambridge, Ontario", "designationCode": "C", "categoryCode": "61", "address": "117 CINDY AVENUE", "city": "CAMBRIDGE", "province": "ON", "country": "CA", "postalCode": "N3C3J2", "twitter": "None", "instagram": "None", "facebook": "None", "youtube": "None", "website": "None", "summary": "None", "logo": "None", "latitude": 43.419021707167325, "longitude": -80.31207837884475}, "847108255RR0001": {"name": "Hesson Christian Fellowship", "designationCode": "C", "categoryCode": "45", "address": "4509 LINE 61 RR.1", "city": "MILVERTON", "province": "ON", "country": "CA", "postalCode": "N0K1M0", "twitter": "None", "instagram": "None", "facebook": "None", "youtube": "None", "website": "None", "summary": "None", "logo": "None", "latitude": 43.54964688836674, "longitude": -80.91708066025599}, "713750099RR0001": {"name": "Hewitt Foundation / Fondation Hewitt", "designationCode": "B", "categoryCode": "03", "address": "204 - 455 BOUL FENELON", "city": "DORVAL", "province": "QC", "country": "CA", "postalCode": "H9S5T8", "twitter": "None", "instagram": "None", "facebook": "None", "youtube": "None", "website": "None", "summary": "None", "logo": "None", "latitude": 45.44714884347043, "longitude": -73.75037343874469}, "800608010RR0001": {"name": "Heyday Education Advancement", "designationCode": "C", "categoryCode": "21", "address": "6-3390 MIDLAND AVENUE", "city": "SCARBOROUGH", "province": "ON", "country": "CA", "postalCode": "M1V5K3", "twitter": "None", "instagram": "None", "facebook": "None", "youtube": "None", "website": "None", "summary": "None", "logo": "None", "latitude": 43.81003463751522, "longitude": -79.29017243190576}, "830767083RR0001": {"name": "Heyes Child Care Centre Inc.", "designationCode": "C", "categoryCode": "01", "address": "POST OFFICE BOX 597", "city": "SWAN RIVER", "province": "MB", "country": "CA", "postalCode": "R0L1Z0", "twitter": "None", "instagram": "None", "facebook": "None", "youtube": "None", "website": "None", "summary": "None", "logo": "None", "latitude": 52.11672730414978, "longitude": -101.25989472758229}, "802201517RR0001": {"name": "Hickson Pastoral Charge", "designationCode": "C", "categoryCode": "44", "address": "GENERAL DELIVERY", "city": "HICKSON", "province": "ON", "country": "CA", "postalCode": "N0J1L0", "twitter": "None", "instagram": "None", "facebook": "None", "youtube": "None", "website": "None", "summary": "None", "logo": "None", "latitude": 43.23932700000006, "longitude": -80.80227349999993}, "118934025RR0001": {"name": "Hidden Treasures Ministries (Full Gospel Mission)", "designationCode": "C", "categoryCode": "47", "address": "36-16TH ST. NW", "city": "PORTAGE LA PRAIRIE", "province": "MB", "country": "CA", "postalCode": "R1N2W6", "twitter": "None", "instagram": "None", "facebook": "None", "youtube": "None", "website": "None", "summary": "None", "logo": "None", "latitude": 49.97374276486763, "longitude": -98.31108663213952}, "860426816RR0001": {"name": "Hieu Giang Vietnamese Buddhist Cultural Centre of Ottawa Inc", "designationCode": "C", "categoryCode": "35", "address": "3310 LETRIM ROAD", "city": "OTTAWA", "province": "ON", "country": "CA", "postalCode": "K1T3Z4", "twitter": "None", "instagram": "None", "facebook": "None", "youtube": "None", "website": "None", "summary": "None", "logo": "None", "latitude": 45.33221745374833, "longitude": -75.59653280235466}, "827049388RR0001": {"name": "High Notes Avante Productions Inc.", "designationCode": "C", "categoryCode": "11", "address": "162 KIRK DRIVE", "city": "MARKHAM", "province": "ON", "country": "CA", "postalCode": "L3T3L4", "twitter": "None", "instagram": "None", "facebook": "None", "youtube": "None", "website": "None", "summary": "None", "logo": "None", "latitude": 43.828026767153226, "longitude": -79.41391742879001}, "119288918RR1095": {"name": "High Park Congregation Of Jehovah's Witnesses, Toronto, Ontario", "designationCode": "C", "categoryCode": "61", "address": "144 A MACDONELL AVENUE APT.3", "city": "TORONTO", "province": "ON", "country": "CA", "postalCode": "M6R2A6", "twitter": "None", "instagram": "None", "facebook": "None", "youtube": "None", "website": "None", "summary": "None", "logo": "None", "latitude": 43.64452871273591, "longitude": -79.43958726951915}, "898936836RR0002": {"name": "High Prairie & District Victims Assistance Society", "designationCode": "C", "categoryCode": "09", "address": "P.O. BOX 1230                 5400, 53 AVENUE", "city": "HIGH PRAIRIE", "province": "AB", "country": "CA", "postalCode": "T0G1E0", "twitter": "None", "instagram": "None", "facebook": "None", "youtube": "None", "website": "None", "summary": "None", "logo": "None", "latitude": 55.43294674719865, "longitude": -116.50841149864175}, "812778645RR0001": {"name": "High River Food for Thought Ltd.", "designationCode": "C", "categoryCode": "21", "address": "1413 MONTROSE TERR SE", "city": "HIGH RIVER", "province": "AB", "country": "CA", "postalCode": "T1V0B4", "twitter": "None", "instagram": "None", "facebook": "None", "youtube": "None", "website": "None", "summary": "None", "logo": "None", "latitude": 50.57007034521835, "longitude": -113.86937127254866}, "818911083RR0001": {"name": "High River Gift of Music Society", "designationCode": "C", "categoryCode": "22", "address": "PO BOX 5520", "city": "HIGH RIVER", "province": "AB", "country": "CA", "postalCode": "T1V1M6", "twitter": "None", "instagram": "None", "facebook": "None", "youtube": "None", "website": "None", "summary": "None", "logo": "None", "latitude": 50.57803500000006, "longitude": -113.85914299999993}, "803980473RR0001": {"name": "High Road Services Society", "designationCode": "C", "categoryCode": "09", "address": "PO BOX 69 - 3439 FULTON AVE", "city": "SMITHERS", "province": "BC", "country": "CA", "postalCode": "V0J2N0", "twitter": "None", "instagram": "None", "facebook": "None", "youtube": "None", "website": "None", "summary": "None", "logo": "None", "latitude": 54.77771981903174, "longitude": -127.15751443187709}, "119288918RR1350": {"name": "Highbury Spanish Congregation of Jehovah's Witnesses, London, Ontario", "designationCode": "C", "categoryCode": "61", "address": "459 SECOND STREET", "city": "LONDON", "province": "ON", "country": "CA", "postalCode": "N5W5S5", "twitter": "None", "instagram": "None", "facebook": "None", "youtube": "None", "website": "None", "summary": "None", "logo": "None", "latitude": 43.00289871929614, "longitude": -81.19094570020702}, "847986908RR0001": {"name": "Higher Ground Wellness Society", "designationCode": "C", "categoryCode": "39", "address": "2606 KINGSWAY AVENUE", "city": "PORT COQUITLAM", "province": "BC", "country": "CA", "postalCode": "V3C1T6", "twitter": "None", "instagram": "None", "facebook": "None", "youtube": "None", "website": "None", "summary": "None", "logo": "None", "latitude": 49.26559869995397, "longitude": -122.78720704786781}, "825509912RR0001": {"name": "Higher Life Christian Centre Inc.", "designationCode": "C", "categoryCode": "39", "address": "607 MAIN ST", "city": "SUSSEX", "province": "NB", "country": "CA", "postalCode": "E4E7H5", "twitter": "None", "instagram": "None", "facebook": "None", "youtube": "None", "website": "None", "summary": "None", "logo": "None", "latitude": 45.72314654616571, "longitude": -65.50833318610415}, "853060010RR0001": {"name": "Highland Community Hall of Barich Society", "designationCode": "C", "categoryCode": "56", "address": "PO BOX 1083", "city": "SMOKY LAKE", "province": "AB", "country": "CA", "postalCode": "T0A3C0", "twitter": "None", "instagram": "None", "facebook": "None", "youtube": "None", "website": "None", "summary": "None", "logo": "None", "latitude": 54.113230000000044, "longitude": -112.47107999999997}, "119288918RR0129": {"name": "Highland Park Congregation of Jehovah's Witnesses, Halifax, Nova Scotia", "designationCode": "C", "categoryCode": "61", "address": "502 - 247 REGENCY PARK DR", "city": "HALIFAX", "province": "NS", "country": "CA", "postalCode": "B3M4G5", "twitter": "None", "instagram": "None", "facebook": "None", "youtube": "None", "website": "None", "summary": "None", "logo": "None", "latitude": 44.65369253341242, "longitude": -63.66367413993846}, "119222198RR0001": {"name": "Highland Shores Children's Aid Society", "designationCode": "C", "categoryCode": "01", "address": "363 DUNDAS STREET WEST", "city": "BELLEVILLE", "province": "ON", "country": "CA", "postalCode": "K8P1B3", "twitter": "None", "instagram": "None", "facebook": "None", "youtube": "None", "website": "None", "summary": "None", "logo": "None", "latitude": 44.14850155920744, "longitude": -77.40368014914331}, "119288918RR1705": {"name": "Highlands Congregation of Jehovah's Witnesses, Lethbridge, Alberta", "designationCode": "C", "categoryCode": "61", "address": "3 DAKOTA RD W", "city": "LETHBRIDGE", "province": "AB", "country": "CA", "postalCode": "T1K5L4", "twitter": "None", "instagram": "None", "facebook": "None", "youtube": "None", "website": "None", "summary": "None", "logo": "None", "latitude": 49.68465998779497, "longitude": -112.88559771746776}, "119288918RR0793": {"name": "Highlands Congregation of Jehovah's Witnesses, Sault Ste. Marie, Ontario", "designationCode": "C", "categoryCode": "61", "address": "742 THIRD LINE EAST", "city": "SAULT STE MARIE", "province": "ON", "country": "CA", "postalCode": "P6A6J8", "twitter": "None", "instagram": "None", "facebook": "None", "youtube": "None", "website": "None", "summary": "None", "logo": "None", "latitude": 46.553174265568735, "longitude": -84.31344343934126}, "119288918RR1683": {"name": "Highlands Krio Congregation of Jehovah's Witnesses, Edmonton, Alberta", "designationCode": "C", "categoryCode": "61", "address": "5004 121 AVE NW", "city": "EDMONTON", "province": "AB", "country": "CA", "postalCode": "T5W1N3", "twitter": "None", "instagram": "None", "facebook": "None", "youtube": "None", "website": "None", "summary": "None", "logo": "None", "latitude": 53.57509147489747, "longitude": -113.4188415}, "822457263RR0001": {"name": "Highlands Opera Theatre", "designationCode": "C", "categoryCode": "22", "address": "PO BOX 1440", "city": "HALIBURTON", "province": "ON", "country": "CA", "postalCode": "K0M1S0", "twitter": "None", "instagram": "None", "facebook": "None", "youtube": "None", "website": "None", "summary": "None", "logo": "None", "latitude": 45.24560095765924, "longitude": -78.57868961447684}, "871857918RR0001": {"name": "Highlands Summer Festival", "designationCode": "C", "categoryCode": "22", "address": "165 MALLARD STREET            P.O. BOX 938", "city": "HALIBURTON", "province": "ON", "country": "CA", "postalCode": "K0M1S0", "twitter": "None", "instagram": "None", "facebook": "None", "youtube": "None", "website": "None", "summary": "None", "logo": "None", "latitude": 45.05137320758195, "longitude": -78.5398024409691}, "838750040RR0001": {"name": "Highway to Healing Support Society", "designationCode": "C", "categoryCode": "11", "address": "BOX 905", "city": "OLIVER", "province": "BC", "country": "CA", "postalCode": "V0H1T0", "twitter": "None", "instagram": "None", "facebook": "None", "youtube": "None", "website": "None", "summary": "None", "logo": "None", "latitude": 49.182600000000036, "longitude": -119.55045999999999}, "893501924RR0001": {"name": "Highway Christian Fellowship", "designationCode": "C", "categoryCode": "36", "address": "10364 MCDONALD PARK ROAD", "city": "SIDNEY", "province": "BC", "country": "CA", "postalCode": "V8L3Z9", "twitter": "None", "instagram": "None", "facebook": "None", "youtube": "None", "website": "None", "summary": "None", "logo": "None", "latitude": 48.664474962808015, "longitude": -123.4168455176867}, "118957489RR0001": {"name": "Highway Pentecostal Church", "designationCode": "C", "categoryCode": "36", "address": "1680 SASKATCHEWAN AVENUE WEST", "city": "PORTAGE LA PRAIRIE", "province": "MB", "country": "CA", "postalCode": "R1N0N7", "twitter": "None", "instagram": "None", "facebook": "None", "youtube": "None", "website": "None", "summary": "None", "logo": "None", "latitude": 49.97216303605686, "longitude": -98.31165358354359}, "119288918RR1313": {"name": "Highwood Congregation of Jehovah's Witnesses, Calgary, Alberta", "designationCode": "C", "categoryCode": "61", "address": "154 PANAMOUNT DR NW", "city": "CALGARY", "province": "AB", "country": "CA", "postalCode": "T3K5L7", "twitter": "None", "instagram": "None", "facebook": "None", "youtube": "None", "website": "None", "summary": "None", "logo": "None", "latitude": 51.15525761004676, "longitude": -114.0715495696521}, "831282512RR0001": {"name": "Hill Pride Legacy Fund", "designationCode": "A", "categoryCode": "03", "address": "3195 THE COLLEGEWAY", "city": "MISSISSAUGA", "province": "ON", "country": "CA", "postalCode": "L5L4Z6", "twitter": "None", "instagram": "None", "facebook": "None", "youtube": "None", "website": "None", "summary": "None", "logo": "None", "latitude": 43.52730526597177, "longitude": -79.69926181172154}, "119288918RR1629": {"name": "Hillcrest Congregation of Jehovah's Witnesses, Surrey, British Columbia", "designationCode": "C", "categoryCode": "61", "address": "10446 157 STREET", "city": "SURREY", "province": "BC", "country": "CA", "postalCode": "V4N2H7", "twitter": "None", "instagram": "None", "facebook": "None", "youtube": "None", "website": "None", "summary": "None", "logo": "None", "latitude": 49.192325832361945, "longitude": -122.78688192226915}, "828505503RR0001": {"name": "Hillhurst (Elementary) Community School Society", "designationCode": "C", "categoryCode": "21", "address": "1418 7TH AVENUE NW", "city": "CALGARY", "province": "AB", "country": "CA", "postalCode": "T2N0Z2", "twitter": "None", "instagram": "None", "facebook": "None", "youtube": "None", "website": "None", "summary": "None", "logo": "None", "latitude": 51.0590025148594, "longitude": -114.0932517485429}, "805142551RR0001": {"name": "Hilliardton Marsh Research and Education Centre", "designationCode": "C", "categoryCode": "52", "address": "PO BOX 2920", "city": "NEW LISKEARD", "province": "ON", "country": "CA", "postalCode": "P0J1P0", "twitter": "None", "instagram": "None", "facebook": "None", "youtube": "None", "website": "None", "summary": "None", "logo": "None", "latitude": 47.50254600000005, "longitude": -79.69562449999994}, "119168912RR0001": {"name": "Hillmar Apartments Incorporated", "designationCode": "C", "categoryCode": "09", "address": "P.O. BOX 2488", "city": "PETERBOROUGH", "province": "ON", "country": "CA", "postalCode": "K9J7Y8", "twitter": "None", "instagram": "None", "facebook": "None", "youtube": "None", "website": "None", "summary": "None", "logo": "None", "latitude": 44.30591700000005, "longitude": -78.31950199999993}, "827295270RR0001": {"name": "Hillmount - Reddick Charitable Foundation", "designationCode": "B", "categoryCode": "03", "address": "2200 - 145 KING ST W", "city": "TORONTO", "province": "ON", "country": "CA", "postalCode": "M5H4G2", "twitter": "None", "instagram": "None", "facebook": "None", "youtube": "None", "website": "None", "summary": "None", "logo": "None", "latitude": 43.64813467004466, "longitude": -79.38254906728791}, "830555629RR0001": {"name": "Hills of Erin Cancer Prevention Foundation", "designationCode": "A", "categoryCode": "11", "address": "PO BOX 23057 RPO SPRINGBANK", "city": "WOODSTOCK", "province": "ON", "country": "CA", "postalCode": "N4T1R9", "twitter": "None", "instagram": "None", "facebook": "None", "youtube": "None", "website": "None", "summary": "None", "logo": "None", "latitude": 43.152854672830244, "longitude": -80.73460318113167}, "836517045RR0001": {"name": "Hillsborough Baptist Church Inc.", "designationCode": "C", "categoryCode": "31", "address": "26 BRAAM CRESCENT", "city": "HILLSBOROUGH", "province": "NB", "country": "CA", "postalCode": "E4H0B7", "twitter": "None", "instagram": "None", "facebook": "None", "youtube": "None", "website": "None", "summary": "None", "logo": "None", "latitude": 45.9295093495965, "longitude": -64.66330420116401}, "852162189RR0001": {"name": "Hillsborough Home and School Association", "designationCode": "C", "categoryCode": "21", "address": "35 SCHOOL LANE", "city": "HILLSBOROUGH", "province": "NB", "country": "CA", "postalCode": "E4H3B8", "twitter": "None", "instagram": "None", "facebook": "None", "youtube": "None", "website": "None", "summary": "None", "logo": "None", "latitude": 45.92845148121078, "longitude": -64.65231071931521}, "805221710RR0001": {"name": "Hillsburn Cemetery Association", "designationCode": "C", "categoryCode": "59", "address": "3742 SHORE ROAD W RR3", "city": "GRANVILLE FERRY", "province": "NS", "country": "CA", "postalCode": "B0S1K0", "twitter": "None", "instagram": "None", "facebook": "None", "youtube": "None", "website": "None", "summary": "None", "logo": "None", "latitude": 44.79853308462708, "longitude": -65.56685787088158}, "823204177RR0001": {"name": "Hillsdale Baptist Church Committee Incorporated", "designationCode": "C", "categoryCode": "43", "address": "1158 ROUTE 710", "city": "CODY'S", "province": "NB", "country": "CA", "postalCode": "E4C1E2", "twitter": "None", "instagram": "None", "facebook": "None", "youtube": "None", "website": "None", "summary": "None", "logo": "None", "latitude": 45.85738651362161, "longitude": -65.87115398365805}, "874702954RR0001": {"name": "Hillside Cemetery Company, of Springhill", "designationCode": "C", "categoryCode": "59", "address": "PO BOX 939", "city": "SPRINGHILL", "province": "NS", "country": "CA", "postalCode": "B0M1X0", "twitter": "None", "instagram": "None", "facebook": "None", "youtube": "None", "website": "None", "summary": "None", "logo": "None", "latitude": 45.65057000000007, "longitude": -64.05729999999994}, "862598109RR0001": {"name": "Hillside Christian Fellowship", "designationCode": "C", "categoryCode": "39", "address": "530 BRADNER RD", "city": "ABBOTSFORD", "province": "BC", "country": "CA", "postalCode": "V4X2J6", "twitter": "None", "instagram": "None", "facebook": "None", "youtube": "None", "website": "None", "summary": "None", "logo": "None", "latitude": 49.01210827007543, "longitude": -122.4264327545598}, "815458195RR0001": {"name": "Hillside Christian Fellowship of Willingdon", "designationCode": "C", "categoryCode": "39", "address": "PO BOX 131", "city": "WILLINGDON", "province": "AB", "country": "CA", "postalCode": "T0B4R0", "twitter": "None", "instagram": "None", "facebook": "None", "youtube": "None", "website": "None", "summary": "None", "logo": "None", "latitude": 53.83346000000006, "longitude": -112.13515999999998}, "841242407RR0001": {"name": "Hillside Church (Blackville) Inc.", "designationCode": "C", "categoryCode": "39", "address": "61 MACLAGGAN DR", "city": "BLACKVILLE", "province": "NB", "country": "CA", "postalCode": "E9B1Y5", "twitter": "None", "instagram": "None", "facebook": "None", "youtube": "None", "website": "None", "summary": "None", "logo": "None", "latitude": 46.73681252120739, "longitude": -65.84508149847078}, "130527757RR0001": {"name": "Hillside Church of London", "designationCode": "C", "categoryCode": "31", "address": "8 KINGSFORD CRES", "city": "LONDON", "province": "ON", "country": "CA", "postalCode": "N6C4E3", "twitter": "None", "instagram": "None", "facebook": "None", "youtube": "None", "website": "None", "summary": "None", "logo": "None", "latitude": 42.958361640025366, "longitude": -81.23846752314063}, "118805027RR0001": {"name": "Hillside Community Church of 100 Mile", "designationCode": "C", "categoryCode": "36", "address": "BOX 670", "city": "100 MILE HOUSE", "province": "BC", "country": "CA", "postalCode": "V0K2E0", "twitter": "None", "instagram": "None", "facebook": "None", "youtube": "None", "website": "None", "summary": "None", "logo": "None", "latitude": 51.62931000000003, "longitude": -121.30063999999999}, "129493292RR0001": {"name": "Hillside Community Festival of Guelph", "designationCode": "C", "categoryCode": "22", "address": "341 WOOLWICH STREET", "city": "GUELPH", "province": "ON", "country": "CA", "postalCode": "N1H3W4", "twitter": "None", "instagram": "None", "facebook": "None", "youtube": "None", "website": "None", "summary": "None", "logo": "None", "latitude": 43.55125129698763, "longitude": -80.25834426253694}, "730222528RR0001": {"name": "Hillspring Church", "designationCode": "C", "categoryCode": "36", "address": "137 SKINNER RD", "city": "WATERDOWN", "province": "ON", "country": "CA", "postalCode": "L8B0R4", "twitter": "None", "instagram": "None", "facebook": "None", "youtube": "None", "website": "None", "summary": "None", "logo": "None", "latitude": 43.33889602443872, "longitude": -79.87890320151183}, "822649661RR0001": {"name": "Hilton College Foundation of Canada", "designationCode": "C", "categoryCode": "25", "address": "1000 - 120 ADELAIDE ST W", "city": "TORONTO", "province": "ON", "country": "CA", "postalCode": "M5H3V1", "twitter": "None", "instagram": "None", "facebook": "None", "youtube": "None", "website": "None", "summary": "None", "logo": "None", "latitude": 43.649477136880044, "longitude": -79.38292947726339}, "816206429RR0001": {"name": "Himalayan Life Canada", "designationCode": "C", "categoryCode": "09", "address": "400-221 WEST ESPLANADE", "city": "NORTH VANCOUVER", "province": "BC", "country": "CA", "postalCode": "V7M3J3", "twitter": "None", "instagram": "None", "facebook": "None", "youtube": "None", "website": "None", "summary": "None", "logo": "None", "latitude": 49.312626508713905, "longitude": -123.08325259411949}, "842984403RR0001": {"name": "Hinchinbrook Farm Society", "designationCode": "C", "categoryCode": "56", "address": "POST OFFICE BOX 6", "city": "BLOCKHOUSE", "province": "NS", "country": "CA", "postalCode": "B0J1E0", "twitter": "None", "instagram": "None", "facebook": "None", "youtube": "None", "website": "None", "summary": "None", "logo": "None", "latitude": 44.44772000000006, "longitude": -64.41331999999994}, "119288918RR1551": {"name": "Hindi Congregation of Jehovah's Witnesses, Edmonton, Alberta", "designationCode": "C", "categoryCode": "61", "address": "2810 48TH STREET NORTHWEST", "city": "EDMONTON", "province": "AB", "country": "CA", "postalCode": "T6L5T7", "twitter": "None", "instagram": "None", "facebook": "None", "youtube": "None", "website": "None", "summary": "None", "logo": "None", "latitude": 53.45974945628714, "longitude": -113.41695945951845}, "119288918RR1499": {"name": "Hindi Congregation of Jehovah's Witnesses, Montreal, Quebec", "designationCode": "C", "categoryCode": "61", "address": "6940 AVENUE STUART", "city": "MONTR\u00c9AL", "province": "QC", "country": "CA", "postalCode": "H3N2R1", "twitter": "None", "instagram": "None", "facebook": "None", "youtube": "None", "website": "None", "summary": "None", "logo": "None", "latitude": 45.524582079087175, "longitude": -73.62316074369546}, "840160410RR0001": {"name": "Hindi Pracharni Sabha", "designationCode": "C", "categoryCode": "22", "address": "326 SHEPPARD AVENUE EAST      SUITE 200", "city": "TORONTO", "province": "ON", "country": "CA", "postalCode": "M2N3B4", "twitter": "None", "instagram": "None", "facebook": "None", "youtube": "None", "website": "None", "summary": "None", "logo": "None", "latitude": 43.76488413962135, "longitude": -79.39580897394518}, "816666754RR0001": {"name": "Hindi Writers Guild", "designationCode": "C", "categoryCode": "21", "address": "3577 NABLUS GATE", "city": "MISSISSAUGA", "province": "ON", "country": "CA", "postalCode": "L5B3J9", "twitter": "None", "instagram": "None", "facebook": "None", "youtube": "None", "website": "None", "summary": "None", "logo": "None", "latitude": 43.585359348058084, "longitude": -79.63920645571022}, "839106572RR0001": {"name": "Hindol Mission Church", "designationCode": "C", "categoryCode": "39", "address": "1106 - 7351 HALIFAX ST", "city": "BURNABY", "province": "BC", "country": "CA", "postalCode": "V5A4H2", "twitter": "None", "instagram": "None", "facebook": "None", "youtube": "None", "website": "None", "summary": "None", "logo": "None", "latitude": 49.26795643219422, "longitude": -122.94856906396795}, "821800323RR0001": {"name": "Hindu Buddhist Foundation of Canada (HBFC)", "designationCode": "C", "categoryCode": "48", "address": "645 27TH AVE E", "city": "VANCOUVER", "province": "BC", "country": "CA", "postalCode": "V5V2K7", "twitter": "None", "instagram": "None", "facebook": "None", "youtube": "None", "website": "None", "summary": "None", "logo": "None", "latitude": 49.24670046768411, "longitude": -123.09135291618097}}