{"129884185RR0001": {"name": "CENTRE MISSIONNAIRE DES AUXILIAIRES FRANCISCAINES", "designationCode": "C", "categoryCode": "46", "address": "SUITE 300                     4041, BOULEVARD P\u00c8RE LELI\u00c8VRE", "city": "QU\u00c9BEC", "province": "QC", "country": "CA", "postalCode": "G1P4P6", "twitter": "None", "instagram": "None", "facebook": "None", "youtube": "None", "website": "None", "summary": "None", "logo": "None", "latitude": 46.80975700692492, "longitude": -71.32029481943576}, "118847862RR0001": {"name": "CENTRE MISSIONNAIRE DES FRANCISCAINES MISSIONNAIRES DE MARIE", "designationCode": "C", "categoryCode": "47", "address": "80 RUE LAURIER-EST", "city": "MONTREAL", "province": "QC", "country": "CA", "postalCode": "H2T1E6", "twitter": "None", "instagram": "None", "facebook": "None", "youtube": "None", "website": "None", "summary": "None", "logo": "None", "latitude": 45.52402440354327, "longitude": -73.59190679014962}, "118847888RR0001": {"name": "CENTRE MISSIONNAIRE OBLAT", "designationCode": "C", "categoryCode": "47", "address": "1215 RUE DE LA VISITATION", "city": "MONTR\u00c9AL", "province": "QC", "country": "CA", "postalCode": "H2L3B5", "twitter": "None", "instagram": "None", "facebook": "None", "youtube": "None", "website": "None", "summary": "None", "logo": "None", "latitude": 45.518444338074744, "longitude": -73.55349285149187}, "858194285RR0001": {"name": "CENTRE MISSIONNAIRE PUISSANT LIBERATEUR", "designationCode": "C", "categoryCode": "39", "address": "28, CARRE DUBOIS", "city": "BOISBRIAND", "province": "QC", "country": "CA", "postalCode": "J7G1S6", "twitter": "None", "instagram": "None", "facebook": "None", "youtube": "None", "website": "None", "summary": "None", "logo": "None", "latitude": 45.61580970220433, "longitude": -73.81532974952384}, "118926906RR0001": {"name": "CENTRE MOL\u00c9", "designationCode": "C", "categoryCode": "09", "address": "1260, 90IEME RUE C.P.425", "city": "SAINT-GEORGES", "province": "QC", "country": "CA", "postalCode": "G5Y5C9", "twitter": "None", "instagram": "None", "facebook": "None", "youtube": "None", "website": "None", "summary": "None", "logo": "None", "latitude": 46.13824750417466, "longitude": -70.68472375830268}, "892337106RR0001": {"name": "CENTRE MONSEIGNEUR FORGET", "designationCode": "C", "categoryCode": "56", "address": "740 BOUL SAINTE-FOY", "city": "LONGUEUIL", "province": "QC", "country": "CA", "postalCode": "J4J1Z3", "twitter": "None", "instagram": "None", "facebook": "None", "youtube": "None", "website": "None", "summary": "None", "logo": "None", "latitude": 45.52391010794063, "longitude": -73.49585410600737}, "104801261RR0001": {"name": "CENTRE MULTI-RESSOURCES DE LACHINE", "designationCode": "C", "categoryCode": "09", "address": "800 RUE SHERBROOKE            UNITE 206", "city": "LACHINE", "province": "QC", "country": "CA", "postalCode": "H8S1H2", "twitter": "None", "instagram": "None", "facebook": "None", "youtube": "None", "website": "None", "summary": "None", "logo": "None", "latitude": 45.444989460470744, "longitude": -73.67116461226844}, "144647427RR0001": {"name": "CENTRE MULTI-SERVICES DE SAINT-CYPRIEN", "designationCode": "C", "categoryCode": "09", "address": "119 RUE CLAUDE", "city": "SAINT-CYPRIEN", "province": "QC", "country": "CA", "postalCode": "G0L2P0", "twitter": "None", "instagram": "None", "facebook": "None", "youtube": "None", "website": "None", "summary": "None", "logo": "None", "latitude": 47.894159100735756, "longitude": -69.01641959996127}, "889901021RR0001": {"name": "CENTRE MULTI-SERVICES 16-30 ANS LA SOURCE", "designationCode": "C", "categoryCode": "09", "address": "6350 3E AVENUE EST", "city": "QUEBEC", "province": "QC", "country": "CA", "postalCode": "G1H3K8", "twitter": "None", "instagram": "None", "facebook": "None", "youtube": "None", "website": "None", "summary": "None", "logo": "None", "latitude": 46.854915871515836, "longitude": -71.25583583230461}, "132199738RR0001": {"name": "CENTRE MULTIETHNIQUE DE QUEBEC INC", "designationCode": "C", "categoryCode": "09", "address": "200 RUE DORCHESTER", "city": "QUEBEC", "province": "QC", "country": "CA", "postalCode": "G1K5Z1", "twitter": "None", "instagram": "None", "facebook": "None", "youtube": "None", "website": "None", "summary": "None", "logo": "None", "latitude": 46.81579530610556, "longitude": -71.22903665119118}, "100893528RR0001": {"name": "CENTRE MUNICIPAL ST-ISIDORE INC.", "designationCode": "C", "categoryCode": "56", "address": "130 ROUTE COULOMBE", "city": "ST-ISIDORE", "province": "QC", "country": "CA", "postalCode": "G0S2S0", "twitter": "None", "instagram": "None", "facebook": "None", "youtube": "None", "website": "None", "summary": "None", "logo": "None", "latitude": 46.585830764874224, "longitude": -71.0852290653816}, "129441531RR0001": {"name": "CENTRE MUSICAL EN SOL MINEUR INC", "designationCode": "C", "categoryCode": "22", "address": "14, RUE MURDOCH", "city": "ROUYN-NORANDA", "province": "QC", "country": "CA", "postalCode": "J9X1C3", "twitter": "None", "instagram": "None", "facebook": "None", "youtube": "None", "website": "None", "summary": "None", "logo": "None", "latitude": 48.24623858612765, "longitude": -79.0101407628254}, "100892272RR0001": {"name": "CENTRE MUSICAL JEAN-CHARLES LOISELLE INC.", "designationCode": "C", "categoryCode": "20", "address": "133-550 4E AVENUE", "city": "MALARTIC", "province": "QC", "country": "CA", "postalCode": "J0Y1Z0", "twitter": "None", "instagram": "None", "facebook": "None", "youtube": "None", "website": "None", "summary": "None", "logo": "None", "latitude": 48.140910754371276, "longitude": -78.12246283706514}, "890517451RR0001": {"name": "CENTRE NELLIGAN (PARENTS, AMIS ET AMIES DE LA SANTE MENTALE INC )", "designationCode": "C", "categoryCode": "09", "address": "102 - 711 BOUL SAINT-JOSEPH", "city": "ROBERVAL", "province": "QC", "country": "CA", "postalCode": "G8H2L3", "twitter": "None", "instagram": "None", "facebook": "None", "youtube": "None", "website": "None", "summary": "None", "logo": "None", "latitude": 48.51490251734093, "longitude": -72.22081288986634}, "883527400RR0001": {"name": "CENTRE NEOCATECHUMENAL DE QUEBEC", "designationCode": "C", "categoryCode": "49", "address": "1091, DE PLOERMEL", "city": "QUEBEC", "province": "QC", "country": "CA", "postalCode": "G1S3S1", "twitter": "None", "instagram": "None", "facebook": "None", "youtube": "None", "website": "None", "summary": "None", "logo": "None", "latitude": 46.7909714501703, "longitude": -71.24701172941298}, "888125747RR0001": {"name": "CENTRE NORMAND LEVEILLE INC", "designationCode": "C", "categoryCode": "56", "address": "C.P. 306                      SUCC BUREAU-CHEF", "city": "DRUMMONDVILLE", "province": "QC", "country": "CA", "postalCode": "J2B6W3", "twitter": "None", "instagram": "None", "facebook": "None", "youtube": "None", "website": "None", "summary": "None", "logo": "None", "latitude": 45.88082700000005, "longitude": -72.48417199999993}, "119009876RR0001": {"name": "CENTRE NOTRE-DAME DE FATIMA", "designationCode": "C", "categoryCode": "01", "address": "2464, BOUL. PERROT            R.R. 6", "city": "NOTRE-DAME-DE-L'ILE-PERROT", "province": "QC", "country": "CA", "postalCode": "J7V8P4", "twitter": "None", "instagram": "None", "facebook": "None", "youtube": "None", "website": "None", "summary": "None", "logo": "None"}, "856207733RR0001": {"name": "CENTRE NOUVEAU REGARD", "designationCode": "C", "categoryCode": "57", "address": "4921 RANG STE-ROSE", "city": "NOTRE-DAME DE LOURDES", "province": "QC", "country": "CA", "postalCode": "J0K1K0", "twitter": "None", "instagram": "None", "facebook": "None", "youtube": "None", "website": "None", "summary": "None", "logo": "None", "latitude": 46.0834264773503, "longitude": -73.46422294463038}, "106901663RR0001": {"name": "CENTRE NOUVELLE VIE", "designationCode": "C", "categoryCode": "36", "address": "36 AMYOT", "city": "RIVIERE-DU-LOUP", "province": "QC", "country": "CA", "postalCode": "G5R3E9", "twitter": "None", "instagram": "None", "facebook": "None", "youtube": "None", "website": "None", "summary": "None", "logo": "None", "latitude": 47.83352757340304, "longitude": -69.53830697045406}, "893492124RR0001": {"name": "CENTRE NOUVELLE VIE", "designationCode": "C", "categoryCode": "36", "address": "23 RUE GRACE", "city": "SHEDIAC CAPE", "province": "NB", "country": "CA", "postalCode": "E4P3B7", "twitter": "None", "instagram": "None", "facebook": "None", "youtube": "None", "website": "None", "summary": "None", "logo": "None", "latitude": 46.230143421315766, "longitude": -64.57131264884664}, "880507363RR0001": {"name": "CENTRE NOUVELLE VIE (PAVILLON LANAUDI\u00c8RE)", "designationCode": "C", "categoryCode": "57", "address": "10 CH DU LAC-DE-LA-VOLIERE", "city": "SAINT-JEAN-DE-MATHA", "province": "QC", "country": "CA", "postalCode": "J0K2S0", "twitter": "None", "instagram": "None", "facebook": "None", "youtube": "None", "website": "None", "summary": "None", "logo": "None", "latitude": 46.27526761613494, "longitude": -73.56213625451551}, "855919544RR0001": {"name": "CENTRE OF ETHIOPIAN PROFESSIONALS FOR EMPLOYMENT AND SKILLS DEVELOPMENT", "designationCode": "C", "categoryCode": "09", "address": "20 BLOOR STREET EAST          PO BOX 75103", "city": "TORONTO", "province": "ON", "country": "CA", "postalCode": "M4W3T3", "twitter": "None", "instagram": "None", "facebook": "None", "youtube": "None", "website": "None", "summary": "None", "logo": "None", "latitude": 43.67057216515657, "longitude": -79.38530612268445}, "133478602RR0001": {"name": "CENTRE OF FORMATION EN ENTREPRISE ET RECUPERATION CFER OUTAOUAIS", "designationCode": "C", "categoryCode": "01", "address": "444 RUE ST-RENE EST", "city": "GATINEAU", "province": "QC", "country": "CA", "postalCode": "J8P8A9", "twitter": "None", "instagram": "None", "facebook": "None", "youtube": "None", "website": "None", "summary": "None", "logo": "None", "latitude": 45.49315753895234, "longitude": -75.6392086419586}, "858604101RR0001": {"name": "CENTRE OF HOPE VICTORY CHURCH", "designationCode": "C", "categoryCode": "39", "address": "146 MAHOOD JOHNSTON DRIVE", "city": "KINCARDINE", "province": "ON", "country": "CA", "postalCode": "N2Z3A5", "twitter": "None", "instagram": "None", "facebook": "None", "youtube": "None", "website": "None", "summary": "None", "logo": "None", "latitude": 44.16207855795476, "longitude": -81.64997967980325}, "130652340RR0001": {"name": "CENTRE OZANAM DE LA SOCIETE DE ST-VINCENT DE PAUL INC.", "designationCode": "C", "categoryCode": "09", "address": "860 RUE DU ROI", "city": "QUEBEC", "province": "QC", "country": "CA", "postalCode": "G1K2Y2", "twitter": "None", "instagram": "None", "facebook": "None", "youtube": "None", "website": "None", "summary": "None", "logo": "None", "latitude": 46.817086797131864, "longitude": -71.2183989908534}, "136809100RR0001": {"name": "CENTRE P.R.I.S.M.E. PROMOTION,REFERENCE, INFORMATION ET SERVICES MULTI-ETHNIQUES", "designationCode": "C", "categoryCode": "09", "address": "414, AVENUE LAFLEUR           BUREAU 1-10", "city": "LASALLE", "province": "QC", "country": "CA", "postalCode": "H8R3H6", "twitter": "None", "instagram": "None", "facebook": "None", "youtube": "None", "website": "None", "summary": "None", "logo": "None", "latitude": 45.43210997864839, "longitude": -73.64661534494138}, "874553704RR0001": {"name": "CENTRE PARAMITA DE BOUDDHISME TIB\u00c9TAIN DU QU\u00c9BEC", "designationCode": "C", "categoryCode": "35", "address": "1156 LOUIS-ARMAND DESJARDINS", "city": "CAP ROUGE", "province": "QC", "country": "CA", "postalCode": "G1Y2B3", "twitter": "None", "instagram": "None", "facebook": "None", "youtube": "None", "website": "None", "summary": "None", "logo": "None", "latitude": 46.75552130945243, "longitude": -71.35281007703836}, "861864429RR0001": {"name": "CENTRE PARCOURS-MISSION", "designationCode": "C", "categoryCode": "49", "address": "1900, RUE GIROUARD OUEST      C.P. 190", "city": "ST-HYACINTHE", "province": "QC", "country": "CA", "postalCode": "J2S7B4", "twitter": "None", "instagram": "None", "facebook": "None", "youtube": "None", "website": "None", "summary": "None", "logo": "None", "latitude": 45.62391797590707, "longitude": -72.94864985033708}, "107977118RR0001": {"name": "CENTRE PARK BAPTIST CHURCH OF SHERWOOD PARK", "designationCode": "C", "categoryCode": "31", "address": "52 PEACOCK DR", "city": "SHERWOOD PARK", "province": "AB", "country": "CA", "postalCode": "T8A3N6", "twitter": "None", "instagram": "None", "facebook": "None", "youtube": "None", "website": "None", "summary": "None", "logo": "None", "latitude": 53.528073213976654, "longitude": -113.28857480047873}, "136968930RR0001": {"name": "CENTRE PASSAGE PARALLELE DES RESSOURCES FAMILIALES DU NIPISSING INC.", "designationCode": "C", "categoryCode": "09", "address": "A 124 RUE KING EST", "city": "NORTH BAY", "province": "ON", "country": "CA", "postalCode": "P1B1P2", "twitter": "None", "instagram": "None", "facebook": "None", "youtube": "None", "website": "None", "summary": "None", "logo": "None", "latitude": 46.31274059700501, "longitude": -79.45490358889761}, "814327946RR0001": {"name": "CENTRE PASSERELLE POUR FEMMES DU NORD DE L'ONTARIO", "designationCode": "C", "categoryCode": "09", "address": "C.P. 849", "city": "TIMMINS", "province": "ON", "country": "CA", "postalCode": "P4N7G7", "twitter": "None", "instagram": "None", "facebook": "None", "youtube": "None", "website": "None", "summary": "None", "logo": "None", "latitude": 48.47611200000006, "longitude": -81.32891299999993}, "101027613RR0001": {"name": "CENTRE PAULINE-CHARRON", "designationCode": "C", "categoryCode": "56", "address": "164 RUE JEANNE MANCE", "city": "VANIER", "province": "ON", "country": "CA", "postalCode": "K1L6M3", "twitter": "None", "instagram": "None", "facebook": "None", "youtube": "None", "website": "None", "summary": "None", "logo": "None", "latitude": 45.4330905212074, "longitude": -75.66291099555659}, "851999177RR0001": {"name": "CENTRE PAUSE PARENTS-ENFANTS", "designationCode": "C", "categoryCode": "01", "address": "3550 RUE WELLINGTON", "city": "VERDUN", "province": "QC", "country": "CA", "postalCode": "H4G1T3", "twitter": "None", "instagram": "None", "facebook": "None", "youtube": "None", "website": "None", "summary": "None", "logo": "None", "latitude": 45.468226584704546, "longitude": -73.5660148890294}, "895896728RR0001": {"name": "CENTRE PERINATAL ENTRE DEUX VAGUES", "designationCode": "C", "categoryCode": "09", "address": "125  BOUL RENE LEPAGE EST     BUREAU 312", "city": "RIMOUSKI", "province": "QC", "country": "CA", "postalCode": "G5L1N2", "twitter": "None", "instagram": "None", "facebook": "None", "youtube": "None", "website": "None", "summary": "None", "logo": "None", "latitude": 48.45540027391913, "longitude": -68.52425624013081}, "132357443RR0001": {"name": "CENTRE PERINATAL LE BERCEAU", "designationCode": "C", "categoryCode": "11", "address": "733, RUE LAURIER", "city": "BELOEIL", "province": "QC", "country": "CA", "postalCode": "J3G4J7", "twitter": "None", "instagram": "None", "facebook": "None", "youtube": "None", "website": "None", "summary": "None", "logo": "None", "latitude": 45.565576711899176, "longitude": -73.20419501982241}, "127634798RR0001": {"name": "CENTRE PETITE ENFANCE BELLE BULLE", "designationCode": "C", "categoryCode": "01", "address": "200 DESALABERRY", "city": "JOLIETTE", "province": "QC", "country": "CA", "postalCode": "J6E4G1", "twitter": "None", "instagram": "None", "facebook": "None", "youtube": "None", "website": "None", "summary": "None", "logo": "None", "latitude": 46.01837400000005, "longitude": -73.43301499999993}, "135700680RR0001": {"name": "CENTRE PIVOT DU TRIANGLE MAGIQUE DE RAYSIDE-BALFOUR", "designationCode": "C", "categoryCode": "09", "address": "4120 ELMVIEW DR", "city": "HANMER", "province": "ON", "country": "CA", "postalCode": "P3P1R9", "twitter": "None", "instagram": "None", "facebook": "None", "youtube": "None", "website": "None", "summary": "None", "logo": "None", "latitude": 46.640772742292064, "longitude": -80.98705774980434}, "139790380RR0001": {"name": "CENTRE PLEIN VIE INC.", "designationCode": "C", "categoryCode": "09", "address": "1228 DES ECOLES", "city": "NORMANDIN", "province": "QC", "country": "CA", "postalCode": "G8M3Z7", "twitter": "None", "instagram": "None", "facebook": "None", "youtube": "None", "website": "None", "summary": "None", "logo": "None", "latitude": 48.836610166541554, "longitude": -72.52708683210213}, "892386160RR0001": {"name": "CENTRE POLYVALENT DES A\u00ceN\u00c9S ET A\u00ceN\u00c9ES DE RIMOUSKI", "designationCode": "C", "categoryCode": "09", "address": "293, RUE SAINT-LOUIS", "city": "RIMOUSKI", "province": "QC", "country": "CA", "postalCode": "G5L9H2", "twitter": "None", "instagram": "None", "facebook": "None", "youtube": "None", "website": "None", "summary": "None", "logo": "None", "latitude": 48.444249457672136, "longitude": -68.52468039220362}, "107941130RR0001": {"name": "CENTRE POUR ENFANTS - TIMISKAMING CHILD CARE", "designationCode": "C", "categoryCode": "01", "address": "76 RORKE AVE                  BOX 2070", "city": "HAILEYBURY", "province": "ON", "country": "CA", "postalCode": "P0J1K0", "twitter": "None", "instagram": "None", "facebook": "None", "youtube": "None", "website": "None", "summary": "None", "logo": "None", "latitude": 47.43790725091473, "longitude": -79.63788427520441}, "140462524RR0001": {"name": "CENTRE POUR FEMMES IMMIGRANTES DE SHERBROOKE", "designationCode": "C", "categoryCode": "09", "address": "942 RUE BELVEDERE SUD", "city": "SHERBROOKE", "province": "QC", "country": "CA", "postalCode": "J1H4C3", "twitter": "None", "instagram": "None", "facebook": "None", "youtube": "None", "website": "None", "summary": "None", "logo": "None", "latitude": 45.39205003719198, "longitude": -71.89605345692232}, "106902091RR0001": {"name": "CENTRE POUR HANDICAPES LA JOIE DE VIVRE DE CHANDLER INC.", "designationCode": "C", "categoryCode": "09", "address": "440, BOULEVARD PABOS", "city": "PABOS", "province": "QC", "country": "CA", "postalCode": "G0C2H0", "twitter": "None", "instagram": "None", "facebook": "None", "youtube": "None", "website": "None", "summary": "None", "logo": "None", "latitude": 48.36332543989852, "longitude": -64.60477083276596}, "133244657RR0001": {"name": "CENTRE POUR PERSONNES AG\u00c9ES ESPOIR NOUVEAU / NEW HOPE SENIOR CITIZENS' CENTRE", "designationCode": "C", "categoryCode": "09", "address": "6225 AVE GODFREY", "city": "MONTREAL", "province": "QC", "country": "CA", "postalCode": "H4B1K3", "twitter": "None", "instagram": "None", "facebook": "None", "youtube": "None", "website": "None", "summary": "None", "logo": "None", "latitude": 45.46801143992717, "longitude": -73.6268170673435}, "107970170RR0001": {"name": "CENTRE PR\u00c9VENTION SUICIDE LES DEUX RIVES", "designationCode": "C", "categoryCode": "09", "address": "121, RUE SAINT-ANTOINE", "city": "TROIS-RIVIERES", "province": "QC", "country": "CA", "postalCode": "G9A2J3", "twitter": "None", "instagram": "None", "facebook": "None", "youtube": "None", "website": "None", "summary": "None", "logo": "None", "latitude": 46.341249707167314, "longitude": -72.54161583986377}, "140827106RR0001": {"name": "CENTRE PRESCOLAIRE COCCINELLE D'ORLEANS", "designationCode": "C", "categoryCode": "20", "address": "1344 PROMENADE YOUVILLE       UNIT\u00c9 9", "city": "ORL\u00c9ANS", "province": "ON", "country": "CA", "postalCode": "K1C2X8", "twitter": "None", "instagram": "None", "facebook": "None", "youtube": "None", "website": "None", "summary": "None", "logo": "None", "latitude": 45.46174435163608, "longitude": -75.54937077329873}, "891082174RR0001": {"name": "CENTRE PREVENTION SUICIDE DU KRTB", "designationCode": "C", "categoryCode": "09", "address": "D-35 RUE ST-LOUIS CP 353", "city": "RIVI\u00c8RE-DU-LOUP", "province": "QC", "country": "CA", "postalCode": "G5R3Y9", "twitter": "None", "instagram": "None", "facebook": "None", "youtube": "None", "website": "None", "summary": "None", "logo": "None", "latitude": 47.831904827935816, "longitude": -69.53389986541261}, "134994037RR0001": {"name": "CENTRE PREVENTION SUICIDE LE FAUBOURG", "designationCode": "C", "categoryCode": "09", "address": "C.P. 1", "city": "SAINT-JEROME", "province": "QC", "country": "CA", "postalCode": "J7Z5T7", "twitter": "None", "instagram": "None", "facebook": "None", "youtube": "None", "website": "None", "summary": "None", "logo": "None", "latitude": 45.77506800000006, "longitude": -74.00320999999994}, "118844208RR0001": {"name": "CENTRE PREVENTION SUICIDE, CENTRE-DE-LA-MAURICIE, MEKINAC, INC.", "designationCode": "C", "categoryCode": "09", "address": "2553 AV. GEORGES", "city": "SHAWINIGAN", "province": "QC", "country": "CA", "postalCode": "G9N2P4", "twitter": "None", "instagram": "None", "facebook": "None", "youtube": "None", "website": "None", "summary": "None", "logo": "None", "latitude": 46.557467160713166, "longitude": -72.73918648447676}, "119029213RR0001": {"name": "CENTRE PRIORITE JEUNESSE INC./YOUTH PRIORITY CENTER INC.", "designationCode": "C", "categoryCode": "09", "address": "CP 91", "city": "CAMPBELLTON", "province": "NB", "country": "CA", "postalCode": "E3N3G1", "twitter": "None", "instagram": "None", "facebook": "None", "youtube": "None", "website": "None", "summary": "None", "logo": "None", "latitude": 47.985687278986546, "longitude": -66.69450775189456}, "106902273RR0001": {"name": "CENTRE PSYCHO-PEDAGOGIQUE DE QUEBEC INC.", "designationCode": "C", "categoryCode": "21", "address": "1000 RUE DU JOLI-BOIS", "city": "QUEBEC", "province": "QC", "country": "CA", "postalCode": "G1V3Z6", "twitter": "None", "instagram": "None", "facebook": "None", "youtube": "None", "website": "None", "summary": "None", "logo": "None", "latitude": 46.77533160029456, "longitude": -71.28887116062626}, "106902281RR0001": {"name": "CENTRE PSYCHOSOCIAL", "designationCode": "C", "categoryCode": "11", "address": "300-150 CH MONTREAL", "city": "OTTAWA", "province": "ON", "country": "CA", "postalCode": "K1L8H2", "twitter": "None", "instagram": "None", "facebook": "None", "youtube": "None", "website": "None", "summary": "None", "logo": "None", "latitude": 45.43476938435603, "longitude": -75.66491331305912}, "133064485RR0001": {"name": "CENTRE QU\u00c9B\u00c9COIS DE D\u00c9VELOPPEMENT DURABLE", "designationCode": "C", "categoryCode": "59", "address": "640 C\u00d4T\u00c9 O. BUR 101", "city": "ALMA", "province": "QC", "country": "CA", "postalCode": "G8B7S8", "twitter": "None", "instagram": "None", "facebook": "None", "youtube": "None", "website": "None", "summary": "None", "logo": "None", "latitude": 48.546754787091224, "longitude": -71.65359654705973}, "106902299RR0001": {"name": "CENTRE QUEBECOIS DE LA DEFICIENCE AUDITIVE", "designationCode": "C", "categoryCode": "09", "address": "202-2494 BOUL HENRI-BOURASSA E", "city": "MONTREAL", "province": "QC", "country": "CA", "postalCode": "H2B1T9", "twitter": "None", "instagram": "None", "facebook": "None", "youtube": "None", "website": "None", "summary": "None", "logo": "None", "latitude": 45.570235339766796, "longitude": -73.65859074748691}, "889946943RR0001": {"name": "CENTRE QUEBECOIS DU P.E.N.INTERNATIONAL", "designationCode": "C", "categoryCode": "09", "address": "3492, AVENUE LAVAL", "city": "MONTREAL", "province": "QC", "country": "CA", "postalCode": "H2X3C8", "twitter": "None", "instagram": "None", "facebook": "None", "youtube": "None", "website": "None", "summary": "None", "logo": "None", "latitude": 45.515935782388006, "longitude": -73.57005391730614}, "897127130RR0001": {"name": "CENTRE R.I.R.E. 2000", "designationCode": "C", "categoryCode": "09", "address": "369 RUE DE LA COURONNE,       3E \u00c9TAGE", "city": "QUEBEC", "province": "QC", "country": "CA", "postalCode": "G1K6E9", "twitter": "None", "instagram": "None", "facebook": "None", "youtube": "None", "website": "None", "summary": "None", "logo": "None", "latitude": 46.814550000000054, "longitude": -71.22487399999993}, "120824552RR0001": {"name": "CENTRE R\u00c9GIONAL A.D.H. \"LE TREMPLIN\" MAISON DE TRANSITION POUR HOMMES", "designationCode": "C", "categoryCode": "57", "address": "130 RUE FRASER                CP 320", "city": "MATANE", "province": "QC", "country": "CA", "postalCode": "G4W3G7", "twitter": "None", "instagram": "None", "facebook": "None", "youtube": "None", "website": "None", "summary": "None", "logo": "None", "latitude": 48.85019236164807, "longitude": -67.53860004313593}, "875161226RR0001": {"name": "CENTRE RAWDON UNITED CHURCH CEMETERY FUND", "designationCode": "C", "categoryCode": "39", "address": "168 OLD TRUCK 14              CENTRE RAWDON", "city": "HANTS CO.", "province": "NS", "country": "CA", "postalCode": "B0N1Z0", "twitter": "None", "instagram": "None", "facebook": "None", "youtube": "None", "website": "None", "summary": "None", "logo": "None", "latitude": 44.95820100000006, "longitude": -63.90217699999994}, "889148334RR0001": {"name": "CENTRE RAYONS DE FEMMES TH\u00c9R\u00c8SE-DE-BLAINVILLE", "designationCode": "C", "categoryCode": "09", "address": "27, BOUL. DESJARDINS OUEST", "city": "SAINTE-THERESE", "province": "QC", "country": "CA", "postalCode": "J7E1E3", "twitter": "None", "instagram": "None", "facebook": "None", "youtube": "None", "website": "None", "summary": "None", "logo": "None", "latitude": 45.63103862640671, "longitude": -73.83555174130088}, "141541037RR0001": {"name": "CENTRE RECREATIF ET COMMUNAUTAIRE (C R C) ST-DONAT", "designationCode": "C", "categoryCode": "21", "address": "6547 RUE DE MARSEILLE", "city": "MONTREAL", "province": "QC", "country": "CA", "postalCode": "H1N1M1", "twitter": "None", "instagram": "None", "facebook": "None", "youtube": "None", "website": "None", "summary": "None", "logo": "None", "latitude": 45.58108795420968, "longitude": -73.53951144797726}, "895630903RR0001": {"name": "CENTRE REGIONAL D'ARCHIVES DE L'OUTAOUAIS", "designationCode": "C", "categoryCode": "50", "address": "855 BOUL. LA GAPPE", "city": "GATINEAU", "province": "QC", "country": "CA", "postalCode": "J8T8H9", "twitter": "None", "instagram": "None", "facebook": "None", "youtube": "None", "website": "None", "summary": "None", "logo": "None", "latitude": 45.48385346883796, "longitude": -75.68197212490615}, "887295681RR0001": {"name": "CENTRE REGIONAL DE SANTE ET DE SERVICES SOCIAUX DE LA BAIE-JAMES", "designationCode": "C", "categoryCode": "10", "address": "312 3E RUE", "city": "CHIBOUGAMAU", "province": "QC", "country": "CA", "postalCode": "G8P1N5", "twitter": "None", "instagram": "None", "facebook": "None", "youtube": "None", "website": "None", "summary": "None", "logo": "None", "latitude": 49.91361953952926, "longitude": -74.35707202553522}, "106792443RR0001": {"name": "CENTRE REGIONAL DE SERVICES AUX BIBLIOTHEQUES PUBLIQUES DE L'ESTRIE INC.", "designationCode": "C", "categoryCode": "50", "address": "4155 RUE BRODEUR", "city": "SHERBROOKE", "province": "QC", "country": "CA", "postalCode": "J1L1K4", "twitter": "None", "instagram": "None", "facebook": "None", "youtube": "None", "website": "None", "summary": "None", "logo": "None", "latitude": 45.391539497114465, "longitude": -71.96697072300768}, "129373916RR0001": {"name": "CENTRE REGIONAL DE SERVICES AUX BIBLIOTHEQUES PUBLIQUES DU SAGUENAY-LAC ST-JEAN", "designationCode": "B", "categoryCode": "50", "address": "2131 BOUL. TADOUSSAC", "city": "CHICOUTIMI", "province": "QC", "country": "CA", "postalCode": "G7G1K8", "twitter": "None", "instagram": "None", "facebook": "None", "youtube": "None", "website": "None", "summary": "None", "logo": "None", "latitude": 48.43883346932888, "longitude": -71.06133090922741}, "140867201RR0001": {"name": "CENTRE REGROUPEMENT JEUNESSE ROCK FOREST INC.", "designationCode": "C", "categoryCode": "09", "address": "1010 RUE GERMAINE-GUEVREMONT", "city": "SHERBROOKE", "province": "QC", "country": "CA", "postalCode": "J1N4C7", "twitter": "None", "instagram": "None", "facebook": "None", "youtube": "None", "website": "None", "summary": "None", "logo": "None", "latitude": 45.370933500432685, "longitude": -71.99249394754457}, "104791561RR0001": {"name": "CENTRE RENAISSANCE CENTRE INC.", "designationCode": "C", "categoryCode": "59", "address": "844 RUE AUTUMNWOOD", "city": "WINNIPEG", "province": "MB", "country": "CA", "postalCode": "R2J1C1", "twitter": "None", "instagram": "None", "facebook": "None", "youtube": "None", "website": "None", "summary": "None", "logo": "None", "latitude": 49.867251539529256, "longitude": -97.08272099999999}, "129760104RR0001": {"name": "CENTRE RESIDENTIEL COMMUNAUTAIRE ARC-EN-SOI INC.", "designationCode": "C", "categoryCode": "59", "address": "60 RUE IBERVILLE", "city": "RIVIERE-DU-LOUP", "province": "QC", "country": "CA", "postalCode": "G5R1H1", "twitter": "None", "instagram": "None", "facebook": "None", "youtube": "None", "website": "None", "summary": "None", "logo": "None", "latitude": 47.83698239774353, "longitude": -69.54128732073383}, "871598843RR0001": {"name": "CENTRE RESSOURCE JEUNESSE N.D.L.", "designationCode": "C", "categoryCode": "09", "address": "4 RUE DE L'EGLISE             C.P. 251", "city": "NOTRE-DAME-DU-LAUS", "province": "QC", "country": "CA", "postalCode": "J0X2M0", "twitter": "None", "instagram": "None", "facebook": "None", "youtube": "None", "website": "None", "summary": "None", "logo": "None", "latitude": 46.088652384124885, "longitude": -75.62166885117473}, "885460345RR0001": {"name": "CENTRE RESSOURCES JARDIN DE FAMILLES", "designationCode": "C", "categoryCode": "09", "address": "3025 AVENUE TASSE", "city": "QUEBEC", "province": "QC", "country": "CA", "postalCode": "G1P1T1", "twitter": "None", "instagram": "None", "facebook": "None", "youtube": "None", "website": "None", "summary": "None", "logo": "None", "latitude": 46.81143918119941, "longitude": -71.32268989223228}, "100893379RR0001": {"name": "CENTRE RESSOURCES JEUNESSE DE L'ABITIBI", "designationCode": "C", "categoryCode": "59", "address": "102-80 MONSEIGNEUR-TESSIER EST", "city": "ROUYN-NORANDA", "province": "QC", "country": "CA", "postalCode": "J9X3B9", "twitter": "None", "instagram": "None", "facebook": "None", "youtube": "None", "website": "None", "summary": "None", "logo": "None", "latitude": 48.23904150678069, "longitude": -79.01754283236194}, "858592777RR0001": {"name": "CENTRE RESURRECTION EGLISE DE DIEU/RESURRECTION CENTER CHURCH OF GOD", "designationCode": "C", "categoryCode": "39", "address": "1850, SAINT-ANTOINE STREET", "city": "LACHINE", "province": "QC", "country": "CA", "postalCode": "H8S1V4", "twitter": "None", "instagram": "None", "facebook": "None", "youtube": "None", "website": "None", "summary": "None", "logo": "None", "latitude": 45.43993146047075, "longitude": -73.68076277699232}, "872566823RR0001": {"name": "CENTRE REVEIL INTERNATIONAL INC. - INTERNATIONAL REVIVAL CENTRE INC.", "designationCode": "C", "categoryCode": "39", "address": "1080 RUE ST-PIERRE", "city": "OTTAWA", "province": "ON", "country": "CA", "postalCode": "K1C1L3", "twitter": "None", "instagram": "None", "facebook": "None", "youtube": "None", "website": "None", "summary": "None", "logo": "None", "latitude": 45.475700178429456, "longitude": -75.52304487128468}, "885858019RR0001": {"name": "CENTRE ROND-POINT", "designationCode": "C", "categoryCode": "49", "address": "777, RUE SAINT-DESIRE         THETFORD MINES", "city": "BLACK LAKE", "province": "QC", "country": "CA", "postalCode": "G6H1M4", "twitter": "None", "instagram": "None", "facebook": "None", "youtube": "None", "website": "None", "summary": "None", "logo": "None", "latitude": 46.04804262228044, "longitude": -71.3680513756421}, "119209377RR0001": {"name": "CENTRE S.C.A.M.A. (CENTRE DE SERVICES COMMUNAUTAIRES ET D'AIDE AU MAINTIEN DE L'AUTONOMIE)", "designationCode": "B", "categoryCode": "09", "address": "3168 BOUL CARTIER O", "city": "LAVAL", "province": "QC", "country": "CA", "postalCode": "H7V1J7", "twitter": "None", "instagram": "None", "facebook": "None", "youtube": "None", "website": "None", "summary": "None", "logo": "None", "latitude": 45.54087696113458, "longitude": -73.7298209815339}, "852092733RR0001": {"name": "CENTRE SCALABRINI POUR REFUGIES ET IMMIGRANTS/SCALABRINI CENTRE FOR MIGRANTS AND REFUGEES", "designationCode": "C", "categoryCode": "09", "address": "1600 BOUL HENRI-BOURASSA O    BUREAU 380", "city": "MONTREAL", "province": "QC", "country": "CA", "postalCode": "H3M3E2", "twitter": "None", "instagram": "None", "facebook": "None", "youtube": "None", "website": "None", "summary": "None", "logo": "None", "latitude": 45.53653775630453, "longitude": -73.67905408947452}, "119011286RR0001": {"name": "CENTRE SELON SON COEUR", "designationCode": "C", "categoryCode": "39", "address": "2164 DU GALAIS", "city": "STE JULIENNE", "province": "QC", "country": "CA", "postalCode": "J0K2T0", "twitter": "None", "instagram": "None", "facebook": "None", "youtube": "None", "website": "None", "summary": "None", "logo": "None", "latitude": 45.946670322782644, "longitude": -73.7689480010096}, "892456567RR0001": {"name": "CENTRE SEPHARADE DE TORA LAVAL", "designationCode": "C", "categoryCode": "42", "address": "675, CHEMIN DU SABLON", "city": "LAVAL", "province": "QC", "country": "CA", "postalCode": "H7W4H5", "twitter": "None", "instagram": "None", "facebook": "None", "youtube": "None", "website": "None", "summary": "None", "logo": "None", "latitude": 45.53129039076131, "longitude": -73.770249297363}, "891102550RR0001": {"name": "CENTRE SERGE BELAIR", "designationCode": "C", "categoryCode": "01", "address": "233 RUE PRINCIPALE", "city": "MANSFIELD", "province": "QC", "country": "CA", "postalCode": "J0X1R0", "twitter": "None", "instagram": "None", "facebook": "None", "youtube": "None", "website": "None", "summary": "None", "logo": "None", "latitude": 45.84917084067182, "longitude": -76.72583471983368}, "125183046RR0001": {"name": "CENTRE SIDA AMITIE", "designationCode": "C", "categoryCode": "09", "address": "527 RUE ST-GEORGES", "city": "SAINT-JEROME", "province": "QC", "country": "CA", "postalCode": "J7Z5B6", "twitter": "None", "instagram": "None", "facebook": "None", "youtube": "None", "website": "None", "summary": "None", "logo": "None", "latitude": 45.78203274632119, "longitude": -74.00176508808953}, "132092701RR0001": {"name": "CENTRE SIGNES D'ESPOIR", "designationCode": "C", "categoryCode": "09", "address": "4155, 4E AVENUE OUEST", "city": "QU\u00c9BEC", "province": "QC", "country": "CA", "postalCode": "G1H7A6", "twitter": "None", "instagram": "None", "facebook": "None", "youtube": "None", "website": "None", "summary": "None", "logo": "None", "latitude": 46.839042232010044, "longitude": -71.25622507123865}, "132473042RR0001": {"name": "CENTRE SOCIAL D'AIDE AUX IMMIGRANTS", "designationCode": "C", "categoryCode": "09", "address": "6201, RUE LAURENDEAU", "city": "MONTR\u00c9AL", "province": "QC", "country": "CA", "postalCode": "H4E3X8", "twitter": "None", "instagram": "None", "facebook": "None", "youtube": "None", "website": "None", "summary": "None", "logo": "None", "latitude": 45.45678908021236, "longitude": -73.58852101015621}, "118848134RR0001": {"name": "CENTRE SOCIAL DE LA CROIX BLANCHE REGION DE QUEBEC", "designationCode": "C", "categoryCode": "09", "address": "960 AV DESSANE", "city": "QUEBEC", "province": "QC", "country": "CA", "postalCode": "G1S3J9", "twitter": "None", "instagram": "None", "facebook": "None", "youtube": "None", "website": "None", "summary": "None", "logo": "None", "latitude": 46.7964431987132, "longitude": -71.24222403332551}, "106902885RR0001": {"name": "CENTRE SOCIAL LOUIS BRAILLE INC.", "designationCode": "C", "categoryCode": "59", "address": "C.P. 69509                    3730 DU CAMPANILE", "city": "QU\u00c9BEC", "province": "QC", "country": "CA", "postalCode": "G1X5A2", "twitter": "None", "instagram": "None", "facebook": "None", "youtube": "None", "website": "None", "summary": "None", "logo": "None", "latitude": 46.76148002971883, "longitude": -71.33382054235653}, "895861243RR0001": {"name": "CENTRE SOUTIEN-JEUNESSE DE SAINT-LAURENT", "designationCode": "C", "categoryCode": "09", "address": "14-1790,DE SALABERRY", "city": "MONTREAL", "province": "QC", "country": "CA", "postalCode": "H3M1K4", "twitter": "None", "instagram": "None", "facebook": "None", "youtube": "None", "website": "None", "summary": "None", "logo": "None", "latitude": 45.54129886121538, "longitude": -73.69527723893496}, "144969144RR0001": {"name": "CENTRE SPORTIF ET CULTUREL DU COLLEGE ST-JEAN-VIANNEY", "designationCode": "C", "categoryCode": "52", "address": "12630, BOULEVARD GOUIN EST", "city": "MONTREAL", "province": "QC", "country": "CA", "postalCode": "H1C1B9", "twitter": "None", "instagram": "None", "facebook": "None", "youtube": "None", "website": "None", "summary": "None", "logo": "None", "latitude": 45.693827048228016, "longitude": -73.5217427939661}, "118848191RR0001": {"name": "CENTRE SPORTIF REGIONAL BELLECHASSE-DORCHESTER INC.", "designationCode": "C", "categoryCode": "56", "address": "134 RUE PRINCIPALE", "city": "SAINT-ANSELME", "province": "QC", "country": "CA", "postalCode": "G0R2N0", "twitter": "None", "instagram": "None", "facebook": "None", "youtube": "None", "website": "None", "summary": "None", "logo": "None", "latitude": 46.62833603384511, "longitude": -70.971874558024}, "118848209RR0001": {"name": "CENTRE SPORTIF ROUVILLE INC.", "designationCode": "C", "categoryCode": "56", "address": "727 RUE DESJARDINS", "city": "MARIEVILLE", "province": "QC", "country": "CA", "postalCode": "J3M1C9", "twitter": "None", "instagram": "None", "facebook": "None", "youtube": "None", "website": "None", "summary": "None", "logo": "None", "latitude": 45.43069176187311, "longitude": -73.14990373177984}, "100893700RR0001": {"name": "CENTRE SPORTIF ST-LIN-LAURENTIDES INC.", "designationCode": "C", "categoryCode": "56", "address": "490 RUE SAINT-ISIDORE", "city": "SAINT-LIN-LAURENTIDES", "province": "QC", "country": "CA", "postalCode": "J5M0M5", "twitter": "None", "instagram": "None", "facebook": "None", "youtube": "None", "website": "None", "summary": "None", "logo": "None", "latitude": 45.84333577990651, "longitude": -73.75742142278781}, "130004286RR0001": {"name": "CENTRE SRI AUROBINDO", "designationCode": "C", "categoryCode": "20", "address": "4125-27, RUE ST-DENIS", "city": "MONTREAL", "province": "QC", "country": "CA", "postalCode": "H2W2M7", "twitter": "None", "instagram": "None", "facebook": "None", "youtube": "None", "website": "None", "summary": "None", "logo": "None", "latitude": 45.52140519207676, "longitude": -73.57720910822907}, "100878123RR0001": {"name": "CENTRE ST-PIERRE", "designationCode": "C", "categoryCode": "09", "address": "1212 RUE PANET", "city": "MONTREAL", "province": "QC", "country": "CA", "postalCode": "H2L2Y7", "twitter": "None", "instagram": "None", "facebook": "None", "youtube": "None", "website": "None", "summary": "None", "logo": "None", "latitude": 45.51925176406615, "longitude": -73.55341318417092}, "896511417RR0001": {"name": "CENTRE STAGE THEATRE SOCIETY", "designationCode": "C", "categoryCode": "22", "address": "P.O. BOX 742", "city": "KENTVILLE", "province": "NS", "country": "CA", "postalCode": "B4N3X9", "twitter": "None", "instagram": "None", "facebook": "None", "youtube": "None", "website": "None", "summary": "None", "logo": "None", "latitude": 45.07663200000006, "longitude": -64.49369299999994}, "130003254RR0001": {"name": "CENTRE STREET BAPTIST CHURCH,", "designationCode": "C", "categoryCode": "31", "address": "28 SOUTHWICK STREET", "city": "ST THOMAS", "province": "ON", "country": "CA", "postalCode": "N5R3R8", "twitter": "None", "instagram": "None", "facebook": "None", "youtube": "None", "website": "None", "summary": "None", "logo": "None", "latitude": 42.77773711669293, "longitude": -81.19548576182326}, "821503018RR0001": {"name": "CENTRE STREET CHURCH", "designationCode": "C", "categoryCode": "39", "address": "3900 - 2ND STREET NE", "city": "CALGARY", "province": "AB", "country": "CA", "postalCode": "T2E9C1", "twitter": "None", "instagram": "None", "facebook": "None", "youtube": "None", "website": "None", "summary": "None", "logo": "None", "latitude": 51.08741857507647, "longitude": -114.0573882897456}, "106903016RR0001": {"name": "CENTRE STREET UNITED CHURCH", "designationCode": "C", "categoryCode": "44", "address": "BOX 1360", "city": "SHAUNAVON", "province": "SK", "country": "CA", "postalCode": "S0N2M0", "twitter": "None", "instagram": "None", "facebook": "None", "youtube": "None", "website": "None", "summary": "None", "logo": "None", "latitude": 49.64645000000007, "longitude": -108.41961999999995}, "136280427RR0001": {"name": "CENTRE SUR L'AUTRE RIVE INC", "designationCode": "C", "categoryCode": "57", "address": "6800 BOUL HEBERT", "city": "ST-TIMOTHEE", "province": "QC", "country": "CA", "postalCode": "J6S6G4", "twitter": "None", "instagram": "None", "facebook": "None", "youtube": "None", "website": "None", "summary": "None", "logo": "None", "latitude": 45.30159304186653, "longitude": -73.99835260502641}, "864907936RR0001": {"name": "CENTRE TEMENOS", "designationCode": "C", "categoryCode": "11", "address": "4411 GARNIER", "city": "MONTREAL", "province": "QC", "country": "CA", "postalCode": "H2J3S3", "twitter": "None", "instagram": "None", "facebook": "None", "youtube": "None", "website": "None", "summary": "None", "logo": "None", "latitude": 45.530244082722525, "longitude": -73.57510807977967}, "106903040RR0001": {"name": "CENTRE TERRE NOUVELLE INC.", "designationCode": "C", "categoryCode": "29", "address": "193 3E RANG OUEST", "city": "STOKE", "province": "QC", "country": "CA", "postalCode": "J0B3G0", "twitter": "None", "instagram": "None", "facebook": "None", "youtube": "None", "website": "None", "summary": "None", "logo": "None", "latitude": 45.46742167113635, "longitude": -71.86113315258117}, "118848308RR0001": {"name": "CENTRE UNITY DE MONTREAL INC./UNITY CENTER OF MONTREAL INC.", "designationCode": "C", "categoryCode": "39", "address": "3455, GIROUARD AVE.", "city": "MONTREAL", "province": "QC", "country": "CA", "postalCode": "H4A3C5", "twitter": "None", "instagram": "None", "facebook": "None", "youtube": "None", "website": "None", "summary": "None", "logo": "None", "latitude": 45.47295130864438, "longitude": -73.61285191075662}, "107718983RR0001": {"name": "CENTRE UNIVERSITAIRE DE SANT\u00c9 MCGILL- MCGILL UNIVERSITY HEALTH CENTRE", "designationCode": "C", "categoryCode": "10", "address": "5E-8300 BOUL.DECARIE", "city": "MONTREAL", "province": "QC", "country": "CA", "postalCode": "H4P2P5", "twitter": "None", "instagram": "None", "facebook": "None", "youtube": "None", "website": "None", "summary": "None", "logo": "None", "latitude": 45.499640596976356, "longitude": -73.66202108052947}, "145095675RR0001": {"name": "CENTRE VACANCES LAC SIMON", "designationCode": "C", "categoryCode": "56", "address": "60 CH DU LAC-SIMON", "city": "SAINT-LEONARD-DE-PORTNEUF", "province": "QC", "country": "CA", "postalCode": "G0A4A0", "twitter": "None", "instagram": "None", "facebook": "None", "youtube": "None", "website": "None", "summary": "None", "logo": "None", "latitude": 46.89903352596791, "longitude": -72.02267996249277}, "107656266RR0001": {"name": "CENTRE VICTOR-LELI\u00c8VRE", "designationCode": "C", "categoryCode": "38", "address": "215 AVE DES OBLATS            C.P 55058", "city": "QUEBEC", "province": "QC", "country": "CA", "postalCode": "G1K9A4", "twitter": "None", "instagram": "None", "facebook": "None", "youtube": "None", "website": "None", "summary": "None", "logo": "None", "latitude": 46.81156664611354, "longitude": -71.23534685801273}}