{"883799223RR0001": {"name": "TRUTH TABERNACLE", "designationCode": "C", "categoryCode": "39", "address": "100 MASSENA CRES", "city": "WINNIPEG", "province": "MB", "country": "CA", "postalCode": "R2P0K9", "twitter": "None", "instagram": "None", "facebook": "None", "youtube": "None", "website": "None", "summary": "None", "logo": "None", "latitude": 49.951722616134916, "longitude": -97.17264933068849}, "890999584RR0001": {"name": "TRUTH TABERNACLE", "designationCode": "C", "categoryCode": "39", "address": "P.O. BOX 63", "city": "MIDDLE ARM", "province": "NL", "country": "CA", "postalCode": "A0K3R0", "twitter": "None", "instagram": "None", "facebook": "None", "youtube": "None", "website": "None", "summary": "None", "logo": "None", "latitude": 49.70423000000005, "longitude": -56.08952999999997}, "893479030RR0001": {"name": "TRUTH TABERNACLE CHURCH", "designationCode": "C", "categoryCode": "36", "address": "PO BOX 2004", "city": "LLOYDMINSTER", "province": "SK", "country": "CA", "postalCode": "S9V1R5", "twitter": "None", "instagram": "None", "facebook": "None", "youtube": "None", "website": "None", "summary": "None", "logo": "None", "latitude": 53.274840000000054, "longitude": -109.99074949999994}, "108144163RR0001": {"name": "TRUTH TABERNACLE OF GREATER MONCTON", "designationCode": "C", "categoryCode": "39", "address": "50 LONSDALE DRIVE", "city": "MONCTON", "province": "NB", "country": "CA", "postalCode": "E1G2G3", "twitter": "None", "instagram": "None", "facebook": "None", "youtube": "None", "website": "None", "summary": "None", "logo": "None", "latitude": 46.12014298721807, "longitude": -64.84869426100772}, "133214890RR0001": {"name": "TRUTH TABERNACLE OF GREATER VANCOUVER, B C", "designationCode": "C", "categoryCode": "39", "address": "PO BOX 1956                   VILLAGE MALL P.O.", "city": "ALDERGROVE", "province": "BC", "country": "CA", "postalCode": "V4W0A6", "twitter": "None", "instagram": "None", "facebook": "None", "youtube": "None", "website": "None", "summary": "None", "logo": "None", "latitude": 49.05687300000005, "longitude": -122.47227349999994}, "867717506RR0001": {"name": "TRUTH TABERNACLE OF MARKHAM INC.", "designationCode": "C", "categoryCode": "39", "address": "717 HIGHGLEN AVENUE", "city": "MARKHAM", "province": "ON", "country": "CA", "postalCode": "L3S4P6", "twitter": "None", "instagram": "None", "facebook": "None", "youtube": "None", "website": "None", "summary": "None", "logo": "None", "latitude": 43.85106677208756, "longitude": -79.25509454397265}, "873002695RR0001": {"name": "TRUTH TABERNACLE OF SPRUCE GROVE", "designationCode": "C", "categoryCode": "39", "address": "BOX 3243", "city": "SPRUCE GROVE", "province": "AB", "country": "CA", "postalCode": "T7X3A6", "twitter": "None", "instagram": "None", "facebook": "None", "youtube": "None", "website": "None", "summary": "None", "logo": "None", "latitude": 53.544624000000056, "longitude": -113.90185249999993}, "119277275RR0001": {"name": "TRUTH TEMPLE INC.", "designationCode": "C", "categoryCode": "36", "address": "BOX 608", "city": "CENTREVILLE", "province": "NB", "country": "CA", "postalCode": "E7K3H5", "twitter": "None", "instagram": "None", "facebook": "None", "youtube": "None", "website": "None", "summary": "None", "logo": "None", "latitude": 46.42971900000006, "longitude": -67.71115249999993}, "835468166RR0001": {"name": "TRUTH THROUGH CHRIST MINISTRIES", "designationCode": "C", "categoryCode": "39", "address": "52 BARRON STREET", "city": "WELLAND", "province": "ON", "country": "CA", "postalCode": "L3C2K5", "twitter": "None", "instagram": "None", "facebook": "None", "youtube": "None", "website": "None", "summary": "None", "logo": "None", "latitude": 43.00169366472389, "longitude": -79.26527439353127}, "833127160RR0001": {"name": "TRYGG CROSS ROADS FOUNDATION", "designationCode": "B", "categoryCode": "03", "address": "PO BOX 200", "city": "MILNER", "province": "BC", "country": "CA", "postalCode": "V0X1T0", "twitter": "None", "instagram": "None", "facebook": "None", "youtube": "None", "website": "None", "summary": "None", "logo": "None", "latitude": 49.127680000000055, "longitude": -122.62306999999998}, "139921746RR0001": {"name": "TRYLIGHT THEATRE CO", "designationCode": "C", "categoryCode": "22", "address": "510 SECOND ST S", "city": "KENORA", "province": "ON", "country": "CA", "postalCode": "P9N1G8", "twitter": "None", "instagram": "None", "facebook": "None", "youtube": "None", "website": "None", "summary": "None", "logo": "None", "latitude": 49.76528447100232, "longitude": -94.48417286081136}, "897086286RR0001": {"name": "TRYON AND AREA HISTORICAL SOCIETY INC.", "designationCode": "C", "categoryCode": "50", "address": "PO BOX 38 10", "city": "CRAPAUD", "province": "PE", "country": "CA", "postalCode": "C0A1J0", "twitter": "None", "instagram": "None", "facebook": "None", "youtube": "None", "website": "None", "summary": "None", "logo": "None", "latitude": 46.22046000000006, "longitude": -63.49416199999993}, "119272631RR0001": {"name": "TRYON UNITED BAPTIST CHURCH,", "designationCode": "C", "categoryCode": "31", "address": "21280 TRANS CANADA HIGHWAY", "city": "ALBANY", "province": "PE", "country": "CA", "postalCode": "C0B1A0", "twitter": "None", "instagram": "None", "facebook": "None", "youtube": "None", "website": "None", "summary": "None", "logo": "None", "latitude": 46.24520388200399, "longitude": -63.54625682052293}, "860487453RR0001": {"name": "TRYPTYCH PRODUCTIONS VOCAL THEATRE INC.", "designationCode": "C", "categoryCode": "22", "address": "583 DURIE STREET", "city": "TORONTO", "province": "ON", "country": "CA", "postalCode": "M6S3H2", "twitter": "None", "instagram": "None", "facebook": "None", "youtube": "None", "website": "None", "summary": "None", "logo": "None", "latitude": 43.660699648075465, "longitude": -79.48301695640271}, "119272649RR0001": {"name": "TRYZUB UKRAINIAN DANCE ENSEMBLE", "designationCode": "C", "categoryCode": "22", "address": "BOX 1732 STATION M", "city": "CALGARY", "province": "AB", "country": "CA", "postalCode": "T2P2L7", "twitter": "None", "instagram": "None", "facebook": "None", "youtube": "None", "website": "None", "summary": "None", "logo": "None", "latitude": 51.04531500000006, "longitude": -114.06301099999993}, "141021642RR0001": {"name": "TSAWOUT ASSEMBLY OF PRAISE", "designationCode": "B", "categoryCode": "39", "address": "2781 MOUNT NEWTON X ROAD", "city": "SAANICHTON", "province": "BC", "country": "CA", "postalCode": "V8M2E4", "twitter": "None", "instagram": "None", "facebook": "None", "youtube": "None", "website": "None", "summary": "None", "logo": "None", "latitude": 48.59115606073604, "longitude": -123.38509524113086}, "108144346RR0001": {"name": "TSAWWASSEN ALLIANCE CHURCH", "designationCode": "C", "categoryCode": "39", "address": "4951 12TH AVENUE", "city": "DELTA", "province": "BC", "country": "CA", "postalCode": "V4M2A5", "twitter": "None", "instagram": "None", "facebook": "None", "youtube": "None", "website": "None", "summary": "None", "logo": "None", "latitude": 49.02473147547439, "longitude": -123.08681241618098}, "119288918RR1690": {"name": "TSAWWASSEN CONGREGATION OF JEHOVAH S WITNESSES, DELTA, BRIT ISH COLUMBIA", "designationCode": "C", "categoryCode": "61", "address": "4947 11A AVE", "city": "DELTA", "province": "BC", "country": "CA", "postalCode": "V4M1Z5", "twitter": "None", "instagram": "None", "facebook": "None", "youtube": "None", "website": "None", "summary": "None", "logo": "None", "latitude": 49.023967493219324, "longitude": -123.08683033236193}, "850031477RR0001": {"name": "TSAWWASSEN INDEPENDENT SCHOOL SOCIETY", "designationCode": "C", "categoryCode": "20", "address": "1900 56 ST", "city": "DELTA", "province": "BC", "country": "CA", "postalCode": "V4L2B1", "twitter": "None", "instagram": "None", "facebook": "None", "youtube": "None", "website": "None", "summary": "None", "logo": "None", "latitude": 49.03810771223099, "longitude": -123.06863371223098}, "874081227RR0001": {"name": "TSAWWASSEN ORDER OF OLD BASTARDS", "designationCode": "A", "categoryCode": "03", "address": "P.O. BOX 1347 STATION A", "city": "DELTA", "province": "BC", "country": "CA", "postalCode": "V4M3Y8", "twitter": "None", "instagram": "None", "facebook": "None", "youtube": "None", "website": "None", "summary": "None", "logo": "None", "latitude": 49.08485400000005, "longitude": -123.05969449999994}, "108144387RR0001": {"name": "TSAWWASSEN PASTORAL CHARGE", "designationCode": "C", "categoryCode": "44", "address": "693 - 53RD STREET", "city": "DELTA", "province": "BC", "country": "CA", "postalCode": "V4M3B6", "twitter": "None", "instagram": "None", "facebook": "None", "youtube": "None", "website": "None", "summary": "None", "logo": "None", "latitude": 49.01526445511098, "longitude": -123.076969787996}, "141049635RR0001": {"name": "TSCHETTER CHARITABLE TRUST", "designationCode": "B", "categoryCode": "39", "address": "3425 2 AVE S", "city": "LETHBRIDGE", "province": "AB", "country": "CA", "postalCode": "T1J4V1", "twitter": "None", "instagram": "None", "facebook": "None", "youtube": "None", "website": "None", "summary": "None", "logo": "None", "latitude": 49.696839530439966, "longitude": -112.78914308381903}, "858863640RR0001": {"name": "TSI KIONHNHEHT NE ONKWAWENNA LANGUAGE CIRCLE", "designationCode": "C", "categoryCode": "20", "address": "1658 YORK RD                  RR 2", "city": "DESERONTOON", "province": "ON", "country": "CA", "postalCode": "K0K1X0", "twitter": "None", "instagram": "None", "facebook": "None", "youtube": "None", "website": "None", "summary": "None", "logo": "None", "latitude": 44.186695942953264, "longitude": -77.13511747137112}, "890759327RR0001": {"name": "TSIOPA PALIJIW UKRAINIAN SCHOOL INC.", "designationCode": "C", "categoryCode": "20", "address": "69 GRENADIER ROAD", "city": "TORONTO", "province": "ON", "country": "CA", "postalCode": "M6R1R1", "twitter": "None", "instagram": "None", "facebook": "None", "youtube": "None", "website": "None", "summary": "None", "logo": "None", "latitude": 43.64946183484345, "longitude": -79.44737537301637}, "894026921RR0001": {"name": "TSOLUM RIVER RESTORATION SOCIETY", "designationCode": "C", "categoryCode": "52", "address": "P.O. BOX 488", "city": "MERVILLE", "province": "BC", "country": "CA", "postalCode": "V0R2M0", "twitter": "None", "instagram": "None", "facebook": "None", "youtube": "None", "website": "None", "summary": "None", "logo": "None", "latitude": 49.78135887533998, "longitude": -125.07321726876313}, "108102005RR0001": {"name": "TSOW-TUN LE LUM SOCIETY", "designationCode": "C", "categoryCode": "09", "address": "699 CAPILANO ROAD             P.O. BOX 370", "city": "LANTZVILLE", "province": "BC", "country": "CA", "postalCode": "V0R2H0", "twitter": "None", "instagram": "None", "facebook": "None", "youtube": "None", "website": "None", "summary": "None", "logo": "None", "latitude": 49.249014505981535, "longitude": -124.1243525750783}, "819241944RR0001": {"name": "TSU HUA TAOIST TEMPLE INC.", "designationCode": "C", "categoryCode": "35", "address": "75 COPPERSTONE CRES", "city": "WINNIPEG", "province": "MB", "country": "CA", "postalCode": "R2J4C8", "twitter": "None", "instagram": "None", "facebook": "None", "youtube": "None", "website": "None", "summary": "None", "logo": "None", "latitude": 49.851744274510835, "longitude": -97.04243686831316}, "882741978RR0001": {"name": "TSUU T'INA NATION BAND - STONEY CORRECTIONS SOCIETY", "designationCode": "C", "categoryCode": "59", "address": "3700 ANDERSON ROAD S.W.       P. O. BOX 70", "city": "CALGARY", "province": "AB", "country": "CA", "postalCode": "T2W3C4", "twitter": "None", "instagram": "None", "facebook": "None", "youtube": "None", "website": "None", "summary": "None", "logo": "None", "latitude": 50.950643615497334, "longitude": -114.1360705431618}, "122930092RR0001": {"name": "TTS THEATRE TERRIFIC SOCIETY", "designationCode": "C", "categoryCode": "22", "address": "430-111 HASTINGS ST W", "city": "VANCOUVER", "province": "BC", "country": "CA", "postalCode": "V6B1H4", "twitter": "None", "instagram": "None", "facebook": "None", "youtube": "None", "website": "None", "summary": "None", "logo": "None", "latitude": 49.282138914441255, "longitude": -123.10753795129177}, "892417643RR0001": {"name": "TUBEROUS SCLEROSIS CANADA SCLEROSE TUBEREUSE", "designationCode": "C", "categoryCode": "11", "address": "PO BOX 35057 RPO ESSA ROAD", "city": "BARRIE", "province": "ON", "country": "CA", "postalCode": "L4N5Z2", "twitter": "None", "instagram": "None", "facebook": "None", "youtube": "None", "website": "None", "summary": "None", "logo": "None", "latitude": 44.34834955515016, "longitude": -79.70334770650842}, "823803671RR0001": {"name": "TUCKER HOUSE RENEWAL CENTRE/MAISON TUCKER: CENTRE DE RENOUVELLEMENT", "designationCode": "C", "categoryCode": "56", "address": "P.O. BOX 4425                 STATION E", "city": "OTTOWA", "province": "ON", "country": "CA", "postalCode": "K1S5B4", "twitter": "None", "instagram": "None", "facebook": "None", "youtube": "None", "website": "None", "summary": "None", "logo": "None"}, "899755680RR0001": {"name": "TUFFNELL COMMUNITY HALL", "designationCode": "C", "categoryCode": "56", "address": "BOX 83,", "city": "TUFFNELL", "province": "SK", "country": "CA", "postalCode": "S0A4G0", "twitter": "None", "instagram": "None", "facebook": "None", "youtube": "None", "website": "None", "summary": "None", "logo": "None", "latitude": 51.5890960577864, "longitude": -103.21392423180077}, "887956043RR0001": {"name": "TUGASKE CEMETERY COMPANY", "designationCode": "C", "categoryCode": "59", "address": "BOX 62", "city": "TUGASKE", "province": "SK", "country": "CA", "postalCode": "S0H4B0", "twitter": "None", "instagram": "None", "facebook": "None", "youtube": "None", "website": "None", "summary": "None", "logo": "None", "latitude": 50.866760000000056, "longitude": -106.28451999999999}, "895300267RR0001": {"name": "TUKILIK FOUNDATION", "designationCode": "C", "categoryCode": "52", "address": "1947 OLD CARP ROAD", "city": "CARP", "province": "ON", "country": "CA", "postalCode": "K0A1L0", "twitter": "None", "instagram": "None", "facebook": "None", "youtube": "None", "website": "None", "summary": "None", "logo": "None", "latitude": 45.3389734177675, "longitude": -75.99837561630781}, "862732815RR0001": {"name": "TULA FOUNDATION", "designationCode": "B", "categoryCode": "03", "address": "PO BOX 309", "city": "HERIOT BAY", "province": "BC", "country": "CA", "postalCode": "V0P1H0", "twitter": "None", "instagram": "None", "facebook": "None", "youtube": "None", "website": "None", "summary": "None", "logo": "None", "latitude": 50.100100277953125, "longitude": -125.20502305421007}, "119272763RR0001": {"name": "TULAMEEN AND DISTRICT FIRE DEPARTMENT", "designationCode": "C", "categoryCode": "59", "address": "BOX 1C COMPARTMENT 7", "city": "TULAMEEN", "province": "BC", "country": "CA", "postalCode": "V0X2L0", "twitter": "None", "instagram": "None", "facebook": "None", "youtube": "None", "website": "None", "summary": "None", "logo": "None", "latitude": 49.44878848094557, "longitude": -120.52936746174286}, "887360030RR0001": {"name": "TULAMEEN COMMUNITY CLUB", "designationCode": "C", "categoryCode": "56", "address": "BOX 1D C9", "city": "TULAMEEN", "province": "BC", "country": "CA", "postalCode": "V0X2L0", "twitter": "None", "instagram": "None", "facebook": "None", "youtube": "None", "website": "None", "summary": "None", "logo": "None", "latitude": 49.46062058711138, "longitude": -120.52665936282473}, "888564390RR0001": {"name": "TULITA PENTECOSTAL MISSION", "designationCode": "C", "categoryCode": "36", "address": "P O BOX 90", "city": "TULITA", "province": "NT", "country": "CA", "postalCode": "X0E0K0", "twitter": "None", "instagram": "None", "facebook": "None", "youtube": "None", "website": "None", "summary": "None", "logo": "None", "latitude": 65.27976103543479, "longitude": -126.82764927426192}, "896763562RR0001": {"name": "TUMBLER RIDGE CHILDREN'S CENTER SOCIETY", "designationCode": "C", "categoryCode": "01", "address": "340 FRONT STREET              P.O. BOX 1630", "city": "TUMBLER RIDGE", "province": "BC", "country": "CA", "postalCode": "V0C2W0", "twitter": "None", "instagram": "None", "facebook": "None", "youtube": "None", "website": "None", "summary": "None", "logo": "None", "latitude": 55.125782029373056, "longitude": -121.00140873922248}, "861753184RR0001": {"name": "TUMBLER RIDGE FELLOWSHIP BAPTIST CHURCH", "designationCode": "C", "categoryCode": "31", "address": "PO 359", "city": "TUMBLER RIDGE", "province": "BC", "country": "CA", "postalCode": "V0C2W0", "twitter": "None", "instagram": "None", "facebook": "None", "youtube": "None", "website": "None", "summary": "None", "logo": "None", "latitude": 55.12436000000008, "longitude": -120.99868999999995}, "810908947RR0001": {"name": "TUMBLER RIDGE HEALTH CENTRE FOUNDATION", "designationCode": "C", "categoryCode": "19", "address": "PO BOX 80", "city": "TUMBLER RIDGE", "province": "BC", "country": "CA", "postalCode": "V0C2W0", "twitter": "None", "instagram": "None", "facebook": "None", "youtube": "None", "website": "None", "summary": "None", "logo": "None", "latitude": 55.12436000000008, "longitude": -120.99868999999995}, "864765672RR0001": {"name": "TUMBLER RIDGE HOSPICE & RESPITE CARE SOCIETY", "designationCode": "C", "categoryCode": "01", "address": "PO BOX 1131", "city": "TUMBLER RIDGE", "province": "BC", "country": "CA", "postalCode": "V0C2W0", "twitter": "None", "instagram": "None", "facebook": "None", "youtube": "None", "website": "None", "summary": "None", "logo": "None", "latitude": 55.12436000000008, "longitude": -120.99868999999995}, "863295853RR0001": {"name": "TUMBLER RIDGE MUSEUM FOUNDATION", "designationCode": "C", "categoryCode": "53", "address": "P.O. BOX 1348", "city": "TUMBLER RIDGE", "province": "BC", "country": "CA", "postalCode": "V0C2W0", "twitter": "None", "instagram": "None", "facebook": "None", "youtube": "None", "website": "None", "summary": "None", "logo": "None", "latitude": 55.12436000000008, "longitude": -120.99868999999995}, "108145012RR0001": {"name": "TUMBLER RIDGE PUBLIC LIBRARY ASSOCIATION", "designationCode": "C", "categoryCode": "50", "address": "BOX 70                        340 FRONT ST", "city": "TUMBLER RIDGE", "province": "BC", "country": "CA", "postalCode": "V0C2W0", "twitter": "None", "instagram": "None", "facebook": "None", "youtube": "None", "website": "None", "summary": "None", "logo": "None", "latitude": 55.125782029373056, "longitude": -121.00140873922248}, "118818491RR0095": {"name": "TUMBLER RIDGE SEVENTH-DAY ADVENTIST CHURCH", "designationCode": "C", "categoryCode": "41", "address": "BOX 1000", "city": "ABBOTSFORD", "province": "BC", "country": "CA", "postalCode": "V2S4P5", "twitter": "None", "instagram": "None", "facebook": "None", "youtube": "None", "website": "None", "summary": "None", "logo": "None", "latitude": 49.03851300000005, "longitude": -122.29441549999993}, "119272797RR0001": {"name": "TUMBLEWEED PLAYSCHOOL SOCIETY", "designationCode": "C", "categoryCode": "20", "address": "2975 A CLAPPERTON AVE", "city": "MERRITT", "province": "BC", "country": "CA", "postalCode": "V1K1G2", "twitter": "None", "instagram": "None", "facebook": "None", "youtube": "None", "website": "None", "summary": "None", "logo": "None", "latitude": 50.0999937780648, "longitude": -120.76983841005514}, "119272805RR0001": {"name": "TUMMEL DEER PARK CEMETERY MEMORIAL FUND INC", "designationCode": "C", "categoryCode": "59", "address": "BOX 226", "city": "ROBLIN", "province": "MB", "country": "CA", "postalCode": "R0L1P0", "twitter": "None", "instagram": "None", "facebook": "None", "youtube": "None", "website": "None", "summary": "None", "logo": "None", "latitude": 51.22816000000006, "longitude": -101.35248999999999}, "895469799RR0001": {"name": "TUNG CHENG YUEN BUDDHIST ASSOCIATION", "designationCode": "C", "categoryCode": "35", "address": "150-8279 SABA ROAD", "city": "RICHMOND", "province": "BC", "country": "CA", "postalCode": "V6Y4B6", "twitter": "None", "instagram": "None", "facebook": "None", "youtube": "None", "website": "None", "summary": "None", "logo": "None", "latitude": 49.16888148990112, "longitude": -123.13284236081135}, "132259565RR0001": {"name": "TUNG LIN KOK YUEN, CANADA SOCIETY", "designationCode": "C", "categoryCode": "39", "address": "2495 VICTORIA DRIVE", "city": "VANCOUVER", "province": "BC", "country": "CA", "postalCode": "V5N4L1", "twitter": "None", "instagram": "None", "facebook": "None", "youtube": "None", "website": "None", "summary": "None", "logo": "None", "latitude": 49.262627074383964, "longitude": -123.06595163367739}, "108145079RR0001": {"name": "TUNGASUVVINGAT INUIT", "designationCode": "C", "categoryCode": "09", "address": "604 LAURIER AVENUE WEST", "city": "OTTAWA", "province": "ON", "country": "CA", "postalCode": "K1R6L1", "twitter": "None", "instagram": "None", "facebook": "None", "youtube": "None", "website": "None", "summary": "None", "logo": "None", "latitude": 45.414608680247134, "longitude": -75.70852167664043}, "856234737RR0001": {"name": "TUNIS SHRINERS PATIENT TRANSPORTATION FUND", "designationCode": "C", "categoryCode": "65", "address": "2140 WALKLEY RD", "city": "OTTAWA", "province": "ON", "country": "CA", "postalCode": "K1G3V3", "twitter": "None", "instagram": "None", "facebook": "None", "youtube": "None", "website": "None", "summary": "None", "logo": "None", "latitude": 45.386437562525664, "longitude": -75.6234613171854}, "138415245RR0001": {"name": "TUPELO CHILDREN'S MANSION OF CANADA", "designationCode": "C", "categoryCode": "01", "address": "PO BOX 413", "city": "MAPLE RIDGE", "province": "BC", "country": "CA", "postalCode": "V2X8K9", "twitter": "None", "instagram": "None", "facebook": "None", "youtube": "None", "website": "None", "summary": "None", "logo": "None", "latitude": 49.21686600000005, "longitude": -122.60537449999993}, "881600118RR0001": {"name": "TUPPER STREET FAMILY RESOURCE CENTRE INC.", "designationCode": "C", "categoryCode": "09", "address": "234 PRINCESS AVE", "city": "PORTAGE LA PRAIRIE", "province": "MB", "country": "CA", "postalCode": "R1N0R1", "twitter": "None", "instagram": "None", "facebook": "None", "youtube": "None", "website": "None", "summary": "None", "logo": "None", "latitude": 49.9737357332274, "longitude": -98.28562622452448}, "889555975RR0001": {"name": "TUPPERVILLE SCHOOL MUSEUM", "designationCode": "C", "categoryCode": "50", "address": "2611 HWY #201 RR #3", "city": "BRIDGETOWN", "province": "NS", "country": "CA", "postalCode": "B0S1C0", "twitter": "None", "instagram": "None", "facebook": "None", "youtube": "None", "website": "None", "summary": "None", "logo": "None", "latitude": 44.79671484965167, "longitude": -65.36982095096936}, "139025290RR0001": {"name": "TURIN CHARITABLE TRUST", "designationCode": "B", "categoryCode": "39", "address": "PO BOX 207", "city": "TURIN", "province": "AB", "country": "CA", "postalCode": "T0K2H0", "twitter": "None", "instagram": "None", "facebook": "None", "youtube": "None", "website": "None", "summary": "None", "logo": "None", "latitude": 49.968210000000056, "longitude": -112.52047999999996}, "119272821RR0001": {"name": "TURIN UNITED CHURCH", "designationCode": "C", "categoryCode": "44", "address": "PO BOX 697", "city": "RIDGETOWN", "province": "ON", "country": "CA", "postalCode": "N0P2C0", "twitter": "None", "instagram": "None", "facebook": "None", "youtube": "None", "website": "None", "summary": "None", "logo": "None", "latitude": 42.42687003390246, "longitude": -81.90498998889144}, "894961820RR0001": {"name": "TURKISH MUSLIM SOCIETY OF WATERLOO REGION", "designationCode": "C", "categoryCode": "60", "address": "426 KELSO DRIVE", "city": "WATERLOO", "province": "ON", "country": "CA", "postalCode": "N2V2S1", "twitter": "None", "instagram": "None", "facebook": "None", "youtube": "None", "website": "None", "summary": "None", "logo": "None", "latitude": 43.490280434935535, "longitude": -80.58348236234055}, "849346168RR0001": {"name": "TURKSTRA FOUNDATION", "designationCode": "B", "categoryCode": "03", "address": "50 MARKLAND ST", "city": "HAMILTON", "province": "ON", "country": "CA", "postalCode": "L8P2J7", "twitter": "None", "instagram": "None", "facebook": "None", "youtube": "None", "website": "None", "summary": "None", "logo": "None", "latitude": 43.24848908523267, "longitude": -79.87512427226045}, "891352239RR0001": {"name": "TURNBULL HOME FOUNDATION", "designationCode": "A", "categoryCode": "01", "address": "231 BRITAIN STREET", "city": "SAINT JOHN", "province": "NB", "country": "CA", "postalCode": "E2L0A4", "twitter": "None", "instagram": "None", "facebook": "None", "youtube": "None", "website": "None", "summary": "None", "logo": "None", "latitude": 45.268154328899485, "longitude": -66.0509678186277}, "130488380RR0001": {"name": "TURNBULL NURSING HOME INC.", "designationCode": "C", "categoryCode": "01", "address": "231 BRITAIN STREET", "city": "SAINT JOHN", "province": "NB", "country": "CA", "postalCode": "E2L0A4", "twitter": "None", "instagram": "None", "facebook": "None", "youtube": "None", "website": "None", "summary": "None", "logo": "None", "latitude": 45.268154328899485, "longitude": -66.0509678186277}, "873854442RR0001": {"name": "TURNER ROAD BIBLE CHAPEL", "designationCode": "C", "categoryCode": "39", "address": "2100 TURNER ROAD", "city": "WINDSOR", "province": "ON", "country": "CA", "postalCode": "N8W3K3", "twitter": "None", "instagram": "None", "facebook": "None", "youtube": "None", "website": "None", "summary": "None", "logo": "None", "latitude": 42.30182538579832, "longitude": -82.99534388631791}, "874490501RR0001": {"name": "TURNER VALLEY AND DISTRICT FOOD BANK ASSOCIATION", "designationCode": "C", "categoryCode": "09", "address": "BOX 1318", "city": "TURNER VALLEY", "province": "AB", "country": "CA", "postalCode": "T0L2A0", "twitter": "None", "instagram": "None", "facebook": "None", "youtube": "None", "website": "None", "summary": "None", "logo": "None", "latitude": 50.663565, "longitude": -114.28559999999999}, "857320774RR0001": {"name": "TURNING LEAF COMMUNITY SUPPORT SERVICES INCORPORATED", "designationCode": "C", "categoryCode": "01", "address": "2 FLOOR                       2585 PORTAGE AVE", "city": "WINNIPEG", "province": "MB", "country": "CA", "postalCode": "R3J0P5", "twitter": "None", "instagram": "None", "facebook": "None", "youtube": "None", "website": "None", "summary": "None", "logo": "None", "latitude": 49.87598108523269, "longitude": -97.26471280930821}, "871935953RR0001": {"name": "TURNING PAGES YOUTH CARE HOME INC.", "designationCode": "C", "categoryCode": "09", "address": "303 BUCKWOLD COVE", "city": "SASKATOON", "province": "SK", "country": "CA", "postalCode": "S7N4V9", "twitter": "None", "instagram": "None", "facebook": "None", "youtube": "None", "website": "None", "summary": "None", "logo": "None", "latitude": 52.12845385457893, "longitude": -106.57165151076272}, "118807577RR0001": {"name": "TURNING POINT BAPTIST CHURCH", "designationCode": "C", "categoryCode": "31", "address": "744 CANAAN RD", "city": "AYLESFORD", "province": "NS", "country": "CA", "postalCode": "B0P1C0", "twitter": "None", "instagram": "None", "facebook": "None", "youtube": "None", "website": "None", "summary": "None", "logo": "None", "latitude": 44.97464859205175, "longitude": -64.76485224698526}, "878276922RR0001": {"name": "TURNING POINT CHRISTIAN MINISTRIES", "designationCode": "C", "categoryCode": "39", "address": "89 BURNBANK ST", "city": "NEPEAN", "province": "ON", "country": "CA", "postalCode": "K2G0H5", "twitter": "None", "instagram": "None", "facebook": "None", "youtube": "None", "website": "None", "summary": "None", "logo": "None", "latitude": 45.31676651292617, "longitude": -75.7300736826417}, "856592936RR0001": {"name": "TURNING POINT ENSEMBLE", "designationCode": "C", "categoryCode": "22", "address": "2227 13TH AVE W", "city": "VANCOUVER", "province": "BC", "country": "CA", "postalCode": "V6K2S4", "twitter": "None", "instagram": "None", "facebook": "None", "youtube": "None", "website": "None", "summary": "None", "logo": "None", "latitude": 49.260198732737784, "longitude": -123.156102438103}, "817420078RR0001": {"name": "TURNING POINT FOR GOD OF CANADA", "designationCode": "C", "categoryCode": "47", "address": "PO BOX 70509 RPO OAK", "city": "VANCOUVER", "province": "BC", "country": "CA", "postalCode": "V6M0A3", "twitter": "None", "instagram": "None", "facebook": "None", "youtube": "None", "website": "None", "summary": "None", "logo": "None", "latitude": 49.23395761228293, "longitude": -123.12809972120922}, "119272904RR0001": {"name": "TURNING POINT INCORPORATED", "designationCode": "C", "categoryCode": "57", "address": "612 MORNINGTON AVE", "city": "LONDON", "province": "ON", "country": "CA", "postalCode": "N5Y3G1", "twitter": "None", "instagram": "None", "facebook": "None", "youtube": "None", "website": "None", "summary": "None", "logo": "None", "latitude": 43.00547203158111, "longitude": -81.21228747379521}, "864511191RR0001": {"name": "TURNING POINT RECOVERY FOUNDATION", "designationCode": "A", "categoryCode": "03", "address": "260 - 7000 MINORU BLVD", "city": "RICHMOND", "province": "BC", "country": "CA", "postalCode": "V6Y3Z5", "twitter": "None", "instagram": "None", "facebook": "None", "youtube": "None", "website": "None", "summary": "None", "logo": "None", "latitude": 49.162613713471075, "longitude": -123.14016571347106}, "107691552RR0001": {"name": "TURNING POINT YOUTH SERVICES", "designationCode": "C", "categoryCode": "01", "address": "95 WELLESLEY STREET EAST", "city": "TORONTO", "province": "ON", "country": "CA", "postalCode": "M4Y2X9", "twitter": "None", "instagram": "None", "facebook": "None", "youtube": "None", "website": "None", "summary": "None", "logo": "None", "latitude": 43.66602086037867, "longitude": -79.37924601220502}, "885844969RR0001": {"name": "TURTLE GARDENS SPAY NEUTER SOCIETY", "designationCode": "C", "categoryCode": "54", "address": "BOX 230 20978 SEVERSON RD", "city": "TOPLEY", "province": "BC", "country": "CA", "postalCode": "V0J2Y0", "twitter": "None", "instagram": "None", "facebook": "None", "youtube": "None", "website": "None", "summary": "None", "logo": "None", "latitude": 54.503980738794475, "longitude": -126.31137492154724}, "855546503RR0001": {"name": "TURTLE LAKE BIBLE CAMP INC.", "designationCode": "C", "categoryCode": "56", "address": "P. O. BOX 98", "city": "LIVELONG", "province": "SK", "country": "CA", "postalCode": "S0M1J0", "twitter": "None", "instagram": "None", "facebook": "None", "youtube": "None", "website": "None", "summary": "None", "logo": "None", "latitude": 53.446839000000054, "longitude": -108.70880299999993}, "107396905RR0033": {"name": "TURTLE LAKE FOURSQUARE MISSION", "designationCode": "C", "categoryCode": "39", "address": "P.O. BOX 98", "city": "LIVELONG", "province": "SK", "country": "CA", "postalCode": "S0M1J0", "twitter": "None", "instagram": "None", "facebook": "None", "youtube": "None", "website": "None", "summary": "None", "logo": "None", "latitude": 53.446839000000054, "longitude": -108.70880299999993}, "107764573RR0029": {"name": "TURTLE MOUNTAIN BIBLE CAMP OF BOISSEVAIN, MB", "designationCode": "C", "categoryCode": "49", "address": "PO BOX 1198", "city": "BOISSEVAIN", "province": "MB", "country": "CA", "postalCode": "R0K0E0", "twitter": "None", "instagram": "None", "facebook": "None", "youtube": "None", "website": "None", "summary": "None", "logo": "None", "latitude": 49.23156000000006, "longitude": -100.05945999999994}, "108145533RR0001": {"name": "TURTLE MOUNTAIN CONSERVATION DISTRICT NO.4", "designationCode": "C", "categoryCode": "52", "address": "PO 508", "city": "DELORAINE", "province": "MB", "country": "CA", "postalCode": "R0M0M0", "twitter": "None", "instagram": "None", "facebook": "None", "youtube": "None", "website": "None", "summary": "None", "logo": "None", "latitude": 49.19157000000007, "longitude": -100.49399999999997}, "893347971RR0001": {"name": "TURTLE MOUNTAIN FLYWHEEL CLUB INC.", "designationCode": "C", "categoryCode": "50", "address": "BOX 785", "city": "KILLARNEY", "province": "MB", "country": "CA", "postalCode": "R0K1G0", "twitter": "None", "instagram": "None", "facebook": "None", "youtube": "None", "website": "None", "summary": "None", "logo": "None", "latitude": 49.18482000000006, "longitude": -99.66915999999998}, "130498462RR0001": {"name": "TURTLE MOUNTAIN SCHOOL DIVISION", "designationCode": "C", "categoryCode": "20", "address": "BOX 280", "city": "KILLARNEY", "province": "MB", "country": "CA", "postalCode": "R0K1G0", "twitter": "None", "instagram": "None", "facebook": "None", "youtube": "None", "website": "None", "summary": "None", "logo": "None", "latitude": 49.18482000000006, "longitude": -99.66915999999998}, "108145590RR0001": {"name": "TURTLE PARK CO-OPERATIVE CHILD CARE", "designationCode": "C", "categoryCode": "01", "address": "3100 20TH AVE", "city": "REGINA", "province": "SK", "country": "CA", "postalCode": "S4S0N8", "twitter": "None", "instagram": "None", "facebook": "None", "youtube": "None", "website": "None", "summary": "None", "logo": "None", "latitude": 50.43341667016056, "longitude": -104.62549467016056}, "127280667RR0001": {"name": "TURTLE RIVER SCHOOL DIVISION", "designationCode": "C", "categoryCode": "20", "address": "P.O. BOX 309", "city": "MCCREARY", "province": "MB", "country": "CA", "postalCode": "R0J1B0", "twitter": "None", "instagram": "None", "facebook": "None", "youtube": "None", "website": "None", "summary": "None", "logo": "None", "latitude": 50.772380000000055, "longitude": -99.49212999999997}, "108145632RR0001": {"name": "TURTLE RIVER WATERSHED CONSERVATION DISTRICT #2", "designationCode": "C", "categoryCode": "52", "address": "PO 449", "city": "STE ROSE DU LAC", "province": "MB", "country": "CA", "postalCode": "R0L1S0", "twitter": "None", "instagram": "None", "facebook": "None", "youtube": "None", "website": "None", "summary": "None", "logo": "None", "latitude": 51.06107000000003, "longitude": -99.52398999999997}, "119272946RR0001": {"name": "TURTLEFORD AND DISTRICT MUSEUM BOARD", "designationCode": "C", "categoryCode": "50", "address": "BOX 43", "city": "TURTLEFORD", "province": "SK", "country": "CA", "postalCode": "S0M2Y0", "twitter": "None", "instagram": "None", "facebook": "None", "youtube": "None", "website": "None", "summary": "None", "logo": "None", "latitude": 53.38348000000008, "longitude": -108.95143999999999}, "119272953RR0001": {"name": "TURTLEFORD AND DISTRICT RECREATIONAL ASSOCIATION INC", "designationCode": "C", "categoryCode": "56", "address": "BOX 406", "city": "TURTLEFORD", "province": "SK", "country": "CA", "postalCode": "S0M2Y0", "twitter": "None", "instagram": "None", "facebook": "None", "youtube": "None", "website": "None", "summary": "None", "logo": "None", "latitude": 53.38348000000008, "longitude": -108.95143999999999}, "119272961RR0001": {"name": "TURTLEFORD BAPTIST CHURCH INC", "designationCode": "C", "categoryCode": "31", "address": "PO BOX 295", "city": "TURTLEFORD", "province": "SK", "country": "CA", "postalCode": "S0M2Y0", "twitter": "None", "instagram": "None", "facebook": "None", "youtube": "None", "website": "None", "summary": "None", "logo": "None", "latitude": 53.38348000000008, "longitude": -108.95143999999999}, "843582743RR0001": {"name": "TUSCANY SCHOOL ENHANCEMENT SOCIETY", "designationCode": "C", "categoryCode": "21", "address": "36 TUSCANY HILLS CLOSE NW", "city": "CALGARY", "province": "AB", "country": "CA", "postalCode": "T3L2E6", "twitter": "None", "instagram": "None", "facebook": "None", "youtube": "None", "website": "None", "summary": "None", "logo": "None", "latitude": 51.11916966388714, "longitude": -114.24395581626176}, "889837191RR0001": {"name": "TUSKET LAKES CEMETERY COMPANY", "designationCode": "C", "categoryCode": "59", "address": "682 MAIN ST", "city": "YARMOUTH", "province": "NS", "country": "CA", "postalCode": "B5A1K3", "twitter": "None", "instagram": "None", "facebook": "None", "youtube": "None", "website": "None", "summary": "None", "logo": "None", "latitude": 43.855247986121526, "longitude": -66.11276891078528}, "890807985RR0001": {"name": "TUSKET RIVER ENVIRONMENTAL PROTECTION ASSOCIATION", "designationCode": "C", "categoryCode": "59", "address": "PO BOX 103", "city": "TUSKET", "province": "NS", "country": "CA", "postalCode": "B0W3M0", "twitter": "None", "instagram": "None", "facebook": "None", "youtube": "None", "website": "None", "summary": "None", "logo": "None", "latitude": 43.92724200000005, "longitude": -65.89714399999993}, "817414022RR0001": {"name": "TUUM Est Foundation", "designationCode": "A", "categoryCode": "03", "address": "1250-1500 WEST GEORGIA ST     BOX 62", "city": "VANCOUVER", "province": "BC", "country": "CA", "postalCode": "V6G2Z6", "twitter": "None", "instagram": "None", "facebook": "None", "youtube": "None", "website": "None", "summary": "None", "logo": "None", "latitude": 49.290187500000016, "longitude": -123.130035}, "119273035RR0001": {"name": "TUXEDO COMMUNITY CENTRE INC", "designationCode": "C", "categoryCode": "56", "address": "368 SOUTHPORT BLVD", "city": "WINNIPEG", "province": "MB", "country": "CA", "postalCode": "R3P0S9", "twitter": "None", "instagram": "None", "facebook": "None", "youtube": "None", "website": "None", "summary": "None", "logo": "None", "latitude": 49.86501736176698, "longitude": -97.21454994570476}, "119288918RR0238": {"name": "TUXEDO PARK CONGREGATION OF JEHOVAH'S WITNESSES, CALGARY, AB", "designationCode": "C", "categoryCode": "61", "address": "3102 CENTRE ST.N.E.", "city": "CALGARY", "province": "AB", "country": "CA", "postalCode": "T2E2X4", "twitter": "None", "instagram": "None", "facebook": "None", "youtube": "None", "website": "None", "summary": "None", "logo": "None", "latitude": 51.079824, "longitude": -114.06249879695896}, "886392794RR0001": {"name": "TUXIS PARLIAMENTARY ALUMNI SOCIETY OF ALBERTA", "designationCode": "C", "categoryCode": "29", "address": "3609-36 AVE", "city": "LEDUC", "province": "AB", "country": "CA", "postalCode": "T9E6G6", "twitter": "None", "instagram": "None", "facebook": "None", "youtube": "None", "website": "None", "summary": "None", "logo": "None", "latitude": 53.24908253952926, "longitude": -113.52419522176693}, "123437196RR0001": {"name": "TVLT NEW MEDIA LANGUAGE TRAINING/ENTRAINEMENT DE LANGUE PAR MEDIAS NOVATEURS ELTV", "designationCode": "C", "categoryCode": "29", "address": "144 MARLBOROUGH AVE", "city": "OTTAWA", "province": "ON", "country": "CA", "postalCode": "K1N8G2", "twitter": "None", "instagram": "None", "facebook": "None", "youtube": "None", "website": "None", "summary": "None", "logo": "None", "latitude": 45.42433675714126, "longitude": -75.67206543479128}, "134330810RR0001": {"name": "TWEED & AREA HISTORICAL SOCIETY", "designationCode": "C", "categoryCode": "50", "address": "P.O. BOX 665", "city": "TWEED", "province": "ON", "country": "CA", "postalCode": "K0K3J0", "twitter": "None", "instagram": "None", "facebook": "None", "youtube": "None", "website": "None", "summary": "None", "logo": "None", "latitude": 44.51884534534283, "longitude": -77.11593882304619}, "868559279RR0001": {"name": "TWEED & DISTRICT HORTICULTURAL SOCIETY", "designationCode": "C", "categoryCode": "56", "address": "P O BOX 591", "city": "TWEED", "province": "ON", "country": "CA", "postalCode": "K0K3J0", "twitter": "None", "instagram": "None", "facebook": "None", "youtube": "None", "website": "None", "summary": "None", "logo": "None", "latitude": 44.51884534534283, "longitude": -77.11593882304619}, "119273050RR0001": {"name": "TWEED PENTECOSTAL CHURCH", "designationCode": "C", "categoryCode": "36", "address": "PO BOX 182", "city": "TWEED", "province": "ON", "country": "CA", "postalCode": "K0K3J0", "twitter": "None", "instagram": "None", "facebook": "None", "youtube": "None", "website": "None", "summary": "None", "logo": "None", "latitude": 44.51884534534283, "longitude": -77.11593882304619}, "108145806RR0001": {"name": "TWEED PUBLIC LIBRARY", "designationCode": "C", "categoryCode": "50", "address": "P. O. BOX: 628", "city": "TWEED", "province": "ON", "country": "CA", "postalCode": "K0K3J0", "twitter": "None", "instagram": "None", "facebook": "None", "youtube": "None", "website": "None", "summary": "None", "logo": "None", "latitude": 44.51884534534283, "longitude": -77.11593882304619}, "898736418RR0001": {"name": "TWEEDLEDUM FOUNDATION", "designationCode": "B", "categoryCode": "03", "address": "1600 - 333 SEYMOUR ST", "city": "VANCOUVER", "province": "BC", "country": "CA", "postalCode": "V6B0A4", "twitter": "None", "instagram": "None", "facebook": "None", "youtube": "None", "website": "None", "summary": "None", "logo": "None", "latitude": 49.28514037942167, "longitude": -123.11218777257757}, "108145830RR0001": {"name": "TWEEDSMUIR MEMORIAL PRESBYTERIAN CHURCH", "designationCode": "C", "categoryCode": "37", "address": "P.O. BOX 276, STN A", "city": "ORANGEVILLE", "province": "ON", "country": "CA", "postalCode": "L9W2Z7", "twitter": "None", "instagram": "None", "facebook": "None", "youtube": "None", "website": "None", "summary": "None", "logo": "None", "latitude": 43.892658732251896, "longitude": -80.27525271500956}, "141132738RR0001": {"name": "TWEEN VALLEY FELLOWSHIP/TWEEN VALLEY CHRISTIAN SCHOOL", "designationCode": "C", "categoryCode": "47", "address": "PO BOX 4297", "city": "TABER", "province": "AB", "country": "CA", "postalCode": "T1G2C7", "twitter": "None", "instagram": "None", "facebook": "None", "youtube": "None", "website": "None", "summary": "None", "logo": "None", "latitude": 49.787853000000055, "longitude": -112.12714249999993}, "889014593RR0001": {"name": "TWELVE BASKETS FOOD BANK ASSOCIATION", "designationCode": "C", "categoryCode": "09", "address": "9326 HIGHWAY 10               RR 3", "city": "MIDDLETON", "province": "NS", "country": "CA", "postalCode": "B0S1P0", "twitter": "None", "instagram": "None", "facebook": "None", "youtube": "None", "website": "None", "summary": "None", "logo": "None", "latitude": 44.925757678230994, "longitude": -65.04776999218946}}