{"122078611RR0001": {"name": "FONDATION EDUCATIVE CVR / CVR EDUCATIONAL FOUNDATION", "designationCode": "C", "categoryCode": "21", "address": "PATRICIA BELISLE, SECRETARY   1597 ROUTE 138A", "city": "ORMSTOWN", "province": "QC", "country": "CA", "postalCode": "J0S1K0", "twitter": "None", "instagram": "None", "facebook": "None", "youtube": "None", "website": "None", "summary": "None", "logo": "None", "latitude": 45.12389441757242, "longitude": -74.01296017679098}, "898128244RR0001": {"name": "FONDATION EDUCATIVE LA PETITE ECOLE", "designationCode": "C", "categoryCode": "21", "address": "126 RUE LOGAN", "city": "SAINT-LAMBERT", "province": "QC", "country": "CA", "postalCode": "J4P1H2", "twitter": "None", "instagram": "None", "facebook": "None", "youtube": "None", "website": "None", "summary": "None", "logo": "None", "latitude": 45.505187223988635, "longitude": -73.51503955109911}, "129888053RR0001": {"name": "FONDATION EDWARD ASSH", "designationCode": "B", "categoryCode": "15", "address": "80 AVE DU COLLEGE", "city": "QU\u00c9BEC", "province": "QC", "country": "CA", "postalCode": "G1E2Y1", "twitter": "None", "instagram": "None", "facebook": "None", "youtube": "None", "website": "None", "summary": "None", "logo": "None", "latitude": 46.86056186037866, "longitude": -71.18443589993657}, "122078629RR0001": {"name": "FONDATION EL HASHORESH CANADA", "designationCode": "C", "categoryCode": "42", "address": "5696 AV. CLANRANALD", "city": "MONTREAL", "province": "QC", "country": "CA", "postalCode": "H3X2S8", "twitter": "None", "instagram": "None", "facebook": "None", "youtube": "None", "website": "None", "summary": "None", "logo": "None", "latitude": 45.48548376406617, "longitude": -73.64123535180897}, "107290561RR0001": {"name": "FONDATION ELDEE-ELDEE FOUNDATION", "designationCode": "B", "categoryCode": "03", "address": "5250 FERRIER, SUITE 814", "city": "MONTREAL", "province": "QC", "country": "CA", "postalCode": "H4P2N7", "twitter": "None", "instagram": "None", "facebook": "None", "youtube": "None", "website": "None", "summary": "None", "logo": "None", "latitude": 45.49819035913793, "longitude": -73.65688247778299}, "821744679RR0001": {"name": "FONDATION ELOIZE", "designationCode": "A", "categoryCode": "23", "address": "417 RUE BERRI", "city": "MONTREAL", "province": "QC", "country": "CA", "postalCode": "H2Y3E1", "twitter": "None", "instagram": "None", "facebook": "None", "youtube": "None", "website": "None", "summary": "None", "logo": "None", "latitude": 45.51132215404807, "longitude": -73.55123573091353}, "140938523RR0001": {"name": "FONDATION EMILE-Z-LAVIOLETTE", "designationCode": "A", "categoryCode": "03", "address": "3101, RUE DE L'\u00c9GLISE", "city": "SAINTE-MARTHE-SUR-LE-LAC", "province": "QC", "country": "CA", "postalCode": "J0N1P0", "twitter": "None", "instagram": "None", "facebook": "None", "youtube": "None", "website": "None", "summary": "None", "logo": "None", "latitude": 45.529818125223294, "longitude": -73.94106947841723}, "118922830RR0001": {"name": "FONDATION EMILIE JAURON", "designationCode": "A", "categoryCode": "09", "address": "16470 BOURDAGES SUD", "city": "ST-HYACINTHE", "province": "QC", "country": "CA", "postalCode": "J2T4J8", "twitter": "None", "instagram": "None", "facebook": "None", "youtube": "None", "website": "None", "summary": "None", "logo": "None", "latitude": 45.616190349211905, "longitude": -72.9427241230025}, "886606870RR0001": {"name": "FONDATION EMILIE-RUFIANGE", "designationCode": "C", "categoryCode": "19", "address": "177 CHEMIN ST-LOUIS", "city": "BEAUHARNOIS", "province": "QC", "country": "CA", "postalCode": "J6N2H8", "twitter": "None", "instagram": "None", "facebook": "None", "youtube": "None", "website": "None", "summary": "None", "logo": "None", "latitude": 45.31232012683941, "longitude": -73.87879229046675}, "864763537RR0001": {"name": "FONDATION EMILIEN DUMAIS INC.", "designationCode": "A", "categoryCode": "03", "address": "2551 ST-DOMINIQUE", "city": "JONQUIERE", "province": "QC", "country": "CA", "postalCode": "G7X6J6", "twitter": "None", "instagram": "None", "facebook": "None", "youtube": "None", "website": "None", "summary": "None", "logo": "None", "latitude": 48.408797927385095, "longitude": -71.25755866584996}, "118922848RR0001": {"name": "FONDATION EN ADAPTATION MOTRICE FAM INC.", "designationCode": "C", "categoryCode": "09", "address": "1641, DUCLAUX", "city": "L'ANCIENNE-LORETTE", "province": "QC", "country": "CA", "postalCode": "G2E2M2", "twitter": "None", "instagram": "None", "facebook": "None", "youtube": "None", "website": "None", "summary": "None", "logo": "None", "latitude": 46.81149814377629, "longitude": -71.34772368108383}, "888915550RR0001": {"name": "FONDATION EN HORTICULTURE ORNEMENTALE DE L'I.T.A. DE SAINT-HYACINTHE", "designationCode": "C", "categoryCode": "52", "address": "3230 RUE SICOTTE", "city": "SAINT-HYACINTHE", "province": "QC", "country": "CA", "postalCode": "J2S2M2", "twitter": "None", "instagram": "None", "facebook": "None", "youtube": "None", "website": "None", "summary": "None", "logo": "None", "latitude": 45.61901331163577, "longitude": -72.96433187752315}, "889755971RR0001": {"name": "FONDATION ENFANTS CAMBODGIENS INC", "designationCode": "C", "categoryCode": "01", "address": "3733, JARRY EST", "city": "MONTREAL", "province": "QC", "country": "CA", "postalCode": "H1Z2G1", "twitter": "None", "instagram": "None", "facebook": "None", "youtube": "None", "website": "None", "summary": "None", "logo": "None", "latitude": 45.56871068027579, "longitude": -73.60519657496089}, "864201579RR0001": {"name": "FONDATION ENFANTS ESPOIR DU QUEBEC", "designationCode": "B", "categoryCode": "13", "address": "1574, DUVERNAY", "city": "CHAMBLY", "province": "QC", "country": "CA", "postalCode": "J3L5T4", "twitter": "None", "instagram": "None", "facebook": "None", "youtube": "None", "website": "None", "summary": "None", "logo": "None", "latitude": 45.433047699953946, "longitude": -73.28421606578563}, "864961230RR0001": {"name": "FONDATION ENTRAIDE ET SCOLARIT\u00c9 RICHELIEU", "designationCode": "C", "categoryCode": "21", "address": "1085 RUE LEMIRE", "city": "ROUYN-NORANDA", "province": "QC", "country": "CA", "postalCode": "J9X6W4", "twitter": "None", "instagram": "None", "facebook": "None", "youtube": "None", "website": "None", "summary": "None", "logo": "None", "latitude": 48.225137814328534, "longitude": -78.99324476643207}, "889997771RR0001": {"name": "FONDATION ENTREPRENEURIALE CHRETIENNE CHRISTIAN ENTREPRENEURIAL FOUNDATION", "designationCode": "B", "categoryCode": "05", "address": "3315, BOUL. SAINTE-ANNE", "city": "QU\u00c9BEC", "province": "QC", "country": "CA", "postalCode": "G1E3K8", "twitter": "None", "instagram": "None", "facebook": "None", "youtube": "None", "website": "None", "summary": "None", "logo": "None", "latitude": 46.84935048739096, "longitude": -71.20667410173685}, "890643919RR0001": {"name": "FONDATION ERNEST SIMARD", "designationCode": "C", "categoryCode": "09", "address": "57 RUE JULES-A.-BRILLANT", "city": "RIMOUSKI", "province": "QC", "country": "CA", "postalCode": "G5L1X1", "twitter": "None", "instagram": "None", "facebook": "None", "youtube": "None", "website": "None", "summary": "None", "logo": "None", "latitude": 48.450949471262135, "longitude": -68.52314706950787}, "877222000RR0001": {"name": "FONDATION ESPOIR D'ENFANTS", "designationCode": "C", "categoryCode": "09", "address": "711 RUE DALQUIER", "city": "SAINTEFOY", "province": "QC", "country": "CA", "postalCode": "G1V3H4", "twitter": "None", "instagram": "None", "facebook": "None", "youtube": "None", "website": "None", "summary": "None", "logo": "None", "latitude": 46.78363697198329, "longitude": -71.30502009867844}, "856732409RR0001": {"name": "FONDATION ESPOIR-JEUNESSE-ARGENTEUIL", "designationCode": "C", "categoryCode": "09", "address": "B - 410 RUE PRINCIPALE", "city": "LACHUTE", "province": "QC", "country": "CA", "postalCode": "J8H1Y2", "twitter": "None", "instagram": "None", "facebook": "None", "youtube": "None", "website": "None", "summary": "None", "logo": "None", "latitude": 45.656150732702535, "longitude": -74.33814629932489}, "858531924RR0001": {"name": "FONDATION ESPRIT DE CORPS", "designationCode": "B", "categoryCode": "03", "address": "257 ST FERDINAND", "city": "MONTR\u00c9AL", "province": "QC", "country": "CA", "postalCode": "H4C2S6", "twitter": "None", "instagram": "None", "facebook": "None", "youtube": "None", "website": "None", "summary": "None", "logo": "None", "latitude": 45.47555523203872, "longitude": -73.58349956826713}, "888910031RR0001": {"name": "FONDATION ESTRIENNE EN ENVIRONNEMENT INC.", "designationCode": "C", "categoryCode": "53", "address": "740 GALT OUEST                2E ETAGE", "city": "SHERBROOKE", "province": "QC", "country": "CA", "postalCode": "J1H1Z3", "twitter": "None", "instagram": "None", "facebook": "None", "youtube": "None", "website": "None", "summary": "None", "logo": "None", "latitude": 45.39404533675291, "longitude": -71.89697082549135}, "130813629RR0001": {"name": "FONDATION EULALIE-DUROCHER", "designationCode": "C", "categoryCode": "21", "address": "857 RUE RIVERSIDE", "city": "SAINT LAMBERT", "province": "QC", "country": "CA", "postalCode": "J4P1C2", "twitter": "None", "instagram": "None", "facebook": "None", "youtube": "None", "website": "None", "summary": "None", "logo": "None", "latitude": 45.51552710242935, "longitude": -73.5183482322412}, "118922913RR0001": {"name": "FONDATION EXCEL", "designationCode": "C", "categoryCode": "21", "address": "596 4 IEME RUE", "city": "CHIBOUGAMAU", "province": "QC", "country": "CA", "postalCode": "G8P1S3", "twitter": "None", "instagram": "None", "facebook": "None", "youtube": "None", "website": "None", "summary": "None", "logo": "None", "latitude": 49.91266251067582, "longitude": -74.36518247155058}, "891730368RR0001": {"name": "FONDATION EXCELLENCE DE JOUTEL, MATAGAMI ET DE RADISSON", "designationCode": "C", "categoryCode": "21", "address": "C.P. 970", "city": "MATAGAMI", "province": "QC", "country": "CA", "postalCode": "J0Y2A0", "twitter": "None", "instagram": "None", "facebook": "None", "youtube": "None", "website": "None", "summary": "None", "logo": "None", "latitude": 49.75698627944651, "longitude": -77.63618899160863}, "889577110RR0001": {"name": "FONDATION EXTERNAT SAINT-COEUR DE MARIE", "designationCode": "C", "categoryCode": "21", "address": "30 AVENUE DES CASCADES", "city": "BEAUPORT", "province": "QC", "country": "CA", "postalCode": "G1E2J8", "twitter": "None", "instagram": "None", "facebook": "None", "youtube": "None", "website": "None", "summary": "None", "logo": "None", "latitude": 46.86371086427381, "longitude": -71.20026688856827}, "848875548RR0001": {"name": "FONDATION F.M.M.", "designationCode": "C", "categoryCode": "21", "address": "C.P. 48623", "city": "MONTREAL", "province": "QC", "country": "CA", "postalCode": "H2V4T8", "twitter": "None", "instagram": "None", "facebook": "None", "youtube": "None", "website": "None", "summary": "None", "logo": "None", "latitude": 45.51412200000006, "longitude": -73.61097199999993}, "118922939RR0001": {"name": "FONDATION F\u00c9LIX GOYER", "designationCode": "A", "categoryCode": "03", "address": "1525, RUE KIROUAC", "city": "LAVAL", "province": "QC", "country": "CA", "postalCode": "H7G4T4", "twitter": "None", "instagram": "None", "facebook": "None", "youtube": "None", "website": "None", "summary": "None", "logo": "None", "latitude": 45.58868962254024, "longitude": -73.69035758217424}, "890118946RR0001": {"name": "FONDATION F\u00c9LIX-LECLERC INC.", "designationCode": "C", "categoryCode": "22", "address": "682 CH. ROYAL", "city": "ST-PIERRE ILE D'ORLEANS", "province": "QC", "country": "CA", "postalCode": "G0A4E0", "twitter": "None", "instagram": "None", "facebook": "None", "youtube": "None", "website": "None", "summary": "None", "logo": "None", "latitude": 46.87599640129291, "longitude": -71.09524768451763}, "139189005RR0001": {"name": "FONDATION FAMIJEUNES SAINT-HENRI", "designationCode": "A", "categoryCode": "53", "address": "3904 RUE NOTRE-DAME O", "city": "MONTREAL", "province": "QC", "country": "CA", "postalCode": "H4C1R1", "twitter": "None", "instagram": "None", "facebook": "None", "youtube": "None", "website": "None", "summary": "None", "logo": "None", "latitude": 45.47843036190787, "longitude": -73.58305790339904}, "118920651RR0001": {"name": "FONDATION FAMILLE BENOIT", "designationCode": "B", "categoryCode": "03", "address": "2170 BOUL RENE-LEVESQUE O     BUREAU 400", "city": "MONTREAL", "province": "QC", "country": "CA", "postalCode": "H3H2T8", "twitter": "None", "instagram": "None", "facebook": "None", "youtube": "None", "website": "None", "summary": "None", "logo": "None", "latitude": 45.48904017926618, "longitude": -73.58063770105048}, "871098919RR0001": {"name": "FONDATION FAMILLE JULES DALLAIRE", "designationCode": "B", "categoryCode": "03", "address": "1050-2820 BOUL LAURIER", "city": "QU\u00c9BEC", "province": "QC", "country": "CA", "postalCode": "G1V0C1", "twitter": "None", "instagram": "None", "facebook": "None", "youtube": "None", "website": "None", "summary": "None", "logo": "None", "latitude": 46.76763390397595, "longitude": -71.28780633112119}, "869028001RR0001": {"name": "FONDATION FAMILLE NEZRI", "designationCode": "B", "categoryCode": "03", "address": "1981 AV MCGILL COLLEGE        11 FLOOR", "city": "MONTREAL", "province": "QC", "country": "CA", "postalCode": "H3A0G6", "twitter": "None", "instagram": "None", "facebook": "None", "youtube": "None", "website": "None", "summary": "None", "logo": "None", "latitude": 45.50305997394517, "longitude": -73.57323951800474}, "892009242RR0001": {"name": "FONDATION FAMILLES ET JEUNESSE DE MASCOUCHE INC.", "designationCode": "C", "categoryCode": "49", "address": "2441 LIMOGES", "city": "MASCOUCHE", "province": "QC", "country": "CA", "postalCode": "J7K0B9", "twitter": "None", "instagram": "None", "facebook": "None", "youtube": "None", "website": "None", "summary": "None", "logo": "None", "latitude": 45.762268389405, "longitude": -73.61524074773484}, "136061637RR0001": {"name": "FONDATION FARHA/FARHA FOUNDATION", "designationCode": "B", "categoryCode": "03", "address": "100-576 SAINTE-CATHERINE EST", "city": "MONTR\u00c9AL", "province": "QC", "country": "CA", "postalCode": "H2L2E1", "twitter": "None", "instagram": "None", "facebook": "None", "youtube": "None", "website": "None", "summary": "None", "logo": "None", "latitude": 45.51814122806367, "longitude": -73.55642571896031}, "101747103RR0001": {"name": "FONDATION FAST/FAST FOUNDATION", "designationCode": "B", "categoryCode": "53", "address": "199 BAY STREET - SUITE 5300   COMMERCE COURT WEST", "city": "TORONTO", "province": "ON", "country": "CA", "postalCode": "M5L1B9", "twitter": "None", "instagram": "None", "facebook": "None", "youtube": "None", "website": "None", "summary": "None", "logo": "None", "latitude": 43.64868300000006, "longitude": -79.38544399999994}, "893024166RR0001": {"name": "FONDATION FEMMES ET LOIS", "designationCode": "A", "categoryCode": "03", "address": "518, RUE CHARTRAND", "city": "SAINT-JEAN-SUR-RICHELIEU", "province": "QC", "country": "CA", "postalCode": "J3A2A6", "twitter": "None", "instagram": "None", "facebook": "None", "youtube": "None", "website": "None", "summary": "None", "logo": "None", "latitude": 45.33842047403208, "longitude": -73.27807272300768}, "871944823RR0001": {"name": "FONDATION FERNAND BROUILLETTE", "designationCode": "B", "categoryCode": "03", "address": "233 CH DU MONT-ECHO", "city": "KNOWLTON", "province": "QC", "country": "CA", "postalCode": "J0E1V0", "twitter": "None", "instagram": "None", "facebook": "None", "youtube": "None", "website": "None", "summary": "None", "logo": "None", "latitude": 45.17889243435861, "longitude": -72.49776322612435}, "860599984RR0001": {"name": "FONDATION FERNAND CHALIFOUX", "designationCode": "C", "categoryCode": "21", "address": "112, DE L'\u00c9GLISE              SUITE 204", "city": "DOLBEAU-MISTASSINI", "province": "QC", "country": "CA", "postalCode": "G8L4W4", "twitter": "None", "instagram": "None", "facebook": "None", "youtube": "None", "website": "None", "summary": "None", "logo": "None", "latitude": 48.89189523651076, "longitude": -72.20394653404665}, "138984273RR0001": {"name": "FONDATION FETE D'ENFANT DEDE INC.", "designationCode": "C", "categoryCode": "09", "address": "1-456, RUE SIGNAI", "city": "QUEBEC", "province": "QC", "country": "CA", "postalCode": "G1K5L8", "twitter": "None", "instagram": "None", "facebook": "None", "youtube": "None", "website": "None", "summary": "None", "logo": "None", "latitude": 46.81065216596462, "longitude": -71.23273204053886}, "887126902RR0001": {"name": "FONDATION FILLES D'ACTION / GIRLS ACTION FOUNDATION", "designationCode": "C", "categoryCode": "29", "address": "24, MONT-ROYAL OUEST          SUITE 601", "city": "MONTREAL", "province": "QC", "country": "CA", "postalCode": "H2T2S2", "twitter": "None", "instagram": "None", "facebook": "None", "youtube": "None", "website": "None", "summary": "None", "logo": "None", "latitude": 45.519661603929904, "longitude": -73.58668831998403}, "889911574RR0001": {"name": "FONDATION FLORES", "designationCode": "A", "categoryCode": "03", "address": "252-500 BOUL. DES LAURENTIDES", "city": "SAINT-JEROME", "province": "QC", "country": "CA", "postalCode": "J7Z4M2", "twitter": "None", "instagram": "None", "facebook": "None", "youtube": "None", "website": "None", "summary": "None", "logo": "None", "latitude": 45.76254666340356, "longitude": -73.99269031621277}, "134889880RR0001": {"name": "FONDATION FORCE INC", "designationCode": "C", "categoryCode": "21", "address": "2500 BOUL DE L'UNIVERSITE     P.V.E. LOCAL 118", "city": "SHERBROOKE", "province": "QC", "country": "CA", "postalCode": "J1K2R1", "twitter": "None", "instagram": "None", "facebook": "None", "youtube": "None", "website": "None", "summary": "None", "logo": "None", "latitude": 45.381356656245536, "longitude": -71.93111333807403}, "865860506RR0001": {"name": "FONDATION FORMONS UNE FAMILLE", "designationCode": "C", "categoryCode": "09", "address": "480 BOUL. ROLAND-THERRIEN", "city": "LONGUEUIL", "province": "QC", "country": "CA", "postalCode": "J4H3V9", "twitter": "None", "instagram": "None", "facebook": "None", "youtube": "None", "website": "None", "summary": "None", "logo": "None", "latitude": 45.545967976109544, "longitude": -73.4929690935712}, "889840658RR0001": {"name": "FONDATION FOYER MONSEIGNEUR PAQUIN INC.", "designationCode": "C", "categoryCode": "03", "address": "580 RUE DU COUVENT", "city": "SAINT-TITE DE LAVIOLETTE", "province": "QC", "country": "CA", "postalCode": "G0X3H0", "twitter": "None", "instagram": "None", "facebook": "None", "youtube": "None", "website": "None", "summary": "None", "logo": "None", "latitude": 46.72800930775035, "longitude": -72.56088359668787}, "118923002RR0001": {"name": "FONDATION FR\u00c8RE TH\u00c9ODE INC.", "designationCode": "A", "categoryCode": "23", "address": "125 RUE DU FR\u00c8RE TH\u00c9ODE", "city": "SHERBROOKE", "province": "QC", "country": "CA", "postalCode": "J1C0S3", "twitter": "None", "instagram": "None", "facebook": "None", "youtube": "None", "website": "None", "summary": "None", "logo": "None", "latitude": 45.47260017056607, "longitude": -71.95131900284434}, "865095830RR0001": {"name": "FONDATION FRAN\u00c7OIS BOURGEOIS LT\u00c9E", "designationCode": "B", "categoryCode": "13", "address": "1500, RUE NOTRE-DAME EST", "city": "VICTORIAVILLE", "province": "QC", "country": "CA", "postalCode": "G6P0B4", "twitter": "None", "instagram": "None", "facebook": "None", "youtube": "None", "website": "None", "summary": "None", "logo": "None", "latitude": 46.07416338721197, "longitude": -71.93215823789575}, "836813766RR0001": {"name": "FONDATION FRANCIS ET GENEVI\u00c8VE MELAN\u00c7ON", "designationCode": "B", "categoryCode": "21", "address": "89 RUE DES ROSEAUX", "city": "BLAINVILLE", "province": "QC", "country": "CA", "postalCode": "J7C0E4", "twitter": "None", "instagram": "None", "facebook": "None", "youtube": "None", "website": "None", "summary": "None", "logo": "None", "latitude": 45.671357999134635, "longitude": -73.8456546358131}, "896912755RR0001": {"name": "FONDATION FRANCO-ALBERTAINE", "designationCode": "C", "categoryCode": "21", "address": "#315, 8627 91 STREET", "city": "EDMONTON", "province": "AB", "country": "CA", "postalCode": "T6C3N1", "twitter": "None", "instagram": "None", "facebook": "None", "youtube": "None", "website": "None", "summary": "None", "logo": "None", "latitude": 53.5223435029142, "longitude": -113.46738528455239}, "107391724RR0001": {"name": "FONDATION FRANCO-ONTARIENNE", "designationCode": "A", "categoryCode": "23", "address": "CP 7340, SUCCURSALE VANIER", "city": "VANIER", "province": "ON", "country": "CA", "postalCode": "K1L8E4", "twitter": "None", "instagram": "None", "facebook": "None", "youtube": "None", "website": "None", "summary": "None", "logo": "None", "latitude": 45.43827671989371, "longitude": -75.67756423974313}, "862662095RR0001": {"name": "FONDATION FREDERIC ET JEAN-PAUL LANDRY", "designationCode": "B", "categoryCode": "03", "address": "600 LA GAUCHETIERE O. 28 ETAGESUITE 1762-1", "city": "MONTREAL", "province": "QC", "country": "CA", "postalCode": "H3B4L2", "twitter": "None", "instagram": "None", "facebook": "None", "youtube": "None", "website": "None", "summary": "None", "logo": "None", "latitude": 45.50188920231989, "longitude": -73.56436485827253}, "873446462RR0001": {"name": "FONDATION FRONT-TIERS", "designationCode": "C", "categoryCode": "09", "address": "2761 VAUDREUIL", "city": "SHERBROOKE", "province": "QC", "country": "CA", "postalCode": "J1J2M6", "twitter": "None", "instagram": "None", "facebook": "None", "youtube": "None", "website": "None", "summary": "None", "logo": "None", "latitude": 45.40796974854291, "longitude": -71.93430264406474}, "141552083RR0001": {"name": "FONDATION FULLPOWER-TEENPOWER-KIDPOWER", "designationCode": "C", "categoryCode": "09", "address": "CP 50016 CSP JARRY", "city": "MONTREAL", "province": "QC", "country": "CA", "postalCode": "H2P0A1", "twitter": "None", "instagram": "None", "facebook": "None", "youtube": "None", "website": "None", "summary": "None", "logo": "None", "latitude": 45.53699778874102, "longitude": -73.63246038940956}, "873577225RR0001": {"name": "FONDATION FUS\u00c9E", "designationCode": "C", "categoryCode": "59", "address": "4285 BOUL DE SHAWINIGAN-SUD", "city": "SHAWINIGAN", "province": "QC", "country": "CA", "postalCode": "G9P4G4", "twitter": "None", "instagram": "None", "facebook": "None", "youtube": "None", "website": "None", "summary": "None", "logo": "None", "latitude": 46.50256290593784, "longitude": -72.7271045601884}, "118923119RR0001": {"name": "FONDATION G.M.R.", "designationCode": "A", "categoryCode": "23", "address": "1491 LAIRD", "city": "VILLE MONT-ROYAL", "province": "QC", "country": "CA", "postalCode": "H3P2T6", "twitter": "None", "instagram": "None", "facebook": "None", "youtube": "None", "website": "None", "summary": "None", "logo": "None", "latitude": 45.518857135437756, "longitude": -73.64483334015222}, "882221807RR0001": {"name": "FONDATION G\u00c9RALD S. LORD", "designationCode": "B", "categoryCode": "03", "address": "2012, RUE SAINT-GEORGES", "city": "SAINT-J\u00c9R\u00d4ME", "province": "QC", "country": "CA", "postalCode": "J7Y1M8", "twitter": "None", "instagram": "None", "facebook": "None", "youtube": "None", "website": "None", "summary": "None", "logo": "None", "latitude": 45.79562331305912, "longitude": -74.00636838325856}, "118923069RR0001": {"name": "FONDATION G\u00c9RARD BOSS\u00c9", "designationCode": "A", "categoryCode": "03", "address": "727 COWIE", "city": "GRANBY", "province": "QC", "country": "CA", "postalCode": "J2G3X5", "twitter": "None", "instagram": "None", "facebook": "None", "youtube": "None", "website": "None", "summary": "None", "logo": "None", "latitude": 45.39445346436589, "longitude": -72.75067263918865}, "118934934RR0001": {"name": "FONDATION GAMMA-RHO / GAMMA-RHO FOUNDATION", "designationCode": "B", "categoryCode": "53", "address": "607 - 151 BAY ST", "city": "OTTAWA", "province": "ON", "country": "CA", "postalCode": "K1R7T2", "twitter": "None", "instagram": "None", "facebook": "None", "youtube": "None", "website": "None", "summary": "None", "logo": "None", "latitude": 45.41783613601466, "longitude": -75.70621871547719}, "864448071RR0001": {"name": "FONDATION GARNIERKIDS.COM INC. / GARNIERKIDS FOUNDATION.COM INC.", "designationCode": "A", "categoryCode": "13", "address": "4150 BOUL SAINT-MARTIN O", "city": "LAVAL", "province": "QC", "country": "CA", "postalCode": "H7T1C1", "twitter": "None", "instagram": "None", "facebook": "None", "youtube": "None", "website": "None", "summary": "None", "logo": "None", "latitude": 45.549641086300525, "longitude": -73.76521456604543}, "140495409RR0001": {"name": "FONDATION GASTON L. TREMBLAY DE CHICOUTIMI INC.", "designationCode": "B", "categoryCode": "03", "address": "1299 RUE DES CHAMPS-ELYSEES   BUR.102", "city": "CHICOUTIMI", "province": "QC", "country": "CA", "postalCode": "G7H6P3", "twitter": "None", "instagram": "None", "facebook": "None", "youtube": "None", "website": "None", "summary": "None", "logo": "None", "latitude": 48.405609701915864, "longitude": -71.05169914663315}, "891097347RR0001": {"name": "FONDATION GEMINI", "designationCode": "C", "categoryCode": "59", "address": "2500 BOUL. DANIEL JOHNSON     BUREAU 610", "city": "LAVAL", "province": "QC", "country": "CA", "postalCode": "H7T2P6", "twitter": "None", "instagram": "None", "facebook": "None", "youtube": "None", "website": "None", "summary": "None", "logo": "None", "latitude": 45.56575460669988, "longitude": -73.75397105845668}, "118923036RR0001": {"name": "FONDATION GENERAL VANIER DE L ASSOCIATION DU 22E INC.", "designationCode": "C", "categoryCode": "09", "address": "CASIER POSTAL 6020            SUCCURSALE HAUTE-VILLE", "city": "QUEBEC", "province": "QC", "country": "CA", "postalCode": "G1R4V7", "twitter": "None", "instagram": "None", "facebook": "None", "youtube": "None", "website": "None", "summary": "None", "logo": "None", "latitude": 46.81272300000006, "longitude": -71.21930299999994}, "862944790RR0001": {"name": "FONDATION GEORGES O'DONOUGHUE", "designationCode": "A", "categoryCode": "03", "address": "5625, RUE DECELLES            PAVILLON LALEMANT CASIER 40", "city": "MONTREAL-OUEST", "province": "QC", "country": "CA", "postalCode": "H3T1W4", "twitter": "None", "instagram": "None", "facebook": "None", "youtube": "None", "website": "None", "summary": "None", "logo": "None", "latitude": 45.499533000000056, "longitude": -73.62287899999993}, "118923044RR0001": {"name": "FONDATION GEORGES PERRAS", "designationCode": "C", "categoryCode": "29", "address": "400, RUE LAURIER", "city": "LAVAL", "province": "QC", "country": "CA", "postalCode": "H7N2P6", "twitter": "None", "instagram": "None", "facebook": "None", "youtube": "None", "website": "None", "summary": "None", "logo": "None", "latitude": 45.54729889344438, "longitude": -73.71126409466773}, "883241309RR0001": {"name": "FONDATION GEORGES-HENRI HALLEE", "designationCode": "C", "categoryCode": "52", "address": "825 ROUTE 263", "city": "LAMBTON", "province": "QC", "country": "CA", "postalCode": "G0M1H0", "twitter": "None", "instagram": "None", "facebook": "None", "youtube": "None", "website": "None", "summary": "None", "logo": "None", "latitude": 45.84596527774944, "longitude": -71.14659004456317}, "120839683RR0001": {"name": "FONDATION GEORGETTE-LAVALLEE", "designationCode": "C", "categoryCode": "09", "address": "325, AVENUE DES OBLATS", "city": "QU\u00c9BEC", "province": "QC", "country": "CA", "postalCode": "G1K1R9", "twitter": "None", "instagram": "None", "facebook": "None", "youtube": "None", "website": "None", "summary": "None", "logo": "None", "latitude": 46.81066745294027, "longitude": -71.23685863791924}, "141137729RR0001": {"name": "FONDATION GERARD D. LEVESQUE", "designationCode": "C", "categoryCode": "21", "address": "118 RUE PLAISANCE             C.P. 86", "city": "BONAVENTURE", "province": "QC", "country": "CA", "postalCode": "G0C1E0", "twitter": "None", "instagram": "None", "facebook": "None", "youtube": "None", "website": "None", "summary": "None", "logo": "None", "latitude": 48.054275665820406, "longitude": -65.47672875033192}, "840895072RR0001": {"name": "FONDATION GERMAINE ET FERNAND BERNARD", "designationCode": "B", "categoryCode": "03", "address": "502, AVENUE DOYON", "city": "SAINTE-CLOTILDE-DE-BEAUCE", "province": "QC", "country": "CA", "postalCode": "G0N1C0", "twitter": "None", "instagram": "None", "facebook": "None", "youtube": "None", "website": "None", "summary": "None", "logo": "None", "latitude": 46.124837706907535, "longitude": -71.02824200095229}, "118923093RR0001": {"name": "FONDATION GERMAINE PROVOST ET OSCAR MORIN", "designationCode": "B", "categoryCode": "03", "address": "1002 SHERBROOKE ST.WEST       SUITE 540", "city": "MONTREAL", "province": "QC", "country": "CA", "postalCode": "H3A3L6", "twitter": "None", "instagram": "None", "facebook": "None", "youtube": "None", "website": "None", "summary": "None", "logo": "None", "latitude": 45.502789852876845, "longitude": -73.57558716772498}, "839675543RR0001": {"name": "FONDATION GERMAINE, CLAUDE ET JULES-AIME JACQUES", "designationCode": "B", "categoryCode": "03", "address": "123, 112 RTE O", "city": "VALLEE-JONCTION", "province": "QC", "country": "CA", "postalCode": "G0S3J0", "twitter": "None", "instagram": "None", "facebook": "None", "youtube": "None", "website": "None", "summary": "None", "logo": "None", "latitude": 46.37318416197122, "longitude": -70.93045301217485}, "118923101RR0001": {"name": "FONDATION GIGUERE AUTOMOBILE", "designationCode": "B", "categoryCode": "03", "address": "1823 BOULOGNE A L'ANCIENNE    LAURETTE", "city": "QUEBEC", "province": "QC", "country": "CA", "postalCode": "G2E2T4", "twitter": "None", "instagram": "None", "facebook": "None", "youtube": "None", "website": "None", "summary": "None", "logo": "None", "latitude": 46.81171991646943, "longitude": -71.36082386759202}, "855819983RR0001": {"name": "FONDATION GILBERT CLAES", "designationCode": "C", "categoryCode": "21", "address": "10009 RUE MEREDITH", "city": "QUEBEC", "province": "QC", "country": "CA", "postalCode": "G2B2K2", "twitter": "None", "instagram": "None", "facebook": "None", "youtube": "None", "website": "None", "summary": "None", "logo": "None", "latitude": 46.853746397714865, "longitude": -71.32799387595922}, "829527365RR0001": {"name": "FONDATION GILLES CHATEL", "designationCode": "B", "categoryCode": "03", "address": "6000, CHEMIN DEACON           APPARTEMENT PHD 8", "city": "MONTREAL", "province": "QC", "country": "CA", "postalCode": "H3S2T9", "twitter": "None", "instagram": "None", "facebook": "None", "youtube": "None", "website": "None", "summary": "None", "logo": "None", "latitude": 45.51164062864386, "longitude": -73.61905112588852}, "890298037RR0001": {"name": "FONDATION GILLES KEGLE", "designationCode": "C", "categoryCode": "03", "address": "380, RUE DU PONT", "city": "QUEBEC", "province": "QC", "country": "CA", "postalCode": "G1K6M7", "twitter": "None", "instagram": "None", "facebook": "None", "youtube": "None", "website": "None", "summary": "None", "logo": "None", "latitude": 46.81567331695425, "longitude": -71.22102951056024}, "889917159RR0001": {"name": "FONDATION GINETTE RENO INC.", "designationCode": "B", "categoryCode": "03", "address": "155 JACQUES VIAU", "city": "BOUCHERVILLE", "province": "QC", "country": "CA", "postalCode": "J4B5C2", "twitter": "None", "instagram": "None", "facebook": "None", "youtube": "None", "website": "None", "summary": "None", "logo": "None", "latitude": 45.60610396171151, "longitude": -73.45111272825915}, "868787946RR0001": {"name": "FONDATION GISELE FAUBERT INC", "designationCode": "C", "categoryCode": "03", "address": "34, RUE DES CH\u00caNES", "city": "MERCIER", "province": "QC", "country": "CA", "postalCode": "J6R1X8", "twitter": "None", "instagram": "None", "facebook": "None", "youtube": "None", "website": "None", "summary": "None", "logo": "None", "latitude": 45.30654871663104, "longitude": -73.74100505026237}, "107588501RR0001": {"name": "FONDATION GODEFROY LAVIOLETTE INC.", "designationCode": "C", "categoryCode": "09", "address": "319 RUE ST-GEORGES", "city": "ST-JEROME", "province": "QC", "country": "CA", "postalCode": "J7Z5A2", "twitter": "None", "instagram": "None", "facebook": "None", "youtube": "None", "website": "None", "summary": "None", "logo": "None", "latitude": 45.77662267776561, "longitude": -74.0030553781236}, "118922103RR0001": {"name": "FONDATION GRACE DART/GRACE DART FOUNDATION", "designationCode": "A", "categoryCode": "03", "address": "5155 RUE SAINTE-CATHERINE E", "city": "MONTREAL", "province": "QC", "country": "CA", "postalCode": "H1V2A5", "twitter": "None", "instagram": "None", "facebook": "None", "youtube": "None", "website": "None", "summary": "None", "logo": "None", "latitude": 45.55897315874205, "longitude": -73.52792406058246}, "123345969RR0001": {"name": "FONDATION GRACIA", "designationCode": "A", "categoryCode": "13", "address": "555 BOUL GOUIN OUEST", "city": "MONTREAL", "province": "QC", "country": "CA", "postalCode": "H3L1K5", "twitter": "None", "instagram": "None", "facebook": "None", "youtube": "None", "website": "None", "summary": "None", "logo": "None", "latitude": 45.54712927234643, "longitude": -73.68704843147306}, "840648141RR0001": {"name": "FONDATION GRANDIR EN SANTE", "designationCode": "C", "categoryCode": "21", "address": "78 RUE DU CARDINAL", "city": "SHERBROOKE", "province": "QC", "country": "CA", "postalCode": "J1R0M1", "twitter": "None", "instagram": "None", "facebook": "None", "youtube": "None", "website": "None", "summary": "None", "logo": "None", "latitude": 45.39652503103589, "longitude": -72.01654961102535}, "899791347RR0001": {"name": "FONDATION GREGOIRE/VILLA MEDICA INC", "designationCode": "A", "categoryCode": "21", "address": "225, SHERBROOKE EST", "city": "MONTREAL", "province": "QC", "country": "CA", "postalCode": "H2X1C9", "twitter": "None", "instagram": "None", "facebook": "None", "youtube": "None", "website": "None", "summary": "None", "logo": "None", "latitude": 45.51490701471518, "longitude": -73.56842332878392}, "136438470RR0001": {"name": "FONDATION GREGORY CHARLES", "designationCode": "C", "categoryCode": "22", "address": "100 - 1260 RUE MILL", "city": "MONTREAL", "province": "QC", "country": "CA", "postalCode": "H3K2B4", "twitter": "None", "instagram": "None", "facebook": "None", "youtube": "None", "website": "None", "summary": "None", "logo": "None", "latitude": 45.48844139993658, "longitude": -73.55199246159687}, "870943164RR0001": {"name": "FONDATION GROUPES-PARRAINS quebec-centre inc.", "designationCode": "C", "categoryCode": "09", "address": "50 RUE ST-JOSEPH EST", "city": "QU\u00c9BEC", "province": "QC", "country": "CA", "postalCode": "G1K3A5", "twitter": "None", "instagram": "None", "facebook": "None", "youtube": "None", "website": "None", "summary": "None", "logo": "None", "latitude": 46.81245480434523, "longitude": -71.2301900491372}, "872973607RR0001": {"name": "FONDATION GUIDO MOLINARI-GUIDO MOLINARI FOUNDATION", "designationCode": "C", "categoryCode": "53", "address": "3288 RUE SAINTE-CATHERINE EST", "city": "MONTR\u00c9AL", "province": "QC", "country": "CA", "postalCode": "H1W2C6", "twitter": "None", "instagram": "None", "facebook": "None", "youtube": "None", "website": "None", "summary": "None", "logo": "None", "latitude": 45.54037727754057, "longitude": -73.54038297388786}, "876534413RR0001": {"name": "FONDATION GUS INC.", "designationCode": "C", "categoryCode": "02", "address": "865 RUE DE LAUBERIVIERE", "city": "LEVIS", "province": "QC", "country": "CA", "postalCode": "G6V7M5", "twitter": "None", "instagram": "None", "facebook": "None", "youtube": "None", "website": "None", "summary": "None", "logo": "None", "latitude": 46.759097660020664, "longitude": -71.18235995521928}, "867766024RR0001": {"name": "FONDATION GUY BOURGEOIS CONTRE LE CANCER", "designationCode": "A", "categoryCode": "13", "address": "199 CHEMIN DES PATRIOTES", "city": "ST-CHARLES-SUR-RICHELIEU", "province": "QC", "country": "CA", "postalCode": "J0H2G0", "twitter": "None", "instagram": "None", "facebook": "None", "youtube": "None", "website": "None", "summary": "None", "logo": "None", "latitude": 45.655962411333554, "longitude": -73.1969531846036}, "892558800RR0001": {"name": "FONDATION GUY LALIBERT\u00c9", "designationCode": "B", "categoryCode": "09", "address": "8400 2E AVENUE", "city": "MONTREAL", "province": "QC", "country": "CA", "postalCode": "H1Z4M6", "twitter": "None", "instagram": "None", "facebook": "None", "youtube": "None", "website": "None", "summary": "None", "logo": "None", "latitude": 45.56262351419652, "longitude": -73.61665028362876}, "890906092RR0001": {"name": "FONDATION GUY LEBLANC INC", "designationCode": "C", "categoryCode": "09", "address": "C.P. 1600", "city": "LEBEL-SUR-QUEVILLON", "province": "QC", "country": "CA", "postalCode": "J0X1X0", "twitter": "None", "instagram": "None", "facebook": "None", "youtube": "None", "website": "None", "summary": "None", "logo": "None", "latitude": 46.00473000000005, "longitude": -76.03490599999994}, "881111629RR0001": {"name": "FONDATION GUY PELLETIER", "designationCode": "B", "categoryCode": "03", "address": "2383 ST-DOMINIQUE", "city": "JONQUIERE", "province": "QC", "country": "CA", "postalCode": "G7X6L4", "twitter": "None", "instagram": "None", "facebook": "None", "youtube": "None", "website": "None", "summary": "None", "logo": "None", "latitude": 48.413710215650106, "longitude": -71.25379630832727}, "118923150RR0001": {"name": "FONDATION GUY VANIER", "designationCode": "B", "categoryCode": "45", "address": "425 DE MAISONNEUVE O.SUITE 040", "city": "MONTR\u00c9AL", "province": "QC", "country": "CA", "postalCode": "H3A3G5", "twitter": "None", "instagram": "None", "facebook": "None", "youtube": "None", "website": "None", "summary": "None", "logo": "None", "latitude": 45.50605028088745, "longitude": -73.57003793300228}, "130709389RR0001": {"name": "FONDATION GUY-LESPINAY", "designationCode": "C", "categoryCode": "47", "address": "2715 CH COTE-SAINTE-CATHERINE", "city": "MONTREAL", "province": "QC", "country": "CA", "postalCode": "H3T1B6", "twitter": "None", "instagram": "None", "facebook": "None", "youtube": "None", "website": "None", "summary": "None", "logo": "None", "latitude": 45.50668659703366, "longitude": -73.62023772932606}, "891864647RR0001": {"name": "FONDATION H\u00c9L\u00c8NE-SENTENNE POUR L'AVANCEMENT DES ARTS", "designationCode": "C", "categoryCode": "22", "address": "59 HAENDEL", "city": "CANDIAC", "province": "QC", "country": "CA", "postalCode": "J5R1R7", "twitter": "None", "instagram": "None", "facebook": "None", "youtube": "None", "website": "None", "summary": "None", "logo": "None", "latitude": 45.388943455998685, "longitude": -73.5184966478739}, "866072788RR0001": {"name": "FONDATION H\u00c9MA-QU\u00c9BEC/H\u00c9MA-QU\u00c9BEC FOUNDATION", "designationCode": "A", "categoryCode": "03", "address": "4045 BOUL. DE LA COTE-VERTU", "city": "SAINT-LAURENT", "province": "QC", "country": "CA", "postalCode": "H4R2W7", "twitter": "None", "instagram": "None", "facebook": "None", "youtube": "None", "website": "None", "summary": "None", "logo": "None", "latitude": 45.491099853501055, "longitude": -73.71213253923236}, "871910865RR0001": {"name": "FONDATION H\u00c9RITAGE DE LA CATH\u00c9DRALE D'AMOS", "designationCode": "A", "categoryCode": "43", "address": "11 BOUL. MONSEIGNEUR-DUDEMAINE", "city": "AMOS", "province": "QC", "country": "CA", "postalCode": "J9T1S3", "twitter": "None", "instagram": "None", "facebook": "None", "youtube": "None", "website": "None", "summary": "None", "logo": "None", "latitude": 48.5729463330831, "longitude": -78.11710724649409}, "839295870RR0001": {"name": "FONDATION H\u00c9RITAGE SAINT-BENO\u00ceT DE MIRABEL", "designationCode": "C", "categoryCode": "52", "address": "11910 RANG DE LA FRESNIERE", "city": "MIRABEL", "province": "QC", "country": "CA", "postalCode": "J7N2R9", "twitter": "None", "instagram": "None", "facebook": "None", "youtube": "None", "website": "None", "summary": "None", "logo": "None", "latitude": 45.57295153895233, "longitude": -74.04158900138498}, "868413543RR0001": {"name": "FONDATION H\u00c9RITAGE 2000", "designationCode": "C", "categoryCode": "59", "address": "148, AVENUE BELZILE           BUREAU 207", "city": "RIMOUSKI", "province": "QC", "country": "CA", "postalCode": "G5L3E4", "twitter": "None", "instagram": "None", "facebook": "None", "youtube": "None", "website": "None", "summary": "None", "logo": "None", "latitude": 48.45341289231918, "longitude": -68.5232695331526}, "118925312RR0001": {"name": "FONDATION HA\u00cfTI PARTAGE", "designationCode": "C", "categoryCode": "09", "address": "366 - 6830 AV DU PARC", "city": "MONTREAL", "province": "QC", "country": "CA", "postalCode": "H3N1W7", "twitter": "None", "instagram": "None", "facebook": "None", "youtube": "None", "website": "None", "summary": "None", "logo": "None", "latitude": 45.52886965139367, "longitude": -73.61771531946442}, "888584661RR0001": {"name": "FONDATION HANS SELYE HANS SELYE FOUNDATION", "designationCode": "C", "categoryCode": "11", "address": "5518 AV ELGIN", "city": "COTE SAINT-LUC", "province": "QC", "country": "CA", "postalCode": "H4V2G8", "twitter": "None", "instagram": "None", "facebook": "None", "youtube": "None", "website": "None", "summary": "None", "logo": "None", "latitude": 45.46790746543374, "longitude": -73.65459436470648}, "892003500RR0001": {"name": "FONDATION HAQQANI", "designationCode": "C", "categoryCode": "47", "address": "138 RUE FAIRMOUNT O,.", "city": "MONTREAL", "province": "QC", "country": "CA", "postalCode": "H2T2M5", "twitter": "None", "instagram": "None", "facebook": "None", "youtube": "None", "website": "None", "summary": "None", "logo": "None", "latitude": 45.52215474020437, "longitude": -73.5960283870104}, "118794130RR0001": {"name": "FONDATION HARATAN", "designationCode": "C", "categoryCode": "56", "address": "2380 RUE EUGENE-FISET", "city": "SILLERY", "province": "QC", "country": "CA", "postalCode": "G1T2K1", "twitter": "None", "instagram": "None", "facebook": "None", "youtube": "None", "website": "None", "summary": "None", "logo": "None", "latitude": 46.77260974995655, "longitude": -71.2662633588781}, "118924158RR0001": {"name": "FONDATION HEC MONTR\u00c9AL", "designationCode": "A", "categoryCode": "21", "address": "3000 CHEMIN DE LA COTE-SAINTE-CATHERINE", "city": "MONTREAL", "province": "QC", "country": "CA", "postalCode": "H3T2A7", "twitter": "None", "instagram": "None", "facebook": "None", "youtube": "None", "website": "None", "summary": "None", "logo": "None", "latitude": 45.5039313852214, "longitude": -73.62266572075731}}