{"107585085RR0064": {"name": "ST. LEON PARISH, JACKFISH, SK", "designationCode": "C", "categoryCode": "38", "address": "BOX 203", "city": "COCHIN", "province": "SK", "country": "CA", "postalCode": "S0M0L0", "twitter": "None", "instagram": "None", "facebook": "None", "youtube": "None", "website": "None", "summary": "None", "logo": "None", "latitude": 53.08125000000007, "longitude": -108.33882999999997}, "108027558RR0001": {"name": "ST. LEONARD'S COMMUNITY SERVICES INC.", "designationCode": "C", "categoryCode": "59", "address": "133 ELGIN STREET PO BOX 638", "city": "BRANTFORD", "province": "ON", "country": "CA", "postalCode": "N3T5P9", "twitter": "None", "instagram": "None", "facebook": "None", "youtube": "None", "website": "None", "summary": "None", "logo": "None", "latitude": 43.14930053952926, "longitude": -80.25179147002137}, "108027483RR0001": {"name": "ST. LEONARD'S HOME TRENTON", "designationCode": "C", "categoryCode": "59", "address": "1970 HAMILTON ROAD            RR 5", "city": "TRENTON", "province": "ON", "country": "CA", "postalCode": "K8V5P8", "twitter": "None", "instagram": "None", "facebook": "None", "youtube": "None", "website": "None", "summary": "None", "logo": "None", "latitude": 44.13522742327877, "longitude": -77.54616508508843}, "129904579RR0001": {"name": "ST. LEONARD'S SOCIETY OF LONDON", "designationCode": "C", "categoryCode": "01", "address": "405 DUNDAS ST", "city": "LONDON", "province": "ON", "country": "CA", "postalCode": "N6B1V9", "twitter": "None", "instagram": "None", "facebook": "None", "youtube": "None", "website": "None", "summary": "None", "logo": "None", "latitude": 42.98664713347583, "longitude": -81.23914624089684}, "119310688RR0001": {"name": "ST. LEONARD'S SOCIETY OF PETERBOROUGH", "designationCode": "C", "categoryCode": "59", "address": "458 RUBIDGE ST                BOX 1707", "city": "PETERBOROUGH", "province": "ON", "country": "CA", "postalCode": "K9J7S4", "twitter": "None", "instagram": "None", "facebook": "None", "youtube": "None", "website": "None", "summary": "None", "logo": "None", "latitude": 44.30740657146978, "longitude": -78.32687194890089}, "107646481RR0001": {"name": "ST. LEONARD'S YOUTH AND FAMILY SERVICES SOCIETY", "designationCode": "C", "categoryCode": "59", "address": "7181 ARCOLA WAY", "city": "BURNABY", "province": "BC", "country": "CA", "postalCode": "V5E0A6", "twitter": "None", "instagram": "None", "facebook": "None", "youtube": "None", "website": "None", "summary": "None", "logo": "None", "latitude": 49.21935397751158, "longitude": -122.95543149630333}, "119109817RR0120": {"name": "ST. LEOPOLD MANDIC CROATIAN PARISH", "designationCode": "C", "categoryCode": "38", "address": "2889 WESTMINSTER DRIVE", "city": "LONDON", "province": "ON", "country": "CA", "postalCode": "N6N1L7", "twitter": "None", "instagram": "None", "facebook": "None", "youtube": "None", "website": "None", "summary": "None", "logo": "None", "latitude": 42.90251452784384, "longitude": -81.20078759088815}, "119110443RR0048": {"name": "ST. LINUS CHURCH", "designationCode": "C", "categoryCode": "38", "address": "3 BRISCOE STREET", "city": "AMHERSTVIEW", "province": "ON", "country": "CA", "postalCode": "K7N1X2", "twitter": "None", "instagram": "None", "facebook": "None", "youtube": "None", "website": "None", "summary": "None", "logo": "None", "latitude": 44.22323437284509, "longitude": -76.64316756308615}, "119110450RR0026": {"name": "ST. LOUIS PARISH", "designationCode": "C", "categoryCode": "38", "address": "53 ALLEN ST EAST", "city": "WATERLOO", "province": "ON", "country": "CA", "postalCode": "N2J1J3", "twitter": "None", "instagram": "None", "facebook": "None", "youtube": "None", "website": "None", "summary": "None", "logo": "None", "latitude": 43.46216905854361, "longitude": -80.51702316455098}, "106880107RR0051": {"name": "ST. LOUIS PARISH, LOUISDALE", "designationCode": "C", "categoryCode": "38", "address": "P.O. BOX 600", "city": "LOUISDALE", "province": "NS", "country": "CA", "postalCode": "B0E1V0", "twitter": "None", "instagram": "None", "facebook": "None", "youtube": "None", "website": "None", "summary": "None", "logo": "None", "latitude": 45.610970000000066, "longitude": -61.064899999999966}, "107585085RR0049": {"name": "ST. LUCY PARISH, ARBORFIELD, SK", "designationCode": "C", "categoryCode": "38", "address": "P.O. BOX 36", "city": "ARBORFIELD", "province": "SK", "country": "CA", "postalCode": "S0E0A0", "twitter": "None", "instagram": "None", "facebook": "None", "youtube": "None", "website": "None", "summary": "None", "logo": "None", "latitude": 53.10006000000004, "longitude": -103.65091999999999}, "107949687RR0001": {"name": "ST. LUKE LUTHERAN CHURCH", "designationCode": "C", "categoryCode": "32", "address": "BOX 370", "city": "OGEMA", "province": "SK", "country": "CA", "postalCode": "S0C1Y0", "twitter": "None", "instagram": "None", "facebook": "None", "youtube": "None", "website": "None", "summary": "None", "logo": "None", "latitude": 49.58337000000006, "longitude": -104.91778999999997}, "108027798RR0001": {"name": "ST. LUKE LUTHERAN CHURCH", "designationCode": "C", "categoryCode": "32", "address": "10177 148 ST", "city": "SURREY", "province": "BC", "country": "CA", "postalCode": "V3R3X2", "twitter": "None", "instagram": "None", "facebook": "None", "youtube": "None", "website": "None", "summary": "None", "logo": "None", "latitude": 49.18761197614355, "longitude": -122.8120997862775}, "106712748RR0002": {"name": "ST. LUKE'S ANGLICAN CHURCH", "designationCode": "C", "categoryCode": "30", "address": "8424-95 AVE", "city": "EDMONTON", "province": "AB", "country": "CA", "postalCode": "T6C1Y5", "twitter": "None", "instagram": "None", "facebook": "None", "youtube": "None", "website": "None", "summary": "None", "logo": "None", "latitude": 53.53179050432782, "longitude": -113.456952}, "107020323RR0013": {"name": "ST. LUKE'S ANGLICAN CHURCH", "designationCode": "C", "categoryCode": "30", "address": "69 5TH AVE", "city": "HORNEPAYNE", "province": "ON", "country": "CA", "postalCode": "P0M1Z0", "twitter": "None", "instagram": "None", "facebook": "None", "youtube": "None", "website": "None", "summary": "None", "logo": "None", "latitude": 49.216143367815775, "longitude": -84.77717903657295}, "108099771RR0064": {"name": "ST. LUKE'S ANGLICAN CHURCH", "designationCode": "C", "categoryCode": "30", "address": "454 JOHN ST N", "city": "HAMILTON", "province": "ON", "country": "CA", "postalCode": "L8L4R4", "twitter": "None", "instagram": "None", "facebook": "None", "youtube": "None", "website": "None", "summary": "None", "logo": "None", "latitude": 43.26953573965612, "longitude": -79.86049923630922}, "108099771RR0089": {"name": "ST. LUKE'S ANGLICAN CHURCH", "designationCode": "C", "categoryCode": "30", "address": "3114 DUNDAS ST W", "city": "OAKVILLE", "province": "ON", "country": "CA", "postalCode": "L6M4J3", "twitter": "None", "instagram": "None", "facebook": "None", "youtube": "None", "website": "None", "summary": "None", "logo": "None", "latitude": 43.43263124782175, "longitude": -79.77964021717929}, "106713753RR0013": {"name": "ST. LUKE'S ANGLICAN CHURCH ALEXIS CREEK", "designationCode": "C", "categoryCode": "30", "address": "BOX 64", "city": "ALEXIS CREEK", "province": "BC", "country": "CA", "postalCode": "V0L1A0", "twitter": "None", "instagram": "None", "facebook": "None", "youtube": "None", "website": "None", "summary": "None", "logo": "None", "latitude": 52.19367422321204, "longitude": -123.45590817956226}, "869977041RR0001": {"name": "ST. LUKE'S ANGLICAN CHURCH HEMMINGFORD", "designationCode": "C", "categoryCode": "30", "address": "531 CHAMPLAIN ST", "city": "HEMMINGFORD", "province": "QC", "country": "CA", "postalCode": "J0L1H0", "twitter": "None", "instagram": "None", "facebook": "None", "youtube": "None", "website": "None", "summary": "None", "logo": "None", "latitude": 45.04570748932421, "longitude": -73.58497230391252}, "108027954RR0001": {"name": "ST. LUKE'S ANGLICAN CHURCH OF CANADA", "designationCode": "C", "categoryCode": "30", "address": "566 ARMOUR RD", "city": "PETERBOROUGH", "province": "ON", "country": "CA", "postalCode": "K9H1Z1", "twitter": "None", "instagram": "None", "facebook": "None", "youtube": "None", "website": "None", "summary": "None", "logo": "None", "latitude": 44.312180215678744, "longitude": -78.30775952210236}, "135215671RR0002": {"name": "ST. LUKE'S ANGLICAN MISSION", "designationCode": "C", "categoryCode": "30", "address": "BOX 84", "city": "FORT VERMILION", "province": "AB", "country": "CA", "postalCode": "T0H1N0", "twitter": "None", "instagram": "None", "facebook": "None", "youtube": "None", "website": "None", "summary": "None", "logo": "None", "latitude": 58.38988995946117, "longitude": -116.02071999942302}, "107909939RR0066": {"name": "ST. LUKE'S CHURCH", "designationCode": "C", "categoryCode": "38", "address": "1566 NORTH MOUNT DRIVE NW", "city": "CALGARY", "province": "AB", "country": "CA", "postalCode": "T2L0G6", "twitter": "None", "instagram": "None", "facebook": "None", "youtube": "None", "website": "None", "summary": "None", "logo": "None", "latitude": 51.096075000000056, "longitude": -114.13986649999993}, "108027871RR0001": {"name": "ST. LUKE'S CHURCH", "designationCode": "C", "categoryCode": "30", "address": "BOX 728", "city": "SOURIS", "province": "MB", "country": "CA", "postalCode": "R0K2C0", "twitter": "None", "instagram": "None", "facebook": "None", "youtube": "None", "website": "None", "summary": "None", "logo": "None", "latitude": 49.59915625917259, "longitude": -99.8622610573006}, "108099771RR0101": {"name": "ST. LUKE'S CHURCH", "designationCode": "C", "categoryCode": "30", "address": "2458 SNYDER RD", "city": "ST ANNS", "province": "ON", "country": "CA", "postalCode": "L0R1Y0", "twitter": "None", "instagram": "None", "facebook": "None", "youtube": "None", "website": "None", "summary": "None", "logo": "None", "latitude": 43.083425724392676, "longitude": -79.47487860055249}, "118787142RR0022": {"name": "ST. LUKE'S CHURCH", "designationCode": "C", "categoryCode": "30", "address": "3821 CEDAR HILL CROSS ROAD", "city": "VICTORIA", "province": "BC", "country": "CA", "postalCode": "V8P2M6", "twitter": "None", "instagram": "None", "facebook": "None", "youtube": "None", "website": "None", "summary": "None", "logo": "None", "latitude": 48.46318087492452, "longitude": -123.33832572124862}, "108028101RR0001": {"name": "ST. LUKE'S EVANGELICAL LUTHERAN CHURCH", "designationCode": "C", "categoryCode": "32", "address": "245 PROSPECT PT RD N", "city": "RIDGEWAY", "province": "ON", "country": "CA", "postalCode": "L0S1N0", "twitter": "None", "instagram": "None", "facebook": "None", "youtube": "None", "website": "None", "summary": "None", "logo": "None", "latitude": 42.881444161809696, "longitude": -79.04893795715252}, "108028119RR0001": {"name": "ST. LUKE'S LUTHERAN CHURCH", "designationCode": "C", "categoryCode": "32", "address": "317 FRANKLIN ST NORTH", "city": "KITCHENER", "province": "ON", "country": "CA", "postalCode": "N2A1Y9", "twitter": "None", "instagram": "None", "facebook": "None", "youtube": "None", "website": "None", "summary": "None", "logo": "None", "latitude": 43.44239958647343, "longitude": -80.44743707513472}, "108084658RR0028": {"name": "ST. LUKE'S PARISH", "designationCode": "C", "categoryCode": "30", "address": "760 SOMERSET ST W", "city": "OTTAWA", "province": "ON", "country": "CA", "postalCode": "K1R6P9", "twitter": "None", "instagram": "None", "facebook": "None", "youtube": "None", "website": "None", "summary": "None", "logo": "None", "latitude": 45.41036697694629, "longitude": -75.7084762621329}, "118849470RR0077": {"name": "ST. LUKE'S PARISH", "designationCode": "C", "categoryCode": "38", "address": "20285 DEWDNEY TRUNK RD", "city": "MAPLE RIDGE", "province": "BC", "country": "CA", "postalCode": "V2X3C9", "twitter": "None", "instagram": "None", "facebook": "None", "youtube": "None", "website": "None", "summary": "None", "logo": "None", "latitude": 49.22150753593496, "longitude": -122.65846412199461}, "119110450RR0106": {"name": "ST. LUKE'S PARISH, HAMILTON, ONTARIO", "designationCode": "C", "categoryCode": "38", "address": "200 MT. ALBION RD.", "city": "HAMILTON", "province": "ON", "country": "CA", "postalCode": "L8K5S9", "twitter": "None", "instagram": "None", "facebook": "None", "youtube": "None", "website": "None", "summary": "None", "logo": "None", "latitude": 43.218186673610674, "longitude": -79.79392267557257}, "108028135RR0001": {"name": "ST. LUKE'S ZION LUTHERAN CHURCH", "designationCode": "C", "categoryCode": "32", "address": "2903 MCPHILLIPS ST", "city": "WINNIPEG", "province": "MB", "country": "CA", "postalCode": "R2P0H3", "twitter": "None", "instagram": "None", "facebook": "None", "youtube": "None", "website": "None", "summary": "None", "logo": "None", "latitude": 49.97039892861714, "longitude": -97.12560588242278}, "108028085RR0001": {"name": "ST. LUKE'S-KNOX PRESBYTERIAN CHURCH", "designationCode": "C", "categoryCode": "37", "address": "15399 CON 1-2 RD", "city": "FINCH", "province": "ON", "country": "CA", "postalCode": "K0C1K0", "twitter": "None", "instagram": "None", "facebook": "None", "youtube": "None", "website": "None", "summary": "None", "logo": "None", "latitude": 45.12304500000006, "longitude": -75.06814399999993}, "817108715RR0001": {"name": "ST. MALACHY'S ROMAN CATHOLIC PARISH INC.", "designationCode": "C", "categoryCode": "38", "address": "PO BOX 128", "city": "KINKORA", "province": "PE", "country": "CA", "postalCode": "C0B1N0", "twitter": "None", "instagram": "None", "facebook": "None", "youtube": "None", "website": "None", "summary": "None", "logo": "None", "latitude": 46.32277000000005, "longitude": -63.60273999999998}, "119110450RR0107": {"name": "ST. MARGARET MARY PARISH", "designationCode": "C", "categoryCode": "38", "address": "20 IDLEWOOD AVE", "city": "HAMILTON", "province": "ON", "country": "CA", "postalCode": "L8T1V9", "twitter": "None", "instagram": "None", "facebook": "None", "youtube": "None", "website": "None", "summary": "None", "logo": "None", "latitude": 43.224284830948314, "longitude": -79.82815783847877}, "118787142RR0012": {"name": "ST. MARGARET OF SCOTLAND CHURCH", "designationCode": "C", "categoryCode": "30", "address": "300 BURRILL ROAD", "city": "GALIANO", "province": "BC", "country": "CA", "postalCode": "V0N1P0", "twitter": "None", "instagram": "None", "facebook": "None", "youtube": "None", "website": "None", "summary": "None", "logo": "None", "latitude": 48.87662797557232, "longitude": -123.32293625660319}, "119122778RR0016": {"name": "ST. MARGARET OF SCOTLAND PARISH", "designationCode": "C", "categoryCode": "38", "address": "ST. MARGARET OF SCOTLAND      21505 BUTTERNUT LANE PO BOX 62", "city": "NORTH LANCASTER", "province": "ON", "country": "CA", "postalCode": "K0C1Z0", "twitter": "None", "instagram": "None", "facebook": "None", "youtube": "None", "website": "None", "summary": "None", "logo": "None", "latitude": 45.277398911189316, "longitude": -74.48662500305842}, "812248003RR0001": {"name": "ST. MARGARET OF SCOTLAND ROMAN CATHOLIC PARISH INC.", "designationCode": "C", "categoryCode": "38", "address": "PO BOX 399", "city": "SOURIS", "province": "PE", "country": "CA", "postalCode": "C0A2B0", "twitter": "None", "instagram": "None", "facebook": "None", "youtube": "None", "website": "None", "summary": "None", "logo": "None", "latitude": 46.35451000000006, "longitude": -62.25295999999997}, "888590007RR0001": {"name": "ST. MARGARET'S BAY STEWARDSHIP ASSOCIATION", "designationCode": "C", "categoryCode": "52", "address": "PO BOX 3081", "city": "TANTALLON", "province": "NS", "country": "CA", "postalCode": "B3Z4G9", "twitter": "None", "instagram": "None", "facebook": "None", "youtube": "None", "website": "None", "summary": "None", "logo": "None", "latitude": 44.683816049397784, "longitude": -63.85721852203719}, "895709293RR0002": {"name": "ST. MARGARET'S CHAPEL", "designationCode": "C", "categoryCode": "30", "address": "118 BORCHARDT ROAD R.R.#4", "city": "LIONS HEAD", "province": "ON", "country": "CA", "postalCode": "N0H1W0", "twitter": "None", "instagram": "None", "facebook": "None", "youtube": "None", "website": "None", "summary": "None", "logo": "None", "latitude": 45.131130615903785, "longitude": -81.32709409709192}, "108028440RR0002": {"name": "ST. MARGARET'S CHURCH", "designationCode": "C", "categoryCode": "30", "address": "160 ETHELBERT ST", "city": "WINNIPEG", "province": "MB", "country": "CA", "postalCode": "R3G1V7", "twitter": "None", "instagram": "None", "facebook": "None", "youtube": "None", "website": "None", "summary": "None", "logo": "None", "latitude": 49.881835204830054, "longitude": -97.16734400072114}, "896786076RR0001": {"name": "ST. MARGARET'S CHURCH", "designationCode": "C", "categoryCode": "30", "address": "819-6E AVE.", "city": "POINTE-AUX-TREMBLES", "province": "QC", "country": "CA", "postalCode": "H1B4K6", "twitter": "None", "instagram": "None", "facebook": "None", "youtube": "None", "website": "None", "summary": "None", "logo": "None", "latitude": 45.63773651137748, "longitude": -73.49597888447003}, "106880107RR0089": {"name": "ST. MARGARET'S PARISH", "designationCode": "C", "categoryCode": "38", "address": "17 CHURCH STREET", "city": "LOWER RIVER", "province": "NS", "country": "CA", "postalCode": "B0E1J0", "twitter": "None", "instagram": "None", "facebook": "None", "youtube": "None", "website": "None", "summary": "None", "logo": "None", "latitude": 45.61114326027693, "longitude": -61.39082696651282}, "107020331RR0055": {"name": "ST. MARGARET'S PARISH", "designationCode": "C", "categoryCode": "38", "address": "10 HOWARD ST", "city": "MIRAMICHI", "province": "NB", "country": "CA", "postalCode": "E1N0C4", "twitter": "None", "instagram": "None", "facebook": "None", "youtube": "None", "website": "None", "summary": "None", "logo": "None", "latitude": 47.02621962894553, "longitude": -65.46676712663785}, "118849470RR0035": {"name": "ST. MARGARET'S PARISH", "designationCode": "C", "categoryCode": "38", "address": "BOX 592", "city": "BELLA COOLA", "province": "BC", "country": "CA", "postalCode": "V0T1C0", "twitter": "None", "instagram": "None", "facebook": "None", "youtube": "None", "website": "None", "summary": "None", "logo": "None"}, "106880107RR0031": {"name": "ST. MARGARET'S PARISH, ANTIGONISH", "designationCode": "C", "categoryCode": "38", "address": "RR #3 ARISAIG", "city": "ANTIGONISH", "province": "NS", "country": "CA", "postalCode": "B2G2L1", "twitter": "None", "instagram": "None", "facebook": "None", "youtube": "None", "website": "None", "summary": "None", "logo": "None", "latitude": 45.76017226578518, "longitude": -62.16255725577728}, "106880107RR0023": {"name": "ST. MARGARET'S PARISH, BROAD COVE", "designationCode": "C", "categoryCode": "38", "address": "BROAD COVE", "city": "INVERNESS COUNTY", "province": "NS", "country": "CA", "postalCode": "B0E1N0", "twitter": "None", "instagram": "None", "facebook": "None", "youtube": "None", "website": "None", "summary": "None", "logo": "None", "latitude": 46.27076000000005, "longitude": -61.232509999999934}, "108028614RR0001": {"name": "ST. MARGARETS SCHOOL", "designationCode": "C", "categoryCode": "20", "address": "1080 LUCAS AVE", "city": "VICTORIA", "province": "BC", "country": "CA", "postalCode": "V8X3P7", "twitter": "None", "instagram": "None", "facebook": "None", "youtube": "None", "website": "None", "summary": "None", "logo": "None", "latitude": 48.479426471025064, "longitude": -123.36546166302702}, "106880107RR0082": {"name": "ST. MARGUERITE BOURGEOYS PARISH, SYDNEY", "designationCode": "C", "categoryCode": "38", "address": "40 CABOT STREET", "city": "SYDNEY", "province": "NS", "country": "CA", "postalCode": "B1P4C8", "twitter": "None", "instagram": "None", "facebook": "None", "youtube": "None", "website": "None", "summary": "None", "logo": "None", "latitude": 46.12998310263183, "longitude": -60.1798243179648}, "888188844RR0001": {"name": "ST. MARK EVANGELICAL CHURCH", "designationCode": "C", "categoryCode": "36", "address": "45 DRAPER ST  BOX 127", "city": "HARROW", "province": "ON", "country": "CA", "postalCode": "N0R1G0", "twitter": "None", "instagram": "None", "facebook": "None", "youtube": "None", "website": "None", "summary": "None", "logo": "None", "latitude": 41.99016758338634, "longitude": -82.93040467208147}, "119110450RR0088": {"name": "ST. MARK PARISH, KITCHENER, ONTARIO", "designationCode": "C", "categoryCode": "38", "address": "55 DRIFTWOOD DRIVE", "city": "KITCHENER", "province": "ON", "country": "CA", "postalCode": "N2N3A2", "twitter": "None", "instagram": "None", "facebook": "None", "youtube": "None", "website": "None", "summary": "None", "logo": "None", "latitude": 43.417145850943605, "longitude": -80.53422423071105}, "889242848RR0002": {"name": "ST. MARK'S AND ST. JOHN'S", "designationCode": "C", "categoryCode": "30", "address": "GENERAL DELIVERY", "city": "MILFORD BAY", "province": "ON", "country": "CA", "postalCode": "P0B1E0", "twitter": "None", "instagram": "None", "facebook": "None", "youtube": "None", "website": "None", "summary": "None", "logo": "None", "latitude": 45.07895538963282, "longitude": -79.48270390416066}, "107020323RR0009": {"name": "ST. MARK'S ANGLICAN CHURCH", "designationCode": "C", "categoryCode": "30", "address": "20 ANSON DR.                  PO BOX 489", "city": "IROQUOIS FALLS", "province": "ON", "country": "CA", "postalCode": "P0K1E0", "twitter": "None", "instagram": "None", "facebook": "None", "youtube": "None", "website": "None", "summary": "None", "logo": "None", "latitude": 48.767994632719216, "longitude": -80.67819685060022}, "107020323RR0019": {"name": "ST. MARK'S ANGLICAN CHURCH", "designationCode": "C", "categoryCode": "30", "address": "1 STEWART AVENUE", "city": "KAPUSKASING", "province": "ON", "country": "CA", "postalCode": "P5N1R9", "twitter": "None", "instagram": "None", "facebook": "None", "youtube": "None", "website": "None", "summary": "None", "logo": "None", "latitude": 49.41757294870145, "longitude": -82.42907766496101}, "108099771RR0059": {"name": "ST. MARK'S ANGLICAN CHURCH", "designationCode": "C", "categoryCode": "30", "address": "PO BOX 582", "city": "NIAGARA ON THE LAKE", "province": "ON", "country": "CA", "postalCode": "L0S1J0", "twitter": "None", "instagram": "None", "facebook": "None", "youtube": "None", "website": "None", "summary": "None", "logo": "None", "latitude": 43.23448500000005, "longitude": -79.16177149999993}, "108028739RR0001": {"name": "ST. MARK'S ANGLICAN CHURCH BARRIEFIELD", "designationCode": "C", "categoryCode": "30", "address": "268 MAIN ST", "city": "KINGSTON", "province": "ON", "country": "CA", "postalCode": "K7K6W4", "twitter": "None", "instagram": "None", "facebook": "None", "youtube": "None", "website": "None", "summary": "None", "logo": "None", "latitude": 44.24284594062732, "longitude": -76.46297887678024}, "119186641RR0002": {"name": "ST. MARK'S ANGLICAN CHURCH HEYDEN", "designationCode": "C", "categoryCode": "30", "address": "1031 HWY 556", "city": "AWERES TWP", "province": "ON", "country": "CA", "postalCode": "P6A5K7", "twitter": "None", "instagram": "None", "facebook": "None", "youtube": "None", "website": "None", "summary": "None", "logo": "None", "latitude": 46.671485843253535, "longitude": -84.26809348175414}, "725703698RR0001": {"name": "ST. MARK'S ANGLICAN LUTHERAN CHURCH OF MIDLAND, ON", "designationCode": "C", "categoryCode": "30", "address": "307 THIRD ST", "city": "MIDLAND", "province": "ON", "country": "CA", "postalCode": "L4R3S5", "twitter": "None", "instagram": "None", "facebook": "None", "youtube": "None", "website": "None", "summary": "None", "logo": "None", "latitude": 44.74726950098094, "longitude": -79.88838620327218}, "107814444RR0002": {"name": "ST. MARK'S CHURCH", "designationCode": "C", "categoryCode": "30", "address": "19 ST MARK'S PL", "city": "WINNIPEG", "province": "MB", "country": "CA", "postalCode": "R2M0S3", "twitter": "None", "instagram": "None", "facebook": "None", "youtube": "None", "website": "None", "summary": "None", "logo": "None", "latitude": 49.86028688816426, "longitude": -97.11334104192385}, "108028853RR0002": {"name": "ST. MARK'S CHURCH", "designationCode": "C", "categoryCode": "30", "address": "5522 RUSSELL ST", "city": "HALIFAX", "province": "NS", "country": "CA", "postalCode": "B3K1X2", "twitter": "None", "instagram": "None", "facebook": "None", "youtube": "None", "website": "None", "summary": "None", "logo": "None", "latitude": 44.66119261197999, "longitude": -63.5975541315426}, "108099771RR0088": {"name": "ST. MARK'S CHURCH", "designationCode": "C", "categoryCode": "30", "address": "P.O. BOX 130", "city": "ORANGEVILLE", "province": "ON", "country": "CA", "postalCode": "L9W2Z5", "twitter": "None", "instagram": "None", "facebook": "None", "youtube": "None", "website": "None", "summary": "None", "logo": "None", "latitude": 43.92016800000006, "longitude": -80.09314999999994}, "118787142RR0052": {"name": "ST. MARK'S CHURCH", "designationCode": "C", "categoryCode": "30", "address": "138 HOYLAKE ROAD WEST", "city": "QUALICUM BEACH", "province": "BC", "country": "CA", "postalCode": "V9K1K3", "twitter": "None", "instagram": "None", "facebook": "None", "youtube": "None", "website": "None", "summary": "None", "logo": "None", "latitude": 49.35129649177702, "longitude": -124.44478119317328}, "119110443RR0011": {"name": "ST. MARK'S CHURCH", "designationCode": "C", "categoryCode": "38", "address": "160 DIBBLE ST WEST BOX 234", "city": "PRESCOTT", "province": "ON", "country": "CA", "postalCode": "K0E1T0", "twitter": "None", "instagram": "None", "facebook": "None", "youtube": "None", "website": "None", "summary": "None", "logo": "None", "latitude": 44.71124457591318, "longitude": -75.51546576034389}, "119229896RR0015": {"name": "ST. MARK'S CHURCH", "designationCode": "C", "categoryCode": "39", "address": "PO BOX 9", "city": "CHURCHILL FALLS LABRADOR", "province": "NL", "country": "CA", "postalCode": "A0R1A0", "twitter": "None", "instagram": "None", "facebook": "None", "youtube": "None", "website": "None", "summary": "None", "logo": "None", "latitude": -27.951749999999997, "longitude": 153.38503350000002}, "131789463RR0002": {"name": "ST. MARK'S CHURCH", "designationCode": "C", "categoryCode": "30", "address": "PO BOX 476", "city": "HIGH PRAIRIE", "province": "AB", "country": "CA", "postalCode": "T0G1E0", "twitter": "None", "instagram": "None", "facebook": "None", "youtube": "None", "website": "None", "summary": "None", "logo": "None", "latitude": 55.43123005496565, "longitude": -116.49809993060764}, "870001047RR0001": {"name": "ST. MARK'S CHURCH", "designationCode": "C", "categoryCode": "30", "address": "33 GAULT ST", "city": "VALLEYFIELD", "province": "QC", "country": "CA", "postalCode": "J6S3R4", "twitter": "None", "instagram": "None", "facebook": "None", "youtube": "None", "website": "None", "summary": "None", "logo": "None", "latitude": 45.26277263390855, "longitude": -74.13096031406873}, "888108198RR0002": {"name": "ST. MARK'S CHURCH", "designationCode": "C", "categoryCode": "30", "address": "1320 WILTON AVENUE", "city": "LONDON", "province": "ON", "country": "CA", "postalCode": "N5W2H6", "twitter": "None", "instagram": "None", "facebook": "None", "youtube": "None", "website": "None", "summary": "None", "logo": "None", "latitude": 42.991193840071546, "longitude": -81.19992586903577}, "107307191RR0061": {"name": "ST. MARK'S CHURCH, LANGHAM", "designationCode": "C", "categoryCode": "38", "address": "BOX 178", "city": "LANGHA", "province": "SK", "country": "CA", "postalCode": "S0K2L0", "twitter": "None", "instagram": "None", "facebook": "None", "youtube": "None", "website": "None", "summary": "None", "logo": "None", "latitude": 52.405424999999994, "longitude": -106.9638075}, "108028986RR0001": {"name": "ST. MARK'S COLLEGE", "designationCode": "C", "categoryCode": "20", "address": "5935 IONA DRIVE", "city": "VANCOUVER", "province": "BC", "country": "CA", "postalCode": "V6T1J7", "twitter": "None", "instagram": "None", "facebook": "None", "youtube": "None", "website": "None", "summary": "None", "logo": "None", "latitude": 49.27199608677912, "longitude": -123.2490334954938}, "108029059RR0001": {"name": "ST. MARK'S EVANGELICAL LUTHERN CHURCH OF VANCOUVER BC", "designationCode": "C", "categoryCode": "32", "address": "4178 ST PAULS AVENUE", "city": "NORTH VANCOUVER", "province": "BC", "country": "CA", "postalCode": "V7N1T5", "twitter": "None", "instagram": "None", "facebook": "None", "youtube": "None", "website": "None", "summary": "None", "logo": "None", "latitude": 49.3477279103526, "longitude": -123.0696418489817}, "845814615RR0001": {"name": "ST. MARK'S LUTHERAN CHURCH, KITCHENER", "designationCode": "C", "categoryCode": "32", "address": "825 KING STREET WEST", "city": "KITCHENER", "province": "ON", "country": "CA", "postalCode": "N2G1E3", "twitter": "None", "instagram": "None", "facebook": "None", "youtube": "None", "website": "None", "summary": "None", "logo": "None", "latitude": 43.45640014400742, "longitude": -80.5093406748801}, "107020331RR0021": {"name": "ST. MARK'S PARISH", "designationCode": "C", "categoryCode": "38", "address": "171 PETTINGILL RD", "city": "QUISPAMSIS", "province": "NB", "country": "CA", "postalCode": "E2E2V6", "twitter": "None", "instagram": "None", "facebook": "None", "youtube": "None", "website": "None", "summary": "None", "logo": "None", "latitude": 45.423661169311494, "longitude": -65.96808020664773}, "108028861RR0001": {"name": "ST. MARK'S PARISH", "designationCode": "C", "categoryCode": "38", "address": "160 RUE PRINCIPALE", "city": "GATINEAU", "province": "QC", "country": "CA", "postalCode": "J9H3M8", "twitter": "None", "instagram": "None", "facebook": "None", "youtube": "None", "website": "None", "summary": "None", "logo": "None", "latitude": 45.395220575596056, "longitude": -75.83966941895093}, "108084658RR0027": {"name": "ST. MARK'S PARISH", "designationCode": "C", "categoryCode": "30", "address": "1606 FISHER AVE", "city": "OTTAWA", "province": "ON", "country": "CA", "postalCode": "K2C1X6", "twitter": "None", "instagram": "None", "facebook": "None", "youtube": "None", "website": "None", "summary": "None", "logo": "None", "latitude": 45.35978160170819, "longitude": -75.7098143292166}, "108029133RR0001": {"name": "ST. MARK'S PRESBYTERIAN CHURCH", "designationCode": "C", "categoryCode": "37", "address": "PO BOX 20007", "city": "SHERWOOD POSTAL OUTLET", "province": "PE", "country": "CA", "postalCode": "C1A9E3", "twitter": "None", "instagram": "None", "facebook": "None", "youtube": "None", "website": "None", "summary": "None", "logo": "None", "latitude": 46.23659700000006, "longitude": -63.12815449999994}, "108029174RR0001": {"name": "ST. MARK'S PRESBYTERIAN CHURCH", "designationCode": "C", "categoryCode": "37", "address": "80 HIGH STREET EAST", "city": "MOOSE JAW", "province": "SK", "country": "CA", "postalCode": "S6H0B8", "twitter": "None", "instagram": "None", "facebook": "None", "youtube": "None", "website": "None", "summary": "None", "logo": "None", "latitude": 50.39147740862594, "longitude": -105.53304570099529}, "817170913RR0001": {"name": "ST. MARK'S ROMAN CATHOLIC PARISH INC.", "designationCode": "C", "categoryCode": "38", "address": "", "city": "BLOOMFIELD", "province": "PE", "country": "CA", "postalCode": "C0B1E0", "twitter": "None", "instagram": "None", "facebook": "None", "youtube": "None", "website": "None", "summary": "None", "logo": "None", "latitude": 46.77103000000005, "longitude": -64.21296999999998}, "108029281RR0001": {"name": "ST. MARK'S UNITED CHURCH", "designationCode": "C", "categoryCode": "44", "address": "PO BOX 104", "city": "CANNIFTON", "province": "ON", "country": "CA", "postalCode": "K0K1K0", "twitter": "None", "instagram": "None", "facebook": "None", "youtube": "None", "website": "None", "summary": "None", "logo": "None", "latitude": 44.195122461264255, "longitude": -77.39090296384663}, "119187425RR0001": {"name": "ST. MARK'S UNITED CHURCH", "designationCode": "C", "categoryCode": "44", "address": "504 BERNARD STREET", "city": "PORT HAWKESBURY", "province": "NS", "country": "CA", "postalCode": "B9A2V1", "twitter": "None", "instagram": "None", "facebook": "None", "youtube": "None", "website": "None", "summary": "None", "logo": "None", "latitude": 45.613801674735846, "longitude": -61.35932975740104}, "119187441RR0001": {"name": "ST. MARK'S UNITED CHURCH", "designationCode": "C", "categoryCode": "44", "address": "50 DEXTER DR", "city": "SAINT JOHN", "province": "NB", "country": "CA", "postalCode": "E2M4M4", "twitter": "None", "instagram": "None", "facebook": "None", "youtube": "None", "website": "None", "summary": "None", "logo": "None", "latitude": 45.25350726230579, "longitude": -66.10583964954735}, "107909939RR0021": {"name": "ST. MARKS PARISH", "designationCode": "C", "categoryCode": "38", "address": "5552 MADIGAN DRIVE NE", "city": "CALGARY", "province": "AB", "country": "CA", "postalCode": "T2A4P2", "twitter": "None", "instagram": "None", "facebook": "None", "youtube": "None", "website": "None", "summary": "None", "logo": "None", "latitude": 51.062399412718534, "longitude": -113.95430534263372}, "119187359RR0001": {"name": "ST. MARKS PRESBYTERIAN CHURCH", "designationCode": "C", "categoryCode": "37", "address": "7739 ROUTE 116", "city": "BASS RIVER", "province": "NB", "country": "CA", "postalCode": "E4T1L2", "twitter": "None", "instagram": "None", "facebook": "None", "youtube": "None", "website": "None", "summary": "None", "logo": "None", "latitude": 46.53776267615452, "longitude": -65.12275050195679}, "107909939RR0042": {"name": "ST. MARTHA'S PARISH", "designationCode": "C", "categoryCode": "38", "address": "355 COLUMBIA BLVD.", "city": "LETHBRIDGE", "province": "AB", "country": "CA", "postalCode": "T1K5Y8", "twitter": "None", "instagram": "None", "facebook": "None", "youtube": "None", "website": "None", "summary": "None", "logo": "None", "latitude": 49.67417746551972, "longitude": -112.8835215}, "119241305RR0001": {"name": "ST. MARTHA'S REGIONAL HOSPITAL AUXILIARY", "designationCode": "C", "categoryCode": "19", "address": "105 HAWTHORNE STREET", "city": "ANTIGONISH", "province": "NS", "country": "CA", "postalCode": "B2G1A8", "twitter": "None", "instagram": "None", "facebook": "None", "youtube": "None", "website": "None", "summary": "None", "logo": "None"}, "817175714RR0001": {"name": "ST. MARTIN OF TOURS ROMAN CATHOLIC PARISH INC.", "designationCode": "C", "categoryCode": "38", "address": "PO BOX 219,", "city": "CORNWALL", "province": "PE", "country": "CA", "postalCode": "C0A1H0", "twitter": "None", "instagram": "None", "facebook": "None", "youtube": "None", "website": "None", "summary": "None", "logo": "None", "latitude": 46.241144818530714, "longitude": -63.21831691777574}, "108029463RR0001": {"name": "ST. MARTIN' S ANGLICAN CHURCH OF CANADA", "designationCode": "C", "categoryCode": "30", "address": "3704 37 ST SW", "city": "CALGARY", "province": "AB", "country": "CA", "postalCode": "T3E3C3", "twitter": "None", "instagram": "None", "facebook": "None", "youtube": "None", "website": "None", "summary": "None", "logo": "None", "latitude": 51.02123399999999, "longitude": -114.1410297897456}, "119208031RR0015": {"name": "ST. MARTIN'S ANGLICAN CHURCH", "designationCode": "C", "categoryCode": "30", "address": "PO BOX 125", "city": "ATLIN", "province": "BC", "country": "CA", "postalCode": "V0W1A0", "twitter": "None", "instagram": "None", "facebook": "None", "youtube": "None", "website": "None", "summary": "None", "logo": "None"}, "118787142RR0059": {"name": "ST. MARTIN'S CHURCH", "designationCode": "C", "categoryCode": "30", "address": "PO BOX 234", "city": "GABRIOLA", "province": "BC", "country": "CA", "postalCode": "V0R1X0", "twitter": "None", "instagram": "None", "facebook": "None", "youtube": "None", "website": "None", "summary": "None", "logo": "None", "latitude": 49.18637400000006, "longitude": -123.82815049999994}, "119109791RR0043": {"name": "ST. MARTIN'S CHURCH", "designationCode": "C", "categoryCode": "38", "address": "166 WEST ST                   PO BOX 74", "city": "SMITHVILLE", "province": "ON", "country": "CA", "postalCode": "L0R2A0", "twitter": "None", "instagram": "None", "facebook": "None", "youtube": "None", "website": "None", "summary": "None", "logo": "None", "latitude": 43.10068001633132, "longitude": -79.54996084390312}, "891951840RR0002": {"name": "ST. MARTIN'S CHURCH", "designationCode": "C", "categoryCode": "30", "address": "221 PRINCE EDWARD AVE", "city": "OTTERBURN PARK", "province": "QC", "country": "CA", "postalCode": "J3H1V7", "twitter": "None", "instagram": "None", "facebook": "None", "youtube": "None", "website": "None", "summary": "None", "logo": "None", "latitude": 45.54478119929013, "longitude": -73.19850057548048}, "108084658RR0085": {"name": "ST. MARTIN'S PARISH", "designationCode": "C", "categoryCode": "30", "address": "2120 PRINCE CHARLES ROAD", "city": "OTTAWA", "province": "ON", "country": "CA", "postalCode": "K2A3L3", "twitter": "None", "instagram": "None", "facebook": "None", "youtube": "None", "website": "None", "summary": "None", "logo": "None", "latitude": 45.37624969605882, "longitude": -75.77108411102769}, "119110450RR0082": {"name": "ST. MARTIN'S PARISH", "designationCode": "C", "categoryCode": "38", "address": "BOX 268", "city": "DRAYTON", "province": "ON", "country": "CA", "postalCode": "N0G1P0", "twitter": "None", "instagram": "None", "facebook": "None", "youtube": "None", "website": "None", "summary": "None", "logo": "None", "latitude": 43.77309915143594, "longitude": -80.9225621280716}, "889433041RR0002": {"name": "ST. MARY ABBOTS ANGLICAN CHURCH", "designationCode": "C", "categoryCode": "30", "address": "PO BOX 4438", "city": "BARRHEAD", "province": "AB", "country": "CA", "postalCode": "T7N1A3", "twitter": "None", "instagram": "None", "facebook": "None", "youtube": "None", "website": "None", "summary": "None", "logo": "None", "latitude": 54.12098400000005, "longitude": -114.40600999999992}, "119187870RR0002": {"name": "ST. MARY AND ST. GEORGE ANGLICAN CHURCH", "designationCode": "C", "categoryCode": "30", "address": "BOX 1537", "city": "JASPER", "province": "AB", "country": "CA", "postalCode": "T0E1E0", "twitter": "None", "instagram": "None", "facebook": "None", "youtube": "None", "website": "None", "summary": "None", "logo": "None", "latitude": 52.877214088900075, "longitude": -118.08111710055249}, "850846510RR0001": {"name": "ST. MARY AND ST. JOHN THE BELOVED COPTIC ORTHODOX CHURCH", "designationCode": "C", "categoryCode": "39", "address": "984 KINGSTON ROAD", "city": "PICKERING", "province": "ON", "country": "CA", "postalCode": "L1V1B3", "twitter": "None", "instagram": "None", "facebook": "None", "youtube": "None", "website": "None", "summary": "None", "logo": "None", "latitude": 43.824561117123494, "longitude": -79.1033058727699}, "872888904RR0001": {"name": "ST. MARY AND ST. JOSEPH COPTIC ORTHODOX CHURCH", "designationCode": "C", "categoryCode": "39", "address": "11308 YONGE STREET", "city": "RICHMOND HILL", "province": "ON", "country": "CA", "postalCode": "L4S1K9", "twitter": "None", "instagram": "None", "facebook": "None", "youtube": "None", "website": "None", "summary": "None", "logo": "None", "latitude": 43.90378539549317, "longitude": -79.44487027430833}, "119188969RR0001": {"name": "ST. MARY COPTIC ORTHODOX CHURCH, KITCHENER, ONTARIO", "designationCode": "C", "categoryCode": "39", "address": "388 OTTAWA ST S", "city": "KITCHENER", "province": "ON", "country": "CA", "postalCode": "N2M3P4", "twitter": "None", "instagram": "None", "facebook": "None", "youtube": "None", "website": "None", "summary": "None", "logo": "None", "latitude": 43.4329240752207, "longitude": -80.4790961367358}, "119110450RR0022": {"name": "ST. MARY IMMACULATE PARISH", "designationCode": "C", "categoryCode": "38", "address": "267 GEDDES ST.", "city": "ELORA", "province": "ON", "country": "CA", "postalCode": "N0B1S0", "twitter": "None", "instagram": "None", "facebook": "None", "youtube": "None", "website": "None", "summary": "None", "logo": "None", "latitude": 43.68606656093819, "longitude": -80.43412195848019}, "108084658RR0110": {"name": "ST. MARY MAGDALENE CHURCH", "designationCode": "C", "categoryCode": "30", "address": "537 ROUTE 105", "city": "CHELSEA", "province": "QC", "country": "CA", "postalCode": "J9B1L2", "twitter": "None", "instagram": "None", "facebook": "None", "youtube": "None", "website": "None", "summary": "None", "logo": "None", "latitude": 45.50826202911495, "longitude": -75.78612645039557}, "860560531RR0001": {"name": "ST. MARY OF EGYPT REFUGE, INC.", "designationCode": "C", "categoryCode": "09", "address": "155 BROADVIEW AVE", "city": "TORONTO", "province": "ON", "country": "CA", "postalCode": "M4M2E9", "twitter": "None", "instagram": "None", "facebook": "None", "youtube": "None", "website": "None", "summary": "None", "logo": "None", "latitude": 43.660429595620016, "longitude": -79.35047029459304}, "106880107RR0009": {"name": "ST. MARY OF THE ANGELS PARISH, CLEVELAND", "designationCode": "C", "categoryCode": "38", "address": "17 CHURCH ST", "city": "CLEVELAND", "province": "NS", "country": "CA", "postalCode": "B0E1J0", "twitter": "None", "instagram": "None", "facebook": "None", "youtube": "None", "website": "None", "summary": "None", "logo": "None", "latitude": 45.61114326027693, "longitude": -61.39082696651282}}