{"891396848RR0001": {"name": "FOUNDATIONS FOR A NATION MINISTRY", "designationCode": "C", "categoryCode": "39", "address": "5627 L AND A ROAD", "city": "VERNON", "province": "BC", "country": "CA", "postalCode": "V1B3P7", "twitter": "None", "instagram": "None", "facebook": "None", "youtube": "None", "website": "None", "summary": "None", "logo": "None", "latitude": 50.285967591801466, "longitude": -119.23110936281455}, "860018092RR0001": {"name": "FOUNDATIONS FOR EDUCATION - CANADA", "designationCode": "C", "categoryCode": "21", "address": "110-477 MOUNT PLEASANT RD", "city": "TORONTO", "province": "ON", "country": "CA", "postalCode": "M4S2L9", "twitter": "None", "instagram": "None", "facebook": "None", "youtube": "None", "website": "None", "summary": "None", "logo": "None", "latitude": 43.70084943326208, "longitude": -79.38711932425453}, "868610643RR0001": {"name": "FOUNDATIONS MINISTRIES INC.", "designationCode": "C", "categoryCode": "47", "address": "6655 KITIMAT RD", "city": "MISSISSAUGA", "province": "ON", "country": "CA", "postalCode": "L5N6J4", "twitter": "None", "instagram": "None", "facebook": "None", "youtube": "None", "website": "None", "summary": "None", "logo": "None", "latitude": 43.60225667418759, "longitude": -79.73483125321745}, "133475335RR0001": {"name": "FOUNDER'S CUP CHARITY FOUNDATION", "designationCode": "A", "categoryCode": "23", "address": "13183 SHOESMITH CRES", "city": "MAPLE RIDGE", "province": "BC", "country": "CA", "postalCode": "V4R0A9", "twitter": "None", "instagram": "None", "facebook": "None", "youtube": "None", "website": "None", "summary": "None", "logo": "None", "latitude": 49.241800227018395, "longitude": -122.55664830379695}, "118929470RR0001": {"name": "FOUNTAIN OF FAITH CHURCH", "designationCode": "C", "categoryCode": "39", "address": "1749 DUNDAS ST E, UNIT #8     6TH AVE W", "city": "MISSISSAUGA", "province": "ON", "country": "CA", "postalCode": "L4X2R6", "twitter": "None", "instagram": "None", "facebook": "None", "youtube": "None", "website": "None", "summary": "None", "logo": "None", "latitude": 43.617431336951874, "longitude": -79.57513697807498}, "896713724RR0001": {"name": "FOUNTAIN OF HOPE INC.", "designationCode": "C", "categoryCode": "09", "address": "BOX 1912", "city": "ALTONA", "province": "MB", "country": "CA", "postalCode": "R0G0B0", "twitter": "None", "instagram": "None", "facebook": "None", "youtube": "None", "website": "None", "summary": "None", "logo": "None", "latitude": 49.10353800000006, "longitude": -97.55120149999993}, "863638821RR0001": {"name": "FOUNTAIN OF LIFE CHRISTIAN CHURCH", "designationCode": "C", "categoryCode": "39", "address": "PO BOX 94527                  2900 STEELES AVE E", "city": "THORNHILL", "province": "ON", "country": "CA", "postalCode": "L3T7R5", "twitter": "None", "instagram": "None", "facebook": "None", "youtube": "None", "website": "None", "summary": "None", "logo": "None", "latitude": 43.81179887663566, "longitude": -79.3587265211524}, "140773417RR0001": {"name": "FOUNTAIN OF LIFE CHRISTIAN MISSION (KING CITY)", "designationCode": "B", "categoryCode": "47", "address": "2821 RAINBOW CRES", "city": "MISSISSAUGA", "province": "ON", "country": "CA", "postalCode": "L5L2H7", "twitter": "None", "instagram": "None", "facebook": "None", "youtube": "None", "website": "None", "summary": "None", "logo": "None", "latitude": 43.546761008627016, "longitude": -79.69066715569284}, "107913972RR0001": {"name": "FOUNTAIN OF LIFE COMMUNITY CHURCH", "designationCode": "C", "categoryCode": "39", "address": "51461 YALE ROAD               BOX 329", "city": "ROSEDALE", "province": "BC", "country": "CA", "postalCode": "V0X1X0", "twitter": "None", "instagram": "None", "facebook": "None", "youtube": "None", "website": "None", "summary": "None", "logo": "None", "latitude": 49.183105100890586, "longitude": -121.80010846776538}, "890205370RR0001": {"name": "FOUNTAIN OF LIFE GOSPEL TEMPLE", "designationCode": "C", "categoryCode": "39", "address": "BOX 125", "city": "AYLMER", "province": "ON", "country": "CA", "postalCode": "N5H2R9", "twitter": "None", "instagram": "None", "facebook": "None", "youtube": "None", "website": "None", "summary": "None", "logo": "None", "latitude": 42.773010000000056, "longitude": -80.98362349999994}, "895636660RR0001": {"name": "FOUNTAIN OF LIFE UNITED PENTECOSTAL CHURCH", "designationCode": "C", "categoryCode": "39", "address": "PO BOX 536", "city": "WINKLER", "province": "MB", "country": "CA", "postalCode": "R6W4A7", "twitter": "None", "instagram": "None", "facebook": "None", "youtube": "None", "website": "None", "summary": "None", "logo": "None", "latitude": 49.17773400000006, "longitude": -97.93841299999994}, "896479805RR0001": {"name": "FOUNTAIN OF POWER MINISTRIES", "designationCode": "C", "categoryCode": "39", "address": "502 - 320 MCCOWAN RD", "city": "SCARBOROUGH", "province": "ON", "country": "CA", "postalCode": "M1J3N2", "twitter": "None", "instagram": "None", "facebook": "None", "youtube": "None", "website": "None", "summary": "None", "logo": "None", "latitude": 43.73763351442723, "longitude": -79.237767523264}, "821582400RR0001": {"name": "FOUNTAINGATE CHRISTIAN ASSEMBLY", "designationCode": "C", "categoryCode": "39", "address": "216 ELLEN AVE", "city": "CORNWALL", "province": "ON", "country": "CA", "postalCode": "K6J3L7", "twitter": "None", "instagram": "None", "facebook": "None", "youtube": "None", "website": "None", "summary": "None", "logo": "None", "latitude": 45.03855465999201, "longitude": -74.75163801373424}, "805478740RR0001": {"name": "FOUNTAINHEAD CHRISTIAN CHARITABLE ASSOCIATION", "designationCode": "C", "categoryCode": "39", "address": "A215 - 4211 SHEPPARD AVE E", "city": "SCARBOROUGH", "province": "ON", "country": "CA", "postalCode": "M1S5H5", "twitter": "None", "instagram": "None", "facebook": "None", "youtube": "None", "website": "None", "summary": "None", "logo": "None", "latitude": 43.78850149296793, "longitude": -79.2641406862311}, "118929462RR0001": {"name": "FOUNTAINHEAD CHRISTIAN SOCIETY", "designationCode": "C", "categoryCode": "39", "address": "PO BOX 42065 RPO GUILDFORD", "city": "SURREY", "province": "BC", "country": "CA", "postalCode": "V3R1S5", "twitter": "None", "instagram": "None", "facebook": "None", "youtube": "None", "website": "None", "summary": "None", "logo": "None", "latitude": 49.19824255693469, "longitude": -122.79742933555187}, "118929496RR0001": {"name": "FOUNTAINVIEW ACADEMY ASSOCIATION", "designationCode": "C", "categoryCode": "49", "address": "BOX 500", "city": "LILLOOET", "province": "BC", "country": "CA", "postalCode": "V0K1V0", "twitter": "None", "instagram": "None", "facebook": "None", "youtube": "None", "website": "None", "summary": "None", "logo": "None", "latitude": 50.70518720689823, "longitude": -121.90890624938581}, "133743252RR0001": {"name": "FOUR COUNTIES ADDICTION SERVICES TEAM INC", "designationCode": "C", "categoryCode": "57", "address": "130 HUNTER ST. W. UNIT 200", "city": "PETERBOROUGH", "province": "ON", "country": "CA", "postalCode": "K9H2K8", "twitter": "None", "instagram": "None", "facebook": "None", "youtube": "None", "website": "None", "summary": "None", "logo": "None", "latitude": 44.30595748600598, "longitude": -78.3191509730798}, "892345430RR0001": {"name": "FOUR COUNTIES BRAIN INJURY ASSOCIATION", "designationCode": "C", "categoryCode": "11", "address": "158 CHARLOTTE STREET", "city": "PETERBOROUGH", "province": "ON", "country": "CA", "postalCode": "K9J2T8", "twitter": "None", "instagram": "None", "facebook": "None", "youtube": "None", "website": "None", "summary": "None", "logo": "None", "latitude": 44.30344951485941, "longitude": -78.3203132828207}, "118929538RR0001": {"name": "FOUR COUNTIES HEALTH SERVICES CORPORATION", "designationCode": "C", "categoryCode": "10", "address": "R.R. 3                        1824 CONCESSION DRIVE", "city": "NEWBURY", "province": "ON", "country": "CA", "postalCode": "N0L1Z0", "twitter": "None", "instagram": "None", "facebook": "None", "youtube": "None", "website": "None", "summary": "None", "logo": "None", "latitude": 42.682423958268835, "longitude": -81.78890193124474}, "118929546RR0001": {"name": "FOUR COUNTIES HEALTH SERVICES FOUNDATION", "designationCode": "A", "categoryCode": "13", "address": "RR #3                         1824, CONCESSION DRIVE", "city": "NEWBURY", "province": "ON", "country": "CA", "postalCode": "N0L1Z0", "twitter": "None", "instagram": "None", "facebook": "None", "youtube": "None", "website": "None", "summary": "None", "logo": "None", "latitude": 42.682423958268835, "longitude": -81.78890193124474}, "139966782RR0001": {"name": "FOUR DIRECTIONS FOSTER PARENT ASSOCIATION OF CALGARY", "designationCode": "C", "categoryCode": "59", "address": "4885 HUBALTA ROAD SE          2ND FLOOR", "city": "CALGARY", "province": "AB", "country": "CA", "postalCode": "T2B1T5", "twitter": "None", "instagram": "None", "facebook": "None", "youtube": "None", "website": "None", "summary": "None", "logo": "None", "latitude": 51.030469959749595, "longitude": -113.96391540562072}, "896371291RR0001": {"name": "FOUR FEATHERS INC.", "designationCode": "C", "categoryCode": "20", "address": "45B GILBERT AVE", "city": "WINNIPEG", "province": "MB", "country": "CA", "postalCode": "R2X0T4", "twitter": "None", "instagram": "None", "facebook": "None", "youtube": "None", "website": "None", "summary": "None", "logo": "None", "latitude": 49.93260891435714, "longitude": -97.18707629778133}, "889013207RR0001": {"name": "FOUR HARBOURS COMMUNITY PATROL ASSOCIATION", "designationCode": "C", "categoryCode": "59", "address": "15611 HIGHWAY 7, RR 2", "city": "TANGIER", "province": "NS", "country": "CA", "postalCode": "B0J3H0", "twitter": "None", "instagram": "None", "facebook": "None", "youtube": "None", "website": "None", "summary": "None", "logo": "None", "latitude": 44.77888747215618, "longitude": -62.779560470569635}, "118929553RR0001": {"name": "FOUR LAKES SENIOR CITIZEN'S CLUB INC.", "designationCode": "C", "categoryCode": "09", "address": "1395 ROUTE 670 PO BOX 5", "city": "LAKEVILLE CORNER", "province": "NB", "country": "CA", "postalCode": "E4B1R5", "twitter": "None", "instagram": "None", "facebook": "None", "youtube": "None", "website": "None", "summary": "None", "logo": "None", "latitude": 45.916028031394035, "longitude": -66.25199820733}, "887017143RR0001": {"name": "FOUR M CHARITABLE FOUNDATION", "designationCode": "B", "categoryCode": "03", "address": "SUITE 200 1281-91 STREET SW", "city": "EDMONTON", "province": "AB", "country": "CA", "postalCode": "T6X1H1", "twitter": "None", "instagram": "None", "facebook": "None", "youtube": "None", "website": "None", "summary": "None", "logo": "None", "latitude": 53.42123064276668, "longitude": -113.47600564631603}, "890955941RR0001": {"name": "FOUR RIVERS PRESBYTERY", "designationCode": "C", "categoryCode": "44", "address": "1191 CRANBERRY COVER LANE     RR #3", "city": "SEELEY'S BAY", "province": "ON", "country": "CA", "postalCode": "K0H2N0", "twitter": "None", "instagram": "None", "facebook": "None", "youtube": "None", "website": "None", "summary": "None", "logo": "None", "latitude": 44.47137300000006, "longitude": -76.24266649999993}, "870037231RR0001": {"name": "FOUR SEASONS CONSERVANCY", "designationCode": "C", "categoryCode": "56", "address": "BOX 591", "city": "DEEP RIVER", "province": "ON", "country": "CA", "postalCode": "K0J1P0", "twitter": "None", "instagram": "None", "facebook": "None", "youtube": "None", "website": "None", "summary": "None", "logo": "None", "latitude": 46.10094229916361, "longitude": -77.48685137671198}, "118929561RR0001": {"name": "FOUR SEASONS DROP IN CENTRE INC.", "designationCode": "C", "categoryCode": "56", "address": "POST OFFICE BOX 148", "city": "KENOSEE LAKE", "province": "SK", "country": "CA", "postalCode": "S0C2S0", "twitter": "None", "instagram": "None", "facebook": "None", "youtube": "None", "website": "None", "summary": "None", "logo": "None", "latitude": 49.835840653447214, "longitude": -102.28299050850356}, "132523887RR0001": {"name": "FOUR VALLEYS VOLUNTEER FIRE DEPARTMENT", "designationCode": "C", "categoryCode": "59", "address": "1558 PLEASANT VALLEY", "city": "ANTIGONISH", "province": "NS", "country": "CA", "postalCode": "B2G2K9", "twitter": "None", "instagram": "None", "facebook": "None", "youtube": "None", "website": "None", "summary": "None", "logo": "None", "latitude": 45.69635689454089, "longitude": -62.079203830948295}, "868775412RR0001": {"name": "FOURCHETTES DE L'ESPOIR", "designationCode": "C", "categoryCode": "09", "address": "12165 BOUL ROLLAND", "city": "MONTREAL-NORD", "province": "QC", "country": "CA", "postalCode": "H1G5Y1", "twitter": "None", "instagram": "None", "facebook": "None", "youtube": "None", "website": "None", "summary": "None", "logo": "None", "latitude": 45.61759063384613, "longitude": -73.62172567118226}, "118929512RR0001": {"name": "FOURCHU UNITED CHURCH", "designationCode": "C", "categoryCode": "44", "address": "9587 ST. PETERS FOURCHU ROAD", "city": "FOURCHU", "province": "NS", "country": "CA", "postalCode": "B2J1A4", "twitter": "None", "instagram": "None", "facebook": "None", "youtube": "None", "website": "None", "summary": "None", "logo": "None", "latitude": 45.72335753318128, "longitude": -60.25676302553522}, "107396905RR0002": {"name": "FOURSQUARE GOSPEL CHURCH OF CANADA", "designationCode": "C", "categoryCode": "39", "address": "B307 - 2099 LOUGHEED HWY", "city": "PORT COQUITLAM", "province": "BC", "country": "CA", "postalCode": "V3B1A8", "twitter": "None", "instagram": "None", "facebook": "None", "youtube": "None", "website": "None", "summary": "None", "logo": "None", "latitude": 49.266550538461395, "longitude": -122.77400226767284}, "107396905RR0032": {"name": "FOURSQUARE GOSPEL CHURCH OF CANDO", "designationCode": "C", "categoryCode": "36", "address": "PO BOX 116", "city": "DALMENY", "province": "SK", "country": "CA", "postalCode": "S0K1E0", "twitter": "None", "instagram": "None", "facebook": "None", "youtube": "None", "website": "None", "summary": "None", "logo": "None", "latitude": 52.143390000000004, "longitude": -106.76546549999999}, "107396905RR0029": {"name": "FOURSQUARE GOSPEL TABERNACLE", "designationCode": "C", "categoryCode": "39", "address": "207 TALFOURD ST", "city": "SARNIA", "province": "ON", "country": "CA", "postalCode": "N7T1N9", "twitter": "None", "instagram": "None", "facebook": "None", "youtube": "None", "website": "None", "summary": "None", "logo": "None", "latitude": 42.966467735551205, "longitude": -82.40416500408989}, "107396962RR0001": {"name": "FOURTH AVENUE BAPTIST CHURCH", "designationCode": "C", "categoryCode": "31", "address": "109A FOURTH AVE", "city": "OTTAWA", "province": "ON", "country": "CA", "postalCode": "K1S2L3", "twitter": "None", "instagram": "None", "facebook": "None", "youtube": "None", "website": "None", "summary": "None", "logo": "None", "latitude": 45.402212841179754, "longitude": -75.68863687288844}, "107776007RR0001": {"name": "FOURTH AVENUE BIBLE CHURCH", "designationCode": "C", "categoryCode": "34", "address": "PO BOX 129", "city": "NIVERVILLE", "province": "MB", "country": "CA", "postalCode": "R0A1E0", "twitter": "None", "instagram": "None", "facebook": "None", "youtube": "None", "website": "None", "summary": "None", "logo": "None", "latitude": 49.60599000000006, "longitude": -97.04598199999994}, "118929710RR0001": {"name": "FOX CREEK EVANGELICAL FREE CHURCH", "designationCode": "C", "categoryCode": "39", "address": "BOX 114", "city": "FOX CREEK", "province": "AB", "country": "CA", "postalCode": "T0H1P0", "twitter": "None", "instagram": "None", "facebook": "None", "youtube": "None", "website": "None", "summary": "None", "logo": "None", "latitude": 54.39207000000005, "longitude": -116.80049999999994}, "890123177RR0001": {"name": "FOX CREEK HISTORICAL ASSOCIATION", "designationCode": "C", "categoryCode": "50", "address": "PO BOX 269", "city": "FOX CREEK", "province": "AB", "country": "CA", "postalCode": "T0H1P0", "twitter": "None", "instagram": "None", "facebook": "None", "youtube": "None", "website": "None", "summary": "None", "logo": "None", "latitude": 54.39207000000005, "longitude": -116.80049999999994}, "118929777RR0001": {"name": "FOX POINT SEVENTH-DAY ADVENTIST CHURCH", "designationCode": "C", "categoryCode": "41", "address": "509 -HIGHWAY 329              RR #2", "city": "HUBBARDS", "province": "NS", "country": "CA", "postalCode": "B0J1T0", "twitter": "None", "instagram": "None", "facebook": "None", "youtube": "None", "website": "None", "summary": "None", "logo": "None", "latitude": 44.61685755231431, "longitude": -64.05917075463667}, "118929793RR0001": {"name": "FOXWARREN DISTRICT RECREATION CENTRE INC.", "designationCode": "C", "categoryCode": "56", "address": "P.O. BOX 62", "city": "FOXWARREN", "province": "MB", "country": "CA", "postalCode": "R0J0R0", "twitter": "None", "instagram": "None", "facebook": "None", "youtube": "None", "website": "None", "summary": "None", "logo": "None", "latitude": 50.520740000000046, "longitude": -101.15296999999998}, "899388060RR0001": {"name": "FOXWARREN HISTORICAL SOCIETY INC.", "designationCode": "C", "categoryCode": "50", "address": "BOX 85", "city": "FOXWARREN", "province": "MB", "country": "CA", "postalCode": "R0J0R0", "twitter": "None", "instagram": "None", "facebook": "None", "youtube": "None", "website": "None", "summary": "None", "logo": "None", "latitude": 50.520740000000046, "longitude": -101.15296999999998}, "107397267RR0001": {"name": "FOXWARREN LEISURE CENTRE INC.", "designationCode": "C", "categoryCode": "56", "address": "BOX 212", "city": "FOXWARREN", "province": "MB", "country": "CA", "postalCode": "R0J0R0", "twitter": "None", "instagram": "None", "facebook": "None", "youtube": "None", "website": "None", "summary": "None", "logo": "None", "latitude": 50.520740000000046, "longitude": -101.15296999999998}, "892003799RR0001": {"name": "FOYER D'APPRENTISSAGE ET D'AUTONOMIE SOCIALE D'ALMA INC.", "designationCode": "C", "categoryCode": "09", "address": "360  AV. DESMEULES", "city": "ALMA", "province": "QC", "country": "CA", "postalCode": "G8B5R7", "twitter": "None", "instagram": "None", "facebook": "None", "youtube": "None", "website": "None", "summary": "None", "logo": "None", "latitude": 48.55853054538628, "longitude": -71.64996977687674}, "118929843RR0001": {"name": "FOYER DE CHARITE", "designationCode": "C", "categoryCode": "01", "address": "4050, RUE PLOUFFE", "city": "MONTR\u00c9AL", "province": "QC", "country": "CA", "postalCode": "H4J1K3", "twitter": "None", "instagram": "None", "facebook": "None", "youtube": "None", "website": "None", "summary": "None", "logo": "None", "latitude": 45.533825759911224, "longitude": -73.70080263569754}, "118929850RR0001": {"name": "FOYER DE CHARITE NOTRE-DAME D'ORLEANS INC.", "designationCode": "C", "categoryCode": "38", "address": "8169, CH. ROYAL", "city": "SAINTE-PETRONILLE", "province": "QC", "country": "CA", "postalCode": "G0A4C0", "twitter": "None", "instagram": "None", "facebook": "None", "youtube": "None", "website": "None", "summary": "None", "logo": "None", "latitude": 46.851089793491475, "longitude": -71.11845193769659}, "140930587RR0001": {"name": "FOYER DE CHARITE VAL RACINE INC", "designationCode": "C", "categoryCode": "47", "address": "1200 BOUL. SAGUENAY OUEST", "city": "CHICOUTIMI", "province": "QC", "country": "CA", "postalCode": "G7J1A6", "twitter": "None", "instagram": "None", "facebook": "None", "youtube": "None", "website": "None", "summary": "None", "logo": "None", "latitude": 48.43529449451833, "longitude": -71.10486399140166}, "139306534RR0001": {"name": "FOYER DE JEUNES TRAVAILLEURS ET TRAVAILLEUSES DE MONTREAL INC", "designationCode": "C", "categoryCode": "01", "address": "2650 RUE DAVIDSON             BUREAU 110", "city": "MONTREAL", "province": "QC", "country": "CA", "postalCode": "H1W2Z2", "twitter": "None", "instagram": "None", "facebook": "None", "youtube": "None", "website": "None", "summary": "None", "logo": "None", "latitude": 45.54559108630055, "longitude": -73.55488985013554}, "892871013RR0001": {"name": "FOYER DES MARINS STELLA MARIS, DIVISION TROIS-RIVIERES/SEAMEN'S CLUB STELLA MARIS, TROIS-RIVIERES DIVISION", "designationCode": "C", "categoryCode": "09", "address": "132 DE LA COMMUNE", "city": "TROIS-RIVI\u00c8RES", "province": "QC", "country": "CA", "postalCode": "G9A2V7", "twitter": "None", "instagram": "None", "facebook": "None", "youtube": "None", "website": "None", "summary": "None", "logo": "None", "latitude": 46.33221577880999, "longitude": -72.54923230875995}, "118930049RR0001": {"name": "FOYER DU LIEN INC.", "designationCode": "C", "categoryCode": "01", "address": "CP 8126", "city": "CAP-AUX-MEULES ILES MAD", "province": "QC", "country": "CA", "postalCode": "G4T1R3", "twitter": "None", "instagram": "None", "facebook": "None", "youtube": "None", "website": "None", "summary": "None", "logo": "None", "latitude": 47.37973200000006, "longitude": -61.86139099999993}, "895627297RR0001": {"name": "FOYER HEARST - MATTICE - SOINS DE SANTE", "designationCode": "C", "categoryCode": "01", "address": "PO BOX 1538                   67 15TH ST", "city": "HEARST", "province": "ON", "country": "CA", "postalCode": "P0L1N0", "twitter": "None", "instagram": "None", "facebook": "None", "youtube": "None", "website": "None", "summary": "None", "logo": "None", "latitude": 49.689676347073345, "longitude": -83.6811177033333}, "101864783RR0001": {"name": "FOYER HONGROIS", "designationCode": "C", "categoryCode": "01", "address": "2580 ST-JACQUES               BUREAU 102", "city": "MONTREAL", "province": "QC", "country": "CA", "postalCode": "H3J2M8", "twitter": "None", "instagram": "None", "facebook": "None", "youtube": "None", "website": "None", "summary": "None", "logo": "None", "latitude": 45.484497882567005, "longitude": -73.57837693112728}, "863272472RR0001": {"name": "FOYER LE PASSAGE", "designationCode": "C", "categoryCode": "09", "address": "230 RUE CHAUSSE", "city": "ST JEAN SUR RICHELIEU", "province": "QC", "country": "CA", "postalCode": "J3B3P3", "twitter": "None", "instagram": "None", "facebook": "None", "youtube": "None", "website": "None", "summary": "None", "logo": "None", "latitude": 45.29610247403208, "longitude": -73.26253366763807}, "107398828RR0001": {"name": "FOYER NOTRE-DAME DE SAINT-LEONARD INC.", "designationCode": "C", "categoryCode": "01", "address": "604 RUE PRINCIPALE", "city": "ST LEONARD", "province": "NB", "country": "CA", "postalCode": "E7E2H5", "twitter": "None", "instagram": "None", "facebook": "None", "youtube": "None", "website": "None", "summary": "None", "logo": "None", "latitude": 47.16787962992135, "longitude": -67.92708184251073}, "107398927RR0001": {"name": "FOYER PERE FISET AUXILIARY", "designationCode": "C", "categoryCode": "10", "address": "PO BOX 219", "city": "CHETICAMP", "province": "NS", "country": "CA", "postalCode": "B0E1H0", "twitter": "None", "instagram": "None", "facebook": "None", "youtube": "None", "website": "None", "summary": "None", "logo": "None", "latitude": 46.60719600312706, "longitude": -61.03849596133188}, "131684656RR0001": {"name": "FOYER POUR FEMMES AUTOCHTONES DE MONTREAL/NATIVE WOMEN'S SHELTER OF MONTREAL", "designationCode": "C", "categoryCode": "01", "address": "P.O. BOX 183                  STATION ST. JACQUES", "city": "MONTREAL", "province": "QC", "country": "CA", "postalCode": "H3C2S1", "twitter": "None", "instagram": "None", "facebook": "None", "youtube": "None", "website": "None", "summary": "None", "logo": "None", "latitude": 45.49833600000005, "longitude": -73.55148649999994}, "129900759RR0001": {"name": "FOYER RICHELIEU WELLAND", "designationCode": "C", "categoryCode": "01", "address": "655 TANGUAY AVE", "city": "WELLAND", "province": "ON", "country": "CA", "postalCode": "L3B6A1", "twitter": "None", "instagram": "None", "facebook": "None", "youtube": "None", "website": "None", "summary": "None", "logo": "None", "latitude": 42.989771498268304, "longitude": -79.22398041618096}, "107399594RR0001": {"name": "FOYER ST. JOSEPH NURSING HOME INC.", "designationCode": "C", "categoryCode": "01", "address": "PO BOX 450", "city": "PONTEIX", "province": "SK", "country": "CA", "postalCode": "S0N1Z0", "twitter": "None", "instagram": "None", "facebook": "None", "youtube": "None", "website": "None", "summary": "None", "logo": "None", "latitude": 49.746290000000045, "longitude": -107.49463999999995}, "140861741RR0001": {"name": "FOYER ST-AMBROISE INC", "designationCode": "C", "categoryCode": "01", "address": "144 RUE BRASSARD", "city": "SAINT-AMBROISE", "province": "QC", "country": "CA", "postalCode": "G7P2J1", "twitter": "None", "instagram": "None", "facebook": "None", "youtube": "None", "website": "None", "summary": "None", "logo": "None", "latitude": 48.55973759997746, "longitude": -71.32827448392848}, "118930338RR0001": {"name": "FOYER VINCENT INC.", "designationCode": "C", "categoryCode": "01", "address": "200 RUE HORACE", "city": "WINNIPEG", "province": "MB", "country": "CA", "postalCode": "R2H0W5", "twitter": "None", "instagram": "None", "facebook": "None", "youtube": "None", "website": "None", "summary": "None", "logo": "None", "latitude": 49.88062854674263, "longitude": -97.11932222439266}, "863648770RR0001": {"name": "FPSC Foundation", "designationCode": "C", "categoryCode": "23", "address": "902-375 UNIVERSITY AVENUE", "city": "TORONTO", "province": "ON", "country": "CA", "postalCode": "M5G2J5", "twitter": "None", "instagram": "None", "facebook": "None", "youtube": "None", "website": "None", "summary": "None", "logo": "None", "latitude": 43.653447994460095, "longitude": -79.38752779110193}, "898724513RR0001": {"name": "FR. HENK VAN DEN BERG COUNCIL NO. 10614 CHARITABLE WELFARE TRUST", "designationCode": "A", "categoryCode": "65", "address": "60 ALLAN DRIVE", "city": "BOLTON", "province": "ON", "country": "CA", "postalCode": "L7E1P7", "twitter": "None", "instagram": "None", "facebook": "None", "youtube": "None", "website": "None", "summary": "None", "logo": "None", "latitude": 43.873439941976, "longitude": -79.72581215733761}, "886433762RR0001": {"name": "FRAGILE X RESEARCH FOUNDATION OF CANADA", "designationCode": "C", "categoryCode": "11", "address": "167 QUEEN STREET WEST", "city": "BRAMPTON", "province": "ON", "country": "CA", "postalCode": "L6Y1M5", "twitter": "None", "instagram": "None", "facebook": "None", "youtube": "None", "website": "None", "summary": "None", "logo": "None", "latitude": 43.68204502969018, "longitude": -79.76410006298701}, "798543914RR0001": {"name": "FRAISINETTE LA SOURIS", "designationCode": "C", "categoryCode": "19", "address": "136 RUE HELENE", "city": "SAINT-JEAN-SUR-RICHELIEU", "province": "QC", "country": "CA", "postalCode": "J2X5B1", "twitter": "None", "instagram": "None", "facebook": "None", "youtube": "None", "website": "None", "summary": "None", "logo": "None", "latitude": 45.29493717078234, "longitude": -73.22738058926889}, "118930361RR0001": {"name": "FRAMBOISE PRESBYTERIAN CHURCH", "designationCode": "C", "categoryCode": "37", "address": "731 STIRLING ROAD", "city": "STIRLING RICHMOND CO", "province": "NS", "country": "CA", "postalCode": "B2J1E9", "twitter": "None", "instagram": "None", "facebook": "None", "youtube": "None", "website": "None", "summary": "None", "logo": "None", "latitude": 45.72879757444223, "longitude": -60.40636131972422}, "898745609RR0001": {"name": "FRAMEWORK FOUNDATION", "designationCode": "C", "categoryCode": "59", "address": "1 - 356 KING ST E", "city": "TORONTO", "province": "ON", "country": "CA", "postalCode": "M5A1K9", "twitter": "None", "instagram": "None", "facebook": "None", "youtube": "None", "website": "None", "summary": "None", "logo": "None", "latitude": 43.65338967805409, "longitude": -79.36209507536492}, "896723525RR0001": {"name": "FRANCIS POINT MARINE PARK SOCIETY", "designationCode": "A", "categoryCode": "03", "address": "BOX 219                       4434 RONDVIEW ROAD", "city": "MADEIRA PARK", "province": "BC", "country": "CA", "postalCode": "V0N2H0", "twitter": "None", "instagram": "None", "facebook": "None", "youtube": "None", "website": "None", "summary": "None", "logo": "None", "latitude": 49.615324203689816, "longitude": -124.05161637533983}, "852386176RR0001": {"name": "FRANCIS-KEYSTONE FOUNDATION", "designationCode": "B", "categoryCode": "03", "address": "5725 RIVERSIDE DRIVE EAST", "city": "WINDSOR", "province": "ON", "country": "CA", "postalCode": "N8S1B2", "twitter": "None", "instagram": "None", "facebook": "None", "youtube": "None", "website": "None", "summary": "None", "logo": "None", "latitude": 42.331612612239795, "longitude": -82.9698510807606}, "107400707RR0001": {"name": "FRANCISCAN FATHERS", "designationCode": "C", "categoryCode": "46", "address": "8106 JASPER AVE", "city": "EDMONTON", "province": "AB", "country": "CA", "postalCode": "T5H3S1", "twitter": "None", "instagram": "None", "facebook": "None", "youtube": "None", "website": "None", "summary": "None", "logo": "None", "latitude": 53.55705130394118, "longitude": -113.46558921178361}, "899407936RR0001": {"name": "FRANCISCAN FATHERS,", "designationCode": "C", "categoryCode": "46", "address": "1076 JOAN CRESCENT", "city": "VICTORIA", "province": "BC", "country": "CA", "postalCode": "V8S3L5", "twitter": "None", "instagram": "None", "facebook": "None", "youtube": "None", "website": "None", "summary": "None", "logo": "None", "latitude": 48.423259447111896, "longitude": -123.34394057620163}, "867735201RR0001": {"name": "FRANCISCAN MISSIONARY BROTHERS SOCIETY OF BRITISH COLUMBIA", "designationCode": "C", "categoryCode": "39", "address": "BOX 2122", "city": "FRASER LAKE", "province": "BC", "country": "CA", "postalCode": "V0J1S0", "twitter": "None", "instagram": "None", "facebook": "None", "youtube": "None", "website": "None", "summary": "None", "logo": "None", "latitude": 54.05537000000004, "longitude": -124.84213999999997}, "118930429RR0001": {"name": "FRANCISCAN MISSIONARY UNION", "designationCode": "C", "categoryCode": "47", "address": "1076 JOAN CRESCENT", "city": "VICTORIA", "province": "BC", "country": "CA", "postalCode": "V8S3L5", "twitter": "None", "instagram": "None", "facebook": "None", "youtube": "None", "website": "None", "summary": "None", "logo": "None", "latitude": 48.423259447111896, "longitude": -123.34394057620163}, "118930437RR0001": {"name": "FRANCISCAN POOR CLARE NUNS", "designationCode": "C", "categoryCode": "46", "address": "2359 CALAIS RD", "city": "DUNCAN", "province": "BC", "country": "CA", "postalCode": "V9L5V5", "twitter": "None", "instagram": "None", "facebook": "None", "youtube": "None", "website": "None", "summary": "None", "logo": "None", "latitude": 48.80897842578893, "longitude": -123.68684982636066}, "118930445RR0001": {"name": "FRANCISCAN SISTERS BENEVOLENT SOCIETY", "designationCode": "C", "categoryCode": "46", "address": "11035 92 ST", "city": "EDMONTON", "province": "AB", "country": "CA", "postalCode": "T5H1W5", "twitter": "None", "instagram": "None", "facebook": "None", "youtube": "None", "website": "None", "summary": "None", "logo": "None", "latitude": 53.55958771247611, "longitude": -113.48234069129829}, "118930460RR0001": {"name": "FRANCISCAN SISTERS OF THE ATONEMENT (DOMINION OF CANADA)", "designationCode": "C", "categoryCode": "01", "address": "PO BOX 99530 RPO CROMDALE", "city": "EDMONTON", "province": "AB", "country": "CA", "postalCode": "T5B0E1", "twitter": "None", "instagram": "None", "facebook": "None", "youtube": "None", "website": "None", "summary": "None", "logo": "None", "latitude": 53.56065000000007, "longitude": -113.46251999999998}, "118930452RR0001": {"name": "FRANCISCAN SISTERS OF THE ATONEMENT OF ALBERTA", "designationCode": "C", "categoryCode": "01", "address": "PO BOX 99530 RPO CROMDALE", "city": "EDMONTON", "province": "AB", "country": "CA", "postalCode": "T5B0E1", "twitter": "None", "instagram": "None", "facebook": "None", "youtube": "None", "website": "None", "summary": "None", "logo": "None", "latitude": 53.56065000000007, "longitude": -113.46251999999998}, "128883014RR0001": {"name": "FRANCO-SOL GARDERIE ET CENTRE DE RESSOURCES", "designationCode": "C", "categoryCode": "20", "address": "11886 TECUMSEH RD E, SUITE 2B", "city": "TECUMSEH", "province": "ON", "country": "CA", "postalCode": "N8N3C1", "twitter": "None", "instagram": "None", "facebook": "None", "youtube": "None", "website": "None", "summary": "None", "logo": "None", "latitude": 42.31214722114573, "longitude": -82.89777718159779}, "118930502RR0001": {"name": "FRANCOFONDS INC.", "designationCode": "A", "categoryCode": "23", "address": "101-205 BOUL PROVENCHER", "city": "WINNIPEG", "province": "MB", "country": "CA", "postalCode": "R2H0G4", "twitter": "None", "instagram": "None", "facebook": "None", "youtube": "None", "website": "None", "summary": "None", "logo": "None", "latitude": 49.89248314683471, "longitude": -97.12124687705574}, "895960433RR0001": {"name": "FRANCOPHONE EDUCATION AUTHORITIES (CONSEIL SCOLAIRE FRANCOPHONE)", "designationCode": "C", "categoryCode": "20", "address": "100-13511 COMMERCE PKY", "city": "RICHMOND", "province": "BC", "country": "CA", "postalCode": "V6V2J8", "twitter": "None", "instagram": "None", "facebook": "None", "youtube": "None", "website": "None", "summary": "None", "logo": "None", "latitude": 49.17347069608749, "longitude": -123.07181351454135}, "890951593RR0001": {"name": "FRANK ALBERTA CONGREGATION OF JEHOVAHS WITNESSES", "designationCode": "C", "categoryCode": "61", "address": "BOX 1015", "city": "COLEMAN", "province": "AB", "country": "CA", "postalCode": "T0K0M0", "twitter": "None", "instagram": "None", "facebook": "None", "youtube": "None", "website": "None", "summary": "None", "logo": "None", "latitude": 49.4888173371808, "longitude": -113.95073569884576}, "890632946RR0001": {"name": "FRANK AND ELLEN REMAI FOUNDATION INC.", "designationCode": "B", "categoryCode": "03", "address": "143 CARDINAL CRESCENT", "city": "SASKATOON", "province": "SK", "country": "CA", "postalCode": "S7L6H5", "twitter": "None", "instagram": "None", "facebook": "None", "youtube": "None", "website": "None", "summary": "None", "logo": "None", "latitude": 52.15379181591601, "longitude": -106.68518706673699}, "846069219RR0001": {"name": "FRANK CAVALLARO FOUNDATION/FONDATION FRANK CAVALLARO", "designationCode": "A", "categoryCode": "03", "address": "3831 RUE DE L'INTENDANT", "city": "LAVAL", "province": "QC", "country": "CA", "postalCode": "H7E5H9", "twitter": "None", "instagram": "None", "facebook": "None", "youtube": "None", "website": "None", "summary": "None", "logo": "None", "latitude": 45.619874277540575, "longitude": -73.67834194113928}, "136721644RR0001": {"name": "FRANK FINDLAY TRUST", "designationCode": "B", "categoryCode": "21", "address": "380 WELLINGTON ST, 12TH FLOOR", "city": "LONDON", "province": "ON", "country": "CA", "postalCode": "N6A5B5", "twitter": "None", "instagram": "None", "facebook": "None", "youtube": "None", "website": "None", "summary": "None", "logo": "None", "latitude": 42.98403487844074, "longitude": -81.24475227780037}, "886167790RR0001": {"name": "FRANK GOUTHRO SCHOLARSHIP FUND", "designationCode": "C", "categoryCode": "21", "address": "BOX 1298", "city": "GUELPH", "province": "ON", "country": "CA", "postalCode": "N1H6N6", "twitter": "None", "instagram": "None", "facebook": "None", "youtube": "None", "website": "None", "summary": "None", "logo": "None", "latitude": 43.54455300000005, "longitude": -80.24788249999993}, "136161296RR0001": {"name": "FRANK J SELKE MEMORIAL RESOURCE CENTRE", "designationCode": "C", "categoryCode": "49", "address": "8A CEDAR STREET", "city": "KAPUSKASING", "province": "ON", "country": "CA", "postalCode": "P5N2A8", "twitter": "None", "instagram": "None", "facebook": "None", "youtube": "None", "website": "None", "summary": "None", "logo": "None", "latitude": 49.42194598951395, "longitude": -82.42220553666367}, "827569674RR0001": {"name": "FRANK J. FLAMAN FOUNDATION", "designationCode": "A", "categoryCode": "03", "address": "2310 SPARROW DRIVE", "city": "NISKU", "province": "AB", "country": "CA", "postalCode": "T9E8A2", "twitter": "None", "instagram": "None", "facebook": "None", "youtube": "None", "website": "None", "summary": "None", "logo": "None", "latitude": 53.34826987651484, "longitude": -113.53900487506974}, "118930627RR0001": {"name": "FRANK MORRIS ROYAL CANADIAN LEGION BRANCH NO. 13 BENEVOLENT FUND", "designationCode": "B", "categoryCode": "09", "address": "4824 STRAUME AVENUE", "city": "TERRACE", "province": "BC", "country": "CA", "postalCode": "V8G2C7", "twitter": "None", "instagram": "None", "facebook": "None", "youtube": "None", "website": "None", "summary": "None", "logo": "None", "latitude": 54.52416152654483, "longitude": -128.60138322300767}, "895265783RR0001": {"name": "FRANK SKINNER ARBORETUM CORPORATION", "designationCode": "C", "categoryCode": "50", "address": "BOX 970", "city": "ROBLIN", "province": "MB", "country": "CA", "postalCode": "R0L1P0", "twitter": "None", "instagram": "None", "facebook": "None", "youtube": "None", "website": "None", "summary": "None", "logo": "None", "latitude": 51.22816000000006, "longitude": -101.35248999999999}, "107402869RR0001": {"name": "FRANK STREET BAPTIST CHURCH", "designationCode": "C", "categoryCode": "31", "address": "P.O. BOX 848", "city": "WIARTON", "province": "ON", "country": "CA", "postalCode": "N0H2T0", "twitter": "None", "instagram": "None", "facebook": "None", "youtube": "None", "website": "None", "summary": "None", "logo": "None", "latitude": 44.74013000000008, "longitude": -81.13977999999997}, "890135775RR0001": {"name": "FRANK WILLS MEMORIAL SOCIETY", "designationCode": "C", "categoryCode": "56", "address": "PO BOX 1433 STN MAIN", "city": "COCHRANE", "province": "AB", "country": "CA", "postalCode": "T4C1B4", "twitter": "None", "instagram": "None", "facebook": "None", "youtube": "None", "website": "None", "summary": "None", "logo": "None", "latitude": 51.19089900000006, "longitude": -114.46804249999994}, "107402000RR0001": {"name": "FRANKFORD CHRISTIAN REFORMED CHURCH", "designationCode": "C", "categoryCode": "39", "address": "PO BOX 520", "city": "FRANKFORD", "province": "ON", "country": "CA", "postalCode": "K0K2C0", "twitter": "None", "instagram": "None", "facebook": "None", "youtube": "None", "website": "None", "summary": "None", "logo": "None", "latitude": 44.24085842203657, "longitude": -77.43458865131278}, "895025930RR0001": {"name": "FRANKFORD COMMUNITY FREE METHODIST CHURCH", "designationCode": "C", "categoryCode": "39", "address": "BOX 659", "city": "FRANKFORD", "province": "ON", "country": "CA", "postalCode": "K0K2C0", "twitter": "None", "instagram": "None", "facebook": "None", "youtube": "None", "website": "None", "summary": "None", "logo": "None", "latitude": 44.24085842203657, "longitude": -77.43458865131278}, "131214637RR0001": {"name": "FRANKFORD FULL GOSPEL TABERNACLE", "designationCode": "C", "categoryCode": "36", "address": "PO BOX 32", "city": "FRANKFORD", "province": "ON", "country": "CA", "postalCode": "K0K2C0", "twitter": "None", "instagram": "None", "facebook": "None", "youtube": "None", "website": "None", "summary": "None", "logo": "None"}, "107402018RR0001": {"name": "FRANKFORD PASTORAL CHARGE", "designationCode": "C", "categoryCode": "44", "address": "BOX 346", "city": "FRANKFORD", "province": "ON", "country": "CA", "postalCode": "K0K2C0", "twitter": "None", "instagram": "None", "facebook": "None", "youtube": "None", "website": "None", "summary": "None", "logo": "None", "latitude": 44.24085842203657, "longitude": -77.43458865131278}, "129199717RR0001": {"name": "FRANKLANDS FOUNDATION", "designationCode": "B", "categoryCode": "05", "address": "46-48 KING STREET EAST", "city": "BROCKVILLE", "province": "ON", "country": "CA", "postalCode": "K6V5V6", "twitter": "None", "instagram": "None", "facebook": "None", "youtube": "None", "website": "None", "summary": "None", "logo": "None", "latitude": 44.59129213517795, "longitude": -75.68163909813018}, "889509667RR0001": {"name": "FRANKLIN CARMICHAEL ART GROUP", "designationCode": "C", "categoryCode": "22", "address": "34 RIVERDALE DRIVE", "city": "ETOBICOKE", "province": "ON", "country": "CA", "postalCode": "M9V2T3", "twitter": "None", "instagram": "None", "facebook": "None", "youtube": "None", "website": "None", "summary": "None", "logo": "None", "latitude": 43.73127862308849, "longitude": -79.559645996826}, "890309446RR0001": {"name": "FRANKLIN CENTRE UNITED CHURCH", "designationCode": "C", "categoryCode": "44", "address": "1675 ROUTE 202", "city": "FRANKLIN CENTRE", "province": "QC", "country": "CA", "postalCode": "J0S1E0", "twitter": "None", "instagram": "None", "facebook": "None", "youtube": "None", "website": "None", "summary": "None", "logo": "None", "latitude": 45.0399286935461, "longitude": -73.86352437906612}, "898557319RR0001": {"name": "FRANKLIN CHILDREN'S CENTRE SOCIETY", "designationCode": "C", "categoryCode": "01", "address": "1925 18TH AVE N.E.            UNIT 102", "city": "CALGARY", "province": "AB", "country": "CA", "postalCode": "T2E7T8", "twitter": "None", "instagram": "None", "facebook": "None", "youtube": "None", "website": "None", "summary": "None", "logo": "None", "latitude": 51.06872469059371, "longitude": -114.01488090073188}, "118930593RR0001": {"name": "FRANKLIN CHURCH OF THE NAZARENE", "designationCode": "C", "categoryCode": "39", "address": "825 GRIMSHAW RD", "city": "FRANKLIN", "province": "QC", "country": "CA", "postalCode": "J0S1E0", "twitter": "None", "instagram": "None", "facebook": "None", "youtube": "None", "website": "None", "summary": "None", "logo": "None", "latitude": 45.026874135177934, "longitude": -73.94950826576824}, "118930585RR0001": {"name": "FRANKLIN COMMUNITY GOSPEL CHURCH", "designationCode": "C", "categoryCode": "47", "address": "690 NORTH SLOCAN", "city": "VANCOUVER", "province": "BC", "country": "CA", "postalCode": "V5K3M7", "twitter": "None", "instagram": "None", "facebook": "None", "youtube": "None", "website": "None", "summary": "None", "logo": "None", "latitude": 49.29176825728547, "longitude": -123.04928144390924}, "107402422RR0001": {"name": "FRANKLIN COMMUNITY SCHOOL ASSOCIATION", "designationCode": "C", "categoryCode": "59", "address": "250 SOUTH SKEENA STREET", "city": "VANCOUVER", "province": "BC", "country": "CA", "postalCode": "V5K4N8", "twitter": "None", "instagram": "None", "facebook": "None", "youtube": "None", "website": "None", "summary": "None", "logo": "None", "latitude": 49.282552948929556, "longitude": -123.02827887220924}}