{"107910259RR0230": {"name": "OUR LADY OF LA VANG COMMUNITY", "designationCode": "C", "categoryCode": "38", "address": "579 HARTFORDSHIRE LANE", "city": "MISSISSAUGA", "province": "ON", "country": "CA", "postalCode": "L5B2W9", "twitter": "None", "instagram": "None", "facebook": "None", "youtube": "None", "website": "None", "summary": "None", "logo": "None", "latitude": 43.582867961711514, "longitude": -79.65184863393718}, "128967353RR0124": {"name": "OUR LADY OF LA VANG PARISH", "designationCode": "C", "categoryCode": "38", "address": "280 WESLEY AVENUE SOUTH", "city": "OTTAWA", "province": "ON", "country": "CA", "postalCode": "K1Z7A6", "twitter": "None", "instagram": "None", "facebook": "None", "youtube": "None", "website": "None", "summary": "None", "logo": "None", "latitude": 45.39099350871392, "longitude": -75.75045069689554}, "131106098RR0014": {"name": "OUR LADY OF LABRADOR PARISH", "designationCode": "C", "categoryCode": "38", "address": "BOX 68                        WEST ST.", "city": "MODESTE", "province": "NL", "country": "CA", "postalCode": "A0K5S0", "twitter": "None", "instagram": "None", "facebook": "None", "youtube": "None", "website": "None", "summary": "None", "logo": "None"}, "119072734RR0001": {"name": "OUR LADY OF LEBANON CHURCH", "designationCode": "C", "categoryCode": "38", "address": "1515 QUEEN ST. W", "city": "TORONTO", "province": "ON", "country": "CA", "postalCode": "M6R1A5", "twitter": "None", "instagram": "None", "facebook": "None", "youtube": "None", "website": "None", "summary": "None", "logo": "None", "latitude": 43.6395948087313, "longitude": -79.44150731083742}, "119077873RR0001": {"name": "OUR LADY OF LORETTO CHAPEL", "designationCode": "C", "categoryCode": "38", "address": "CFB/ASU EDMONTON              PO 10500  STN FORCES", "city": "EDMONTON", "province": "AB", "country": "CA", "postalCode": "T5J4J5", "twitter": "None", "instagram": "None", "facebook": "None", "youtube": "None", "website": "None", "summary": "None", "logo": "None", "latitude": 53.54623500000005, "longitude": -113.49037249999994}, "119264174RR0031": {"name": "OUR LADY OF LORETTO CHURCH", "designationCode": "C", "categoryCode": "38", "address": "290 GRENVILLE AVE", "city": "THUNDER BAY N", "province": "ON", "country": "CA", "postalCode": "P7A2A9", "twitter": "None", "instagram": "None", "facebook": "None", "youtube": "None", "website": "None", "summary": "None", "logo": "None", "latitude": 48.460203419095166, "longitude": -89.18751853785581}, "108094392RR0037": {"name": "OUR LADY OF LOURDES", "designationCode": "C", "categoryCode": "38", "address": "2547 HEBERT RD", "city": "WESTBANK", "province": "BC", "country": "CA", "postalCode": "V4T2J6", "twitter": "None", "instagram": "None", "facebook": "None", "youtube": "None", "website": "None", "summary": "None", "logo": "None", "latitude": 49.828148999999996, "longitude": -119.63389089540719}, "888644796RR0001": {"name": "OUR LADY OF LOURDES", "designationCode": "C", "categoryCode": "38", "address": "BOX 117", "city": "GOVAN", "province": "SK", "country": "CA", "postalCode": "S0G1Z0", "twitter": "None", "instagram": "None", "facebook": "None", "youtube": "None", "website": "None", "summary": "None", "logo": "None", "latitude": 51.30007000000006, "longitude": -105.00114999999994}, "119109791RR0035": {"name": "OUR LADY OF LOURDES (ST. MARY'S) ROMAN CATHOLIC CHURCH", "designationCode": "C", "categoryCode": "38", "address": "P.O. BOX 727                  94 MAIN ST. S.", "city": "HAGERSVILLE", "province": "ON", "country": "CA", "postalCode": "N0A1H0", "twitter": "None", "instagram": "None", "facebook": "None", "youtube": "None", "website": "None", "summary": "None", "logo": "None", "latitude": 42.956445708124484, "longitude": -80.05685039842199}, "107876476RR0021": {"name": "OUR LADY OF LOURDES CHURCH", "designationCode": "C", "categoryCode": "38", "address": "P.O. BOX 220", "city": "MANITOUWADGE", "province": "ON", "country": "CA", "postalCode": "P0T2C0", "twitter": "None", "instagram": "None", "facebook": "None", "youtube": "None", "website": "None", "summary": "None", "logo": "None", "latitude": 49.12397000000004, "longitude": -85.83204999999998}, "119072783RR0001": {"name": "OUR LADY OF LOURDES CHURCH", "designationCode": "C", "categoryCode": "38", "address": "P.O. BOX 2015                 STATION MAIN", "city": "WINNIPEG", "province": "MB", "country": "CA", "postalCode": "R3C3R3", "twitter": "None", "instagram": "None", "facebook": "None", "youtube": "None", "website": "None", "summary": "None", "logo": "None", "latitude": 49.899525000000054, "longitude": -97.14112999999993}, "119264174RR0025": {"name": "OUR LADY OF LOURDES CHURCH", "designationCode": "C", "categoryCode": "38", "address": "209 VICTORIA AVENUE", "city": "FORT FRANCES", "province": "ON", "country": "CA", "postalCode": "P9A2B8", "twitter": "None", "instagram": "None", "facebook": "None", "youtube": "None", "website": "None", "summary": "None", "logo": "None", "latitude": 48.606929632141416, "longitude": -93.39264779207144}, "119221380RR0007": {"name": "OUR LADY OF LOURDES ELEMENTARY SCHOOL", "designationCode": "C", "categoryCode": "20", "address": "3665 BENVOULIN RD.", "city": "KELOWNA", "province": "BC", "country": "CA", "postalCode": "V1W4M7", "twitter": "None", "instagram": "None", "facebook": "None", "youtube": "None", "website": "None", "summary": "None", "logo": "None", "latitude": 49.85056104631423, "longitude": -119.46776856721908}, "107307191RR0045": {"name": "OUR LADY OF LOURDES PARISH", "designationCode": "C", "categoryCode": "38", "address": "1235-12TH ST.E.", "city": "SASKATOON", "province": "SK", "country": "CA", "postalCode": "S7H0E3", "twitter": "None", "instagram": "None", "facebook": "None", "youtube": "None", "website": "None", "summary": "None", "logo": "None", "latitude": 52.119827453257386, "longitude": -106.63923158381903}, "107910192RR0014": {"name": "OUR LADY OF LOURDES PARISH", "designationCode": "C", "categoryCode": "38", "address": "P.O. BOX 220", "city": "LOURDES", "province": "NL", "country": "CA", "postalCode": "A0N1R0", "twitter": "None", "instagram": "None", "facebook": "None", "youtube": "None", "website": "None", "summary": "None", "logo": "None", "latitude": 48.64730000000003, "longitude": -59.00241999999997}, "108094392RR0023": {"name": "OUR LADY OF LOURDES PARISH", "designationCode": "C", "categoryCode": "38", "address": "PO BOX 48", "city": "KEREMEOS", "province": "BC", "country": "CA", "postalCode": "V0X1N0", "twitter": "None", "instagram": "None", "facebook": "None", "youtube": "None", "website": "None", "summary": "None", "logo": "None", "latitude": 49.20514000000003, "longitude": -119.82412}, "118849470RR0031": {"name": "OUR LADY OF LOURDES PARISH", "designationCode": "C", "categoryCode": "38", "address": "828 LAVAL SQ", "city": "COQUITLAM", "province": "BC", "country": "CA", "postalCode": "V3K2E6", "twitter": "None", "instagram": "None", "facebook": "None", "youtube": "None", "website": "None", "summary": "None", "logo": "None", "latitude": 49.240920456575594, "longitude": -122.85702389217496}, "119110443RR0036": {"name": "OUR LADY OF LOURDES PARISH", "designationCode": "C", "categoryCode": "38", "address": "490 DAYS ROAD", "city": "KINGSTON", "province": "ON", "country": "CA", "postalCode": "K7M5R4", "twitter": "None", "instagram": "None", "facebook": "None", "youtube": "None", "website": "None", "summary": "None", "logo": "None", "latitude": 44.23543803442202, "longitude": -76.57089309259119}, "119110450RR0100": {"name": "OUR LADY OF LOURDES PARISH", "designationCode": "C", "categoryCode": "38", "address": "173 LOURDES ST W", "city": "WATERLOO", "province": "ON", "country": "CA", "postalCode": "N2L1N5", "twitter": "None", "instagram": "None", "facebook": "None", "youtube": "None", "website": "None", "summary": "None", "logo": "None", "latitude": 43.459053676351985, "longitude": -80.53139321951657}, "119110450RR0113": {"name": "OUR LADY OF LOURDES PARISH", "designationCode": "C", "categoryCode": "38", "address": "416 MOHAWK ROAD EAST", "city": "HAMILTON", "province": "ON", "country": "CA", "postalCode": "L8V2H7", "twitter": "None", "instagram": "None", "facebook": "None", "youtube": "None", "website": "None", "summary": "None", "logo": "None", "latitude": 43.22304189976369, "longitude": -79.85891051292617}, "122418601RR0008": {"name": "OUR LADY OF LOURDES PARISH", "designationCode": "C", "categoryCode": "38", "address": "65 GREEN STREET", "city": "YARMOUTH", "province": "NS", "country": "CA", "postalCode": "B5A1Z6", "twitter": "None", "instagram": "None", "facebook": "None", "youtube": "None", "website": "None", "summary": "None", "logo": "None", "latitude": 43.83047638190317, "longitude": -66.11441193000212}, "108094392RR0025": {"name": "OUR LADY OF LOURDES PARISH AND MISSION", "designationCode": "C", "categoryCode": "39", "address": "BOX 190", "city": "NAKUSP", "province": "BC", "country": "CA", "postalCode": "V0G1R0", "twitter": "None", "instagram": "None", "facebook": "None", "youtube": "None", "website": "None", "summary": "None", "logo": "None"}, "106880107RR0067": {"name": "OUR LADY OF LOURDES PARISH, NORTH SYDNEY", "designationCode": "C", "categoryCode": "38", "address": "112 FOORD ST", "city": "NEW GLASGOW", "province": "NS", "country": "CA", "postalCode": "B2H5G7", "twitter": "None", "instagram": "None", "facebook": "None", "youtube": "None", "website": "None", "summary": "None", "logo": "None", "latitude": 45.57591898917996, "longitude": -62.656049656731106}, "130777485RR0002": {"name": "OUR LADY OF LOURDES SHRINE INC", "designationCode": "C", "categoryCode": "49", "address": "1433 GOSHEN PLACE", "city": "PRINCE ALBERT", "province": "SK", "country": "CA", "postalCode": "S6V0R7", "twitter": "None", "instagram": "None", "facebook": "None", "youtube": "None", "website": "None", "summary": "None", "logo": "None", "latitude": 53.20500157692267, "longitude": -105.70820856991209}, "107585085RR0067": {"name": "OUR LADY OF LOURDES, ST. LAURENT SHRINE", "designationCode": "C", "categoryCode": "38", "address": "1433 GOSHEN PLACE", "city": "PRINCE ALBERT", "province": "SK", "country": "CA", "postalCode": "S6V0R7", "twitter": "None", "instagram": "None", "facebook": "None", "youtube": "None", "website": "None", "summary": "None", "logo": "None", "latitude": 53.20500157692267, "longitude": -105.70820856991209}, "119072999RR0001": {"name": "OUR LADY OF MERCY MUSEUM COMMITTEE", "designationCode": "C", "categoryCode": "50", "address": "P.O. BOX 330", "city": "PORT AU PORT", "province": "NL", "country": "CA", "postalCode": "A0N1T0", "twitter": "None", "instagram": "None", "facebook": "None", "youtube": "None", "website": "None", "summary": "None", "logo": "None", "latitude": 48.55001000000004, "longitude": -58.715209999999956}, "118849470RR0027": {"name": "OUR LADY OF MERCY PARISH", "designationCode": "C", "categoryCode": "38", "address": "7455 10TH AVE", "city": "BURNABY", "province": "BC", "country": "CA", "postalCode": "V3N2S1", "twitter": "None", "instagram": "None", "facebook": "None", "youtube": "None", "website": "None", "summary": "None", "logo": "None", "latitude": 49.2147419078711, "longitude": -122.93550624259896}, "119110450RR0032": {"name": "OUR LADY OF MERCY PARISH", "designationCode": "C", "categoryCode": "38", "address": "58 DUNDURN ST N", "city": "HAMILTON", "province": "ON", "country": "CA", "postalCode": "L8R3E1", "twitter": "None", "instagram": "None", "facebook": "None", "youtube": "None", "website": "None", "summary": "None", "logo": "None", "latitude": 43.26395588565409, "longitude": -79.88714066691692}, "129930228RR0030": {"name": "OUR LADY OF MERCY PARISH", "designationCode": "C", "categoryCode": "38", "address": "187 MAIN ST", "city": "AROOSTOOK", "province": "NB", "country": "CA", "postalCode": "E7H2Z1", "twitter": "None", "instagram": "None", "facebook": "None", "youtube": "None", "website": "None", "summary": "None", "logo": "None", "latitude": 46.79758226894225, "longitude": -67.72512854025041}, "889351995RR0002": {"name": "OUR LADY OF MERCY PARISH", "designationCode": "C", "categoryCode": "38", "address": "4609 50 AVE", "city": "ST PAUL", "province": "AB", "country": "CA", "postalCode": "T0A3A3", "twitter": "None", "instagram": "None", "facebook": "None", "youtube": "None", "website": "None", "summary": "None", "logo": "None", "latitude": 53.99135148730496, "longitude": -111.28695202553523}, "130091135RR0044": {"name": "OUR LADY OF MERCY PARISH/PAROISSE N D DE LA MERCI", "designationCode": "C", "categoryCode": "38", "address": "11 ST ANDREWS RD", "city": "POINTE-DU-CHENE", "province": "NB", "country": "CA", "postalCode": "E4P5E4", "twitter": "None", "instagram": "None", "facebook": "None", "youtube": "None", "website": "None", "summary": "None", "logo": "None", "latitude": 46.23795061864509, "longitude": -64.52053234096027}, "107814063RR0001": {"name": "OUR LADY OF MOUNT CARMEL PARISH", "designationCode": "C", "categoryCode": "38", "address": "P.O BOX 730", "city": "CARMAN", "province": "MB", "country": "CA", "postalCode": "R0G0J0", "twitter": "None", "instagram": "None", "facebook": "None", "youtube": "None", "website": "None", "summary": "None", "logo": "None", "latitude": 49.50860000000006, "longitude": -98.00231999999994}, "107876468RR0022": {"name": "OUR LADY OF MOUNT CARMEL PARISH", "designationCode": "C", "categoryCode": "38", "address": "P.O. BOX 69", "city": "NORRIS ARM", "province": "NL", "country": "CA", "postalCode": "A0G3M0", "twitter": "None", "instagram": "None", "facebook": "None", "youtube": "None", "website": "None", "summary": "None", "logo": "None", "latitude": 49.08671703047479, "longitude": -55.27271442158606}, "119109817RR0082": {"name": "OUR LADY OF MOUNT CARMEL PARISH", "designationCode": "C", "categoryCode": "38", "address": "69219 BRONSON LINE RR#8", "city": "PARKHILL", "province": "ON", "country": "CA", "postalCode": "N0M2K0", "twitter": "None", "instagram": "None", "facebook": "None", "youtube": "None", "website": "None", "summary": "None", "logo": "None", "latitude": 43.25500644633248, "longitude": -81.61578675598648}, "119109833RR0043": {"name": "OUR LADY OF MOUNT CARMEL PARISH", "designationCode": "C", "categoryCode": "38", "address": "3709 PROSPECT RD.", "city": "SHAD BAY", "province": "NS", "country": "CA", "postalCode": "B3T2B4", "twitter": "None", "instagram": "None", "facebook": "None", "youtube": "None", "website": "None", "summary": "None", "logo": "None", "latitude": 44.521225457152525, "longitude": -63.78136102553522}, "119110450RR0018": {"name": "OUR LADY OF MOUNT CARMEL PARISH", "designationCode": "C", "categoryCode": "38", "address": "79 FREELTON RD", "city": "FREELTON", "province": "ON", "country": "CA", "postalCode": "L8B0Z3", "twitter": "None", "instagram": "None", "facebook": "None", "youtube": "None", "website": "None", "summary": "None", "logo": "None", "latitude": 43.39902951122407, "longitude": -80.03566561492283}, "131641763RR0002": {"name": "OUR LADY OF MOUNT CARMEL, WAUGH", "designationCode": "C", "categoryCode": "38", "address": "4609 50 AVE", "city": "ST PAUL", "province": "AB", "country": "CA", "postalCode": "T0A3A3", "twitter": "None", "instagram": "None", "facebook": "None", "youtube": "None", "website": "None", "summary": "None", "logo": "None", "latitude": 53.99135148730496, "longitude": -111.28695202553523}, "128967353RR0100": {"name": "OUR LADY OF MOUNT CARMEL'S PARISH", "designationCode": "C", "categoryCode": "38", "address": "400 ST LAURENT BLVD.", "city": "OTTAWA", "province": "ON", "country": "CA", "postalCode": "K1K2Z6", "twitter": "None", "instagram": "None", "facebook": "None", "youtube": "None", "website": "None", "summary": "None", "logo": "None", "latitude": 45.447604576172985, "longitude": -75.65057286586033}, "119109817RR0018": {"name": "OUR LADY OF MT. CARMEL, WINDSOR", "designationCode": "C", "categoryCode": "38", "address": "4401 MOUNT ROYAL DR", "city": "WINDSOR", "province": "ON", "country": "CA", "postalCode": "N9G2C5", "twitter": "None", "instagram": "None", "facebook": "None", "youtube": "None", "website": "None", "summary": "None", "logo": "None", "latitude": 42.24372424811021, "longitude": -83.01038244523596}, "860456946RR0001": {"name": "OUR LADY OF P.E.I. INC.", "designationCode": "C", "categoryCode": "39", "address": "1704 PALMER ROAD              RR 2", "city": "TIGNISH", "province": "PE", "country": "CA", "postalCode": "C0B2B0", "twitter": "None", "instagram": "None", "facebook": "None", "youtube": "None", "website": "None", "summary": "None", "logo": "None", "latitude": 46.935916331504345, "longitude": -64.12404287360948}, "119073195RR0001": {"name": "OUR LADY OF PEACE CHAPEL", "designationCode": "C", "categoryCode": "38", "address": "P.O. BOX 1000                 STATION FORCES", "city": "ASTRA", "province": "ON", "country": "CA", "postalCode": "K0K3W0", "twitter": "None", "instagram": "None", "facebook": "None", "youtube": "None", "website": "None", "summary": "None", "logo": "None", "latitude": 44.53637873237372, "longitude": -77.19959526055133}, "119109791RR0041": {"name": "OUR LADY OF PEACE CHURCH", "designationCode": "C", "categoryCode": "38", "address": "7021 STANLEY AVE", "city": "NIAGARA FALLS", "province": "ON", "country": "CA", "postalCode": "L2G7B7", "twitter": "None", "instagram": "None", "facebook": "None", "youtube": "None", "website": "None", "summary": "None", "logo": "None", "latitude": 43.07684469658887, "longitude": -79.08395215026263}, "119122786RR0010": {"name": "OUR LADY OF PEACE PARISH", "designationCode": "C", "categoryCode": "38", "address": "6500 SOUTHRIDGE AVE", "city": "PRINCE GEORGE", "province": "BC", "country": "CA", "postalCode": "V2N5P9", "twitter": "None", "instagram": "None", "facebook": "None", "youtube": "None", "website": "None", "summary": "None", "logo": "None", "latitude": 53.86420563941114, "longitude": -122.78374828519728}, "888531191RR0002": {"name": "OUR LADY OF PEACE PARISH", "designationCode": "C", "categoryCode": "38", "address": "10405-99 STREET", "city": "PEACE RIVER", "province": "AB", "country": "CA", "postalCode": "T8S1M4", "twitter": "None", "instagram": "None", "facebook": "None", "youtube": "None", "website": "None", "summary": "None", "logo": "None", "latitude": 56.22834769637595, "longitude": -117.28870308670456}, "107807729RR0001": {"name": "OUR LADY OF PERPETUAL HELP CHURCH", "designationCode": "C", "categoryCode": "38", "address": "4588 ROBLIN BLVD.", "city": "WINNIPEG", "province": "MB", "country": "CA", "postalCode": "R3R0G4", "twitter": "None", "instagram": "None", "facebook": "None", "youtube": "None", "website": "None", "summary": "None", "logo": "None", "latitude": 49.85918551650419, "longitude": -97.27729685506988}, "107909939RR0015": {"name": "OUR LADY OF PERPETUAL HELP CHURCH", "designationCode": "C", "categoryCode": "38", "address": "400 EDMONTON TRAIL .N.E.", "city": "CALGARY", "province": "AB", "country": "CA", "postalCode": "T2E3S4", "twitter": "None", "instagram": "None", "facebook": "None", "youtube": "None", "website": "None", "summary": "None", "logo": "None", "latitude": 51.05518341355523, "longitude": -114.05178342281741}, "119109791RR0002": {"name": "OUR LADY OF PERPETUAL HELP CHURCH", "designationCode": "C", "categoryCode": "38", "address": "5 OBLATE ST", "city": "ST. CATHARINES", "province": "ON", "country": "CA", "postalCode": "L2M5C5", "twitter": "None", "instagram": "None", "facebook": "None", "youtube": "None", "website": "None", "summary": "None", "logo": "None", "latitude": 43.17937979516995, "longitude": -79.22398009925536}, "850301326RR0001": {"name": "OUR LADY OF PERPETUAL HELP CHURCH", "designationCode": "C", "categoryCode": "38", "address": "BOX 374", "city": "CORONACH", "province": "SK", "country": "CA", "postalCode": "S0H0Z0", "twitter": "None", "instagram": "None", "facebook": "None", "youtube": "None", "website": "None", "summary": "None", "logo": "None", "latitude": 49.116760000000056, "longitude": -105.51780999999994}, "107020331RR0051": {"name": "OUR LADY OF PERPETUAL HELP PARISH", "designationCode": "C", "categoryCode": "38", "address": "14 ALMON LANE", "city": "ROTHESAY", "province": "NB", "country": "CA", "postalCode": "E2E5E4", "twitter": "None", "instagram": "None", "facebook": "None", "youtube": "None", "website": "None", "summary": "None", "logo": "None", "latitude": 45.39074371869314, "longitude": -65.99520684392087}, "118849470RR0025": {"name": "OUR LADY OF PERPETUAL HELP PARISH", "designationCode": "C", "categoryCode": "38", "address": "2465 CROWN ST", "city": "VANCOUVER", "province": "BC", "country": "CA", "postalCode": "V6R3V9", "twitter": "None", "instagram": "None", "facebook": "None", "youtube": "None", "website": "None", "summary": "None", "logo": "None", "latitude": 49.26448769937706, "longitude": -123.19501850848276}, "119073385RR0001": {"name": "OUR LADY OF PERPETUAL HELP PARISH", "designationCode": "C", "categoryCode": "38", "address": "BOX 61", "city": "WISHART", "province": "SK", "country": "CA", "postalCode": "S0A4R0", "twitter": "None", "instagram": "None", "facebook": "None", "youtube": "None", "website": "None", "summary": "None", "logo": "None", "latitude": 51.549570000000074, "longitude": -103.97792999999996}, "119109817RR0056": {"name": "OUR LADY OF PERPETUAL HELP PARISH", "designationCode": "C", "categoryCode": "38", "address": "804 GRAND MARAIS ROAD EAST", "city": "WINDSOR", "province": "ON", "country": "CA", "postalCode": "N8X3H8", "twitter": "None", "instagram": "None", "facebook": "None", "youtube": "None", "website": "None", "summary": "None", "logo": "None", "latitude": 42.28259939304033, "longitude": -83.00163177035589}, "119110450RR0061": {"name": "OUR LADY OF PERPETUAL HELP PARISH", "designationCode": "C", "categoryCode": "38", "address": "132 BLAKE ST", "city": "HAMILTON", "province": "ON", "country": "CA", "postalCode": "L8M2S6", "twitter": "None", "instagram": "None", "facebook": "None", "youtube": "None", "website": "None", "summary": "None", "logo": "None", "latitude": 43.2435774646257, "longitude": -79.84028409331141}, "131106098RR0016": {"name": "OUR LADY OF PERPETUAL HELP PARISH", "designationCode": "C", "categoryCode": "38", "address": "P.O. BOX 310", "city": "LABRADOR CITY", "province": "NL", "country": "CA", "postalCode": "A2V2K6", "twitter": "None", "instagram": "None", "facebook": "None", "youtube": "None", "website": "None", "summary": "None", "logo": "None"}, "119110385RR0007": {"name": "OUR LADY OF PERPETUAL HELP PARISH, BRAESIDE", "designationCode": "C", "categoryCode": "38", "address": "18 DOCHART ST, PO BOX 88", "city": "BRAESIDE", "province": "ON", "country": "CA", "postalCode": "K0A1G0", "twitter": "None", "instagram": "None", "facebook": "None", "youtube": "None", "website": "None", "summary": "None", "logo": "None", "latitude": 45.456062911563755, "longitude": -76.3993070197059}, "107585085RR0057": {"name": "OUR LADY OF PERPETUAL HELP PARISH, CUT KNIFE, SK", "designationCode": "C", "categoryCode": "38", "address": "BOX 118", "city": "CUT KNIFE", "province": "SK", "country": "CA", "postalCode": "S0M0N0", "twitter": "None", "instagram": "None", "facebook": "None", "youtube": "None", "website": "None", "summary": "None", "logo": "None", "latitude": 52.740921789497094, "longitude": -109.02330639630397}, "119073427RR0001": {"name": "OUR LADY OF SEVEN SORROWS CHURCH", "designationCode": "C", "categoryCode": "38", "address": "302 CORRIGAN RD               BOX 28", "city": "LAMPMAN", "province": "SK", "country": "CA", "postalCode": "S0C1N0", "twitter": "None", "instagram": "None", "facebook": "None", "youtube": "None", "website": "None", "summary": "None", "logo": "None", "latitude": 49.37720626633832, "longitude": -102.76176373366168}, "135178275RR0001": {"name": "OUR LADY OF SEVEN SORROWS PARISH,", "designationCode": "C", "categoryCode": "38", "address": "PO BOX 100", "city": "CAMPERVILLE", "province": "MB", "country": "CA", "postalCode": "R0L0J0", "twitter": "None", "instagram": "None", "facebook": "None", "youtube": "None", "website": "None", "summary": "None", "logo": "None", "latitude": 51.98594000000003, "longitude": -100.14516999999995}, "119109817RR0116": {"name": "OUR LADY OF SILUVA PARISH", "designationCode": "C", "categoryCode": "38", "address": "1980 TRAFALGAR STREET", "city": "LONDON", "province": "ON", "country": "CA", "postalCode": "N5V1A2", "twitter": "None", "instagram": "None", "facebook": "None", "youtube": "None", "website": "None", "summary": "None", "logo": "None", "latitude": 42.99346591095817, "longitude": -81.1663211975011}, "107585085RR0043": {"name": "OUR LADY OF SMILE PARISH, SHELL LAKE, SK", "designationCode": "C", "categoryCode": "38", "address": "BOX 901", "city": "SPIRITWOOD", "province": "SK", "country": "CA", "postalCode": "S0J2M0", "twitter": "None", "instagram": "None", "facebook": "None", "youtube": "None", "website": "None", "summary": "None", "logo": "None", "latitude": 53.366550000000075, "longitude": -107.51787999999999}, "119073450RR0001": {"name": "OUR LADY OF SMOLENSK RUSSIAN ORTHODOX RETIREMENT CENTRE", "designationCode": "C", "categoryCode": "09", "address": "81 ALEXANDER BLVD", "city": "JACKSONS POINT", "province": "ON", "country": "CA", "postalCode": "L0E1L0", "twitter": "None", "instagram": "None", "facebook": "None", "youtube": "None", "website": "None", "summary": "None", "logo": "None", "latitude": 44.317055901754244, "longitude": -79.38493418258439}, "118841055RR0003": {"name": "OUR LADY OF SORROW PARISH", "designationCode": "C", "categoryCode": "38", "address": "BOX 450", "city": "FORT NELSON", "province": "BC", "country": "CA", "postalCode": "V0C1R0", "twitter": "None", "instagram": "None", "facebook": "None", "youtube": "None", "website": "None", "summary": "None", "logo": "None", "latitude": 58.80501000000004, "longitude": -122.70459999999997}, "119073500RR0001": {"name": "OUR LADY OF SORROWS", "designationCode": "C", "categoryCode": "38", "address": "BOX 518", "city": "FORT QUAPPELLE", "province": "SK", "country": "CA", "postalCode": "S0G1S0", "twitter": "None", "instagram": "None", "facebook": "None", "youtube": "None", "website": "None", "summary": "None", "logo": "None", "latitude": 50.76964000000004, "longitude": -103.79339999999996}, "119109817RR0097": {"name": "OUR LADY OF SORROWS - AYLMER", "designationCode": "C", "categoryCode": "38", "address": "116 JOHN ST S", "city": "AYLMER", "province": "ON", "country": "CA", "postalCode": "N5H2C4", "twitter": "None", "instagram": "None", "facebook": "None", "youtube": "None", "website": "None", "summary": "None", "logo": "None", "latitude": 42.771602595389695, "longitude": -80.98304425379935}, "890604648RR0001": {"name": "OUR LADY OF SORROWS CATHOLIC SCHOOL COUNCIL (CSC)", "designationCode": "C", "categoryCode": "21", "address": "32 MONTGOMERY ROAD", "city": "ETOBICOKE", "province": "ON", "country": "CA", "postalCode": "M8X1Z4", "twitter": "None", "instagram": "None", "facebook": "None", "youtube": "None", "website": "None", "summary": "None", "logo": "None", "latitude": 43.64845418258439, "longitude": -79.51785705138757}, "107876476RR0040": {"name": "OUR LADY OF SORROWS CHURCH", "designationCode": "C", "categoryCode": "38", "address": "45 JOHN ST.", "city": "STURGEON FALLS", "province": "ON", "country": "CA", "postalCode": "P2B1Y2", "twitter": "None", "instagram": "None", "facebook": "None", "youtube": "None", "website": "None", "summary": "None", "logo": "None", "latitude": 46.36943279804835, "longitude": -79.93022400000001}, "870775715RR0001": {"name": "OUR LADY OF SORROWS COUNCIL NO. 11584 CHARITABLE WELFARE TRUST", "designationCode": "A", "categoryCode": "65", "address": "45 JOHN ST", "city": "STURGEON FALLS", "province": "ON", "country": "CA", "postalCode": "P2B1Y2", "twitter": "None", "instagram": "None", "facebook": "None", "youtube": "None", "website": "None", "summary": "None", "logo": "None", "latitude": 46.36943279804835, "longitude": -79.93022400000001}, "118849470RR0002": {"name": "OUR LADY OF SORROWS PARISH", "designationCode": "C", "categoryCode": "38", "address": "555 SLOCAN ST", "city": "VANCOUVER", "province": "BC", "country": "CA", "postalCode": "V5K3X5", "twitter": "None", "instagram": "None", "facebook": "None", "youtube": "None", "website": "None", "summary": "None", "logo": "None", "latitude": 49.2795375104561, "longitude": -123.04934878536145}, "107585085RR0034": {"name": "OUR LADY OF SORROWS PARISH, PARADISE HILL, SK", "designationCode": "C", "categoryCode": "38", "address": "PO BOX 239", "city": "PARADISE HILL", "province": "SK", "country": "CA", "postalCode": "S0M2G0", "twitter": "None", "instagram": "None", "facebook": "None", "youtube": "None", "website": "None", "summary": "None", "logo": "None", "latitude": 53.53915000000006, "longitude": -109.45828999999998}, "107807927RR0001": {"name": "OUR LADY OF THE ANGELS CHURCH", "designationCode": "C", "categoryCode": "38", "address": "PO BOX 107", "city": "AMARANTH", "province": "MB", "country": "CA", "postalCode": "R0H0B0", "twitter": "None", "instagram": "None", "facebook": "None", "youtube": "None", "website": "None", "summary": "None", "logo": "None", "latitude": 50.59495000000004, "longitude": -98.73795999999999}, "894025667RR0001": {"name": "OUR LADY OF THE ANNUNCIATION CHILD CARE CENTRE", "designationCode": "C", "categoryCode": "01", "address": "30 BAYSWATER AVE", "city": "RICHMOND HILL", "province": "ON", "country": "CA", "postalCode": "L4E2L3", "twitter": "None", "instagram": "None", "facebook": "None", "youtube": "None", "website": "None", "summary": "None", "logo": "None", "latitude": 43.95240633394845, "longitude": -79.44826736637994}, "107807935RR0001": {"name": "OUR LADY OF THE ANNUNCIATION PARISH", "designationCode": "C", "categoryCode": "38", "address": "189 RUE ARCHAMBAULT", "city": "GATINEAU", "province": "QC", "country": "CA", "postalCode": "J8Y5E3", "twitter": "None", "instagram": "None", "facebook": "None", "youtube": "None", "website": "None", "summary": "None", "logo": "None", "latitude": 45.451807952536235, "longitude": -75.74403154348171}, "119122786RR0020": {"name": "OUR LADY OF THE ANNUNCIATION PARISH", "designationCode": "C", "categoryCode": "38", "address": "6500 SOUTHRIDGE AVE", "city": "PRINCE GEORGE", "province": "BC", "country": "CA", "postalCode": "V2N5P9", "twitter": "None", "instagram": "None", "facebook": "None", "youtube": "None", "website": "None", "summary": "None", "logo": "None"}, "107020331RR0005": {"name": "OUR LADY OF THE ASSUMPTION", "designationCode": "C", "categoryCode": "38", "address": "360 DUFFERIN ROW", "city": "SAINT JOHN", "province": "NB", "country": "CA", "postalCode": "E2M2J8", "twitter": "None", "instagram": "None", "facebook": "None", "youtube": "None", "website": "None", "summary": "None", "logo": "None", "latitude": 45.252696938946244, "longitude": -66.0736655609382}, "119073617RR0001": {"name": "OUR LADY OF THE ASSUMPTION CHURCH", "designationCode": "C", "categoryCode": "38", "address": "PO BOX 836", "city": "CARBERRY", "province": "MB", "country": "CA", "postalCode": "R0K0H0", "twitter": "None", "instagram": "None", "facebook": "None", "youtube": "None", "website": "None", "summary": "None", "logo": "None", "latitude": 49.84164228965453, "longitude": -99.31431075066462}, "118849470RR0071": {"name": "OUR LADY OF THE ASSUMPTION PARISH", "designationCode": "C", "categoryCode": "38", "address": "3141 SHAUGHNESSY ST", "city": "PORT COQUITLAM", "province": "BC", "country": "CA", "postalCode": "V3B4L2", "twitter": "None", "instagram": "None", "facebook": "None", "youtube": "None", "website": "None", "summary": "None", "logo": "None", "latitude": 49.270077000000015, "longitude": -122.77533928545496}, "119110450RR0125": {"name": "OUR LADY OF THE ASSUMPTION PARISH", "designationCode": "C", "categoryCode": "38", "address": "133 MURRAY ST", "city": "BRANTFORD", "province": "ON", "country": "CA", "postalCode": "N3S5P8", "twitter": "None", "instagram": "None", "facebook": "None", "youtube": "None", "website": "None", "summary": "None", "logo": "None", "latitude": 43.1385862186614, "longitude": -80.25204386457858}, "131106098RR0011": {"name": "OUR LADY OF THE ASSUMPTION PARISH", "designationCode": "C", "categoryCode": "38", "address": "P.O. BOX 250", "city": "WABUSH LABRADOR", "province": "NL", "country": "CA", "postalCode": "A0R1B0", "twitter": "None", "instagram": "None", "facebook": "None", "youtube": "None", "website": "None", "summary": "None", "logo": "None"}, "119110450RR0057": {"name": "OUR LADY OF THE ASSUMPTION PARISH, ELFRIDA", "designationCode": "C", "categoryCode": "38", "address": "63 REGIONAL ROAD 20", "city": "STONEY CREEK", "province": "ON", "country": "CA", "postalCode": "L8J2W9", "twitter": "None", "instagram": "None", "facebook": "None", "youtube": "None", "website": "None", "summary": "None", "logo": "None", "latitude": 43.17195379049773, "longitude": -79.77041391421264}, "812261808RR0001": {"name": "OUR LADY OF THE ASSUMPTION ROMAN CATHOLIC PARISH INC.", "designationCode": "C", "categoryCode": "38", "address": "151 STRATFORD RD", "city": "STRATFORD", "province": "PE", "country": "CA", "postalCode": "C1B1H1", "twitter": "None", "instagram": "None", "facebook": "None", "youtube": "None", "website": "None", "summary": "None", "logo": "None", "latitude": 46.21769939107843, "longitude": -63.098118408823375}, "135333151RR0001": {"name": "OUR LADY OF THE ATONEMENT,", "designationCode": "C", "categoryCode": "38", "address": "4609 50 AVE", "city": "ST PAUL", "province": "AB", "country": "CA", "postalCode": "T0A3A3", "twitter": "None", "instagram": "None", "facebook": "None", "youtube": "None", "website": "None", "summary": "None", "logo": "None", "latitude": 53.99135148730496, "longitude": -111.28695202553523}, "107910192RR0008": {"name": "OUR LADY OF THE CAPE PARISH", "designationCode": "C", "categoryCode": "38", "address": "878 OCEANVIEW DRIVE", "city": "CAPE ST GEORGE", "province": "NL", "country": "CA", "postalCode": "A0N1T1", "twitter": "None", "instagram": "None", "facebook": "None", "youtube": "None", "website": "None", "summary": "None", "logo": "None", "latitude": 48.498885373081734, "longitude": -59.12892477884715}, "107876476RR0074": {"name": "OUR LADY OF THE HIGHWAY PARISH", "designationCode": "C", "categoryCode": "38", "address": "11 WEEGWAS ROAD               PO BOX 6", "city": "CUTLER", "province": "ON", "country": "CA", "postalCode": "P0P1B0", "twitter": "None", "instagram": "None", "facebook": "None", "youtube": "None", "website": "None", "summary": "None", "logo": "None", "latitude": 46.19652769160302, "longitude": -82.33046999999999}, "119073716RR0001": {"name": "OUR LADY OF THE HIGHWAYS CHURCH", "designationCode": "C", "categoryCode": "38", "address": "466 SECOND LINE E", "city": "SAULT STE MAIRE", "province": "ON", "country": "CA", "postalCode": "P6B4K1", "twitter": "None", "instagram": "None", "facebook": "None", "youtube": "None", "website": "None", "summary": "None", "logo": "None", "latitude": 46.538247453834316, "longitude": -84.32766258243406}, "119109791RR0007": {"name": "OUR LADY OF THE HOLY ROSARY CHURCH", "designationCode": "C", "categoryCode": "38", "address": "21 QUEEN ST SOUTH", "city": "THOROLD", "province": "ON", "country": "CA", "postalCode": "L2V3M7", "twitter": "None", "instagram": "None", "facebook": "None", "youtube": "None", "website": "None", "summary": "None", "logo": "None", "latitude": 43.12347313627447, "longitude": -79.20506912868574}, "119073732RR0001": {"name": "OUR LADY OF THE LAKE CHURCH", "designationCode": "C", "categoryCode": "38", "address": "PO BOX 266", "city": "GIMLI", "province": "MB", "country": "CA", "postalCode": "R0C1B0", "twitter": "None", "instagram": "None", "facebook": "None", "youtube": "None", "website": "None", "summary": "None", "logo": "None", "latitude": 50.30677349294383, "longitude": -96.92898988377391}, "859223646RR0001": {"name": "OUR LADY OF THE LAKE COUNCIL NO. 4917 CHARITABLE WELFARE TRUST", "designationCode": "C", "categoryCode": "03", "address": "135 LIVINGSTON AVE            P.O. BOX 306", "city": "GRIMSBY", "province": "ON", "country": "CA", "postalCode": "L3M5J6", "twitter": "None", "instagram": "None", "facebook": "None", "youtube": "None", "website": "None", "summary": "None", "logo": "None", "latitude": 43.1979727504475, "longitude": -79.57910663226374}, "128967353RR0107": {"name": "OUR LADY OF THE MIRACULOUS MEDAL PARISH", "designationCode": "C", "categoryCode": "38", "address": "P.O. BOX 328", "city": "RUSSELL", "province": "ON", "country": "CA", "postalCode": "K4R1E1", "twitter": "None", "instagram": "None", "facebook": "None", "youtube": "None", "website": "None", "summary": "None", "logo": "None", "latitude": 45.25810800000005, "longitude": -75.35879449999993}, "119073757RR0001": {"name": "OUR LADY OF THE NATIVITY PARISH", "designationCode": "C", "categoryCode": "38", "address": "PO BOX 37", "city": "MCCREARY", "province": "MB", "country": "CA", "postalCode": "R0J1B0", "twitter": "None", "instagram": "None", "facebook": "None", "youtube": "None", "website": "None", "summary": "None", "logo": "None", "latitude": 50.772380000000055, "longitude": -99.49212999999997}, "119073765RR0001": {"name": "OUR LADY OF THE PRAIRIES FOUNDATION", "designationCode": "B", "categoryCode": "43", "address": "P.O BOX 22076", "city": "SASKATOON", "province": "SK", "country": "CA", "postalCode": "S7H5P1", "twitter": "None", "instagram": "None", "facebook": "None", "youtube": "None", "website": "None", "summary": "None", "logo": "None", "latitude": 52.13049000000005, "longitude": -106.65926449999994}, "119073773RR0001": {"name": "OUR LADY OF THE PRAIRIES PARISH", "designationCode": "C", "categoryCode": "38", "address": "BOX 15 RR #3", "city": "REGINA", "province": "SK", "country": "CA", "postalCode": "S4P2Z3", "twitter": "None", "instagram": "None", "facebook": "None", "youtube": "None", "website": "None", "summary": "None", "logo": "None", "latitude": 50.448246000000054, "longitude": -104.59517299999993}, "129950804RR0009": {"name": "OUR LADY OF THE ROSARY CHURCH,", "designationCode": "C", "categoryCode": "38", "address": "798 GOLDSTREAM AVENUE", "city": "VICTORIA", "province": "BC", "country": "CA", "postalCode": "V9B2X6", "twitter": "None", "instagram": "None", "facebook": "None", "youtube": "None", "website": "None", "summary": "None", "logo": "None", "latitude": 48.44942683237892, "longitude": -123.50057968556679}, "871846309RR0001": {"name": "OUR LADY OF THE ROSARY HOSPITAL FOUNDATION", "designationCode": "A", "categoryCode": "13", "address": "5402 - 47 STREET              P. O. BOX 329", "city": "CASTOR", "province": "AB", "country": "CA", "postalCode": "T0C0X0", "twitter": "None", "instagram": "None", "facebook": "None", "youtube": "None", "website": "None", "summary": "None", "logo": "None", "latitude": 52.22328300000001, "longitude": -111.90689486539897}, "119109791RR0040": {"name": "OUR LADY OF THE SCAPULAR CHURCH", "designationCode": "C", "categoryCode": "38", "address": "6557 THOROLD STONE ROAD", "city": "NIAGARA FALLS", "province": "ON", "country": "CA", "postalCode": "L2J1B2", "twitter": "None", "instagram": "None", "facebook": "None", "youtube": "None", "website": "None", "summary": "None", "logo": "None", "latitude": 43.115185483264675, "longitude": -79.1061906633389}, "119264174RR0002": {"name": "OUR LADY OF THE SNOWS CHURCH", "designationCode": "C", "categoryCode": "38", "address": "126 MISSION ROAD", "city": "FORT WILLIAM 1ST NATION", "province": "ON", "country": "CA", "postalCode": "P7J1K6", "twitter": "None", "instagram": "None", "facebook": "None", "youtube": "None", "website": "None", "summary": "None", "logo": "None", "latitude": 48.352820620146325, "longitude": -89.26640223482597}, "119122786RR0013": {"name": "OUR LADY OF THE SNOWS PARISH", "designationCode": "C", "categoryCode": "38", "address": "6500 SOUTHRIDGE AVE", "city": "PRINCE GEORGE", "province": "BC", "country": "CA", "postalCode": "V2N5P9", "twitter": "None", "instagram": "None", "facebook": "None", "youtube": "None", "website": "None", "summary": "None", "logo": "None", "latitude": 53.86420563941114, "longitude": -122.78374828519728}, "119006062RR0001": {"name": "OUR LADY OF THE SNOWS ROMAN CATHOLIC MISSIONS OF BERENS RIVER", "designationCode": "C", "categoryCode": "38", "address": "151 CATHEDRALE AVE            ST. B.", "city": "WPG", "province": "MB", "country": "CA", "postalCode": "R2H0H6", "twitter": "None", "instagram": "None", "facebook": "None", "youtube": "None", "website": "None", "summary": "None", "logo": "None", "latitude": 49.88967351154119, "longitude": -97.12280516625309}, "119018737RR0050": {"name": "OUR LADY OF THE VISITATION PARISH", "designationCode": "C", "categoryCode": "38", "address": "PO BOX 1008 STN A", "city": "BELLEDUNE", "province": "NB", "country": "CA", "postalCode": "E8G2X9", "twitter": "None", "instagram": "None", "facebook": "None", "youtube": "None", "website": "None", "summary": "None", "logo": "None", "latitude": 47.86756800000006, "longitude": -65.86688149999993}, "128967353RR0116": {"name": "OUR LADY OF THE VISITATION,", "designationCode": "C", "categoryCode": "38", "address": "5338 BANK ST", "city": "GLOUCESTER", "province": "ON", "country": "CA", "postalCode": "K1X1H1", "twitter": "None", "instagram": "None", "facebook": "None", "youtube": "None", "website": "None", "summary": "None", "logo": "None", "latitude": 45.2866746044495, "longitude": -75.57426227049918}, "119264174RR0029": {"name": "OUR LADY OF THE WAY PARISH NOTRE DAME DU CHEMIN", "designationCode": "C", "categoryCode": "38", "address": "PO BOX 33", "city": "PINEWOOD", "province": "ON", "country": "CA", "postalCode": "P0W1K0", "twitter": "None", "instagram": "None", "facebook": "None", "youtube": "None", "website": "None", "summary": "None", "logo": "None", "latitude": 48.713010000000054, "longitude": -94.30547999999999}}