{"876899428RR0001": {"name": "TRI-COUNTY LITERACY NETWORK", "designationCode": "C", "categoryCode": "21", "address": "555 RICHMOND STREET", "city": "CHATHAM", "province": "ON", "country": "CA", "postalCode": "N7M1R2", "twitter": "None", "instagram": "None", "facebook": "None", "youtube": "None", "website": "None", "summary": "None", "logo": "None", "latitude": 42.390081091897784, "longitude": -82.20046735446337}, "858508542RR0001": {"name": "TRI-COUNTY REGIONAL SCHOOL BOARD", "designationCode": "C", "categoryCode": "20", "address": "130 NORTH PARK STREET", "city": "BRIDGEWATER", "province": "NS", "country": "CA", "postalCode": "B4V4G9", "twitter": "None", "instagram": "None", "facebook": "None", "youtube": "None", "website": "None", "summary": "None", "logo": "None", "latitude": 44.38538327861297, "longitude": -64.53719866302433}, "136603065RR0001": {"name": "TRI-COUNTY RESTORATIVE JUSTICE SOCIETY", "designationCode": "C", "categoryCode": "59", "address": "10 STARRS ROAD", "city": "YARMOUTH", "province": "NS", "country": "CA", "postalCode": "B5A2T1", "twitter": "None", "instagram": "None", "facebook": "None", "youtube": "None", "website": "None", "summary": "None", "logo": "None", "latitude": 43.84672561174886, "longitude": -66.11435262611825}, "882971740RR0001": {"name": "TRI-LAKE HEALTH CENTRE AUXILIARY", "designationCode": "C", "categoryCode": "19", "address": "BOX 852", "city": "KILLARNEY", "province": "MB", "country": "CA", "postalCode": "R0K1G0", "twitter": "None", "instagram": "None", "facebook": "None", "youtube": "None", "website": "None", "summary": "None", "logo": "None", "latitude": 49.18482000000006, "longitude": -99.66915999999998}, "892894965RR0001": {"name": "TRI-TOWN MUSEUM SOCIETY", "designationCode": "C", "categoryCode": "50", "address": "BOX 811", "city": "COLD LAKE", "province": "AB", "country": "CA", "postalCode": "T9M1P2", "twitter": "None", "instagram": "None", "facebook": "None", "youtube": "None", "website": "None", "summary": "None", "logo": "None", "latitude": 54.46502700000005, "longitude": -110.17379149999994}, "119268951RR0001": {"name": "TRIANGLE WOMENS INSTITUTE", "designationCode": "C", "categoryCode": "56", "address": "P.O. BOX 75", "city": "GRASMERE", "province": "BC", "country": "CA", "postalCode": "V0B1R0", "twitter": "None", "instagram": "None", "facebook": "None", "youtube": "None", "website": "None", "summary": "None", "logo": "None", "latitude": 49.122051763351976, "longitude": -115.2145066109963}, "862610474RR0001": {"name": "TRIBAL CRACKLING WIND FOR THE ARTS", "designationCode": "C", "categoryCode": "22", "address": "33 WOOD STREET                STE #3001", "city": "TORONTO", "province": "ON", "country": "CA", "postalCode": "M4Y2P8", "twitter": "None", "instagram": "None", "facebook": "None", "youtube": "None", "website": "None", "summary": "None", "logo": "None", "latitude": 43.66239083152522, "longitude": -79.38144516541635}, "862881323RR0001": {"name": "TRIBES AND NATIONS OUTREACH - CANADA", "designationCode": "C", "categoryCode": "47", "address": "138 BANKFIELD CRES", "city": "STONEY CREEK", "province": "ON", "country": "CA", "postalCode": "L8J0B9", "twitter": "None", "instagram": "None", "facebook": "None", "youtube": "None", "website": "None", "summary": "None", "logo": "None", "latitude": 43.177678911449114, "longitude": -79.77733940689014}, "871998522RR0001": {"name": "TRIBES OF THE HOUSE OF ISRAEL", "designationCode": "C", "categoryCode": "39", "address": "1057 STEELES AVENUE WEST      P.O. BOX 81774", "city": "TORONTO", "province": "ON", "country": "CA", "postalCode": "M2R2S9", "twitter": "None", "instagram": "None", "facebook": "None", "youtube": "None", "website": "None", "summary": "None", "logo": "None", "latitude": 43.79177857478035, "longitude": -79.44848861125855}, "892448564RR0001": {"name": "TRIBUNE BAY OUTDOOR EDUCATION SOCIETY", "designationCode": "C", "categoryCode": "21", "address": "6050 ST JOHNS POINT RD", "city": "HORNBY ISLAND", "province": "BC", "country": "CA", "postalCode": "V0R1Z0", "twitter": "None", "instagram": "None", "facebook": "None", "youtube": "None", "website": "None", "summary": "None", "logo": "None", "latitude": 49.53151291508709, "longitude": -124.6338579796334}, "119268977RR0001": {"name": "TRIBUNE COMMUNITY CLUB", "designationCode": "C", "categoryCode": "56", "address": "BOX 61", "city": "TRIBUNE", "province": "SK", "country": "CA", "postalCode": "S0C2M0", "twitter": "None", "instagram": "None", "facebook": "None", "youtube": "None", "website": "None", "summary": "None", "logo": "None", "latitude": 49.24816000000004, "longitude": -103.82251999999994}, "892583212RR0001": {"name": "TRICITY CHINESE CHRISTIAN CHURCH (MENNONITE BRETHREN)", "designationCode": "C", "categoryCode": "34", "address": "2815 SPRING ST", "city": "PORT MOODY", "province": "BC", "country": "CA", "postalCode": "V3H4C6", "twitter": "None", "instagram": "None", "facebook": "None", "youtube": "None", "website": "None", "summary": "None", "logo": "None", "latitude": 49.277207536211044, "longitude": -122.84885194463038}, "118780576RR0001": {"name": "TRICKSTER THEATRE SOCIETY", "designationCode": "C", "categoryCode": "22", "address": "#710-20 CROWFOOT CRES N.W.", "city": "CALGARY", "province": "AB", "country": "CA", "postalCode": "T3G3T2", "twitter": "None", "instagram": "None", "facebook": "None", "youtube": "None", "website": "None", "summary": "None", "logo": "None", "latitude": 51.125198082145594, "longitude": -114.21059829750722}, "866619273RR0001": {"name": "TRICOUNTY PREGNANCY CARE CENTRE ASSOCIATION", "designationCode": "C", "categoryCode": "09", "address": "342 MAIN STREET", "city": "YARMOUTH", "province": "NS", "country": "CA", "postalCode": "B5A1E6", "twitter": "None", "instagram": "None", "facebook": "None", "youtube": "None", "website": "None", "summary": "None", "logo": "None", "latitude": 43.83625935858964, "longitude": -66.12002012421367}, "129976437RR0001": {"name": "TRIDENT HAMILTON CHARITIES", "designationCode": "A", "categoryCode": "05", "address": "95 GOLDENVIEW CRT", "city": "WATERDOWN", "province": "ON", "country": "CA", "postalCode": "L8B0L3", "twitter": "None", "instagram": "None", "facebook": "None", "youtube": "None", "website": "None", "summary": "None", "logo": "None", "latitude": 43.32535197028118, "longitude": -79.8987813635813}, "886153527RR0001": {"name": "TRIERCON FOUNDATION", "designationCode": "B", "categoryCode": "03", "address": "PO BOX 10007                  MT LEHMAN CENTRE PO", "city": "ABBOTSFORD", "province": "BC", "country": "CA", "postalCode": "V4X2R5", "twitter": "None", "instagram": "None", "facebook": "None", "youtube": "None", "website": "None", "summary": "None", "logo": "None", "latitude": 49.09738873033685, "longitude": -122.38204049999999}, "827291527RR0001": {"name": "TRIGEMINAL NEURALGIA ASSOCIATION OF CANADA 2006", "designationCode": "C", "categoryCode": "09", "address": "8352 208B ST", "city": "LANGLEY", "province": "BC", "country": "CA", "postalCode": "V2Y0A7", "twitter": "None", "instagram": "None", "facebook": "None", "youtube": "None", "website": "None", "summary": "None", "logo": "None", "latitude": 49.15423808327078, "longitude": -122.64442986632262}, "131599060RR0001": {"name": "TRILLIUM CHILDHOOD CANCER SUPPORT CENTRE - CENTRE TRILLIUM D'ENTRAIDE DES ENFANTS ATTEINTS DU CANCER", "designationCode": "C", "categoryCode": "11", "address": "940 QUEENSDALE AVE E", "city": "HAMILTON", "province": "ON", "country": "CA", "postalCode": "L8V1N4", "twitter": "None", "instagram": "None", "facebook": "None", "youtube": "None", "website": "None", "summary": "None", "logo": "None", "latitude": 43.23245185316529, "longitude": -79.83742773925208}, "871272894RR0001": {"name": "TRILLIUM EDUCATIONAL INITIATIVE CHARITABLE CORPORATION", "designationCode": "C", "categoryCode": "20", "address": "540 VICTORIA ROAD NORTH", "city": "GUELPH", "province": "ON", "country": "CA", "postalCode": "N1E6Z4", "twitter": "None", "instagram": "None", "facebook": "None", "youtube": "None", "website": "None", "summary": "None", "logo": "None"}, "868380510RR0001": {"name": "TRILLIUM GIFT OF LIFE NETWORK", "designationCode": "C", "categoryCode": "11", "address": "483 BAY STREET                SOUTH TOWER 4TH FLOOR", "city": "TORONTO", "province": "ON", "country": "CA", "postalCode": "M5G2C9", "twitter": "None", "instagram": "None", "facebook": "None", "youtube": "None", "website": "None", "summary": "None", "logo": "None", "latitude": 43.653228000000055, "longitude": -79.38268099999993}, "119043628RR0001": {"name": "TRILLIUM HEALTH PARTNERS", "designationCode": "C", "categoryCode": "10", "address": "160 SHERWAY DR", "city": "ETOBICOKE", "province": "ON", "country": "CA", "postalCode": "M9C1A4", "twitter": "None", "instagram": "None", "facebook": "None", "youtube": "None", "website": "None", "summary": "None", "logo": "None", "latitude": 43.609243694414054, "longitude": -79.56395673345236}, "119245678RR0001": {"name": "TRILLIUM HEALTH PARTNERS FOUNDATION", "designationCode": "A", "categoryCode": "13", "address": "800 - 89 QUEENSWAY W", "city": "MISSISSAUGA", "province": "ON", "country": "CA", "postalCode": "L5B2V2", "twitter": "None", "instagram": "None", "facebook": "None", "youtube": "None", "website": "None", "summary": "None", "logo": "None", "latitude": 43.57227909856289, "longitude": -79.60987261010406}, "890968647RR0001": {"name": "TRILLIUM HOME OF THE LADIES ORANGE BENEVOLENT ASSOCIATION OFONTARIO", "designationCode": "C", "categoryCode": "01", "address": "3 HEARTS CONTENT", "city": "INNISFIL", "province": "ON", "country": "CA", "postalCode": "L9S1S2", "twitter": "None", "instagram": "None", "facebook": "None", "youtube": "None", "website": "None", "summary": "None", "logo": "None", "latitude": 44.34515614304391, "longitude": -79.55866724739147}, "119269124RR0001": {"name": "TRILLIUM HOUSE INC. OTTAWA-CARLETON", "designationCode": "C", "categoryCode": "57", "address": "536 BRUNEL ST", "city": "OTTAWA", "province": "ON", "country": "CA", "postalCode": "K1K2G6", "twitter": "None", "instagram": "None", "facebook": "None", "youtube": "None", "website": "None", "summary": "None", "logo": "None", "latitude": 45.44853932861103, "longitude": -75.63184255886073}, "868935966RR0001": {"name": "TRILLIUM LAKELANDS DISTRICT SCHOOL BOARD", "designationCode": "C", "categoryCode": "20", "address": "COUNTY ROAD 36                BOX  420", "city": "LINDSAY", "province": "ON", "country": "CA", "postalCode": "K9V4S4", "twitter": "None", "instagram": "None", "facebook": "None", "youtube": "None", "website": "None", "summary": "None", "logo": "None", "latitude": 44.3927405922038, "longitude": -78.7152035967016}, "119269132RR0001": {"name": "TRILLIUM LODGE AUXILIARY SOCIETY", "designationCode": "C", "categoryCode": "19", "address": "BOX 940", "city": "PARKSVILLE", "province": "BC", "country": "CA", "postalCode": "V9P2G9", "twitter": "None", "instagram": "None", "facebook": "None", "youtube": "None", "website": "None", "summary": "None", "logo": "None", "latitude": 49.31968200000006, "longitude": -124.31365099999994}, "119197002RR0001": {"name": "TRILLIUM UNITED CHURCH", "designationCode": "C", "categoryCode": "44", "address": "450 KING ST E", "city": "CAMBRIDGE", "province": "ON", "country": "CA", "postalCode": "N3H3M9", "twitter": "None", "instagram": "None", "facebook": "None", "youtube": "None", "website": "None", "summary": "None", "logo": "None", "latitude": 43.39734325255362, "longitude": -80.36133728394587}, "131129850RR0001": {"name": "TRIMBLE AFTER SCHOOL CARE SOCIETY", "designationCode": "C", "categoryCode": "01", "address": "2000 TRIMBLE ST.", "city": "VANCOUVER", "province": "BC", "country": "CA", "postalCode": "V6K3Z4", "twitter": "None", "instagram": "None", "facebook": "None", "youtube": "None", "website": "None", "summary": "None", "logo": "None", "latitude": 49.26781707799066, "longitude": -123.20587939500318}, "815450077RR0001": {"name": "TRINITARIAN BIBLE SOCIETY (CANADA)", "designationCode": "C", "categoryCode": "49", "address": "9136 YOUNG RD", "city": "CHILLIWACK", "province": "BC", "country": "CA", "postalCode": "V2P4R4", "twitter": "None", "instagram": "None", "facebook": "None", "youtube": "None", "website": "None", "summary": "None", "logo": "None", "latitude": 49.16805945987887, "longitude": -121.95254476363323}, "854819562RR0001": {"name": "TRINITY (ST. CATHARINES) CHRISTIAN REFORMED CHURCH", "designationCode": "C", "categoryCode": "39", "address": "P.O. BOX 20211", "city": "ST CATHARINES", "province": "ON", "country": "CA", "postalCode": "L3M7W7", "twitter": "None", "instagram": "None", "facebook": "None", "youtube": "None", "website": "None", "summary": "None", "logo": "None", "latitude": 43.166810000000055, "longitude": -79.24957999999998}, "108084658RR0011": {"name": "TRINITY ANGLICAN CHURCH", "designationCode": "C", "categoryCode": "30", "address": "1230 BANK ST", "city": "OTTAWA", "province": "ON", "country": "CA", "postalCode": "K1S3Y3", "twitter": "None", "instagram": "None", "facebook": "None", "youtube": "None", "website": "None", "summary": "None", "logo": "None", "latitude": 45.39122199774964, "longitude": -75.68068067407202}, "108139999RR0002": {"name": "TRINITY ANGLICAN CHURCH", "designationCode": "C", "categoryCode": "30", "address": "12 BLAIR RD", "city": "CAMBRIDGE", "province": "ON", "country": "CA", "postalCode": "N1S2H5", "twitter": "None", "instagram": "None", "facebook": "None", "youtube": "None", "website": "None", "summary": "None", "logo": "None", "latitude": 43.36077140940029, "longitude": -80.31698960199665}, "108140005RR0002": {"name": "TRINITY ANGLICAN CHURCH", "designationCode": "C", "categoryCode": "30", "address": "80 COLBORNE ST S", "city": "SIMCOE", "province": "ON", "country": "CA", "postalCode": "N3Y4H5", "twitter": "None", "instagram": "None", "facebook": "None", "youtube": "None", "website": "None", "summary": "None", "logo": "None", "latitude": 42.83516498834325, "longitude": -80.30566768471917}, "119079929RR0001": {"name": "TRINITY ANGLICAN CHURCH", "designationCode": "C", "categoryCode": "30", "address": "P.O. BOX 1433", "city": "DIGBY", "province": "NS", "country": "CA", "postalCode": "B0V1A0", "twitter": "None", "instagram": "None", "facebook": "None", "youtube": "None", "website": "None", "summary": "None", "logo": "None", "latitude": 44.39616000000005, "longitude": -66.20374249999993}, "119269231RR0002": {"name": "TRINITY ANGLICAN CHURCH", "designationCode": "C", "categoryCode": "30", "address": "95 TEMPERANCE ST. P.O. BOX 265", "city": "WATERFORD", "province": "ON", "country": "CA", "postalCode": "N0E1Y0", "twitter": "None", "instagram": "None", "facebook": "None", "youtube": "None", "website": "None", "summary": "None", "logo": "None", "latitude": 42.93360331057763, "longitude": -80.28556776755727}, "119269249RR0002": {"name": "TRINITY ANGLICAN CHURCH", "designationCode": "C", "categoryCode": "30", "address": "PO BOX 1095", "city": "DURHAM", "province": "ON", "country": "CA", "postalCode": "N0G1R0", "twitter": "None", "instagram": "None", "facebook": "None", "youtube": "None", "website": "None", "summary": "None", "logo": "None", "latitude": 44.125520383994086, "longitude": -81.21636506037191}, "119269264RR0002": {"name": "TRINITY ANGLICAN CHURCH", "designationCode": "C", "categoryCode": "30", "address": "1186-94 MURPHY ROAD", "city": "SARNIA", "province": "ON", "country": "CA", "postalCode": "N7S2Y2", "twitter": "None", "instagram": "None", "facebook": "None", "youtube": "None", "website": "None", "summary": "None", "logo": "None", "latitude": 42.98856351321228, "longitude": -82.36619146968371}, "119269579RR0002": {"name": "TRINITY ANGLICAN CHURCH", "designationCode": "C", "categoryCode": "30", "address": "3052 QUEEN STREET             BOX 91", "city": "FOROWICH", "province": "ON", "country": "CA", "postalCode": "N0G1V0", "twitter": "None", "instagram": "None", "facebook": "None", "youtube": "None", "website": "None", "summary": "None", "logo": "None", "latitude": 43.87469247581459, "longitude": -81.03204100801892}, "119269702RR0002": {"name": "TRINITY ANGLICAN CHURCH", "designationCode": "C", "categoryCode": "30", "address": "170 JOHN ST N", "city": "AYLMER,ONTARIO", "province": "ON", "country": "CA", "postalCode": "N5H2A9", "twitter": "None", "instagram": "None", "facebook": "None", "youtube": "None", "website": "None", "summary": "None", "logo": "None", "latitude": 42.77538957349185, "longitude": -80.98294384918621}, "119269728RR0001": {"name": "TRINITY ANGLICAN CHURCH", "designationCode": "C", "categoryCode": "30", "address": "PO BOX 308", "city": "MARATHON", "province": "ON", "country": "CA", "postalCode": "P0T2E0", "twitter": "None", "instagram": "None", "facebook": "None", "youtube": "None", "website": "None", "summary": "None", "logo": "None", "latitude": 48.721610000000055, "longitude": -86.37360999999999}, "131936668RR0002": {"name": "TRINITY ANGLICAN CHURCH", "designationCode": "C", "categoryCode": "30", "address": "6 CHURCH ST", "city": "PARRY SOUND", "province": "ON", "country": "CA", "postalCode": "P2A1Y3", "twitter": "None", "instagram": "None", "facebook": "None", "youtube": "None", "website": "None", "summary": "None", "logo": "None", "latitude": 45.34444836663974, "longitude": -80.03646156414084}, "141145995RR0002": {"name": "TRINITY ANGLICAN CHURCH", "designationCode": "C", "categoryCode": "30", "address": "P O BOX 159", "city": "PORT BURWELL", "province": "ON", "country": "CA", "postalCode": "N0J1T0", "twitter": "None", "instagram": "None", "facebook": "None", "youtube": "None", "website": "None", "summary": "None", "logo": "None", "latitude": 42.64570000000003, "longitude": -80.80595999999997}, "141726364RR0001": {"name": "TRINITY ANGLICAN CHURCH", "designationCode": "C", "categoryCode": "30", "address": "368 ROUTE 202", "city": "HAVELOCK", "province": "QC", "country": "CA", "postalCode": "J0S2C0", "twitter": "None", "instagram": "None", "facebook": "None", "youtube": "None", "website": "None", "summary": "None", "logo": "None", "latitude": 45.045076760767934, "longitude": -73.78339114181172}, "140986571RR0002": {"name": "TRINITY ANGLICAN CHURCH, BLYTH", "designationCode": "C", "categoryCode": "30", "address": "PO BOX 32", "city": "BLYTH", "province": "ON", "country": "CA", "postalCode": "N0M1H0", "twitter": "None", "instagram": "None", "facebook": "None", "youtube": "None", "website": "None", "summary": "None", "logo": "None", "latitude": 43.77531219522119, "longitude": -81.5424072516016}, "863584017RR0001": {"name": "TRINITY ASSOCIATE REFORMED PRESBYTERIAN CHURCH", "designationCode": "C", "categoryCode": "37", "address": "L02D - 405 RIVERVIEW DR", "city": "CHATHAM", "province": "ON", "country": "CA", "postalCode": "N7M0N3", "twitter": "None", "instagram": "None", "facebook": "None", "youtube": "None", "website": "None", "summary": "None", "logo": "None", "latitude": 42.39147866450829, "longitude": -82.21669541948835}, "119269306RR0001": {"name": "TRINITY BAPTIST CHURCH", "designationCode": "C", "categoryCode": "31", "address": "4372 APPLEBY LINE", "city": "BURLINGTON", "province": "ON", "country": "CA", "postalCode": "L7M0P4", "twitter": "None", "instagram": "None", "facebook": "None", "youtube": "None", "website": "None", "summary": "None", "logo": "None", "latitude": 43.429233542587674, "longitude": -79.83913886943834}, "871849758RR0001": {"name": "TRINITY BAPTIST CHURCH", "designationCode": "C", "categoryCode": "39", "address": "800 ARROW ROAD                UNIT#3", "city": "NORTH YORK", "province": "ON", "country": "CA", "postalCode": "M9M2Z8", "twitter": "None", "instagram": "None", "facebook": "None", "youtube": "None", "website": "None", "summary": "None", "logo": "None", "latitude": 43.7490330377116, "longitude": -79.53225026608536}, "108140146RR0001": {"name": "TRINITY BAPTIST CHURCH (SHERWOOD PARK)", "designationCode": "C", "categoryCode": "31", "address": "22550 TWP ROAD 530", "city": "SHERWOOD PARK", "province": "AB", "country": "CA", "postalCode": "T8A4T7", "twitter": "None", "instagram": "None", "facebook": "None", "youtube": "None", "website": "None", "summary": "None", "logo": "None", "latitude": 53.54129410118668, "longitude": -113.23673710118666}, "108140104RR0001": {"name": "TRINITY BAPTIST CHURCH INC.", "designationCode": "C", "categoryCode": "31", "address": "1702-106TH STREET.", "city": "NORTH BATTLEFORD", "province": "SK", "country": "CA", "postalCode": "S9A3G5", "twitter": "None", "instagram": "None", "facebook": "None", "youtube": "None", "website": "None", "summary": "None", "logo": "None", "latitude": 52.78197112051006, "longitude": -108.29010300290822}, "854667730RR0001": {"name": "TRINITY BAPTIST CHURCH INC.", "designationCode": "C", "categoryCode": "31", "address": "549 GERTRUDE AVENUE", "city": "WINNIPEG", "province": "MB", "country": "CA", "postalCode": "R3L0M9", "twitter": "None", "instagram": "None", "facebook": "None", "youtube": "None", "website": "None", "summary": "None", "logo": "None", "latitude": 49.87482991369946, "longitude": -97.14734279046675}, "131605339RR0001": {"name": "TRINITY BAPTIST CHURCH OF CALGARY", "designationCode": "C", "categoryCode": "31", "address": "9920 FAIRMOUNT DRIVE SE", "city": "CALGARY", "province": "AB", "country": "CA", "postalCode": "T2J0S4", "twitter": "None", "instagram": "None", "facebook": "None", "youtube": "None", "website": "None", "summary": "None", "logo": "None", "latitude": 50.963228664723886, "longitude": -114.05859887356463}, "119269355RR0001": {"name": "TRINITY BAPTIST CHURCH,", "designationCode": "C", "categoryCode": "31", "address": "1460 49TH AVE W", "city": "VANCOUVER", "province": "BC", "country": "CA", "postalCode": "V6M2R5", "twitter": "None", "instagram": "None", "facebook": "None", "youtube": "None", "website": "None", "summary": "None", "logo": "None", "latitude": 49.22684655271743, "longitude": -123.13888650317526}, "140842881RR0001": {"name": "TRINITY BIBLE CHURCH OF CANMORE", "designationCode": "C", "categoryCode": "39", "address": "1717 BOW VALLEY TRAIL", "city": "CANMORE", "province": "AB", "country": "CA", "postalCode": "T1W1L7", "twitter": "None", "instagram": "None", "facebook": "None", "youtube": "None", "website": "None", "summary": "None", "logo": "None", "latitude": 51.09943490481268, "longitude": -115.35978639560875}, "857597611RR0001": {"name": "TRINITY BIBLE CHURCH OF OTTAWA", "designationCode": "C", "categoryCode": "39", "address": "4101 STAGE COACH ROAD         RR2  BOX 497", "city": "OSGOODE", "province": "ON", "country": "CA", "postalCode": "K0A2W0", "twitter": "None", "instagram": "None", "facebook": "None", "youtube": "None", "website": "None", "summary": "None", "logo": "None", "latitude": 45.11844515580561, "longitude": -75.56370745000395}, "129950804RR0030": {"name": "TRINITY CATHOLIC CHURCH", "designationCode": "C", "categoryCode": "38", "address": "6234 SPARTAN ROAD", "city": "NANAIMO", "province": "BC", "country": "CA", "postalCode": "V9T2N9", "twitter": "None", "instagram": "None", "facebook": "None", "youtube": "None", "website": "None", "summary": "None", "logo": "None", "latitude": 49.228402614371454, "longitude": -124.0413259090018}, "888754868RR0001": {"name": "TRINITY CEMETERY SOCIETY", "designationCode": "C", "categoryCode": "59", "address": "GENERAL DELIVERY", "city": "RIVER HEBERT", "province": "NS", "country": "CA", "postalCode": "B0L1G0", "twitter": "None", "instagram": "None", "facebook": "None", "youtube": "None", "website": "None", "summary": "None", "logo": "None", "latitude": 45.69107100000005, "longitude": -64.39749199999993}, "108140161RR0001": {"name": "TRINITY CENTENNIAL UNITED CHURCH", "designationCode": "C", "categoryCode": "44", "address": "4903-CONCESSION 2", "city": "ROSEMONT", "province": "ON", "country": "CA", "postalCode": "L0N1R0", "twitter": "None", "instagram": "None", "facebook": "None", "youtube": "None", "website": "None", "summary": "None", "logo": "None", "latitude": 44.12350500000005, "longitude": -79.99261099999994}, "889057279RR0001": {"name": "TRINITY CHAPEL", "designationCode": "A", "categoryCode": "39", "address": "PO BOX 17000STN FORCES", "city": "KINGSTON", "province": "ON", "country": "CA", "postalCode": "K7K7B4", "twitter": "None", "instagram": "None", "facebook": "None", "youtube": "None", "website": "None", "summary": "None", "logo": "None", "latitude": 44.23153200000006, "longitude": -76.47933049999993}, "131514614RR0001": {"name": "TRINITY CHRISTIAN CENTRE", "designationCode": "C", "categoryCode": "39", "address": "BOX 771", "city": "DRESDEN", "province": "ON", "country": "CA", "postalCode": "N0P1M0", "twitter": "None", "instagram": "None", "facebook": "None", "youtube": "None", "website": "None", "summary": "None", "logo": "None", "latitude": 42.58952000000005, "longitude": -82.17963999999995}, "134475656RR0001": {"name": "TRINITY CHRISTIAN CENTRE", "designationCode": "C", "categoryCode": "36", "address": "10347-153 ST NW", "city": "EDMONTON", "province": "AB", "country": "CA", "postalCode": "T5P2B7", "twitter": "None", "instagram": "None", "facebook": "None", "youtube": "None", "website": "None", "summary": "None", "logo": "None", "latitude": 53.54609400000001, "longitude": -113.58502726738436}, "108140187RR0001": {"name": "TRINITY CHRISTIAN CENTRE SOCIETY", "designationCode": "C", "categoryCode": "39", "address": "813 DARWIN AVE", "city": "VICTORIA", "province": "BC", "country": "CA", "postalCode": "V8X2X7", "twitter": "None", "instagram": "None", "facebook": "None", "youtube": "None", "website": "None", "summary": "None", "logo": "None", "latitude": 48.45898161085481, "longitude": -123.3735938884527}, "119269413RR0001": {"name": "TRINITY CHRISTIAN CHURCH OF OWEN SOUND", "designationCode": "C", "categoryCode": "39", "address": "220 4TH AVE W", "city": "OWEN SOUND", "province": "ON", "country": "CA", "postalCode": "N4K4V2", "twitter": "None", "instagram": "None", "facebook": "None", "youtube": "None", "website": "None", "summary": "None", "logo": "None", "latitude": 44.55245340660168, "longitude": -80.94621714449742}, "132029893RR0001": {"name": "TRINITY CHRISTIAN FELLOWSHIP OF RED DEER", "designationCode": "C", "categoryCode": "39", "address": "PO 21092                      RPO BOWER PLACE", "city": "RED DEER", "province": "AB", "country": "CA", "postalCode": "T4R2M1", "twitter": "None", "instagram": "None", "facebook": "None", "youtube": "None", "website": "None", "summary": "None", "logo": "None", "latitude": 52.24386000000004, "longitude": -113.80937999999998}, "108140229RR0001": {"name": "TRINITY CHRISTIAN REFORMED CHURCH OF ABBOTSFORD", "designationCode": "C", "categoryCode": "39", "address": "3215 TRETHEWEY ST             BOX 2268", "city": "ABBOTSFORD", "province": "BC", "country": "CA", "postalCode": "V2T4X2", "twitter": "None", "instagram": "None", "facebook": "None", "youtube": "None", "website": "None", "summary": "None", "logo": "None", "latitude": 49.06045741326679, "longitude": -122.32702494731343}, "108140211RR0001": {"name": "TRINITY CHRISTIAN REFORMED CHURCH OF EDMONTON", "designationCode": "C", "categoryCode": "39", "address": "13427-57 STREET", "city": "EDMONTON", "province": "AB", "country": "CA", "postalCode": "T5A2G1", "twitter": "None", "instagram": "None", "facebook": "None", "youtube": "None", "website": "None", "summary": "None", "logo": "None", "latitude": 53.59744072719128, "longitude": -113.4290323764215}, "889137444RR0001": {"name": "TRINITY CHRISTIAN REFORMED CHURCH OF GODERICH", "designationCode": "C", "categoryCode": "39", "address": "245 MILL ROAD", "city": "GODERICH", "province": "ON", "country": "CA", "postalCode": "N7A4A1", "twitter": "None", "instagram": "None", "facebook": "None", "youtube": "None", "website": "None", "summary": "None", "logo": "None", "latitude": 43.73274501248928, "longitude": -81.69054704006717}, "140996208RR0001": {"name": "TRINITY CHRISTIAN SCHOOL ASSOCIATION", "designationCode": "C", "categoryCode": "20", "address": "6015 51 AVE", "city": "COLD LAKE", "province": "AB", "country": "CA", "postalCode": "T9M1T3", "twitter": "None", "instagram": "None", "facebook": "None", "youtube": "None", "website": "None", "summary": "None", "logo": "None", "latitude": 54.41447553563412, "longitude": -110.229732}, "108140021RR0002": {"name": "TRINITY CHURCH", "designationCode": "C", "categoryCode": "30", "address": "PO BOX 882 LAMBETH STATION", "city": "LONDON", "province": "ON", "country": "CA", "postalCode": "N6P1R2", "twitter": "None", "instagram": "None", "facebook": "None", "youtube": "None", "website": "None", "summary": "None", "logo": "None", "latitude": 42.91244761023706, "longitude": -81.30148110402438}, "118787142RR0015": {"name": "TRINITY CHURCH", "designationCode": "C", "categoryCode": "30", "address": "4766 ANGUS ST", "city": "PORT ALBERNI", "province": "BC", "country": "CA", "postalCode": "V9Y1S9", "twitter": "None", "instagram": "None", "facebook": "None", "youtube": "None", "website": "None", "summary": "None", "logo": "None", "latitude": 49.23332948845882, "longitude": -124.80431344463038}, "119269660RR0001": {"name": "TRINITY CHURCH", "designationCode": "C", "categoryCode": "30", "address": "P.O.BOX 137", "city": "WATFORD", "province": "ON", "country": "CA", "postalCode": "N0M2S0", "twitter": "None", "instagram": "None", "facebook": "None", "youtube": "None", "website": "None", "summary": "None", "logo": "None", "latitude": 42.94966000000005, "longitude": -81.88000999999997}, "130153158RR0001": {"name": "TRINITY CHURCH", "designationCode": "C", "categoryCode": "30", "address": "757 CH DU VILLAGE", "city": "MORIN-HEIGHTS", "province": "QC", "country": "CA", "postalCode": "J0R1H0", "twitter": "None", "instagram": "None", "facebook": "None", "youtube": "None", "website": "None", "summary": "None", "logo": "None", "latitude": 45.90321066224239, "longitude": -74.2495312707599}, "130529167RR0002": {"name": "TRINITY CHURCH", "designationCode": "C", "categoryCode": "30", "address": "P.O. BOX 1", "city": "ST. BRUNO", "province": "QC", "country": "CA", "postalCode": "J3V4P8", "twitter": "None", "instagram": "None", "facebook": "None", "youtube": "None", "website": "None", "summary": "None", "logo": "None", "latitude": 45.52679400000005, "longitude": -73.34480599999993}, "131816340RR0001": {"name": "TRINITY CHURCH", "designationCode": "C", "categoryCode": "30", "address": "PO BOX 306", "city": "WIARTON", "province": "ON", "country": "CA", "postalCode": "N0H2T0", "twitter": "None", "instagram": "None", "facebook": "None", "youtube": "None", "website": "None", "summary": "None", "logo": "None", "latitude": 44.74013000000008, "longitude": -81.13977999999997}, "132489618RR0001": {"name": "TRINITY CHURCH", "designationCode": "C", "categoryCode": "30", "address": "55 SOUTHWICK ST.", "city": "ST. THOMAS", "province": "ON", "country": "CA", "postalCode": "N5R3S3", "twitter": "None", "instagram": "None", "facebook": "None", "youtube": "None", "website": "None", "summary": "None", "logo": "None", "latitude": 42.7759142332223, "longitude": -81.1954348401988}, "861639037RR0001": {"name": "TRINITY CHURCH", "designationCode": "C", "categoryCode": "39", "address": "27 AVIEMORE DR", "city": "NORTH YORK", "province": "ON", "country": "CA", "postalCode": "M9L2L6", "twitter": "None", "instagram": "None", "facebook": "None", "youtube": "None", "website": "None", "summary": "None", "logo": "None", "latitude": 43.74961032361938, "longitude": -79.57018356546851}, "870002441RR0001": {"name": "TRINITY CHURCH", "designationCode": "C", "categoryCode": "30", "address": "12 PR\u00c9FONTAINE OUEST", "city": "STE-AGATHE-DES-MONTS", "province": "QC", "country": "CA", "postalCode": "J8C1C3", "twitter": "None", "instagram": "None", "facebook": "None", "youtube": "None", "website": "None", "summary": "None", "logo": "None", "latitude": 46.04993048845881, "longitude": -74.28970208534824}, "887586790RR0002": {"name": "TRINITY CHURCH", "designationCode": "C", "categoryCode": "30", "address": "10 KEITH CRES", "city": "BAYFEILD", "province": "ON", "country": "CA", "postalCode": "N0M1G0", "twitter": "None", "instagram": "None", "facebook": "None", "youtube": "None", "website": "None", "summary": "None", "logo": "None", "latitude": 43.56186018480609, "longitude": -81.69576489682083}, "130694912RR0001": {"name": "TRINITY CHURCH BARRIE", "designationCode": "C", "categoryCode": "30", "address": "24 COLLIER ST                 BOX 641", "city": "BARRIE", "province": "ON", "country": "CA", "postalCode": "L4M4V1", "twitter": "None", "instagram": "None", "facebook": "None", "youtube": "None", "website": "None", "summary": "None", "logo": "None", "latitude": 44.39041448211083, "longitude": -79.68904233527613}, "119269454RR0002": {"name": "TRINITY CHURCH CORPORATION", "designationCode": "C", "categoryCode": "30", "address": "321 MAIN AVE.", "city": "HALIFAX", "province": "NS", "country": "CA", "postalCode": "B3S0B5", "twitter": "None", "instagram": "None", "facebook": "None", "youtube": "None", "website": "None", "summary": "None", "logo": "None", "latitude": 44.65136506887272, "longitude": -63.65282377148105}, "118877422RR0002": {"name": "TRINITY CHURCH COTTAM", "designationCode": "C", "categoryCode": "30", "address": "35 WILSON AVE", "city": "ESSEX", "province": "ON", "country": "CA", "postalCode": "N8M2L8", "twitter": "None", "instagram": "None", "facebook": "None", "youtube": "None", "website": "None", "summary": "None", "logo": "None", "latitude": 42.17547611408613, "longitude": -82.82078004607878}, "119269488RR0001": {"name": "TRINITY CHURCH OF THE NAZARENE", "designationCode": "C", "categoryCode": "39", "address": "480 AVALON PLACE              TREASURER", "city": "OTTAWA", "province": "ON", "country": "CA", "postalCode": "K1G0W4", "twitter": "None", "instagram": "None", "facebook": "None", "youtube": "None", "website": "None", "summary": "None", "logo": "None", "latitude": 45.40627284869324, "longitude": -75.64925473853093}, "119269496RR0001": {"name": "TRINITY CHURCH,", "designationCode": "C", "categoryCode": "30", "address": "2687 CH DES QUATRE-BOURGEOIS", "city": "QU\u00c9BEC", "province": "QC", "country": "CA", "postalCode": "G1V1X3", "twitter": "None", "instagram": "None", "facebook": "None", "youtube": "None", "website": "None", "summary": "None", "logo": "None", "latitude": 46.778178951959326, "longitude": -71.29361330443211}, "887764231RR0001": {"name": "TRINITY CHURCH,", "designationCode": "C", "categoryCode": "30", "address": "P.O. BOX 1299", "city": "BLENHEIM", "province": "ON", "country": "CA", "postalCode": "N0P1A0", "twitter": "None", "instagram": "None", "facebook": "None", "youtube": "None", "website": "None", "summary": "None", "logo": "None", "latitude": 42.335210000000075, "longitude": -81.99768999999998}, "891427999RR0001": {"name": "TRINITY CHURCH,", "designationCode": "C", "categoryCode": "30", "address": "69 QUEEN ST S", "city": "MISSISSAUGA", "province": "ON", "country": "CA", "postalCode": "L5M1K5", "twitter": "None", "instagram": "None", "facebook": "None", "youtube": "None", "website": "None", "summary": "None", "logo": "None", "latitude": 43.585154191528524, "longitude": -79.71839247443611}, "130374275RR0001": {"name": "TRINITY CHURCH, AURORA", "designationCode": "C", "categoryCode": "30", "address": "79 VICTORIA AVE", "city": "AURORA", "province": "ON", "country": "CA", "postalCode": "L4G1R3", "twitter": "None", "instagram": "None", "facebook": "None", "youtube": "None", "website": "None", "summary": "None", "logo": "None", "latitude": 43.99737634194124, "longitude": -79.4650755886378}, "118826874RR0001": {"name": "TRINITY CHURCH, CAMPBELL'S CROSS", "designationCode": "C", "categoryCode": "30", "address": "3515 KING STREET", "city": "CALEDON", "province": "ON", "country": "CA", "postalCode": "L7C0T6", "twitter": "None", "instagram": "None", "facebook": "None", "youtube": "None", "website": "None", "summary": "None", "logo": "None", "latitude": 43.78376392033592, "longitude": -79.86736181444411}, "119269751RR0001": {"name": "TRINITY COLLEGE", "designationCode": "C", "categoryCode": "20", "address": "6 HOSKIN AVE", "city": "TORONTO", "province": "ON", "country": "CA", "postalCode": "M5S1H8", "twitter": "None", "instagram": "None", "facebook": "None", "youtube": "None", "website": "None", "summary": "None", "logo": "None", "latitude": 43.664901420635644, "longitude": -79.39495510547981}, "831549746RR0001": {"name": "TRINITY COLLEGE SCHOOL FOUNDATION", "designationCode": "A", "categoryCode": "23", "address": "55 DEBLAQUIRE STREET NORTH", "city": "PORT HOPE", "province": "ON", "country": "CA", "postalCode": "L1A4K7", "twitter": "None", "instagram": "None", "facebook": "None", "youtube": "None", "website": "None", "summary": "None", "logo": "None", "latitude": 43.960914628368606, "longitude": -78.28725811252825}, "119269744RR0001": {"name": "TRINITY COLLEGE SCHOOL,", "designationCode": "C", "categoryCode": "20", "address": "55 DEBLAQUIRE STREET NORTH", "city": "PORT HOPE", "province": "ON", "country": "CA", "postalCode": "L1A4K7", "twitter": "None", "instagram": "None", "facebook": "None", "youtube": "None", "website": "None", "summary": "None", "logo": "None", "latitude": 43.960914628368606, "longitude": -78.28725811252825}, "861738920RR0001": {"name": "TRINITY COMMUNITY CHURCH", "designationCode": "C", "categoryCode": "49", "address": "#20-8675-209TH STREET", "city": "LANGLEY", "province": "BC", "country": "CA", "postalCode": "V1M3W6", "twitter": "None", "instagram": "None", "facebook": "None", "youtube": "None", "website": "None", "summary": "None", "logo": "None", "latitude": 49.15987277546311, "longitude": -122.64223500848183}, "889283990RR0001": {"name": "TRINITY COMMUNITY CHURCH", "designationCode": "C", "categoryCode": "39", "address": "10 SHACKTOWN ROAD", "city": "BYNG INLET", "province": "ON", "country": "CA", "postalCode": "P0G1B0", "twitter": "None", "instagram": "None", "facebook": "None", "youtube": "None", "website": "None", "summary": "None", "logo": "None", "latitude": 45.76834550432783, "longitude": -80.56093208228981}, "828385427RR0001": {"name": "TRINITY COMMUNITY CHURCH OF GOD", "designationCode": "C", "categoryCode": "39", "address": "46 DENISON RD E", "city": "TORONTO", "province": "ON", "country": "CA", "postalCode": "M9N1B7", "twitter": "None", "instagram": "None", "facebook": "None", "youtube": "None", "website": "None", "summary": "None", "logo": "None", "latitude": 43.697137157943196, "longitude": -79.50439773203871}, "118843739RR0001": {"name": "TRINITY COMMUNITY PRESBYTERIAN CHURCH", "designationCode": "C", "categoryCode": "37", "address": "50 WYNFORD DRIVE", "city": "TORONTO", "province": "ON", "country": "CA", "postalCode": "M3C1J7", "twitter": "None", "instagram": "None", "facebook": "None", "youtube": "None", "website": "None", "summary": "None", "logo": "None", "latitude": 43.72435963310046, "longitude": -79.3345945359799}, "835343369RR0001": {"name": "TRINITY DEVELOPMENT FOUNDATION", "designationCode": "B", "categoryCode": "03", "address": "359 KENT STREET 4TH FLOOR", "city": "OTTAWA", "province": "ON", "country": "CA", "postalCode": "K2P0R6", "twitter": "None", "instagram": "None", "facebook": "None", "youtube": "None", "website": "None", "summary": "None", "logo": "None", "latitude": 45.413377122972925, "longitude": -75.69756843306054}, "892690249RR0001": {"name": "TRINITY DIVINE SPIRITUAL BAPTIST CHURCH", "designationCode": "C", "categoryCode": "39", "address": "2212 - 6 DAYSPRING CIR", "city": "BRAMPTON", "province": "ON", "country": "CA", "postalCode": "L6P2Z6", "twitter": "None", "instagram": "None", "facebook": "None", "youtube": "None", "website": "None", "summary": "None", "logo": "None", "latitude": 43.760153845461, "longitude": -79.69130143744567}, "108140393RR0001": {"name": "TRINITY EVANGELICAL LUTHERAN CHURCH", "designationCode": "C", "categoryCode": "32", "address": "1111 SOUTHVIEW DR", "city": "WINKLER", "province": "MB", "country": "CA", "postalCode": "R6W1Y4", "twitter": "None", "instagram": "None", "facebook": "None", "youtube": "None", "website": "None", "summary": "None", "logo": "None", "latitude": 49.170281508222985, "longitude": -97.95001058381904}, "108140419RR0001": {"name": "TRINITY EVANGELICAL LUTHERAN CHURCH", "designationCode": "C", "categoryCode": "32", "address": "419 AVENUE E NORTH", "city": "SASKATOON", "province": "SK", "country": "CA", "postalCode": "S7L1S1", "twitter": "None", "instagram": "None", "facebook": "None", "youtube": "None", "website": "None", "summary": "None", "logo": "None", "latitude": 52.13431800000001, "longitude": -106.6767672277682}, "108140450RR0001": {"name": "TRINITY EVANGELICAL LUTHERAN CHURCH", "designationCode": "C", "categoryCode": "32", "address": "312 STRICKLAND STREET", "city": "WHITEHORSE", "province": "YT", "country": "CA", "postalCode": "Y1A3K1", "twitter": "None", "instagram": "None", "facebook": "None", "youtube": "None", "website": "None", "summary": "None", "logo": "None", "latitude": 60.722063412718526, "longitude": -135.05859662115523}, "108140930RR0001": {"name": "TRINITY EVANGELICAL LUTHERAN CHURCH", "designationCode": "C", "categoryCode": "32", "address": "101021 CONC. 6 WEST GREY      RR 1", "city": "CLIFFORD", "province": "ON", "country": "CA", "postalCode": "N0G1M0", "twitter": "None", "instagram": "None", "facebook": "None", "youtube": "None", "website": "None", "summary": "None", "logo": "None", "latitude": 44.00490363217341, "longitude": -80.9915028501191}, "119269801RR0001": {"name": "TRINITY EVANGELICAL LUTHERAN CHURCH", "designationCode": "C", "categoryCode": "32", "address": "P.O. BOX 820", "city": "TAVISTOCK", "province": "ON", "country": "CA", "postalCode": "N0B2R0", "twitter": "None", "instagram": "None", "facebook": "None", "youtube": "None", "website": "None", "summary": "None", "logo": "None", "latitude": 43.32137000000006, "longitude": -80.83615999999995}}