{"863453387RR0001": {"name": "LA FABRIQUE DE LA PAROISSE DE SAINTE-FAMILLE", "designationCode": "C", "categoryCode": "39", "address": "1015, BOULEVARD CURE LABELLE", "city": "BLAINVILLE", "province": "QC", "country": "CA", "postalCode": "J7C2M2", "twitter": "None", "instagram": "None", "facebook": "None", "youtube": "None", "website": "None", "summary": "None", "logo": "None", "latitude": 45.67490294085081, "longitude": -73.88227675483263}, "130141930RR0001": {"name": "LA FABRIQUE DE LA PAROISSE DE SAINTE-FAMILLE-DE-BEAUCE", "designationCode": "C", "categoryCode": "38", "address": "740, AVENUE DU PALAIS", "city": "ST-JOSEPH DE BEAUCE", "province": "QC", "country": "CA", "postalCode": "G0S2V0", "twitter": "None", "instagram": "None", "facebook": "None", "youtube": "None", "website": "None", "summary": "None", "logo": "None", "latitude": 46.31033934802941, "longitude": -70.88319282142632}, "108081761RR0001": {"name": "LA FABRIQUE DE LA PAROISSE DE SAINTE-FAMILLE/THE FABRIQUE OFTHE PARISH OF HOLY FAMILY", "designationCode": "C", "categoryCode": "38", "address": "1001 OKA ROAD", "city": "DEUX MONTAGNES", "province": "QC", "country": "CA", "postalCode": "J7R1L9", "twitter": "None", "instagram": "None", "facebook": "None", "youtube": "None", "website": "None", "summary": "None", "logo": "None", "latitude": 45.54049552236124, "longitude": -73.89390602293815}, "107366627RR0001": {"name": "LA FABRIQUE DE LA PAROISSE DE SAINTE-FELICITE", "designationCode": "C", "categoryCode": "38", "address": "200 BOUL. PERRON              CP 40", "city": "STE-FELICITE", "province": "QC", "country": "CA", "postalCode": "G0J2K0", "twitter": "None", "instagram": "None", "facebook": "None", "youtube": "None", "website": "None", "summary": "None", "logo": "None", "latitude": 48.901009490478046, "longitude": -67.33810315903972}, "132361635RR0001": {"name": "LA FABRIQUE DE LA PAROISSE DE SAINTE-FELICITE", "designationCode": "C", "categoryCode": "38", "address": "44 RUE DE L'EGLISE", "city": "SAINT-PAMPHILE", "province": "QC", "country": "CA", "postalCode": "G0R3X0", "twitter": "None", "instagram": "None", "facebook": "None", "youtube": "None", "website": "None", "summary": "None", "logo": "None", "latitude": 46.95984657787508, "longitude": -69.77940969709708}, "118905991RR0001": {"name": "LA FABRIQUE DE LA PAROISSE DE SAINTE-FLAVIE", "designationCode": "C", "categoryCode": "38", "address": "507 DE LA MER CP 9", "city": "SAINTE-FLAVIE", "province": "QC", "country": "CA", "postalCode": "G0J2L0", "twitter": "None", "instagram": "None", "facebook": "None", "youtube": "None", "website": "None", "summary": "None", "logo": "None", "latitude": 48.61136144904513, "longitude": -68.22947553618236}, "107363335RR0001": {"name": "LA FABRIQUE DE LA PAROISSE DE SAINTE-FLORENCE", "designationCode": "C", "categoryCode": "38", "address": "16 RUE BEAURIVAGE N", "city": "SAINTE-FLORENCE", "province": "QC", "country": "CA", "postalCode": "G0J2M0", "twitter": "None", "instagram": "None", "facebook": "None", "youtube": "None", "website": "None", "summary": "None", "logo": "None", "latitude": 48.26526649769052, "longitude": -67.24024407109688}, "107366643RR0001": {"name": "LA FABRIQUE DE LA PAROISSE DE SAINTE-FRANCOISE", "designationCode": "C", "categoryCode": "38", "address": "17 RUE DE LA FABRIQUE         CP 9", "city": "SAINTE-FRANCOISE", "province": "QC", "country": "CA", "postalCode": "G0L3B0", "twitter": "None", "instagram": "None", "facebook": "None", "youtube": "None", "website": "None", "summary": "None", "logo": "None", "latitude": 48.09505501082004, "longitude": -69.06411727061568}, "118993021RR0001": {"name": "LA FABRIQUE DE LA PAROISSE DE SAINTE-GENEVIEVE, ARCHIDIOCESE DE MONTREAL", "designationCode": "C", "categoryCode": "38", "address": "16037 BOUL GOUIN", "city": "SAINTE-GENEVIEVE", "province": "QC", "country": "CA", "postalCode": "H9H1C7", "twitter": "None", "instagram": "None", "facebook": "None", "youtube": "None", "website": "None", "summary": "None", "logo": "None", "latitude": 45.47996164507436, "longitude": -73.87162083351576}, "890934698RR0001": {"name": "LA FABRIQUE DE LA PAROISSE DE SAINTE-GERMAINE", "designationCode": "C", "categoryCode": "38", "address": "195 2E AVENUE", "city": "LAC-ETCHEMIN", "province": "QC", "country": "CA", "postalCode": "G0R1S0", "twitter": "None", "instagram": "None", "facebook": "None", "youtube": "None", "website": "None", "summary": "None", "logo": "None", "latitude": 46.39504061278805, "longitude": -70.50272641664232}, "107366726RR0001": {"name": "LA FABRIQUE DE LA PAROISSE DE SAINTE-GERTRUDE", "designationCode": "C", "categoryCode": "38", "address": "11891 RUE STE GERTRUDE", "city": "MONTREAL NORD", "province": "QC", "country": "CA", "postalCode": "H1G5P8", "twitter": "None", "instagram": "None", "facebook": "None", "youtube": "None", "website": "None", "summary": "None", "logo": "None", "latitude": 45.605234974204976, "longitude": -73.63496982636066}, "107360216RR0001": {"name": "LA FABRIQUE DE LA PAROISSE DE SAINTE-HELENE", "designationCode": "C", "categoryCode": "38", "address": "699, RUE DU COUVENT", "city": "SAINTE-HELENE-DE-KAMOURASKA", "province": "QC", "country": "CA", "postalCode": "G0L3J0", "twitter": "None", "instagram": "None", "facebook": "None", "youtube": "None", "website": "None", "summary": "None", "logo": "None", "latitude": 47.59010767856093, "longitude": -69.73007576322945}, "118906015RR0001": {"name": "LA FABRIQUE DE LA PAROISSE DE SAINTE-HELENE", "designationCode": "C", "categoryCode": "38", "address": "650 RUE PRINCIPALE", "city": "SAINTE-HELENE-DE-BAGOT", "province": "QC", "country": "CA", "postalCode": "J0H1M0", "twitter": "None", "instagram": "None", "facebook": "None", "youtube": "None", "website": "None", "summary": "None", "logo": "None", "latitude": 45.73134880319138, "longitude": -72.73594425512108}, "107366742RR0001": {"name": "LA FABRIQUE DE LA PAROISSE DE SAINTE-HELENE-DE-BREAKEYVILLE", "designationCode": "C", "categoryCode": "38", "address": "2500 RUE SAINTE-HELENE", "city": "LEVIS", "province": "QC", "country": "CA", "postalCode": "G6Z7K4", "twitter": "None", "instagram": "None", "facebook": "None", "youtube": "None", "website": "None", "summary": "None", "logo": "None", "latitude": 46.676276651533456, "longitude": -71.22519142738086}, "896810470RR0001": {"name": "LA FABRIQUE DE LA PAROISSE DE SAINTE-HELENE-DE-POINTE-A-LA-CROIX", "designationCode": "C", "categoryCode": "38", "address": "45 RUE BERTHELOT", "city": "POINTE-A-LA-CROIX", "province": "QC", "country": "CA", "postalCode": "G0C1L0", "twitter": "None", "instagram": "None", "facebook": "None", "youtube": "None", "website": "None", "summary": "None", "logo": "None", "latitude": 48.02374307576895, "longitude": -66.70421195850885}, "107366767RR0001": {"name": "LA FABRIQUE DE LA PAROISSE DE SAINTE-HENEDINE", "designationCode": "C", "categoryCode": "38", "address": "109 RUE PRINCIPALE", "city": "STE-HENEDINE", "province": "QC", "country": "CA", "postalCode": "G0S2R0", "twitter": "None", "instagram": "None", "facebook": "None", "youtube": "None", "website": "None", "summary": "None", "logo": "None", "latitude": 46.55797647870663, "longitude": -70.98521001757206}, "118995554RR0001": {"name": "LA FABRIQUE DE LA PAROISSE DE SAINTE-JEANNE DE PONT-ROUGE", "designationCode": "C", "categoryCode": "38", "address": "210 DUPONT", "city": "PONT ROUGE", "province": "QC", "country": "CA", "postalCode": "G3H1N9", "twitter": "None", "instagram": "None", "facebook": "None", "youtube": "None", "website": "None", "summary": "None", "logo": "None", "latitude": 46.75604050288554, "longitude": -71.6969644730798}, "118906882RR0001": {"name": "LA FABRIQUE DE LA PAROISSE DE SAINTE-JEANNE-D'ARC", "designationCode": "C", "categoryCode": "38", "address": "206, RUE PRINCIPALE           CASE POSTALE 69", "city": "STE JEANNE D'ARC", "province": "QC", "country": "CA", "postalCode": "G0J2T0", "twitter": "None", "instagram": "None", "facebook": "None", "youtube": "None", "website": "None", "summary": "None", "logo": "None", "latitude": 48.493422420191685, "longitude": -67.95620578117591}, "118993104RR0001": {"name": "LA FABRIQUE DE LA PAROISSE DE SAINTE-JEANNE-D'ARC", "designationCode": "C", "categoryCode": "38", "address": "583 RANG 2&3", "city": "CLERVAL ABITIBI-OUEST", "province": "QC", "country": "CA", "postalCode": "J0Z1R0", "twitter": "None", "instagram": "None", "facebook": "None", "youtube": "None", "website": "None", "summary": "None", "logo": "None", "latitude": 48.748935475474376, "longitude": -79.4372924701656}, "118995570RR0001": {"name": "LA FABRIQUE DE LA PAROISSE DE SAINTE-JEANNE-D'ARC", "designationCode": "C", "categoryCode": "38", "address": "1050, 105E AVENUE", "city": "SHAWINIGAN", "province": "QC", "country": "CA", "postalCode": "G9P1L5", "twitter": "None", "instagram": "None", "facebook": "None", "youtube": "None", "website": "None", "summary": "None", "logo": "None", "latitude": 46.52479850968905, "longitude": -72.75230016662717}, "107587131RR0001": {"name": "LA FABRIQUE DE LA PAROISSE DE SAINTE-JEANNE-DE-CHANTAL", "designationCode": "C", "categoryCode": "38", "address": "300, BOUL. PERROT", "city": "L'\u00ceLE-PERROT", "province": "QC", "country": "CA", "postalCode": "J7V3G1", "twitter": "None", "instagram": "None", "facebook": "None", "youtube": "None", "website": "None", "summary": "None", "logo": "None", "latitude": 45.39317757285477, "longitude": -73.95143173688614}, "889067484RR0001": {"name": "LA FABRIQUE DE LA PAROISSE DE SAINTE-LUCIE-DE- BEAUREGARD", "designationCode": "C", "categoryCode": "38", "address": "141 RUE PRINCIPAL", "city": "STE-LUCIE-DE-BEAUREGARD", "province": "QC", "country": "CA", "postalCode": "G0R3L0", "twitter": "None", "instagram": "None", "facebook": "None", "youtube": "None", "website": "None", "summary": "None", "logo": "None", "latitude": 46.73760757649011, "longitude": -70.02346616558924}, "107366940RR0001": {"name": "LA FABRIQUE DE LA PAROISSE DE SAINTE-MADELEINE DE HAVRE-AUX-MAISONS", "designationCode": "C", "categoryCode": "38", "address": "25 CHEMIN CENTRAL", "city": "HAVRE-AUX-MAISONS", "province": "QC", "country": "CA", "postalCode": "G4T5H1", "twitter": "None", "instagram": "None", "facebook": "None", "youtube": "None", "website": "None", "summary": "None", "logo": "None", "latitude": 47.404644432311905, "longitude": -61.79790641994833}, "107358616RR0001": {"name": "LA FABRIQUE DE LA PAROISSE DE SAINTE-MADELEINE, ARCHIDIOCESE DE MONTREAL", "designationCode": "C", "categoryCode": "38", "address": "750, AVENUE OUTREMONT", "city": "OUTREMONT", "province": "QC", "country": "CA", "postalCode": "H2V3N3", "twitter": "None", "instagram": "None", "facebook": "None", "youtube": "None", "website": "None", "summary": "None", "logo": "None"}, "132104480RR0001": {"name": "LA FABRIQUE DE LA PAROISSE DE SAINTE-MARGUERITE", "designationCode": "C", "categoryCode": "38", "address": "350 RUE THERIAULT", "city": "GALLIX", "province": "QC", "country": "CA", "postalCode": "G0G1L0", "twitter": "None", "instagram": "None", "facebook": "None", "youtube": "None", "website": "None", "summary": "None", "logo": "None", "latitude": 50.135881411239225, "longitude": -66.6143774957733}, "874518202RR0001": {"name": "LA FABRIQUE DE LA PAROISSE DE SAINTE-MARGUERITE-D'YOUVILLE", "designationCode": "C", "categoryCode": "38", "address": "8 RUE RAINVILLE", "city": "CHATEAUGUAY", "province": "QC", "country": "CA", "postalCode": "J6K1H5", "twitter": "None", "instagram": "None", "facebook": "None", "youtube": "None", "website": "None", "summary": "None", "logo": "None", "latitude": 45.35669157285477, "longitude": -73.71583395920133}, "131717571RR0001": {"name": "LA FABRIQUE DE LA PAROISSE DE SAINTE-MARGUERITE-MARIE-ALACOQUE", "designationCode": "C", "categoryCode": "38", "address": "17 RTE DE LA VERENDRYE", "city": "STE-MARGUERITE-MARIE", "province": "QC", "country": "CA", "postalCode": "G0J2Y0", "twitter": "None", "instagram": "None", "facebook": "None", "youtube": "None", "website": "None", "summary": "None", "logo": "None", "latitude": 48.33659356971957, "longitude": -67.06550229081247}, "118992783RR0001": {"name": "LA FABRIQUE DE LA PAROISSE DE SAINTE-MARIA GORETTI, ARCHIDIOCESE DE MONTREAL", "designationCode": "C", "categoryCode": "38", "address": "16228 TSSE STE-MARIA GORETTI", "city": "MONTR\u00c9AL", "province": "QC", "country": "CA", "postalCode": "H1A1Y1", "twitter": "None", "instagram": "None", "facebook": "None", "youtube": "None", "website": "None", "summary": "None", "logo": "None", "latitude": 45.698444928097544, "longitude": -73.48347861610627}, "131892101RR0001": {"name": "LA FABRIQUE DE LA PAROISSE DE SAINTE-MARIE-DU-LAC", "designationCode": "C", "categoryCode": "38", "address": "1002 CH D'OKA", "city": "DEUX-MONTAGNES", "province": "QC", "country": "CA", "postalCode": "J7R1L7", "twitter": "None", "instagram": "None", "facebook": "None", "youtube": "None", "website": "None", "summary": "None", "logo": "None", "latitude": 45.540556189537945, "longitude": -73.89375951604283}, "129912614RR0001": {"name": "LA FABRIQUE DE LA PAROISSE DE SAINTE-MARIE-MADELEINE", "designationCode": "C", "categoryCode": "38", "address": "35 RUE TOUPIN", "city": "TROIS-RIVI\u00c8RES", "province": "QC", "country": "CA", "postalCode": "G8T3Y4", "twitter": "None", "instagram": "None", "facebook": "None", "youtube": "None", "website": "None", "summary": "None", "logo": "None", "latitude": 46.36146677162529, "longitude": -72.50867731230838}, "855758793RR0001": {"name": "LA FABRIQUE DE LA PAROISSE DE SAINTE-MARIE-MADELEINE", "designationCode": "C", "categoryCode": "39", "address": "17737, RUE DU SACR\u00c9-COEUR", "city": "MIRABEL", "province": "QC", "country": "CA", "postalCode": "J7J1L4", "twitter": "None", "instagram": "None", "facebook": "None", "youtube": "None", "website": "None", "summary": "None", "logo": "None", "latitude": 45.70497039581029, "longitude": -73.93067864992177}, "118992692RR0001": {"name": "LA FABRIQUE DE LA PAROISSE DE SAINTE-PERPETUE", "designationCode": "C", "categoryCode": "38", "address": "11 RUE DE L'EGLISE", "city": "STE-PERPETUE", "province": "QC", "country": "CA", "postalCode": "G0R3Z0", "twitter": "None", "instagram": "None", "facebook": "None", "youtube": "None", "website": "None", "summary": "None", "logo": "None", "latitude": 47.058006666397326, "longitude": -69.92512148516924}, "132473240RR0001": {"name": "LA FABRIQUE DE LA PAROISSE DE SAINTE-PUDENTIENNE", "designationCode": "C", "categoryCode": "38", "address": "940 PRINCIPALE", "city": "ROXTON POND", "province": "QC", "country": "CA", "postalCode": "J0E1Z0", "twitter": "None", "instagram": "None", "facebook": "None", "youtube": "None", "website": "None", "summary": "None", "logo": "None", "latitude": 45.47575950011557, "longitude": -72.65923593655164}, "107363491RR0001": {"name": "LA FABRIQUE DE LA PAROISSE DE SAINTE-RITA", "designationCode": "C", "categoryCode": "38", "address": "27A RUE DE L'EGLISE E  CP 9   PRESIDENT", "city": "SAINTE-RITA", "province": "QC", "country": "CA", "postalCode": "G0L4G0", "twitter": "None", "instagram": "None", "facebook": "None", "youtube": "None", "website": "None", "summary": "None", "logo": "None", "latitude": 47.9517472342066, "longitude": -68.90878945127693}, "892918764RR0001": {"name": "LA FABRIQUE DE LA PAROISSE DE SAINTE-ROSE-DU-DEGELIS", "designationCode": "C", "categoryCode": "38", "address": "663 6I\u00c8ME RUE OUEST", "city": "D\u00c9GELIS", "province": "QC", "country": "CA", "postalCode": "G5T1Y3", "twitter": "None", "instagram": "None", "facebook": "None", "youtube": "None", "website": "None", "summary": "None", "logo": "None", "latitude": 47.54657138467313, "longitude": -68.6460210047032}, "889477840RR0001": {"name": "LA FABRIQUE DE LA PAROISSE DE SAINTE-SOPHIE", "designationCode": "C", "categoryCode": "38", "address": "1460 RUE ST-CALIXTE", "city": "PLESSIVILLE", "province": "QC", "country": "CA", "postalCode": "G6L1P6", "twitter": "None", "instagram": "None", "facebook": "None", "youtube": "None", "website": "None", "summary": "None", "logo": "None", "latitude": 46.21652711180709, "longitude": -71.77604559236005}, "118993039RR0001": {"name": "LA FABRIQUE DE LA PAROISSE DE SAINTE-THEODOSIE", "designationCode": "C", "categoryCode": "38", "address": "596, ROUTE MARIE-VICTORIN", "city": "VERCH\u00c8RES", "province": "QC", "country": "CA", "postalCode": "J0L2R0", "twitter": "None", "instagram": "None", "facebook": "None", "youtube": "None", "website": "None", "summary": "None", "logo": "None", "latitude": 45.77644312877265, "longitude": -73.35653703398934}, "107367401RR0001": {"name": "LA FABRIQUE DE LA PAROISSE DE SAINTE-THERESE-DE-L'ENFANT-JESUS DE JONQUIERE", "designationCode": "C", "categoryCode": "38", "address": "2327 RUE LEVESQUE", "city": "JONQUIERE", "province": "QC", "country": "CA", "postalCode": "G7S3T4", "twitter": "None", "instagram": "None", "facebook": "None", "youtube": "None", "website": "None", "summary": "None", "logo": "None", "latitude": 48.408417136274466, "longitude": -71.17353110998943}, "119083327RR0001": {"name": "LA FABRIQUE DE LA PAROISSE DE SAINTE-TRINIT\u00c9", "designationCode": "C", "categoryCode": "38", "address": "400 RUE RAYMOND", "city": "GATINEAU", "province": "QC", "country": "CA", "postalCode": "J8P5H4", "twitter": "None", "instagram": "None", "facebook": "None", "youtube": "None", "website": "None", "summary": "None", "logo": "None", "latitude": 45.491911983351585, "longitude": -75.65078123333772}, "131643959RR0001": {"name": "LA FABRIQUE DE LA PAROISSE DE SAINTE-TRINITE DE ROUYN-NORANDA", "designationCode": "C", "categoryCode": "38", "address": "75 AVENUE MERCIER", "city": "ROUYN-NORANDA", "province": "QC", "country": "CA", "postalCode": "J9X4X3", "twitter": "None", "instagram": "None", "facebook": "None", "youtube": "None", "website": "None", "summary": "None", "logo": "None", "latitude": 48.24071027699233, "longitude": -79.02508028209955}, "118909506RR0001": {"name": "LA FABRIQUE DE LA PAROISSE DE SAINTE-VICTOIRE", "designationCode": "C", "categoryCode": "38", "address": "99 RUE NOTRE DAME OUEST", "city": "VICTORIAVILLE", "province": "QC", "country": "CA", "postalCode": "G6P1R8", "twitter": "None", "instagram": "None", "facebook": "None", "youtube": "None", "website": "None", "summary": "None", "logo": "None", "latitude": 46.056797468463515, "longitude": -71.96156572892203}, "130038524RR0001": {"name": "LA FABRIQUE DE LA PAROISSE DE ST ALBAN", "designationCode": "C", "categoryCode": "38", "address": "190 RUE PRINCIPALE", "city": "SAINT-ALBAN", "province": "QC", "country": "CA", "postalCode": "G0A3B0", "twitter": "None", "instagram": "None", "facebook": "None", "youtube": "None", "website": "None", "summary": "None", "logo": "None", "latitude": 46.72018099056495, "longitude": -72.07639350819431}, "130002686RR0001": {"name": "LA FABRIQUE DE LA PAROISSE DE ST ANDRE", "designationCode": "C", "categoryCode": "38", "address": "1 RANG ST HILAIRE", "city": "ST ANDRE", "province": "QC", "country": "CA", "postalCode": "G0W2K0", "twitter": "None", "instagram": "None", "facebook": "None", "youtube": "None", "website": "None", "summary": "None", "logo": "None", "latitude": 48.24961603036449, "longitude": -71.95452098418035}, "130013170RR0001": {"name": "LA FABRIQUE DE LA PAROISSE DE ST BERNARD DE DORCHESTER", "designationCode": "C", "categoryCode": "38", "address": "1474 ST.GEORGES", "city": "ST BERNARD", "province": "QC", "country": "CA", "postalCode": "G0S2G0", "twitter": "None", "instagram": "None", "facebook": "None", "youtube": "None", "website": "None", "summary": "None", "logo": "None", "latitude": 46.497748464048776, "longitude": -71.1377587256334}, "132191719RR0001": {"name": "LA FABRIQUE DE LA PAROISSE DE ST BONAVENTURE", "designationCode": "C", "categoryCode": "38", "address": "99 GRAND-PRE", "city": "BONAVENTURE", "province": "QC", "country": "CA", "postalCode": "G0C1E0", "twitter": "None", "instagram": "None", "facebook": "None", "youtube": "None", "website": "None", "summary": "None", "logo": "None", "latitude": 48.04525573633789, "longitude": -65.49282705565807}, "130930522RR0001": {"name": "LA FABRIQUE DE LA PAROISSE DE ST CANUT", "designationCode": "C", "categoryCode": "38", "address": "10000 BOUL ST-CANUT", "city": "MIRABEL", "province": "QC", "country": "CA", "postalCode": "J7N1K1", "twitter": "None", "instagram": "None", "facebook": "None", "youtube": "None", "website": "None", "summary": "None", "logo": "None", "latitude": 45.71779541964342, "longitude": -74.08263317857367}, "130037906RR0001": {"name": "LA FABRIQUE DE LA PAROISSE DE ST COME", "designationCode": "C", "categoryCode": "38", "address": "1555 19E RUE", "city": "ST COME - LINIERE", "province": "QC", "country": "CA", "postalCode": "G0M1J0", "twitter": "None", "instagram": "None", "facebook": "None", "youtube": "None", "website": "None", "summary": "None", "logo": "None", "latitude": 46.0576114582204, "longitude": -70.52085375535222}, "129342580RR0001": {"name": "LA FABRIQUE DE LA PAROISSE DE ST CYPRIEN", "designationCode": "C", "categoryCode": "38", "address": "330, ST-ALEXANDRE", "city": "NAPIERVILLE", "province": "QC", "country": "CA", "postalCode": "J0J1L0", "twitter": "None", "instagram": "None", "facebook": "None", "youtube": "None", "website": "None", "summary": "None", "logo": "None", "latitude": 45.18929853900965, "longitude": -73.40475323780977}, "130165673RR0001": {"name": "LA FABRIQUE DE LA PAROISSE DE ST EDOUARD", "designationCode": "C", "categoryCode": "38", "address": "2505 PRINCIPALE", "city": "ST EDOUARD DE LOTBINIERE", "province": "QC", "country": "CA", "postalCode": "G0S1Y0", "twitter": "None", "instagram": "None", "facebook": "None", "youtube": "None", "website": "None", "summary": "None", "logo": "None", "latitude": 46.57038579315073, "longitude": -71.83224516815766}, "888189396RR0001": {"name": "LA FABRIQUE DE LA PAROISSE DE ST FRANCOIS D'ASSISE", "designationCode": "C", "categoryCode": "38", "address": "433 CHEMIN CENTRAL            C.P. 9", "city": "SAINT-FRANCOIS-D'ASSISE", "province": "QC", "country": "CA", "postalCode": "G0J2N0", "twitter": "None", "instagram": "None", "facebook": "None", "youtube": "None", "website": "None", "summary": "None", "logo": "None", "latitude": 47.983665990305134, "longitude": -67.16288073356792}, "887515591RR0001": {"name": "LA FABRIQUE DE LA PAROISSE DE ST FRANCOIS XAVIER", "designationCode": "C", "categoryCode": "38", "address": "181 RUE DE L'EGLISE           C.P. 90", "city": "ST-FRANCOIS-XAVIER", "province": "QC", "country": "CA", "postalCode": "J0B2V0", "twitter": "None", "instagram": "None", "facebook": "None", "youtube": "None", "website": "None", "summary": "None", "logo": "None", "latitude": 45.53371679355353, "longitude": -72.04895152085834}, "890817646RR0001": {"name": "LA FABRIQUE DE LA PAROISSE DE ST FRANCOIS XAVIER", "designationCode": "C", "categoryCode": "38", "address": "2180 BOUL PERE LELIEVRE", "city": "QUEBEC", "province": "QC", "country": "CA", "postalCode": "G1P2X3", "twitter": "None", "instagram": "None", "facebook": "None", "youtube": "None", "website": "None", "summary": "None", "logo": "None", "latitude": 46.81186526455617, "longitude": -71.2971277527265}, "130120728RR0001": {"name": "LA FABRIQUE DE LA PAROISSE DE ST GEORGES", "designationCode": "C", "categoryCode": "38", "address": "1890, 1ERE AVENUE, OUEST", "city": "VILLE ST-GEORGES BCE", "province": "QC", "country": "CA", "postalCode": "G5Y3N5", "twitter": "None", "instagram": "None", "facebook": "None", "youtube": "None", "website": "None", "summary": "None", "logo": "None", "latitude": 46.11741000000005, "longitude": -70.67192749999994}, "888284999RR0001": {"name": "LA FABRIQUE DE LA PAROISSE DE ST GEORGES DE GRAND MERE", "designationCode": "C", "categoryCode": "38", "address": "359, 212E RUE", "city": "SHAWINIGAN", "province": "QC", "country": "CA", "postalCode": "G9T5J6", "twitter": "None", "instagram": "None", "facebook": "None", "youtube": "None", "website": "None", "summary": "None", "logo": "None", "latitude": 46.62616710574758, "longitude": -72.65946572799935}, "130120330RR0001": {"name": "LA FABRIQUE DE LA PAROISSE DE ST GILBERT", "designationCode": "C", "categoryCode": "38", "address": "100-A PRINCIPALE", "city": "ST-GILBERT", "province": "QC", "country": "CA", "postalCode": "G0A3T0", "twitter": "None", "instagram": "None", "facebook": "None", "youtube": "None", "website": "None", "summary": "None", "logo": "None", "latitude": 46.716124852328576, "longitude": -71.99412435925348}, "891320749RR0001": {"name": "LA FABRIQUE DE LA PAROISSE DE ST HONORE", "designationCode": "C", "categoryCode": "38", "address": "3560 BOUL. MARTEL", "city": "ST.HONORE, DUBUC", "province": "QC", "country": "CA", "postalCode": "G0V1L0", "twitter": "None", "instagram": "None", "facebook": "None", "youtube": "None", "website": "None", "summary": "None", "logo": "None", "latitude": 48.53417206243875, "longitude": -71.08593581828192}, "891855645RR0001": {"name": "LA FABRIQUE DE LA PAROISSE DE ST JEAN BAPTISTE", "designationCode": "C", "categoryCode": "38", "address": "1251 5E AVE", "city": "GRAND-MERE", "province": "QC", "country": "CA", "postalCode": "G9T2N6", "twitter": "None", "instagram": "None", "facebook": "None", "youtube": "None", "website": "None", "summary": "None", "logo": "None", "latitude": 46.62031160979981, "longitude": -72.6812990411702}, "130293053RR0001": {"name": "LA FABRIQUE DE LA PAROISSE DE ST PHILIPPE", "designationCode": "C", "categoryCode": "38", "address": "34 RUE AMBROISE-DEARDEN", "city": "WINDSOR", "province": "QC", "country": "CA", "postalCode": "J1S2W2", "twitter": "None", "instagram": "None", "facebook": "None", "youtube": "None", "website": "None", "summary": "None", "logo": "None", "latitude": 45.57084331473256, "longitude": -72.00374713321604}, "130927676RR0001": {"name": "LA FABRIQUE DE LA PAROISSE DE ST PIERRE", "designationCode": "C", "categoryCode": "38", "address": "520 BOULEVARD BOURASSA", "city": "SAINT-JEROME TERREBONNE", "province": "QC", "country": "CA", "postalCode": "J7Y1X9", "twitter": "None", "instagram": "None", "facebook": "None", "youtube": "None", "website": "None", "summary": "None", "logo": "None", "latitude": 45.7850447396561, "longitude": -74.01107994598576}, "131663783RR0001": {"name": "LA FABRIQUE DE LA PAROISSE DE ST SEBASTIEN", "designationCode": "C", "categoryCode": "38", "address": "1138, ROUTE 133", "city": "SABREVOIS", "province": "QC", "country": "CA", "postalCode": "J0J2G0", "twitter": "None", "instagram": "None", "facebook": "None", "youtube": "None", "website": "None", "summary": "None", "logo": "None", "latitude": 45.20793032624076, "longitude": -73.22952032624076}, "887391191RR0001": {"name": "LA FABRIQUE DE LA PAROISSE DE ST SIMON ET JUDE ARCHIDIOCESE DE MONTREAL", "designationCode": "C", "categoryCode": "38", "address": "85 SACRE COEUR", "city": "CHARLEMAGNE", "province": "QC", "country": "CA", "postalCode": "J5Z1W9", "twitter": "None", "instagram": "None", "facebook": "None", "youtube": "None", "website": "None", "summary": "None", "logo": "None", "latitude": 45.72138732973622, "longitude": -73.48656516859035}, "129482360RR0001": {"name": "LA FABRIQUE DE LA PAROISSE DE ST THOMAS APOTRE", "designationCode": "C", "categoryCode": "38", "address": "31 CAMERON", "city": "BOLTON-EST", "province": "QC", "country": "CA", "postalCode": "J0E1G0", "twitter": "None", "instagram": "None", "facebook": "None", "youtube": "None", "website": "None", "summary": "None", "logo": "None", "latitude": 45.16046799916328, "longitude": -72.3685442836001}, "132171208RR0001": {"name": "LA FABRIQUE DE LA PAROISSE DE ST VALLIER", "designationCode": "C", "categoryCode": "38", "address": "369 AV DE L'EGLISE", "city": "ST-VALLIER CO BELLECHASSE", "province": "QC", "country": "CA", "postalCode": "G0R4J0", "twitter": "None", "instagram": "None", "facebook": "None", "youtube": "None", "website": "None", "summary": "None", "logo": "None", "latitude": 46.89308575408282, "longitude": -70.82378135985907}, "107360018RR0001": {"name": "LA FABRIQUE DE LA PAROISSE DE ST-AGAPIT", "designationCode": "C", "categoryCode": "38", "address": "1154 RUE PRINCIPALE", "city": "ST AGAPIT", "province": "QC", "country": "CA", "postalCode": "G0S1Z0", "twitter": "None", "instagram": "None", "facebook": "None", "youtube": "None", "website": "None", "summary": "None", "logo": "None", "latitude": 46.56094681603063, "longitude": -71.43726244035986}, "118906627RR0001": {"name": "LA FABRIQUE DE LA PAROISSE DE ST-ALBAN-DU-CAP-DES-ROSIERS", "designationCode": "C", "categoryCode": "38", "address": "CP 10                         CAP-DES-ROSIERS", "city": "GASPE", "province": "QC", "country": "CA", "postalCode": "G4X6H1", "twitter": "None", "instagram": "None", "facebook": "None", "youtube": "None", "website": "None", "summary": "None", "logo": "None", "latitude": 48.87057503051517, "longitude": -64.21298877064669}, "107365140RR0001": {"name": "LA FABRIQUE DE LA PAROISSE DE ST-ALPHONSE", "designationCode": "C", "categoryCode": "38", "address": "631 BOUL. GRANDE-BAIE SUD", "city": "LA BAIE", "province": "QC", "country": "CA", "postalCode": "G7B2E1", "twitter": "None", "instagram": "None", "facebook": "None", "youtube": "None", "website": "None", "summary": "None", "logo": "None", "latitude": 48.33005894696765, "longitude": -70.87958980523925}, "118994482RR0001": {"name": "LA FABRIQUE DE LA PAROISSE DE ST-ALPHONSE", "designationCode": "C", "categoryCode": "38", "address": "505 ROUTE 108", "city": "STORNOWAY", "province": "QC", "country": "CA", "postalCode": "G0Y1N0", "twitter": "None", "instagram": "None", "facebook": "None", "youtube": "None", "website": "None", "summary": "None", "logo": "None", "latitude": 45.70880513306037, "longitude": -71.15950057936922}, "107362923RR0001": {"name": "LA FABRIQUE DE LA PAROISSE DE ST-ANSELME", "designationCode": "C", "categoryCode": "38", "address": "115 RUE PRINCIPALE", "city": "ST ANSELME DORCHESTER", "province": "QC", "country": "CA", "postalCode": "G0R2N0", "twitter": "None", "instagram": "None", "facebook": "None", "youtube": "None", "website": "None", "summary": "None", "logo": "None", "latitude": 46.62867542418724, "longitude": -70.97213311609062}, "889885448RR0001": {"name": "LA FABRIQUE DE LA PAROISSE DE ST-ANTOINE-DE-PADOUE DE LOUISEVILLE", "designationCode": "C", "categoryCode": "38", "address": "50, AVENUE ST-LAURENT", "city": "LOUISEVILLE", "province": "QC", "country": "CA", "postalCode": "J5V1J4", "twitter": "None", "instagram": "None", "facebook": "None", "youtube": "None", "website": "None", "summary": "None", "logo": "None", "latitude": 46.25597147273307, "longitude": -72.94136615765474}, "107365371RR0001": {"name": "LA FABRIQUE DE LA PAROISSE DE ST-APOLLINAIRE", "designationCode": "C", "categoryCode": "38", "address": "98 RUE PRINCIPALE", "city": "ST-APOLLINAIRE", "province": "QC", "country": "CA", "postalCode": "G0S2E0", "twitter": "None", "instagram": "None", "facebook": "None", "youtube": "None", "website": "None", "summary": "None", "logo": "None", "latitude": 46.61546014158324, "longitude": -71.50948328590778}, "118994656RR0001": {"name": "LA FABRIQUE DE LA PAROISSE DE ST-AUGUSTIN", "designationCode": "C", "categoryCode": "38", "address": "325, ROUTE 138", "city": "ST-AUGUSTIN-DE-DESMAURES", "province": "QC", "country": "CA", "postalCode": "G3A1G7", "twitter": "None", "instagram": "None", "facebook": "None", "youtube": "None", "website": "None", "summary": "None", "logo": "None", "latitude": 46.7433899688994, "longitude": -71.45860838218049}, "107365470RR0001": {"name": "LA FABRIQUE DE LA PAROISSE DE ST-BASILE", "designationCode": "C", "categoryCode": "38", "address": "317 BOUL. DU CENTENAIRE #1", "city": "SAINT-BASILE", "province": "QC", "country": "CA", "postalCode": "G0A3G0", "twitter": "None", "instagram": "None", "facebook": "None", "youtube": "None", "website": "None", "summary": "None", "logo": "None", "latitude": 46.75567960087149, "longitude": -71.82376102847807}, "107365595RR0001": {"name": "LA FABRIQUE DE LA PAROISSE DE ST-BONIFACE-DE-SHAWINIGAN", "designationCode": "C", "categoryCode": "38", "address": "110 PRINCIPALE", "city": "ST BONIFACE", "province": "QC", "country": "CA", "postalCode": "G0X2L0", "twitter": "None", "instagram": "None", "facebook": "None", "youtube": "None", "website": "None", "summary": "None", "logo": "None", "latitude": 46.50464084765405, "longitude": -72.82837539976369}, "118994805RR0001": {"name": "LA FABRIQUE DE LA PAROISSE DE ST-CAJETAN", "designationCode": "C", "categoryCode": "38", "address": "324 PRINCIPALE                C.P. 442", "city": "MANSONVILLE", "province": "QC", "country": "CA", "postalCode": "J0E1X0", "twitter": "None", "instagram": "None", "facebook": "None", "youtube": "None", "website": "None", "summary": "None", "logo": "None", "latitude": 45.05343031669445, "longitude": -72.39266888392332}, "118994896RR0001": {"name": "LA FABRIQUE DE LA PAROISSE DE ST-CHARLES", "designationCode": "C", "categoryCode": "38", "address": "2815A AV ROYALE", "city": "SAINT-CHARLES-DE-BELLECHASSE", "province": "QC", "country": "CA", "postalCode": "G0R2T0", "twitter": "None", "instagram": "None", "facebook": "None", "youtube": "None", "website": "None", "summary": "None", "logo": "None", "latitude": 46.771800964156355, "longitude": -70.94139291596503}, "118994912RR0001": {"name": "LA FABRIQUE DE LA PAROISSE DE ST-CHARLES GARNIER", "designationCode": "C", "categoryCode": "38", "address": "1215 AV DU CHANOINE-MOREL", "city": "SILLERY", "province": "QC", "country": "CA", "postalCode": "G1S4B1", "twitter": "None", "instagram": "None", "facebook": "None", "youtube": "None", "website": "None", "summary": "None", "logo": "None", "latitude": 46.78630339520472, "longitude": -71.25028264617087}, "118994946RR0001": {"name": "LA FABRIQUE DE LA PAROISSE DE ST-CHARLES-BORROMEE", "designationCode": "C", "categoryCode": "38", "address": "330, RUE PAPINEAU", "city": "JOLIETTE", "province": "QC", "country": "CA", "postalCode": "J6E2K7", "twitter": "None", "instagram": "None", "facebook": "None", "youtube": "None", "website": "None", "summary": "None", "logo": "None", "latitude": 46.03291482601395, "longitude": -73.44692791095817}, "107360109RR0001": {"name": "LA FABRIQUE DE LA PAROISSE DE ST-CHARLES-DE-CAPLAN", "designationCode": "C", "categoryCode": "38", "address": "CP 9 CAPLAN", "city": "CAPLAN", "province": "QC", "country": "CA", "postalCode": "G0C1H0", "twitter": "None", "instagram": "None", "facebook": "None", "youtube": "None", "website": "None", "summary": "None", "logo": "None", "latitude": 48.10116000000005, "longitude": -65.67923999999994}, "118910173RR0001": {"name": "LA FABRIQUE DE LA PAROISSE DE ST-COEUR DE MARIE", "designationCode": "C", "categoryCode": "38", "address": "C.P. 99", "city": "CLARKE CITY", "province": "QC", "country": "CA", "postalCode": "G0G1H0", "twitter": "None", "instagram": "None", "facebook": "None", "youtube": "None", "website": "None", "summary": "None", "logo": "None", "latitude": 50.15149800000006, "longitude": -66.59115649999994}, "107363111RR0001": {"name": "LA FABRIQUE DE LA PAROISSE DE ST-CUTHBERT", "designationCode": "C", "categoryCode": "38", "address": "1991 RUE PRINCIPALE", "city": "ST CUTHBERT CO BERTHIER", "province": "QC", "country": "CA", "postalCode": "J0K2C0", "twitter": "None", "instagram": "None", "facebook": "None", "youtube": "None", "website": "None", "summary": "None", "logo": "None", "latitude": 46.14929377506133, "longitude": -73.22191277009475}, "118995034RR0001": {"name": "LA FABRIQUE DE LA PAROISSE DE ST-CYRILLE", "designationCode": "C", "categoryCode": "38", "address": "1069 ST-CYRILLE", "city": "NORMANDIN", "province": "QC", "country": "CA", "postalCode": "G8M4J3", "twitter": "None", "instagram": "None", "facebook": "None", "youtube": "None", "website": "None", "summary": "None", "logo": "None", "latitude": 48.83611400169479, "longitude": -72.52823903344633}, "107365942RR0001": {"name": "LA FABRIQUE DE LA PAROISSE DE ST-DAMIEN", "designationCode": "C", "categoryCode": "38", "address": "182 RUE COMMERCIALE", "city": "ST-DAMIEN", "province": "QC", "country": "CA", "postalCode": "G0R2Y0", "twitter": "None", "instagram": "None", "facebook": "None", "youtube": "None", "website": "None", "summary": "None", "logo": "None", "latitude": 46.69392174686947, "longitude": -71.06922981600196}, "107360810RR0001": {"name": "LA FABRIQUE DE LA PAROISSE DE ST-EDMOND-DE-VAL-ALAIN", "designationCode": "C", "categoryCode": "38", "address": "3330 RUE BECANCOUR", "city": "LYSTER", "province": "QC", "country": "CA", "postalCode": "G0S1V0", "twitter": "None", "instagram": "None", "facebook": "None", "youtube": "None", "website": "None", "summary": "None", "logo": "None", "latitude": 46.373089531162044, "longitude": -71.58725796321204}, "107360174RR0001": {"name": "LA FABRIQUE DE LA PAROISSE DE ST-EDOUARD", "designationCode": "C", "categoryCode": "38", "address": "3860 NOTRE-DAME", "city": "ST-EDOUARD", "province": "QC", "country": "CA", "postalCode": "J0K2H0", "twitter": "None", "instagram": "None", "facebook": "None", "youtube": "None", "website": "None", "summary": "None", "logo": "None", "latitude": 46.32860285876254, "longitude": -73.147418053061}, "118995380RR0001": {"name": "LA FABRIQUE DE LA PAROISSE DE ST-EDOUARD", "designationCode": "C", "categoryCode": "38", "address": "366 CH KNOWLTON", "city": "KNOWLTON", "province": "QC", "country": "CA", "postalCode": "J0E1V0", "twitter": "None", "instagram": "None", "facebook": "None", "youtube": "None", "website": "None", "summary": "None", "logo": "None", "latitude": 45.217201303941195, "longitude": -72.51754652524677}, "129831608RR0001": {"name": "LA FABRIQUE DE LA PAROISSE DE ST-FELIX-DE-CAP-ROUGE", "designationCode": "C", "categoryCode": "38", "address": "1460 RUE PROVANCHER", "city": "CAP-ROUGE", "province": "QC", "country": "CA", "postalCode": "G1Y1S1", "twitter": "None", "instagram": "None", "facebook": "None", "youtube": "None", "website": "None", "summary": "None", "logo": "None", "latitude": 46.74996542714524, "longitude": -71.34363467167742}, "118996107RR0001": {"name": "LA FABRIQUE DE LA PAROISSE DE ST-FRANCOIS-XAVIER DE BATISCAN", "designationCode": "C", "categoryCode": "38", "address": "CP 99 691 PRINCIPALE", "city": "BASTISCAN", "province": "QC", "country": "CA", "postalCode": "G0X1A0", "twitter": "None", "instagram": "None", "facebook": "None", "youtube": "None", "website": "None", "summary": "None", "logo": "None", "latitude": 46.4952368951178, "longitude": -72.2507305315938}, "107367914RR0001": {"name": "LA FABRIQUE DE LA PAROISSE DE ST-GABRIEL", "designationCode": "C", "categoryCode": "38", "address": "350 RUE PRINCIPALE", "city": "SAINT-GABRIEL-DE-RIMOUSKI", "province": "QC", "country": "CA", "postalCode": "G0K1M0", "twitter": "None", "instagram": "None", "facebook": "None", "youtube": "None", "website": "None", "summary": "None", "logo": "None", "latitude": 48.42227184375891, "longitude": -68.17442113200394}, "118996305RR0001": {"name": "LA FABRIQUE DE LA PAROISSE DE ST-GERVAIS", "designationCode": "C", "categoryCode": "38", "address": "225 PRINCIPALE", "city": "ST-GERVAIS", "province": "QC", "country": "CA", "postalCode": "G0R3C0", "twitter": "None", "instagram": "None", "facebook": "None", "youtube": "None", "website": "None", "summary": "None", "logo": "None", "latitude": 46.714156741618005, "longitude": -70.88796309781307}, "118996321RR0001": {"name": "LA FABRIQUE DE LA PAROISSE DE ST-GILLES", "designationCode": "C", "categoryCode": "38", "address": "1730 RUE PRINCIPALE", "city": "ST GILLES", "province": "QC", "country": "CA", "postalCode": "G0S2P0", "twitter": "None", "instagram": "None", "facebook": "None", "youtube": "None", "website": "None", "summary": "None", "logo": "None", "latitude": 46.50824063484913, "longitude": -71.36256266784243}, "107363715RR0001": {"name": "LA FABRIQUE DE LA PAROISSE DE ST-GODEFROI", "designationCode": "C", "categoryCode": "38", "address": "98, ROUTE 132                 C.P. 160", "city": "SAINT-GODEFROI", "province": "QC", "country": "CA", "postalCode": "G0C3C0", "twitter": "None", "instagram": "None", "facebook": "None", "youtube": "None", "website": "None", "summary": "None", "logo": "None", "latitude": 48.07720070390131, "longitude": -65.11130772536903}, "118996404RR0001": {"name": "LA FABRIQUE DE LA PAROISSE DE ST-HERMAS", "designationCode": "C", "categoryCode": "38", "address": "4291, RUE LALANDE", "city": "MIRABEL", "province": "QC", "country": "CA", "postalCode": "J7N2Z4", "twitter": "None", "instagram": "None", "facebook": "None", "youtube": "None", "website": "None", "summary": "None", "logo": "None", "latitude": 45.60335304767233, "longitude": -74.19273417159205}, "107363764RR0001": {"name": "LA FABRIQUE DE LA PAROISSE DE ST-IGNALE-DE-LOYOLA", "designationCode": "C", "categoryCode": "38", "address": "199 CHEMIN DE LA TRAVERSE", "city": "ST-IGNACE DE LOYOLA", "province": "QC", "country": "CA", "postalCode": "J0K2P0", "twitter": "None", "instagram": "None", "facebook": "None", "youtube": "None", "website": "None", "summary": "None", "logo": "None", "latitude": 46.06739939272323, "longitude": -73.12971408592516}, "118996693RR0001": {"name": "LA FABRIQUE DE LA PAROISSE DE ST-JEAN BAPTISTE", "designationCode": "C", "categoryCode": "38", "address": "280, RUE DU CONSEIL", "city": "SHERBROOKE", "province": "QC", "country": "CA", "postalCode": "J1G1J4", "twitter": "None", "instagram": "None", "facebook": "None", "youtube": "None", "website": "None", "summary": "None", "logo": "None", "latitude": 45.40330861166286, "longitude": -71.88016034373024}, "107368441RR0001": {"name": "LA FABRIQUE DE LA PAROISSE DE ST-JEAN-BAPTISTE-DE-L'ANSE-ST-JEAN", "designationCode": "C", "categoryCode": "38", "address": "261 RUE SAINT-JEAN-BAPTISTE", "city": "L'ANSE-SAINT-JEAN", "province": "QC", "country": "CA", "postalCode": "G0V1J0", "twitter": "None", "instagram": "None", "facebook": "None", "youtube": "None", "website": "None", "summary": "None", "logo": "None", "latitude": 48.23248904276058, "longitude": -70.20599571123535}, "107368730RR0001": {"name": "LA FABRIQUE DE LA PAROISSE DE ST-JEAN-L'EVANGELISTE", "designationCode": "C", "categoryCode": "38", "address": "139, RUE LEMIEUX", "city": "B\u00c9GIN", "province": "QC", "country": "CA", "postalCode": "G0V1B0", "twitter": "None", "instagram": "None", "facebook": "None", "youtube": "None", "website": "None", "summary": "None", "logo": "None", "latitude": 48.67646079488151, "longitude": -71.3597878230711}, "107587206RR0001": {"name": "LA FABRIQUE DE LA PAROISSE DE ST-JEAN-VIANNEY", "designationCode": "C", "categoryCode": "38", "address": "4872, RUE LAVAL", "city": "LAC-MEGANTIC", "province": "QC", "country": "CA", "postalCode": "G6B1E1", "twitter": "None", "instagram": "None", "facebook": "None", "youtube": "None", "website": "None", "summary": "None", "logo": "None", "latitude": 45.5786605406831, "longitude": -70.88669997706185}, "107360521RR0001": {"name": "LA FABRIQUE DE LA PAROISSE DE ST-JOGUES", "designationCode": "C", "categoryCode": "38", "address": "66, RANG 9", "city": "ST-JOGUES", "province": "QC", "country": "CA", "postalCode": "G0C2Y0", "twitter": "None", "instagram": "None", "facebook": "None", "youtube": "None", "website": "None", "summary": "None", "logo": "None", "latitude": 48.198765556311734, "longitude": -65.19178444809798}, "130069859RR0001": {"name": "LA FABRIQUE DE LA PAROISSE DE ST-LAMBERT", "designationCode": "C", "categoryCode": "38", "address": "1255 DES \u00c9RABLES", "city": "SAINT-LAMBERT", "province": "QC", "country": "CA", "postalCode": "G0S2W0", "twitter": "None", "instagram": "None", "facebook": "None", "youtube": "None", "website": "None", "summary": "None", "logo": "None", "latitude": 46.5871836556349, "longitude": -71.21157772046095}, "118996909RR0001": {"name": "LA FABRIQUE DE LA PAROISSE DE ST-LAZARE", "designationCode": "C", "categoryCode": "38", "address": "D-116 RUE DE LA FABRIQUE", "city": "ST-LAZARRE", "province": "QC", "country": "CA", "postalCode": "G0R3J0", "twitter": "None", "instagram": "None", "facebook": "None", "youtube": "None", "website": "None", "summary": "None", "logo": "None", "latitude": 46.65659100000006, "longitude": -70.79894899999994}}