{"138905807RR0001": {"name": "FULL GOSPEL ASSEMBLY VANCOUVER", "designationCode": "C", "categoryCode": "39", "address": "11555 196B ST", "city": "PITT MEADOWS", "province": "BC", "country": "CA", "postalCode": "V3Y1P2", "twitter": "None", "instagram": "None", "facebook": "None", "youtube": "None", "website": "None", "summary": "None", "logo": "None", "latitude": 49.21252174854291, "longitude": -122.67599258883936}, "107409252RR0001": {"name": "FULL GOSPEL BUSINESS MEN'S FELLOWSHIP IN CANADA (1977)", "designationCode": "C", "categoryCode": "49", "address": "PO BOX 797", "city": "ST PAUL", "province": "AB", "country": "CA", "postalCode": "T0A3A0", "twitter": "None", "instagram": "None", "facebook": "None", "youtube": "None", "website": "None", "summary": "None", "logo": "None", "latitude": 53.99207006217902, "longitude": -111.26834992613558}, "118933738RR0001": {"name": "FULL GOSPEL CENTRE (INTERDENOMINATIONAL FELLOWSHIP)", "designationCode": "C", "categoryCode": "39", "address": "PO BOX 190", "city": "DURRELL", "province": "NL", "country": "CA", "postalCode": "A0G1Y0", "twitter": "None", "instagram": "None", "facebook": "None", "youtube": "None", "website": "None", "summary": "None", "logo": "None", "latitude": 49.66283000000004, "longitude": -54.73502999999994}, "135773877RR0001": {"name": "FULL GOSPEL CHRISTIAN ASSEMBLY (TWO HILLS)", "designationCode": "C", "categoryCode": "39", "address": "BOX 851", "city": "TWO HILLS", "province": "AB", "country": "CA", "postalCode": "T0B4K0", "twitter": "None", "instagram": "None", "facebook": "None", "youtube": "None", "website": "None", "summary": "None", "logo": "None"}, "873296917RR0001": {"name": "FULL GOSPEL CHRISTIAN MINISTRIES", "designationCode": "C", "categoryCode": "39", "address": "2721 KENDAL AVENUE", "city": "CUMBERLAND", "province": "BC", "country": "CA", "postalCode": "V0R1S0", "twitter": "None", "instagram": "None", "facebook": "None", "youtube": "None", "website": "None", "summary": "None", "logo": "None", "latitude": 49.62470845121433, "longitude": -125.0306517452894}, "107409419RR0001": {"name": "FULL GOSPEL CHURCH", "designationCode": "C", "categoryCode": "36", "address": "72 4TH AVE N E", "city": "SWIFT CURRENT", "province": "SK", "country": "CA", "postalCode": "S9H2H9", "twitter": "None", "instagram": "None", "facebook": "None", "youtube": "None", "website": "None", "summary": "None", "logo": "None", "latitude": 50.28313149436462, "longitude": -107.7945660572926}, "118933829RR0001": {"name": "FULL GOSPEL CHURCH", "designationCode": "C", "categoryCode": "36", "address": "BOX 298", "city": "CARLYE", "province": "SK", "country": "CA", "postalCode": "S0C0R0", "twitter": "None", "instagram": "None", "facebook": "None", "youtube": "None", "website": "None", "summary": "None", "logo": "None", "latitude": 49.628016, "longitude": -102.26315694795335}, "118788355RR0001": {"name": "FULL GOSPEL CHURCH OF PORT MCNEILL", "designationCode": "C", "categoryCode": "39", "address": "BOX 377", "city": "PORT MCNEILL", "province": "BC", "country": "CA", "postalCode": "V0N2R0", "twitter": "None", "instagram": "None", "facebook": "None", "youtube": "None", "website": "None", "summary": "None", "logo": "None", "latitude": 50.58438000000007, "longitude": -127.08205999999996}, "138051263RR0001": {"name": "FULL GOSPEL CHURCH,", "designationCode": "C", "categoryCode": "39", "address": "2256 LARRY UTECK BLVD", "city": "BEDFORD", "province": "NS", "country": "CA", "postalCode": "B4B1E3", "twitter": "None", "instagram": "None", "facebook": "None", "youtube": "None", "website": "None", "summary": "None", "logo": "None", "latitude": 44.72165150753141, "longitude": -63.728841613248456}, "871482741RR0001": {"name": "FULL GOSPEL COUNTRY CHURCH", "designationCode": "C", "categoryCode": "36", "address": "23431 ROUTE 134", "city": "NASHCREEK", "province": "NB", "country": "CA", "postalCode": "E8G1C2", "twitter": "None", "instagram": "None", "facebook": "None", "youtube": "None", "website": "None", "summary": "None", "logo": "None", "latitude": 47.92589266311447, "longitude": -66.08953473662979}, "107409526RR0001": {"name": "FULL GOSPEL INDIAN BIBLE SCHOOL", "designationCode": "C", "categoryCode": "20", "address": "BOX 205", "city": "FORT QU'APPELLE", "province": "SK", "country": "CA", "postalCode": "S0G1S0", "twitter": "None", "instagram": "None", "facebook": "None", "youtube": "None", "website": "None", "summary": "None", "logo": "None", "latitude": 50.76964000000004, "longitude": -103.79339999999996}, "118934033RR0001": {"name": "FULL GOSPEL MISSION", "designationCode": "C", "categoryCode": "36", "address": "212 MAIN STREET N             P O BOX 393", "city": "GILBERT PLAINS", "province": "MB", "country": "CA", "postalCode": "R0L0X0", "twitter": "None", "instagram": "None", "facebook": "None", "youtube": "None", "website": "None", "summary": "None", "logo": "None", "latitude": 51.230545526551396, "longitude": -101.34814691782816}, "871496741RR0001": {"name": "FULL GOSPEL MISSION CHURCH", "designationCode": "C", "categoryCode": "39", "address": "790 ARROW RD", "city": "NORTH YORK", "province": "ON", "country": "CA", "postalCode": "M9M2Y5", "twitter": "None", "instagram": "None", "facebook": "None", "youtube": "None", "website": "None", "summary": "None", "logo": "None", "latitude": 43.748226085463806, "longitude": -79.53120879825703}, "899982300RR0001": {"name": "FULL GOSPEL MISSION CHURCH OF NORTH CALGARY", "designationCode": "C", "categoryCode": "39", "address": "334 - 4303 1 ST NE", "city": "CALGARY", "province": "AB", "country": "CA", "postalCode": "T2E7M3", "twitter": "None", "instagram": "None", "facebook": "None", "youtube": "None", "website": "None", "summary": "None", "logo": "None", "latitude": 51.090590576201656, "longitude": -114.05983516250217}, "889523791RR0001": {"name": "FULL GOSPEL OPENDOOR ASSEMBLY INC.", "designationCode": "C", "categoryCode": "39", "address": "2425 CLEMENCEAU BLVD.", "city": "WINDSOR", "province": "ON", "country": "CA", "postalCode": "N8T2P4", "twitter": "None", "instagram": "None", "facebook": "None", "youtube": "None", "website": "None", "summary": "None", "logo": "None", "latitude": 42.30936038827982, "longitude": -82.95413079672782}, "118934066RR0001": {"name": "FULL GOSPEL PRAYER GROUP", "designationCode": "C", "categoryCode": "36", "address": "156 ST VINCENT STREET", "city": "BARRIE", "province": "ON", "country": "CA", "postalCode": "L4M3Z1", "twitter": "None", "instagram": "None", "facebook": "None", "youtube": "None", "website": "None", "summary": "None", "logo": "None", "latitude": 44.39935553843275, "longitude": -79.67855753831716}, "140171117RR0001": {"name": "FULL GOSPEL REDEMPTION CENTRE", "designationCode": "C", "categoryCode": "39", "address": "247 CARRIER DR UNIT 1", "city": "ETOBICOKE", "province": "ON", "country": "CA", "postalCode": "M9W5Y9", "twitter": "None", "instagram": "None", "facebook": "None", "youtube": "None", "website": "None", "summary": "None", "logo": "None", "latitude": 43.75042897313713, "longitude": -79.61592076397923}, "877650622RR0001": {"name": "FULL GOSPEL TABERNACLE", "designationCode": "C", "categoryCode": "36", "address": "BOX 464", "city": "ANNAPOLIS ROYAL", "province": "NS", "country": "CA", "postalCode": "B0S1K0", "twitter": "None", "instagram": "None", "facebook": "None", "youtube": "None", "website": "None", "summary": "None", "logo": "None", "latitude": 44.74294007660574, "longitude": -65.518980048906}, "845865229RR0001": {"name": "FULL GOSPEL TEMPLE WIARTON", "designationCode": "C", "categoryCode": "36", "address": "BOX 351", "city": "WIARTON", "province": "ON", "country": "CA", "postalCode": "N0H2T0", "twitter": "None", "instagram": "None", "facebook": "None", "youtube": "None", "website": "None", "summary": "None", "logo": "None", "latitude": 44.74013000000008, "longitude": -81.13977999999997}, "135837714RR0001": {"name": "FULL GOSPEL VICTORY FAITH WORLD OUTREACH OF HAMILTON, INC.", "designationCode": "C", "categoryCode": "39", "address": "10-83 BIGWIN ROAD", "city": "HAMILTON", "province": "ON", "country": "CA", "postalCode": "L8W3R3", "twitter": "None", "instagram": "None", "facebook": "None", "youtube": "None", "website": "None", "summary": "None", "logo": "None", "latitude": 43.19285512908977, "longitude": -79.82059474963941}, "889826012RR0001": {"name": "FULL GOSPEL YOUNG SUNG CHURCH", "designationCode": "C", "categoryCode": "39", "address": "1 - 1 WESTSIDE DR", "city": "ETOBICOKE", "province": "ON", "country": "CA", "postalCode": "M9C1B2", "twitter": "None", "instagram": "None", "facebook": "None", "youtube": "None", "website": "None", "summary": "None", "logo": "None", "latitude": 43.618518398551615, "longitude": -79.56349634811632}, "894508282RR0001": {"name": "FULL TRUTH CHURCH OF GOD DELIVERANCE CENTRE", "designationCode": "C", "categoryCode": "39", "address": "1117 WINDSOR HILL BOUL", "city": "MISSISSAUGA", "province": "ON", "country": "CA", "postalCode": "L5V1P5", "twitter": "None", "instagram": "None", "facebook": "None", "youtube": "None", "website": "None", "summary": "None", "logo": "None", "latitude": 43.59123260811351, "longitude": -79.68490153762467}, "132329095RR0001": {"name": "FULTON AFTER SCHOOL ASSOCIATION", "designationCode": "C", "categoryCode": "20", "address": "10310 56 ST NW", "city": "EDMONTON", "province": "AB", "country": "CA", "postalCode": "T6A2J2", "twitter": "None", "instagram": "None", "facebook": "None", "youtube": "None", "website": "None", "summary": "None", "logo": "None", "latitude": 53.545087290581, "longitude": -113.42315124348593}, "132329103RR0001": {"name": "FULTON CHILD CARE ASSOCIATION", "designationCode": "C", "categoryCode": "01", "address": "10310 56 ST NW", "city": "EDMONTON", "province": "AB", "country": "CA", "postalCode": "T6A2J2", "twitter": "None", "instagram": "None", "facebook": "None", "youtube": "None", "website": "None", "summary": "None", "logo": "None", "latitude": 53.545087290581, "longitude": -113.42315124348593}, "118934207RR0001": {"name": "FULTON PRESBYTERIAN CHURCH", "designationCode": "C", "categoryCode": "37", "address": "RR 1, WEST BAY RD.", "city": "INV CO", "province": "NS", "country": "CA", "postalCode": "B0E3L0", "twitter": "None", "instagram": "None", "facebook": "None", "youtube": "None", "website": "None", "summary": "None", "logo": "None", "latitude": 45.70102471278036, "longitude": -61.142575710672865}, "118934215RR0001": {"name": "FULTZ CORNER RESTORATION SOCIETY", "designationCode": "C", "categoryCode": "52", "address": "PO BOX 124", "city": "LOWER SACKVILLE", "province": "NS", "country": "CA", "postalCode": "B4C2S8", "twitter": "None", "instagram": "None", "facebook": "None", "youtube": "None", "website": "None", "summary": "None", "logo": "None", "latitude": 44.76871500000006, "longitude": -63.65960449999993}, "894639483RR0001": {"name": "FUN SCHOOL", "designationCode": "C", "categoryCode": "01", "address": "44 PORT STREET WEST", "city": "MISSISSAUGA", "province": "ON", "country": "CA", "postalCode": "L5H1C9", "twitter": "None", "instagram": "None", "facebook": "None", "youtube": "None", "website": "None", "summary": "None", "logo": "None", "latitude": 43.54843512490615, "longitude": -79.58729443132883}, "896430949RR0001": {"name": "FUN WITH BOOKS ASSOCIATION", "designationCode": "C", "categoryCode": "21", "address": "BOX 523", "city": "BROCKVILLE", "province": "ON", "country": "CA", "postalCode": "K6V5V7", "twitter": "None", "instagram": "None", "facebook": "None", "youtube": "None", "website": "None", "summary": "None", "logo": "None", "latitude": 44.59037100000006, "longitude": -75.68301049999994}, "873066906RR0001": {"name": "FUND FOR THE ARTS ON THE NORTH SHORE", "designationCode": "C", "categoryCode": "22", "address": "851 QUEENS RD W", "city": "NORTH VANCOUVER", "province": "BC", "country": "CA", "postalCode": "V7N4E3", "twitter": "None", "instagram": "None", "facebook": "None", "youtube": "None", "website": "None", "summary": "None", "logo": "None", "latitude": 49.33657452178432, "longitude": -123.09391294463038}, "118934223RR0001": {"name": "FUNDAMENTAL BAPTIST CHURCH", "designationCode": "C", "categoryCode": "31", "address": "P.O.BOX 431", "city": "CHIPMAN", "province": "NB", "country": "CA", "postalCode": "E4A3N4", "twitter": "None", "instagram": "None", "facebook": "None", "youtube": "None", "website": "None", "summary": "None", "logo": "None", "latitude": 46.176486000000054, "longitude": -65.87987299999993}, "108050162RR0001": {"name": "FUNDAMENTAL BAPTIST CHURCH OF SUMMERSIDE", "designationCode": "C", "categoryCode": "39", "address": "200 MACEWEN RD", "city": "SUMMERSIDE", "province": "PE", "country": "CA", "postalCode": "C1N2P6", "twitter": "None", "instagram": "None", "facebook": "None", "youtube": "None", "website": "None", "summary": "None", "logo": "None", "latitude": 46.39454471940101, "longitude": -63.772805561342224}, "818511875RR0001": {"name": "FUNDAMENTAL BAPTIST MISSIONS INTERNATIONAL - CANADA", "designationCode": "C", "categoryCode": "47", "address": "PO BOX 38144 COUNTRY HILLS", "city": "CALGARY", "province": "AB", "country": "CA", "postalCode": "T3K5G9", "twitter": "None", "instagram": "None", "facebook": "None", "youtube": "None", "website": "None", "summary": "None", "logo": "None", "latitude": 51.15431904267703, "longitude": -114.01756643016488}, "134909613RR0001": {"name": "FUNDAMENTAL BIBLE CHURCH", "designationCode": "C", "categoryCode": "39", "address": "P.O. BOX 32", "city": "PUGWASH", "province": "NS", "country": "CA", "postalCode": "B0K1L0", "twitter": "None", "instagram": "None", "facebook": "None", "youtube": "None", "website": "None", "summary": "None", "logo": "None", "latitude": 45.80128373751312, "longitude": -63.63643739508734}, "860216506RR0001": {"name": "FUNDS FOR FURRY FRIENDS", "designationCode": "C", "categoryCode": "54", "address": "SUITE 208 740 ROSSER AVE", "city": "BRANDON", "province": "MB", "country": "CA", "postalCode": "R7A0K9", "twitter": "None", "instagram": "None", "facebook": "None", "youtube": "None", "website": "None", "summary": "None", "logo": "None", "latitude": 49.848362997507984, "longitude": -99.94789413394267}, "887555662RR0001": {"name": "FUNDUS FOUNDATION CANADA IN ONTARIO", "designationCode": "B", "categoryCode": "23", "address": "35 MONTGOMERY ROAD", "city": "ETOBICOKE", "province": "ON", "country": "CA", "postalCode": "M8X1Z7", "twitter": "None", "instagram": "None", "facebook": "None", "youtube": "None", "website": "None", "summary": "None", "logo": "None", "latitude": 43.648774605343554, "longitude": -79.51833773867516}, "828805036RR0001": {"name": "FUNDY BAY SENIOR CITIZENS CLUB INC.", "designationCode": "C", "categoryCode": "09", "address": "381 MACES BAY ROAD", "city": "MACES BAY-CHAR COUNTY", "province": "NB", "country": "CA", "postalCode": "E5J1T1", "twitter": "None", "instagram": "None", "facebook": "None", "youtube": "None", "website": "None", "summary": "None", "logo": "None", "latitude": 45.10012703220032, "longitude": -66.47481527930094}, "891410797RR0001": {"name": "FUNDY CAMP SOCIETY", "designationCode": "C", "categoryCode": "47", "address": "RR#2", "city": "MAHONE BAY", "province": "NS", "country": "CA", "postalCode": "B0J2E0", "twitter": "None", "instagram": "None", "facebook": "None", "youtube": "None", "website": "None", "summary": "None", "logo": "None", "latitude": 44.5107664683721, "longitude": -64.5603343504879}, "893162438RR0001": {"name": "FUNDY COMMUNITY FOUNDATION", "designationCode": "A", "categoryCode": "03", "address": "P.O. BOX 3902", "city": "ST ANDREWS", "province": "NB", "country": "CA", "postalCode": "E5B3S7", "twitter": "None", "instagram": "None", "facebook": "None", "youtube": "None", "website": "None", "summary": "None", "logo": "None", "latitude": 45.07792800000006, "longitude": -67.05383299999993}, "118934314RR0001": {"name": "FUNDY GUILD INC./GUILDE DE FUNDY INC.", "designationCode": "C", "categoryCode": "59", "address": "8642 UNIT 2 ROUTE 114", "city": "FUNDY NATIONAL PARK", "province": "NB", "country": "CA", "postalCode": "E4H4V2", "twitter": "None", "instagram": "None", "facebook": "None", "youtube": "None", "website": "None", "summary": "None", "logo": "None", "latitude": 45.59533000000005, "longitude": -64.95097999999996}, "888734860RR0001": {"name": "FUNDY INTERCHURCH FOOD BANK", "designationCode": "C", "categoryCode": "09", "address": "PO BOX 933 STN MAIN", "city": "KENTVILLE", "province": "NS", "country": "CA", "postalCode": "B4N4H8", "twitter": "None", "instagram": "None", "facebook": "None", "youtube": "None", "website": "None", "summary": "None", "logo": "None", "latitude": 45.075664563871186, "longitude": -64.48999821967875}, "811506146RR0001": {"name": "FUNDY PEACE FOUNDATION INC.", "designationCode": "C", "categoryCode": "09", "address": "112 KENDRA ST", "city": "MONCTON", "province": "NB", "country": "CA", "postalCode": "E1C8Y1", "twitter": "None", "instagram": "None", "facebook": "None", "youtube": "None", "website": "None", "summary": "None", "logo": "None", "latitude": 46.110403866207044, "longitude": -64.81267763806348}, "107409849RR0001": {"name": "FUNDY RESIDENCES INC.", "designationCode": "C", "categoryCode": "09", "address": "286 MAIN STREET", "city": "HAMPTON", "province": "NB", "country": "CA", "postalCode": "E5N6B9", "twitter": "None", "instagram": "None", "facebook": "None", "youtube": "None", "website": "None", "summary": "None", "logo": "None", "latitude": 45.51247239768623, "longitude": -65.83927797325362}, "788974129RR0001": {"name": "FUNDY SEASIDE BAPTIST CHURCH INC.", "designationCode": "C", "categoryCode": "31", "address": "30 LONG BEACH LANE", "city": "DIPPER HARBOUR", "province": "NB", "country": "CA", "postalCode": "E5J1X6", "twitter": "None", "instagram": "None", "facebook": "None", "youtube": "None", "website": "None", "summary": "None", "logo": "None", "latitude": 45.08376458298324, "longitude": -66.42100502042518}, "130057656RR0001": {"name": "FUNDY TRAIL DEVELOPMENT AUTHORITY INC", "designationCode": "C", "categoryCode": "52", "address": "229 MAIN STREET", "city": "ST. MARTINS", "province": "NB", "country": "CA", "postalCode": "E5R1B7", "twitter": "None", "instagram": "None", "facebook": "None", "youtube": "None", "website": "None", "summary": "None", "logo": "None", "latitude": 45.35316659732212, "longitude": -65.54088008107773}, "884352204RR0001": {"name": "FUNG AND DUEN AU-YEUNG FOUNDATION", "designationCode": "B", "categoryCode": "03", "address": "6869 CARNARVON STREET", "city": "VANCOUVER", "province": "BC", "country": "CA", "postalCode": "V6N4B7", "twitter": "None", "instagram": "None", "facebook": "None", "youtube": "None", "website": "None", "summary": "None", "logo": "None", "latitude": 49.22390689508915, "longitude": -123.17296395568063}, "118934371RR0001": {"name": "FUNG LOY KOK INSTITUTE OF TAOISM", "designationCode": "C", "categoryCode": "39", "address": "2930 CARLING AVENUE", "city": "OTTAWA", "province": "ON", "country": "CA", "postalCode": "K2B7J7", "twitter": "None", "instagram": "None", "facebook": "None", "youtube": "None", "website": "None", "summary": "None", "logo": "None", "latitude": 45.35616570910056, "longitude": -75.80240239575298}, "890633845RR0001": {"name": "FUNK FAMILY MINISTRIES SOCIETY", "designationCode": "C", "categoryCode": "47", "address": "4 PARKWOOD PLACE", "city": "STRATHMORE", "province": "AB", "country": "CA", "postalCode": "T1P1H5", "twitter": "None", "instagram": "None", "facebook": "None", "youtube": "None", "website": "None", "summary": "None", "logo": "None", "latitude": 51.04678041175821, "longitude": -113.38536298964614}, "825534563RR0001": {"name": "FUNNY FARM MINISTRIES", "designationCode": "C", "categoryCode": "49", "address": "46709 MAPLETON LINE           R.R. 7", "city": "AYLMER", "province": "ON", "country": "CA", "postalCode": "N5H2R6", "twitter": "None", "instagram": "None", "facebook": "None", "youtube": "None", "website": "None", "summary": "None", "logo": "None", "latitude": 42.82261180138123, "longitude": -81.06685841916243}, "107409880RR0001": {"name": "FUNSHINE EARLY LEARNING CENTRE INC.", "designationCode": "C", "categoryCode": "20", "address": "BOX 1989", "city": "VIRDEN", "province": "MB", "country": "CA", "postalCode": "R0M2C0", "twitter": "None", "instagram": "None", "facebook": "None", "youtube": "None", "website": "None", "summary": "None", "logo": "None", "latitude": 49.85688000000005, "longitude": -100.92262999999997}, "872531843RR0001": {"name": "FURNITURE BANK", "designationCode": "C", "categoryCode": "09", "address": "UNIT 1, 25 CONNELL COURT", "city": "TORONTO", "province": "ON", "country": "CA", "postalCode": "M8Z1E8", "twitter": "None", "instagram": "None", "facebook": "None", "youtube": "None", "website": "None", "summary": "None", "logo": "None", "latitude": 43.613777641670154, "longitude": -79.51893517361067}, "882610124RR0001": {"name": "FURRY FRIENDS ANIMAL SHELTER INC", "designationCode": "C", "categoryCode": "54", "address": "9 POOLES RD", "city": "MIDHURST", "province": "ON", "country": "CA", "postalCode": "L9X0P5", "twitter": "None", "instagram": "None", "facebook": "None", "youtube": "None", "website": "None", "summary": "None", "logo": "None", "latitude": 44.44608775157266, "longitude": -79.72002865664513}, "871035077RR0001": {"name": "FURTHERANCE MINISTRIES", "designationCode": "C", "categoryCode": "47", "address": "1813 ROUTE 103", "city": "WAKEFIELD", "province": "NB", "country": "CA", "postalCode": "E7M1B2", "twitter": "None", "instagram": "None", "facebook": "None", "youtube": "None", "website": "None", "summary": "None", "logo": "None", "latitude": 46.22628927997543, "longitude": -67.52100056181695}, "122093826RR0001": {"name": "FUSION: THE ONTARIO CLAY AND GLASS ASSOCIATION", "designationCode": "C", "categoryCode": "22", "address": "1444 QUEEN ST EAST", "city": "TORONTO", "province": "ON", "country": "CA", "postalCode": "M4L1E1", "twitter": "None", "instagram": "None", "facebook": "None", "youtube": "None", "website": "None", "summary": "None", "logo": "None", "latitude": 43.665001143516484, "longitude": -79.3226091154711}, "834334013RR0001": {"name": "FUTURE FOCUS FOUNDATION", "designationCode": "B", "categoryCode": "03", "address": "340 KING STREET EAST          SUITE 300", "city": "TORONTO", "province": "ON", "country": "CA", "postalCode": "M5A1K8", "twitter": "None", "instagram": "None", "facebook": "None", "youtube": "None", "website": "None", "summary": "None", "logo": "None", "latitude": 43.65305341938361, "longitude": -79.36271840634188}, "866910318RR0001": {"name": "FUTURE POSSIBILITIES (CANADA) INC.", "designationCode": "C", "categoryCode": "20", "address": "500-120 EGLINTON AVE E", "city": "TORONTO", "province": "ON", "country": "CA", "postalCode": "M4P1E2", "twitter": "None", "instagram": "None", "facebook": "None", "youtube": "None", "website": "None", "summary": "None", "logo": "None", "latitude": 43.7089009100495, "longitude": -79.38780176683875}, "890846744RR0001": {"name": "FUTURE VIEW TRAINING, REHABILITATION, AND EMPLOYMENT ASSOCIATION", "designationCode": "C", "categoryCode": "09", "address": "PO BOX 962", "city": "MIDDLETON", "province": "NS", "country": "CA", "postalCode": "B0S1P0", "twitter": "None", "instagram": "None", "facebook": "None", "youtube": "None", "website": "None", "summary": "None", "logo": "None", "latitude": 45.01449600000005, "longitude": -65.06449099999993}, "897977351RR0001": {"name": "FUTURE VISION MINISTRIES (CANADA)", "designationCode": "C", "categoryCode": "47", "address": "PO BOX 2 STN MAIN", "city": "SMITHS FALLS", "province": "ON", "country": "CA", "postalCode": "K7A4S9", "twitter": "None", "instagram": "None", "facebook": "None", "youtube": "None", "website": "None", "summary": "None", "logo": "None", "latitude": 44.899525461396415, "longitude": -76.02281680377996}, "893735464RR0001": {"name": "FUTURES FOR CHILDREN NONPROFIT CORPORATION", "designationCode": "C", "categoryCode": "09", "address": "31 NORTHAMPTON DR", "city": "ETOBICOKE", "province": "ON", "country": "CA", "postalCode": "M9B4S5", "twitter": "None", "instagram": "None", "facebook": "None", "youtube": "None", "website": "None", "summary": "None", "logo": "None", "latitude": 43.644408317242736, "longitude": -79.55160889575298}, "890403843RR0001": {"name": "FUTUREWATCH ENVIRONMENT AND DEVELOPMENT EDUCATION PARTNERS", "designationCode": "C", "categoryCode": "29", "address": "3101 DUNDAS ST W", "city": "TORONTO", "province": "ON", "country": "CA", "postalCode": "M6P1Z9", "twitter": "None", "instagram": "None", "facebook": "None", "youtube": "None", "website": "None", "summary": "None", "logo": "None", "latitude": 43.66548149956732, "longitude": -79.47291052553523}, "118866680RR0001": {"name": "FUTUREWORX SOCIETY", "designationCode": "C", "categoryCode": "59", "address": "305 - 14 COURT ST", "city": "TRURO", "province": "NS", "country": "CA", "postalCode": "B2N3H7", "twitter": "None", "instagram": "None", "facebook": "None", "youtube": "None", "website": "None", "summary": "None", "logo": "None", "latitude": 45.36648428449414, "longitude": -63.287221370361046}, "107497752RR0001": {"name": "FUTURISTIC INDUSTRIES INC.", "designationCode": "C", "categoryCode": "01", "address": "BOX 340", "city": "HUMBOLDT", "province": "SK", "country": "CA", "postalCode": "S0K2A0", "twitter": "None", "instagram": "None", "facebook": "None", "youtube": "None", "website": "None", "summary": "None", "logo": "None", "latitude": 51.7871843348964, "longitude": -104.71638483007007}, "880065701RR0001": {"name": "FUZHOU ASSOCIATION (COMMUNITY SERVICE) OF ALBERTA", "designationCode": "C", "categoryCode": "55", "address": "BOX 12002 MAIN PO", "city": "EDMONTON", "province": "AB", "country": "CA", "postalCode": "T5J3L2", "twitter": "None", "instagram": "None", "facebook": "None", "youtube": "None", "website": "None", "summary": "None", "logo": "None", "latitude": 53.54623500000005, "longitude": -113.49037249999994}, "107410060RR0001": {"name": "FUZZY BEAR'S INCORPORATED", "designationCode": "C", "categoryCode": "01", "address": "10 KNOWLTON DRIVE", "city": "BRANDON", "province": "MB", "country": "CA", "postalCode": "R7A6N7", "twitter": "None", "instagram": "None", "facebook": "None", "youtube": "None", "website": "None", "summary": "None", "logo": "None", "latitude": 49.86562866804209, "longitude": -99.94740411353692}, "890631351RR0001": {"name": "FUZZY PICKLES PLAYSCHOOL SOCIETY OF AIRDRIE", "designationCode": "C", "categoryCode": "20", "address": "1003 A ALLEN STREET", "city": "AIRDRIE", "province": "AB", "country": "CA", "postalCode": "T4B1B3", "twitter": "None", "instagram": "None", "facebook": "None", "youtube": "None", "website": "None", "summary": "None", "logo": "None", "latitude": 51.28463319403866, "longitude": -114.00610961483592}, "869610840RR0001": {"name": "FWC CHURCH INC.", "designationCode": "C", "categoryCode": "39", "address": "17 OLD SCHOOL HOUSE LANE", "city": "FLORENCEVILLE-BRISTOL", "province": "NB", "country": "CA", "postalCode": "E7L4V3", "twitter": "None", "instagram": "None", "facebook": "None", "youtube": "None", "website": "None", "summary": "None", "logo": "None", "latitude": 46.43969661641983, "longitude": -67.62704569697807}, "107421588RR0001": {"name": "G & B HOUSE", "designationCode": "C", "categoryCode": "57", "address": "509 NINTH AVE EAST", "city": "OWEN SOUND", "province": "ON", "country": "CA", "postalCode": "N4K3E2", "twitter": "None", "instagram": "None", "facebook": "None", "youtube": "None", "website": "None", "summary": "None", "logo": "None", "latitude": 44.55951561345096, "longitude": -80.9260163233309}, "875436701RR0001": {"name": "G & I Shining Stars Youth Society", "designationCode": "C", "categoryCode": "21", "address": "465 KAMLOOPS ST", "city": "VANCOUVER", "province": "BC", "country": "CA", "postalCode": "V5K3V2", "twitter": "None", "instagram": "None", "facebook": "None", "youtube": "None", "website": "None", "summary": "None", "logo": "None", "latitude": 49.280508, "longitude": -123.0545731510183}, "822274494RR0001": {"name": "G & M Masters Foundation", "designationCode": "A", "categoryCode": "03", "address": "401A - 9426 51 AVE NW", "city": "EDMONTON", "province": "AB", "country": "CA", "postalCode": "T6E5A6", "twitter": "None", "instagram": "None", "facebook": "None", "youtube": "None", "website": "None", "summary": "None", "logo": "None", "latitude": 53.48819648831365, "longitude": -113.47406099999999}, "131201568RR0001": {"name": "G A P I GROUPE D'AIDE AUX PERSONNES IMPULSIVES (AYANT DES COMPORTEMENTS VIOLENTS)", "designationCode": "C", "categoryCode": "57", "address": "273 DU PARVIS", "city": "QUEBEC", "province": "QC", "country": "CA", "postalCode": "G1K6G7", "twitter": "None", "instagram": "None", "facebook": "None", "youtube": "None", "website": "None", "summary": "None", "logo": "None", "latitude": 46.81592852262105, "longitude": -71.22445519080735}, "890274640RR0001": {"name": "G C A GIFTED CHILDREN'S ASSOCIATION OF BRITISH COLUMBIA", "designationCode": "C", "categoryCode": "09", "address": "209 - 12877 76 AVE", "city": "SURREY", "province": "BC", "country": "CA", "postalCode": "V3W1E6", "twitter": "None", "instagram": "None", "facebook": "None", "youtube": "None", "website": "None", "summary": "None", "logo": "None", "latitude": 49.141076489324185, "longitude": -122.8659435}, "889027199RR0001": {"name": "G GRANT AND DOROTHY F ARMSTRONG FOUNDATION", "designationCode": "B", "categoryCode": "05", "address": "101 - 109 PRINCESS ST", "city": "KINGSTON", "province": "ON", "country": "CA", "postalCode": "K7L1A8", "twitter": "None", "instagram": "None", "facebook": "None", "youtube": "None", "website": "None", "summary": "None", "logo": "None", "latitude": 44.23167532168612, "longitude": -76.48285601664843}, "891337644RR0001": {"name": "G M F C SCHOLARSHIP FOUNDATION INC", "designationCode": "C", "categoryCode": "21", "address": "RR 5  SITE 26 COMP 21", "city": "PRINCE ALBERT", "province": "SK", "country": "CA", "postalCode": "S6V5R3", "twitter": "None", "instagram": "None", "facebook": "None", "youtube": "None", "website": "None", "summary": "None", "logo": "None", "latitude": 53.199456000000055, "longitude": -105.74863099999993}, "899795652RR0001": {"name": "G R I T (GETTING READY FOR INCLUSION TODAY) CALGARY SOCIETY", "designationCode": "C", "categoryCode": "01", "address": "117-4615 112TH AVE SE", "city": "CALGARY", "province": "AB", "country": "CA", "postalCode": "T2C5J3", "twitter": "None", "instagram": "None", "facebook": "None", "youtube": "None", "website": "None", "summary": "None", "logo": "None", "latitude": 50.95222414994748, "longitude": -113.97295195869714}, "889354791RR0001": {"name": "G R WEBB FOUNDATION TRUST", "designationCode": "B", "categoryCode": "23", "address": "110 YONGE STREET, 12TH FL", "city": "TORONTO", "province": "ON", "country": "CA", "postalCode": "M5C1T4", "twitter": "None", "instagram": "None", "facebook": "None", "youtube": "None", "website": "None", "summary": "None", "logo": "None", "latitude": 43.650145351924564, "longitude": -79.37834446367339}, "830133039RR0001": {"name": "G. Hurvitz Foundation", "designationCode": "B", "categoryCode": "03", "address": "1959 LESLIE ST", "city": "NORTH YORK", "province": "ON", "country": "CA", "postalCode": "M3B2M3", "twitter": "None", "instagram": "None", "facebook": "None", "youtube": "None", "website": "None", "summary": "None", "logo": "None", "latitude": 43.75841856786311, "longitude": -79.36116683677668}, "810422485RR0001": {"name": "G. Magnotta Foundation for Vector-Borne Diseases", "designationCode": "C", "categoryCode": "11", "address": "271 CHRISLEA ROAD,", "city": "VAUGHAN", "province": "ON", "country": "CA", "postalCode": "L4L8N6", "twitter": "None", "instagram": "None", "facebook": "None", "youtube": "None", "website": "None", "summary": "None", "logo": "None", "latitude": 43.79761790481268, "longitude": -79.54339940515938}, "129055646RR0001": {"name": "G. T. SENIORS APARTMENTS OF ARNPRIOR INCORPORATED", "designationCode": "C", "categoryCode": "09", "address": "138 BASKIN DR W", "city": "ARNPRIOR", "province": "ON", "country": "CA", "postalCode": "K7S0E5", "twitter": "None", "instagram": "None", "facebook": "None", "youtube": "None", "website": "None", "summary": "None", "logo": "None", "latitude": 45.42909195980879, "longitude": -76.37424882639026}, "842241135RR0001": {"name": "G.A.V.E. Foundation", "designationCode": "B", "categoryCode": "03", "address": "13028 19A AVE", "city": "SURREY", "province": "BC", "country": "CA", "postalCode": "V4A8A8", "twitter": "None", "instagram": "None", "facebook": "None", "youtube": "None", "website": "None", "summary": "None", "logo": "None", "latitude": 49.03765453621104, "longitude": -122.86154405496558}, "828524355RR0001": {"name": "G.I.F.T.S. Foundation", "designationCode": "C", "categoryCode": "09", "address": "104 STILECROFT DRIVE", "city": "TORONTO", "province": "ON", "country": "CA", "postalCode": "M3J1A9", "twitter": "None", "instagram": "None", "facebook": "None", "youtube": "None", "website": "None", "summary": "None", "logo": "None", "latitude": 43.74955166056893, "longitude": -79.49573254928143}, "118942903RR0001": {"name": "G.O.V.R.C. WORKSHOP ASSOCIATION", "designationCode": "C", "categoryCode": "11", "address": "P.O. BOX 887", "city": "SPRINGHILL", "province": "NS", "country": "CA", "postalCode": "B0M1X0", "twitter": "None", "instagram": "None", "facebook": "None", "youtube": "None", "website": "None", "summary": "None", "logo": "None", "latitude": 45.65057000000007, "longitude": -64.05729999999994}, "879282614RR0001": {"name": "G.R.I.S. - QUEBEC", "designationCode": "C", "categoryCode": "59", "address": "201-363 RUE DE LA COURONNE", "city": "QUEBEC", "province": "QC", "country": "CA", "postalCode": "G1K6E9", "twitter": "None", "instagram": "None", "facebook": "None", "youtube": "None", "website": "None", "summary": "None", "logo": "None", "latitude": 46.81424191536039, "longitude": -71.2246968659003}, "891191629RR0001": {"name": "G.R.I.S.-- Montr\u00e9al", "designationCode": "C", "categoryCode": "29", "address": "826 RUE SHERBROOKE E", "city": "MONTREAL", "province": "QC", "country": "CA", "postalCode": "H2L1K3", "twitter": "None", "instagram": "None", "facebook": "None", "youtube": "None", "website": "None", "summary": "None", "logo": "None", "latitude": 45.51947253475457, "longitude": -73.56625905386424}, "785425091RR0001": {"name": "G.R.O.W. rooted in love Maternity Home", "designationCode": "C", "categoryCode": "01", "address": "330 JACKSON STREET", "city": "WALKERTON", "province": "ON", "country": "CA", "postalCode": "N0G2V0", "twitter": "None", "instagram": "None", "facebook": "None", "youtube": "None", "website": "None", "summary": "None", "logo": "None", "latitude": 44.12936437079468, "longitude": -81.15132927223179}, "831021506RR0001": {"name": "G(irls)20", "designationCode": "C", "categoryCode": "29", "address": "410 QUEEN'S QUAY BOULEVARD    WEST, SUITE 304", "city": "TORONTO", "province": "ON", "country": "CA", "postalCode": "M5V3T1", "twitter": "None", "instagram": "None", "facebook": "None", "youtube": "None", "website": "None", "summary": "None", "logo": "None", "latitude": 43.63786614351647, "longitude": -79.39130603165206}, "891622979RR0001": {"name": "G&K SERVICES CANADA INC. EMPLOYEES' CHARITY TRUST", "designationCode": "B", "categoryCode": "05", "address": "1105 - 5935 AIRPORT RD", "city": "MISSISSAUGA", "province": "ON", "country": "CA", "postalCode": "L4V1W5", "twitter": "None", "instagram": "None", "facebook": "None", "youtube": "None", "website": "None", "summary": "None", "logo": "None", "latitude": 43.685981200899434, "longitude": -79.60868359817874}, "839886827RR0001": {"name": "G\u00e9n\u00e9ration \u00c9ducation", "designationCode": "C", "categoryCode": "21", "address": "5142 LOUIS VEUILLOT", "city": "MONTR\u00c9AL", "province": "QC", "country": "CA", "postalCode": "H1M2N5", "twitter": "None", "instagram": "None", "facebook": "None", "youtube": "None", "website": "None", "summary": "None", "logo": "None", "latitude": 45.576796286687184, "longitude": -73.55210268402669}, "846115335RR0001": {"name": "G\u00e9rer le cancer au masculin", "designationCode": "C", "categoryCode": "11", "address": "555 BOUL DE L'HOPITAL", "city": "GATINEAU", "province": "QC", "country": "CA", "postalCode": "J8V3T4", "twitter": "None", "instagram": "None", "facebook": "None", "youtube": "None", "website": "None", "summary": "None", "logo": "None", "latitude": 45.495086375238074, "longitude": -75.68947877217354}, "132231739RR0002": {"name": "G\u00c9N\u00c9ALOGIE ET ARCHIVES SAINT-LAURENT INC.", "designationCode": "C", "categoryCode": "50", "address": "45, 2E RUE EST                PO BOX 939", "city": "CORNWALL", "province": "ON", "country": "CA", "postalCode": "K6H5V1", "twitter": "None", "instagram": "None", "facebook": "None", "youtube": "None", "website": "None", "summary": "None", "logo": "None", "latitude": 45.018766004731866, "longitude": -74.72703966126143}, "842436420RR0001": {"name": "Ga\u00efaPresse", "designationCode": "C", "categoryCode": "21", "address": "454 RUE LAURIER EST", "city": "MONTREAL", "province": "QC", "country": "CA", "postalCode": "H2J1E7", "twitter": "None", "instagram": "None", "facebook": "None", "youtube": "None", "website": "None", "summary": "None", "logo": "None", "latitude": 45.52778586981374, "longitude": -73.58872538588521}, "808393755RR0001": {"name": "Gabriola Commons Foundation", "designationCode": "C", "categoryCode": "56", "address": "675 NORTH ROAD                PO BOX 94", "city": "GABRIOLA ISLAND", "province": "BC", "country": "CA", "postalCode": "V0R1X0", "twitter": "None", "instagram": "None", "facebook": "None", "youtube": "None", "website": "None", "summary": "None", "logo": "None", "latitude": 49.17429143390948, "longitude": -123.83794204052259}, "817733132RR0001": {"name": "Gabriola Community Bus Foundation", "designationCode": "C", "categoryCode": "59", "address": "PO BOX 165", "city": "GABRIOLA", "province": "BC", "country": "CA", "postalCode": "V0R1X0", "twitter": "None", "instagram": "None", "facebook": "None", "youtube": "None", "website": "None", "summary": "None", "logo": "None", "latitude": 49.18637400000006, "longitude": -123.82815049999994}, "823638226RR0001": {"name": "Gabriola Island Lions Foundation", "designationCode": "A", "categoryCode": "03", "address": "P.O. BOX 261", "city": "GABRIOLA ISLAND", "province": "BC", "country": "CA", "postalCode": "V0R1X0", "twitter": "None", "instagram": "None", "facebook": "None", "youtube": "None", "website": "None", "summary": "None", "logo": "None", "latitude": 49.196676369791234, "longitude": -123.86085767440564}, "835203753RR0001": {"name": "Gabriola Players Theatre Society", "designationCode": "C", "categoryCode": "22", "address": "PO BOX 374", "city": "GABRIOLA", "province": "BC", "country": "CA", "postalCode": "V0R1X1", "twitter": "None", "instagram": "None", "facebook": "None", "youtube": "None", "website": "None", "summary": "None", "logo": "None", "latitude": 49.18969500000006, "longitude": -123.86497849999994}, "842393951RR0001": {"name": "Gaby Davis Foundation", "designationCode": "C", "categoryCode": "11", "address": "1973 BOW DR", "city": "COQUITLAM", "province": "BC", "country": "CA", "postalCode": "V3E1W1", "twitter": "None", "instagram": "None", "facebook": "None", "youtube": "None", "website": "None", "summary": "None", "logo": "None", "latitude": 49.29203550207746, "longitude": -122.76950391049682}, "837008176RR0001": {"name": "Gad and Sandra Bitton Family Foundation", "designationCode": "B", "categoryCode": "03", "address": "8525 D\u00c9CARIE", "city": "MOUNT ROYAL", "province": "QC", "country": "CA", "postalCode": "H4P2J2", "twitter": "None", "instagram": "None", "facebook": "None", "youtube": "None", "website": "None", "summary": "None", "logo": "None", "latitude": 45.50153808494422, "longitude": -73.66323909890959}, "815768130RR0001": {"name": "Gaining Resources Our Way Inc.", "designationCode": "C", "categoryCode": "20", "address": "91 WILLOW AVENUE", "city": "WINNIPEG", "province": "MB", "country": "CA", "postalCode": "R3N0G9", "twitter": "None", "instagram": "None", "facebook": "None", "youtube": "None", "website": "None", "summary": "None", "logo": "None", "latitude": 49.87194448600596, "longitude": -97.20777235928213}, "833175433RR0001": {"name": "Gajang Buddhist Center", "designationCode": "C", "categoryCode": "35", "address": "82 JAMESON AVE", "city": "TORONTO", "province": "ON", "country": "CA", "postalCode": "M6K2X5", "twitter": "None", "instagram": "None", "facebook": "None", "youtube": "None", "website": "None", "summary": "None", "logo": "None", "latitude": 43.63425907354725, "longitude": -79.43494600986774}, "883689218RR0001": {"name": "Galapagos Conservancy Canada/Conservation Canada Galapagos", "designationCode": "C", "categoryCode": "21", "address": "2634 KILLARNEY ROAD", "city": "VICTORIA", "province": "BC", "country": "CA", "postalCode": "V8P3G8", "twitter": "None", "instagram": "None", "facebook": "None", "youtube": "None", "website": "None", "summary": "None", "logo": "None", "latitude": 48.458947598130194, "longitude": -123.29729478432125}, "128606084RR0001": {"name": "Galcom International Incorporated", "designationCode": "C", "categoryCode": "47", "address": "115 NEBO ROAD", "city": "HAMILTON", "province": "ON", "country": "CA", "postalCode": "L8W2E1", "twitter": "None", "instagram": "None", "facebook": "None", "youtube": "None", "website": "None", "summary": "None", "logo": "None", "latitude": 43.19490275269785, "longitude": -79.8360899230772}, "852747203RR0001": {"name": "Galiano Trails Society", "designationCode": "C", "categoryCode": "56", "address": "110-5 GANNER DRIVE            S42 C7 RR2", "city": "GALIANO", "province": "BC", "country": "CA", "postalCode": "V0N1P0", "twitter": "None", "instagram": "None", "facebook": "None", "youtube": "None", "website": "None", "summary": "None", "logo": "None", "latitude": 48.925398981240875, "longitude": -123.45338129272201}}