{"798582292RR0001": {"name": "Cattlemen's Martin Riedemann Society", "designationCode": "C", "categoryCode": "21", "address": "4-10145 DALLAS DRIVE", "city": "KAMLOOPS", "province": "BC", "country": "CA", "postalCode": "V2C6T4", "twitter": "None", "instagram": "None", "facebook": "None", "youtube": "None", "website": "None", "summary": "None", "logo": "None", "latitude": 50.65272952510254, "longitude": -120.04433430544174}, "867016610RR0001": {"name": "Cause and Effect Foundation", "designationCode": "C", "categoryCode": "09", "address": "252 - 11488 24 ST SE", "city": "CALGARY", "province": "AB", "country": "CA", "postalCode": "T2Z4C9", "twitter": "None", "instagram": "None", "facebook": "None", "youtube": "None", "website": "None", "summary": "None", "logo": "None", "latitude": 50.9541866508454, "longitude": -114.00053095793191}, "850608456RR0001": {"name": "Cause for Critters Animal Rescue Society", "designationCode": "C", "categoryCode": "54", "address": "PO BOX 7852", "city": "DRAYTON VALLEY", "province": "AB", "country": "CA", "postalCode": "T7A1S9", "twitter": "None", "instagram": "None", "facebook": "None", "youtube": "None", "website": "None", "summary": "None", "logo": "None", "latitude": 53.22798600000006, "longitude": -114.98692399999993}, "836700401RR0001": {"name": "Cause We Care Foundation", "designationCode": "A", "categoryCode": "03", "address": "118-611 ALEXANDER STREET", "city": "VANCOUVER", "province": "BC", "country": "CA", "postalCode": "V6A1E1", "twitter": "None", "instagram": "None", "facebook": "None", "youtube": "None", "website": "None", "summary": "None", "logo": "None", "latitude": 49.28402785620139, "longitude": -123.09100571537456}, "107565285RR0001": {"name": "Cawston Pastoral Charge", "designationCode": "C", "categoryCode": "39", "address": "2146 MAIN ST.", "city": "CAWSTON", "province": "BC", "country": "CA", "postalCode": "V0X1C1", "twitter": "None", "instagram": "None", "facebook": "None", "youtube": "None", "website": "None", "summary": "None", "logo": "None", "latitude": 49.18124927283737, "longitude": -119.76136765970355}, "805767514RR0001": {"name": "Cayuga Food Bank Inc.", "designationCode": "C", "categoryCode": "09", "address": "8 MCKAY STREET WEST           PO BOX 861", "city": "CAYUGA", "province": "ON", "country": "CA", "postalCode": "N0A1E0", "twitter": "None", "instagram": "None", "facebook": "None", "youtube": "None", "website": "None", "summary": "None", "logo": "None", "latitude": 42.94929362320094, "longitude": -79.85643081113199}, "823024450RR0001": {"name": "Cayuga Improvement Foundation", "designationCode": "A", "categoryCode": "03", "address": "33 OTTAWA STREET SOUTH,       PO BOX 345", "city": "CAYUGA", "province": "ON", "country": "CA", "postalCode": "N0A1E0", "twitter": "None", "instagram": "None", "facebook": "None", "youtube": "None", "website": "None", "summary": "None", "logo": "None", "latitude": 42.94716359755328, "longitude": -79.85596298669844}, "118841550RR0001": {"name": "Cayuga Pastoral Charge", "designationCode": "C", "categoryCode": "44", "address": "2541 RIVER RD                 RR5", "city": "CAYUGA", "province": "ON", "country": "CA", "postalCode": "N0A1E0", "twitter": "None", "instagram": "None", "facebook": "None", "youtube": "None", "website": "None", "summary": "None", "logo": "None", "latitude": 42.960575257776426, "longitude": -79.88669108531865}, "799823091RR0001": {"name": "Cecilian Concert Series Inc.", "designationCode": "C", "categoryCode": "22", "address": "2340 VICTORIA AVENUE", "city": "REGINA", "province": "SK", "country": "CA", "postalCode": "S4P2M1", "twitter": "None", "instagram": "None", "facebook": "None", "youtube": "None", "website": "None", "summary": "None", "logo": "None", "latitude": 50.447316466259146, "longitude": -104.61429187617797}, "106680952RR0001": {"name": "Cedar Centre", "designationCode": "C", "categoryCode": "09", "address": "12-17705 LESLIE ST", "city": "NEWMARKET", "province": "ON", "country": "CA", "postalCode": "L3Y3E3", "twitter": "None", "instagram": "None", "facebook": "None", "youtube": "None", "website": "None", "summary": "None", "logo": "None", "latitude": 44.063867355879715, "longitude": -79.43142957352875}, "816109060RR0001": {"name": "Cedar Community Association", "designationCode": "C", "categoryCode": "56", "address": "2388 CEDAR ROAD", "city": "NANAIMO", "province": "BC", "country": "CA", "postalCode": "V9X1K3", "twitter": "None", "instagram": "None", "facebook": "None", "youtube": "None", "website": "None", "summary": "None", "logo": "None", "latitude": 49.08444125780968, "longitude": -123.85063050452739}, "119288918RR0206": {"name": "Cedar Heights Congregation of Jehovah's Witnesses, Sault Ste. Marie, Ontario", "designationCode": "C", "categoryCode": "61", "address": "634 PLACID AVE", "city": "SAULT STE. MARIE", "province": "ON", "country": "CA", "postalCode": "P6B3M7", "twitter": "None", "instagram": "None", "facebook": "None", "youtube": "None", "website": "None", "summary": "None", "logo": "None", "latitude": 46.52280953318128, "longitude": -84.29581286081135}, "771240298RR0001": {"name": "Cedar Hills Animal Sanctuary", "designationCode": "B", "categoryCode": "54", "address": "384058 CONCESSION 4           RR 2", "city": "PRICEVILLE", "province": "ON", "country": "CA", "postalCode": "N0C1K0", "twitter": "None", "instagram": "None", "facebook": "None", "youtube": "None", "website": "None", "summary": "None", "logo": "None", "latitude": 44.24476525584293, "longitude": -80.61493651729513}, "890028772RR0002": {"name": "Cedar Tree Ministries", "designationCode": "C", "categoryCode": "37", "address": "3265 COWICHAN VALLEY HIGHWAY", "city": "DUNCAN", "province": "BC", "country": "CA", "postalCode": "V9L5Z4", "twitter": "None", "instagram": "None", "facebook": "None", "youtube": "None", "website": "None", "summary": "None", "logo": "None", "latitude": 48.814196486582894, "longitude": -123.734511}, "830630018RR0001": {"name": "Cedars at Cobble Hill Society", "designationCode": "C", "categoryCode": "57", "address": "PO BOX 1755", "city": "PARKSVILLE", "province": "BC", "country": "CA", "postalCode": "V9L2W4", "twitter": "None", "instagram": "None", "facebook": "None", "youtube": "None", "website": "None", "summary": "None", "logo": "None", "latitude": 49.31969000000004, "longitude": -124.31365}, "118841915RR0001": {"name": "Cedars Home for Elderly People Foundation / La fondation les c\u00e8dres-centre d'accueil pour personnes ag\u00e9es", "designationCode": "A", "categoryCode": "03", "address": "1275 COTE VERTU, SUITE 200", "city": "MONTREAL", "province": "QC", "country": "CA", "postalCode": "H4L4V2", "twitter": "None", "instagram": "None", "facebook": "None", "youtube": "None", "website": "None", "summary": "None", "logo": "None", "latitude": 45.516700947284775, "longitude": -73.67958216628175}, "819880584RR0001": {"name": "Celebrate Foundation", "designationCode": "A", "categoryCode": "03", "address": "PO BOX 3287 STN MAIN", "city": "MISSION", "province": "BC", "country": "CA", "postalCode": "V2V4J4", "twitter": "None", "instagram": "None", "facebook": "None", "youtube": "None", "website": "None", "summary": "None", "logo": "None", "latitude": 49.13294100000006, "longitude": -122.32108249999993}, "866421092RR0001": {"name": "Celebrating Life Ministries", "designationCode": "C", "categoryCode": "39", "address": "370 HIGHVIEW DRIVE", "city": "ST-THOMAS", "province": "ON", "country": "CA", "postalCode": "N5R5Z6", "twitter": "None", "instagram": "None", "facebook": "None", "youtube": "None", "website": "None", "summary": "None", "logo": "None"}, "135064574RR0001": {"name": "Celebration Christian Church - Edmonton, AB", "designationCode": "C", "categoryCode": "47", "address": "7215 ARGYLL RD NW", "city": "EDMONTON", "province": "AB", "country": "CA", "postalCode": "T6C4J2", "twitter": "None", "instagram": "None", "facebook": "None", "youtube": "None", "website": "None", "summary": "None", "logo": "None", "latitude": 53.50878057810621, "longitude": -113.44124890435131}, "818925612RR0001": {"name": "Celebration Christian Fellowship Vancouver", "designationCode": "C", "categoryCode": "36", "address": "227 - 6362 FRASER ST", "city": "VANCOUVER", "province": "BC", "country": "CA", "postalCode": "V5W0A1", "twitter": "None", "instagram": "None", "facebook": "None", "youtube": "None", "website": "None", "summary": "None", "logo": "None", "latitude": 49.226767239800324, "longitude": -123.09070052383312}, "843822107RR0001": {"name": "Celebration Church Barrie", "designationCode": "C", "categoryCode": "39", "address": "PMB 402                       5-190 MINET'S POINT ROAD", "city": "BARRIE", "province": "ON", "country": "CA", "postalCode": "L4N8J8", "twitter": "None", "instagram": "None", "facebook": "None", "youtube": "None", "website": "None", "summary": "None", "logo": "None", "latitude": 44.37059709103239, "longitude": -79.66859590455286}, "851815605RR0001": {"name": "Celebration! Church Ottawa", "designationCode": "C", "categoryCode": "39", "address": "1584 QUEENSDALE AVE", "city": "OTTAWA", "province": "ON", "country": "CA", "postalCode": "K1T1R8", "twitter": "None", "instagram": "None", "facebook": "None", "youtube": "None", "website": "None", "summary": "None", "logo": "None", "latitude": 45.34588788512551, "longitude": -75.62946138563952}, "854833670RR0001": {"name": "Celestial Church of Christ the Truth God Parish", "designationCode": "C", "categoryCode": "39", "address": "UNIT 7 (LOWER LEVEL)          2296 EGLINTON AVENUE EAST", "city": "TORONTO", "province": "ON", "country": "CA", "postalCode": "M1K2M2", "twitter": "None", "instagram": "None", "facebook": "None", "youtube": "None", "website": "None", "summary": "None", "logo": "None"}, "860770536RR0001": {"name": "Celestial Church of Christ Altar of Life", "designationCode": "C", "categoryCode": "39", "address": "2220 MIDLAND AVENUE           UNIT 120 BR", "city": "SCARBOROUGH", "province": "ON", "country": "CA", "postalCode": "M1P3E6", "twitter": "None", "instagram": "None", "facebook": "None", "youtube": "None", "website": "None", "summary": "None", "logo": "None", "latitude": 43.77428025810259, "longitude": -79.27363298214279}, "816848980RR0001": {"name": "Celestial Church of Christ Gathering of the Saints Parish, Edmonton", "designationCode": "C", "categoryCode": "39", "address": "12710 101 ST NW", "city": "EDMONTON", "province": "AB", "country": "CA", "postalCode": "T5E4E5", "twitter": "None", "instagram": "None", "facebook": "None", "youtube": "None", "website": "None", "summary": "None", "logo": "None", "latitude": 53.58508664229975, "longitude": -113.4938335617808}, "828343251RR0001": {"name": "Celestial Church of Christ Halleluyah Parish", "designationCode": "C", "categoryCode": "39", "address": "107-101 WESTMORE DRIVE", "city": "ETOBICOKE", "province": "ON", "country": "CA", "postalCode": "M9V3Y6", "twitter": "None", "instagram": "None", "facebook": "None", "youtube": "None", "website": "None", "summary": "None", "logo": "None", "latitude": 43.73721812934957, "longitude": -79.60210830163349}, "802846873RR0001": {"name": "Celestial Church of Christ Olajuwon Parish", "designationCode": "C", "categoryCode": "39", "address": "204-7 BISHOP AVE", "city": "TORONTO", "province": "ON", "country": "CA", "postalCode": "M2M4J4", "twitter": "None", "instagram": "None", "facebook": "None", "youtube": "None", "website": "None", "summary": "None", "logo": "None", "latitude": 43.78195676545113, "longitude": -79.4143568248601}, "832025951RR0001": {"name": "Celestial Church of Christ, Zion Parish", "designationCode": "C", "categoryCode": "39", "address": "12 AUTOMATIC ROAD, UNIT 3", "city": "BRAMPTON", "province": "ON", "country": "CA", "postalCode": "L6S5N3", "twitter": "None", "instagram": "None", "facebook": "None", "youtube": "None", "website": "None", "summary": "None", "logo": "None", "latitude": 43.75667584064317, "longitude": -79.71038029260153}, "802859512RR0001": {"name": "Celtic Cross Charitable Foundation Trust", "designationCode": "B", "categoryCode": "05", "address": "48977 ELK VIEW RD", "city": "CHILLIWACK", "province": "BC", "country": "CA", "postalCode": "V4Z1G7", "twitter": "None", "instagram": "None", "facebook": "None", "youtube": "None", "website": "None", "summary": "None", "logo": "None", "latitude": 49.111651034510274, "longitude": -121.87138565633293}, "826031924RR0001": {"name": "Cemetery Renewal Foundation Inc.", "designationCode": "C", "categoryCode": "52", "address": "194 YALE AVE", "city": "WINNIPEG", "province": "MB", "country": "CA", "postalCode": "R3M0L8", "twitter": "None", "instagram": "None", "facebook": "None", "youtube": "None", "website": "None", "summary": "None", "logo": "None", "latitude": 49.87008015901105, "longitude": -97.1677208048648}, "807183660RR0001": {"name": "Cenovus Employee Foundation", "designationCode": "B", "categoryCode": "03", "address": "500 CENTRE STREET SE", "city": "CALGARY", "province": "AB", "country": "CA", "postalCode": "T2G1A6", "twitter": "None", "instagram": "None", "facebook": "None", "youtube": "None", "website": "None", "summary": "None", "logo": "None", "latitude": 51.04828113183583, "longitude": -114.06279192479559}, "118842111RR0001": {"name": "Centaur Foundation for the Performing Arts - La Fondation pour les arts d'interpr\u00e9tation", "designationCode": "C", "categoryCode": "22", "address": "453 RUE SAINT-FRANCOIS-XAVIER", "city": "MONTREAL", "province": "QC", "country": "CA", "postalCode": "H2Y2T1", "twitter": "None", "instagram": "None", "facebook": "None", "youtube": "None", "website": "None", "summary": "None", "logo": "None", "latitude": 45.50344882015692, "longitude": -73.55651033360267}, "132117409RR0001": {"name": "Centennial Albert United Church", "designationCode": "C", "categoryCode": "44", "address": "19 ROSEHILL BLVD.", "city": "OSHAWA", "province": "ON", "country": "CA", "postalCode": "L1J5G5", "twitter": "None", "instagram": "None", "facebook": "None", "youtube": "None", "website": "None", "summary": "None", "logo": "None", "latitude": 43.894525871775635, "longitude": -78.8800439615386}, "802608794RR0001": {"name": "Center for Global Missions Society", "designationCode": "C", "categoryCode": "09", "address": "9300 WESTMINSTER HWY", "city": "RICHMOND", "province": "BC", "country": "CA", "postalCode": "V6X1B1", "twitter": "None", "instagram": "None", "facebook": "None", "youtube": "None", "website": "None", "summary": "None", "logo": "None", "latitude": 49.17006550562685, "longitude": -123.1212015}, "864472899RR0001": {"name": "Center for Islamic Sciences", "designationCode": "C", "categoryCode": "21", "address": "349-52252 RANGE ROAD 215", "city": "SHERWOOD PARK", "province": "AB", "country": "CA", "postalCode": "T8E1B7", "twitter": "None", "instagram": "None", "facebook": "None", "youtube": "None", "website": "None", "summary": "None", "logo": "None", "latitude": 53.497431489901096, "longitude": -113.078574}, "835927864RR0001": {"name": "Center for Women of Colour", "designationCode": "C", "categoryCode": "09", "address": "15-2 ORIOLE CRES", "city": "HAMILTON", "province": "ON", "country": "CA", "postalCode": "L8H6G8", "twitter": "None", "instagram": "None", "facebook": "None", "youtube": "None", "website": "None", "summary": "None", "logo": "None", "latitude": 43.2379994568354, "longitude": -79.7819994242024}, "821824323RR0001": {"name": "Center City Church", "designationCode": "C", "categoryCode": "39", "address": "2675 JASPER ST", "city": "PRINCE GEORGE", "province": "BC", "country": "CA", "postalCode": "V2L1P3", "twitter": "None", "instagram": "None", "facebook": "None", "youtube": "None", "website": "None", "summary": "None", "logo": "None", "latitude": 53.89523697597145, "longitude": -122.74293752237715}, "119288918RR1678": {"name": "Center English Congregation of Jehovah's Witnesses, Qu\u00e9bec (Qu\u00e9bec)", "designationCode": "C", "categoryCode": "61", "address": "1300 BOUL PERE-LELIEVRE", "city": "QUEBEC", "province": "QC", "country": "CA", "postalCode": "G1M3P1", "twitter": "None", "instagram": "None", "facebook": "None", "youtube": "None", "website": "None", "summary": "None", "logo": "None", "latitude": 46.813118958133465, "longitude": -71.2751313906744}, "805883469RR0001": {"name": "Center Point Church", "designationCode": "C", "categoryCode": "39", "address": "PO BOX 1642", "city": "MONTAGUE", "province": "PE", "country": "CA", "postalCode": "C0A1R0", "twitter": "None", "instagram": "None", "facebook": "None", "youtube": "None", "website": "None", "summary": "None", "logo": "None", "latitude": 46.14343222329997, "longitude": -62.75594020244682}, "140783879RR0001": {"name": "Centered on Children Child Care Centre", "designationCode": "C", "categoryCode": "01", "address": "8201 WESTON RD", "city": "WOODBRIDGE", "province": "ON", "country": "CA", "postalCode": "L4L1A6", "twitter": "None", "instagram": "None", "facebook": "None", "youtube": "None", "website": "None", "summary": "None", "logo": "None", "latitude": 43.80098804330882, "longitude": -79.5501760469451}, "107273930RR0001": {"name": "Centerpoint Church Inc.", "designationCode": "C", "categoryCode": "31", "address": "700 WATT STREET", "city": "WINNIPEG", "province": "MB", "country": "CA", "postalCode": "R2K2S7", "twitter": "None", "instagram": "None", "facebook": "None", "youtube": "None", "website": "None", "summary": "None", "logo": "None", "latitude": 49.92246165474055, "longitude": -97.09198627257757}, "856098488RR0001": {"name": "Centr'Hommes Charlevoix", "designationCode": "C", "categoryCode": "09", "address": "243, CHEMIN PRINCIPAL", "city": "SAINT-HILARION", "province": "QC", "country": "CA", "postalCode": "G0A3V0", "twitter": "None", "instagram": "None", "facebook": "None", "youtube": "None", "website": "None", "summary": "None", "logo": "None", "latitude": 47.57308870039542, "longitude": -70.40141310691664}, "816974984RR0001": {"name": "Centra Cares Foundation", "designationCode": "B", "categoryCode": "03", "address": "20216 98TH AVENUE", "city": "LANGLEY", "province": "BC", "country": "CA", "postalCode": "V1M3G1", "twitter": "None", "instagram": "None", "facebook": "None", "youtube": "None", "website": "None", "summary": "None", "logo": "None", "latitude": 49.18149954948393, "longitude": -122.66181352553522}, "830503330RR0001": {"name": "Central Air Search & Rescue Society", "designationCode": "C", "categoryCode": "59", "address": "378 PARSONS ROAD", "city": "OKANAGAN FALLS", "province": "BC", "country": "CA", "postalCode": "V0H1R5", "twitter": "None", "instagram": "None", "facebook": "None", "youtube": "None", "website": "None", "summary": "None", "logo": "None", "latitude": 49.38864937164193, "longitude": -119.5562287552625}, "848678033RR0001": {"name": "Central Alberta Rescue Diving Society", "designationCode": "C", "categoryCode": "59", "address": "3918 44 AVE", "city": "CAMROSE", "province": "AB", "country": "CA", "postalCode": "T4V3H2", "twitter": "None", "instagram": "None", "facebook": "None", "youtube": "None", "website": "None", "summary": "None", "logo": "None", "latitude": 53.010699463788974, "longitude": -112.80876210935426}, "840846406RR0001": {"name": "Central Asia Institute Canada", "designationCode": "C", "categoryCode": "21", "address": "390 BAY STREET                SUITE 1202", "city": "TORONTO", "province": "ON", "country": "CA", "postalCode": "M5H2Y2", "twitter": "None", "instagram": "None", "facebook": "None", "youtube": "None", "website": "None", "summary": "None", "logo": "None", "latitude": 43.65110410687275, "longitude": -79.38169965834723}, "106693047RR0061": {"name": "Central ALberta Adventist Community Services Centre", "designationCode": "C", "categoryCode": "41", "address": "5816 HIGHWAY 2A", "city": "LACOMBE", "province": "AB", "country": "CA", "postalCode": "T4L2G5", "twitter": "None", "instagram": "None", "facebook": "None", "youtube": "None", "website": "None", "summary": "None", "logo": "None", "latitude": 52.474063600197404, "longitude": -113.71692568401835}, "892180449RR0001": {"name": "Central Butte Regency Hospital Auxiliary", "designationCode": "C", "categoryCode": "19", "address": "601 CANADA ST                 P.O. BOX 98", "city": "CENTRAL BUTTE", "province": "SK", "country": "CA", "postalCode": "S0H0T0", "twitter": "None", "instagram": "None", "facebook": "None", "youtube": "None", "website": "None", "summary": "None", "logo": "None", "latitude": 50.79893171946572, "longitude": -106.50916029708404}, "119288918RR1590": {"name": "Central Cariboo Congregation of Jehovah's Witnesses, Williams Lake, British Columbia", "designationCode": "C", "categoryCode": "61", "address": "P.O. BOX 4328", "city": "WILLIAMS LAKE", "province": "BC", "country": "CA", "postalCode": "V2G2V4", "twitter": "None", "instagram": "None", "facebook": "None", "youtube": "None", "website": "None", "summary": "None", "logo": "None", "latitude": 52.12864500000006, "longitude": -122.14108249999992}, "842862260RR0001": {"name": "Central Chebogue United Baptist Church Heritage Society", "designationCode": "B", "categoryCode": "52", "address": "495 GREENVILLE ROAD, RR #4", "city": "YARMOUTH", "province": "NS", "country": "CA", "postalCode": "B5A4A8", "twitter": "None", "instagram": "None", "facebook": "None", "youtube": "None", "website": "None", "summary": "None", "logo": "None", "latitude": 43.85834793698433, "longitude": -66.03590026770149}, "869034371RR0001": {"name": "Central Church K-W", "designationCode": "B", "categoryCode": "47", "address": "P.O. BOX 42077                CONESTOGA P.O/550 KING ST. N", "city": "WATERLOO", "province": "ON", "country": "CA", "postalCode": "N2L6K5", "twitter": "None", "instagram": "None", "facebook": "None", "youtube": "None", "website": "None", "summary": "None", "logo": "None", "latitude": 43.49882157034358, "longitude": -80.53012173493501}, "772911491RR0001": {"name": "Central Community Church", "designationCode": "C", "categoryCode": "39", "address": "304 - 10740 105 ST NW", "city": "EDMONTON", "province": "AB", "country": "CA", "postalCode": "T5H2X2", "twitter": "None", "instagram": "None", "facebook": "None", "youtube": "None", "website": "None", "summary": "None", "logo": "None", "latitude": 53.55275425145709, "longitude": -113.50112972208404}, "106886278RR0001": {"name": "Central Community Church St. Catharines Inc.", "designationCode": "C", "categoryCode": "36", "address": "240 SCOTT ST", "city": "ST CATHARINES", "province": "ON", "country": "CA", "postalCode": "L2N1H1", "twitter": "None", "instagram": "None", "facebook": "None", "youtube": "None", "website": "None", "summary": "None", "logo": "None", "latitude": 43.18412822724952, "longitude": -79.24266472338304}, "842921694RR0001": {"name": "Central Community Health Centre", "designationCode": "C", "categoryCode": "11", "address": "359 TALBOT STREET", "city": "ST. THOMAS", "province": "ON", "country": "CA", "postalCode": "N5P1B7", "twitter": "None", "instagram": "None", "facebook": "None", "youtube": "None", "website": "None", "summary": "None", "logo": "None", "latitude": 42.77913080092437, "longitude": -81.19807324317067}, "119288918RR0373": {"name": "Central Congregation of Jehovah's Witnesses, Edmonton, Alberta", "designationCode": "C", "categoryCode": "61", "address": "1405-11610 100 AVE NW", "city": "EDMONTON", "province": "AB", "country": "CA", "postalCode": "T5K0K1", "twitter": "None", "instagram": "None", "facebook": "None", "youtube": "None", "website": "None", "summary": "None", "logo": "None", "latitude": 53.538867511541184, "longitude": -113.52186386081135}, "119288918RR1537": {"name": "Central Congregation of Jehovah's Witnesses, Milton, Ontario", "designationCode": "C", "categoryCode": "61", "address": "1037 FREEMAN TRAIL", "city": "MILTON", "province": "ON", "country": "CA", "postalCode": "L9T5T3", "twitter": "None", "instagram": "None", "facebook": "None", "youtube": "None", "website": "None", "summary": "None", "logo": "None", "latitude": 43.51151841355525, "longitude": -79.83317294128351}, "119288918RR0248": {"name": "Central Congregation of Jehovah's Witnesses, St. John's, Newfoundland", "designationCode": "C", "categoryCode": "61", "address": "1762 PORTUGAL COVE RD", "city": "PORTUGAL COVE-ST PHILIPS", "province": "NL", "country": "CA", "postalCode": "A1M2N5", "twitter": "None", "instagram": "None", "facebook": "None", "youtube": "None", "website": "None", "summary": "None", "logo": "None", "latitude": 47.62728324106342, "longitude": -52.84247150133715}, "823825609RR0001": {"name": "Central Corydon Community Centre Inc.", "designationCode": "C", "categoryCode": "56", "address": "1370 GROSVENOR AVENUE", "city": "WINNIPEG", "province": "MB", "country": "CA", "postalCode": "R3M0P2", "twitter": "None", "instagram": "None", "facebook": "None", "youtube": "None", "website": "None", "summary": "None", "logo": "None", "latitude": 49.866716711394524, "longitude": -97.17444735835878}, "138187463RR0001": {"name": "Central Edmonton Alliance Church of The Christian and Missionary Alliance in Canada", "designationCode": "C", "categoryCode": "39", "address": "10115 79 ST NW", "city": "EDMONTON", "province": "AB", "country": "CA", "postalCode": "T6A3G4", "twitter": "None", "instagram": "None", "facebook": "None", "youtube": "None", "website": "None", "summary": "None", "logo": "None", "latitude": 53.54197166472389, "longitude": -113.44925729234266}, "823857552RR0001": {"name": "Central Heights Church", "designationCode": "C", "categoryCode": "34", "address": "1661 MCCALLUM RD", "city": "ABBOTSFORD", "province": "BC", "country": "CA", "postalCode": "V2S3M4", "twitter": "None", "instagram": "None", "facebook": "None", "youtube": "None", "website": "None", "summary": "None", "logo": "None", "latitude": 49.03268786583087, "longitude": -122.29309761049204}, "803840156RR0001": {"name": "Central Kootenay Spay Neuter Animal Program Society", "designationCode": "C", "categoryCode": "54", "address": "1134 SIMMONS RD.", "city": "CRESTON", "province": "BC", "country": "CA", "postalCode": "V0B1G7", "twitter": "None", "instagram": "None", "facebook": "None", "youtube": "None", "website": "None", "summary": "None", "logo": "None", "latitude": 49.07605629946912, "longitude": -116.60291472159405}, "126326388RR0001": {"name": "Central Labrador Pastoral Charge", "designationCode": "C", "categoryCode": "44", "address": "105 HAMILTON RIVER ROAD       BOX 183, STATION B", "city": "HAPPY VALLEY GOOSE BAY", "province": "NL", "country": "CA", "postalCode": "A0P1E0", "twitter": "None", "instagram": "None", "facebook": "None", "youtube": "None", "website": "None", "summary": "None", "logo": "None", "latitude": 53.295411043291786, "longitude": -60.302731659170256}, "711551291RR0001": {"name": "Central Manitoba Choral Association", "designationCode": "C", "categoryCode": "22", "address": "16004 PR 244                  PO BOX 557", "city": "MANITOU", "province": "MB", "country": "CA", "postalCode": "R0G1G0", "twitter": "None", "instagram": "None", "facebook": "None", "youtube": "None", "website": "None", "summary": "None", "logo": "None", "latitude": 49.241344092314456, "longitude": -98.54496868837529}, "828885764RR0001": {"name": "Central Mexico Mission Society of Slave Lake", "designationCode": "C", "categoryCode": "09", "address": "BOX 1027", "city": "SLAVE LAKE", "province": "AB", "country": "CA", "postalCode": "T0G2A0", "twitter": "None", "instagram": "None", "facebook": "None", "youtube": "None", "website": "None", "summary": "None", "logo": "None", "latitude": 55.28284800000006, "longitude": -114.77156299999993}, "820785095RR0001": {"name": "Central Mosque Scarborough", "designationCode": "C", "categoryCode": "60", "address": "3665 LAWRENCE AVE E", "city": "SCARBOROUGH", "province": "ON", "country": "CA", "postalCode": "M1G1P7", "twitter": "None", "instagram": "None", "facebook": "None", "youtube": "None", "website": "None", "summary": "None", "logo": "None", "latitude": 43.76078582315801, "longitude": -79.22056465041273}, "824015952RR0001": {"name": "Central Okanagan Hospice Association Foundation", "designationCode": "A", "categoryCode": "03", "address": "202-1456 ST. PAUL STREET", "city": "KELOWNA", "province": "BC", "country": "CA", "postalCode": "V1Y2E6", "twitter": "None", "instagram": "None", "facebook": "None", "youtube": "None", "website": "None", "summary": "None", "logo": "None", "latitude": 49.88747658090483, "longitude": -119.49193317225436}, "126178128RR0001": {"name": "Central Okanagan Re-Broadcast Society", "designationCode": "C", "categoryCode": "20", "address": "11658 LAND COURT", "city": "WINFIELD", "province": "BC", "country": "CA", "postalCode": "V4V2M6", "twitter": "None", "instagram": "None", "facebook": "None", "youtube": "None", "website": "None", "summary": "None", "logo": "None", "latitude": 50.052305797391654, "longitude": -119.43020056867115}, "883613119RR0001": {"name": "Central Okanagan Region Nutrition Society", "designationCode": "C", "categoryCode": "59", "address": "2009A ENTERPRISE WAY", "city": "KELOWNA", "province": "BC", "country": "CA", "postalCode": "V1Y8G6", "twitter": "None", "instagram": "None", "facebook": "None", "youtube": "None", "website": "None", "summary": "None", "logo": "None", "latitude": 49.88309250748323, "longitude": -119.44929492343627}, "118965417RR0001": {"name": "Central Queen's Pastoral Charge of The United Church of Canada", "designationCode": "C", "categoryCode": "44", "address": "P.O. BOX 130", "city": "HUNTER RIVER", "province": "PE", "country": "CA", "postalCode": "C0A1N0", "twitter": "None", "instagram": "None", "facebook": "None", "youtube": "None", "website": "None", "summary": "None", "logo": "None", "latitude": 46.492926000000054, "longitude": -63.36548449999994}, "807124037RR0001": {"name": "Central Station Community Centre Inc.", "designationCode": "C", "categoryCode": "56", "address": "PO BOX 736 STN MAIN", "city": "WINKLER", "province": "MB", "country": "CA", "postalCode": "R6W4A8", "twitter": "None", "instagram": "None", "facebook": "None", "youtube": "None", "website": "None", "summary": "None", "logo": "None", "latitude": 49.18426565617661, "longitude": -97.93929615472052}, "119288918RR1643": {"name": "Central Tagalog Congregation of Jehovah's Witnesses, Ottawa, Ontario", "designationCode": "C", "categoryCode": "61", "address": "1637 CYRVILLE ROAD", "city": "OTTAWA", "province": "ON", "country": "CA", "postalCode": "K1B3L7", "twitter": "None", "instagram": "None", "facebook": "None", "youtube": "None", "website": "None", "summary": "None", "logo": "None", "latitude": 45.41819703473914, "longitude": -75.60988665901107}, "819901208RR0001": {"name": "Central Technical School Alumni Association", "designationCode": "C", "categoryCode": "21", "address": "725 BATHURST STREET,", "city": "TORONTO", "province": "ON", "country": "CA", "postalCode": "M5S2R5", "twitter": "None", "instagram": "None", "facebook": "None", "youtube": "None", "website": "None", "summary": "None", "logo": "None", "latitude": 43.66261291785441, "longitude": -79.41014918564281}, "106888902RR0001": {"name": "Central United Church", "designationCode": "C", "categoryCode": "44", "address": "12 YOUNG ST", "city": "WELLAND", "province": "ON", "country": "CA", "postalCode": "L3B4C4", "twitter": "None", "instagram": "None", "facebook": "None", "youtube": "None", "website": "None", "summary": "None", "logo": "None", "latitude": 42.98944047157924, "longitude": -79.25052133236193}, "808113211RR0001": {"name": "Central Valley Adult Learning Association Inc.", "designationCode": "C", "categoryCode": "21", "address": "137 MACDONALD AVE", "city": "OROMOCTO", "province": "NB", "country": "CA", "postalCode": "E2V1A6", "twitter": "None", "instagram": "None", "facebook": "None", "youtube": "None", "website": "None", "summary": "None", "logo": "None", "latitude": 45.8493774767734, "longitude": -66.4786215}, "107790263RR0001": {"name": "Central West Specialized Developmental Services", "designationCode": "C", "categoryCode": "01", "address": "53 BOND STREET", "city": "OAKVILLE", "province": "ON", "country": "CA", "postalCode": "L6K1L8", "twitter": "None", "instagram": "None", "facebook": "None", "youtube": "None", "website": "None", "summary": "None", "logo": "None", "latitude": 43.44200280772076, "longitude": -79.67740115788588}, "718607328RR0001": {"name": "CentralPC Foundation", "designationCode": "A", "categoryCode": "03", "address": "200 - 761 CARDERO ST", "city": "VANCOUVER", "province": "BC", "country": "CA", "postalCode": "V6G2G3", "twitter": "None", "instagram": "None", "facebook": "None", "youtube": "None", "website": "None", "summary": "None", "logo": "None", "latitude": 49.289908368313185, "longitude": -123.13170993632049}, "803699156RR0001": {"name": "Centre \u00e9vang\u00e9lique la Pl\u00e9nitude de Dieu", "designationCode": "C", "categoryCode": "39", "address": "1310, RUE GOUPIL", "city": "DRUMMONDVILLE", "province": "QC", "country": "CA", "postalCode": "J2B4Z9", "twitter": "None", "instagram": "None", "facebook": "None", "youtube": "None", "website": "None", "summary": "None", "logo": "None", "latitude": 45.8615614915459, "longitude": -72.48011205456156}, "844432302RR0001": {"name": "Centre \u00e9vang\u00e9lique nouvelle alliance (C\u00c9NA)", "designationCode": "C", "categoryCode": "39", "address": "47 NASSAU", "city": "LAVAL", "province": "QC", "country": "CA", "postalCode": "H7M1K5", "twitter": "None", "instagram": "None", "facebook": "None", "youtube": "None", "website": "None", "summary": "None", "logo": "None", "latitude": 45.59802595366142, "longitude": -73.72530777352986}, "819129032RR0001": {"name": "Centre \u00c9vang\u00e9lique l'impact de la droite de l'\u00e9ternel", "designationCode": "C", "categoryCode": "39", "address": "1937 RUE LIEBERT", "city": "MONTREAL", "province": "QC", "country": "CA", "postalCode": "H1L5P7", "twitter": "None", "instagram": "None", "facebook": "None", "youtube": "None", "website": "None", "summary": "None", "logo": "None", "latitude": 45.59341090259097, "longitude": -73.51444235844542}, "850132358RR0001": {"name": "Centre \u00c9vang\u00e9lique la Terre Promise", "designationCode": "C", "categoryCode": "39", "address": "3201 RUE ARSENAULT", "city": "TERREBONNE", "province": "QC", "country": "CA", "postalCode": "J7M2C1", "twitter": "None", "instagram": "None", "facebook": "None", "youtube": "None", "website": "None", "summary": "None", "logo": "None", "latitude": 45.77357892838599, "longitude": -73.7093920676902}, "811370998RR0001": {"name": "Centre \u00c9vang\u00e9lique Philadelphie", "designationCode": "C", "categoryCode": "39", "address": "5244 RUE DE SEVILLE", "city": "MONTREAL-NORD", "province": "QC", "country": "CA", "postalCode": "H1G1H9", "twitter": "None", "instagram": "None", "facebook": "None", "youtube": "None", "website": "None", "summary": "None", "logo": "None", "latitude": 45.610101252553626, "longitude": -73.63418829695897}, "809350598RR0001": {"name": "Centre \u00c9vang\u00e9lique Vie Abondante", "designationCode": "C", "categoryCode": "39", "address": "7250 RUE DES GASPAREAUX", "city": "TERREBONNE", "province": "QC", "country": "CA", "postalCode": "J7M0E8", "twitter": "None", "instagram": "None", "facebook": "None", "youtube": "None", "website": "None", "summary": "None", "logo": "None", "latitude": 45.76492697417632, "longitude": -73.72938676868243}, "136764883RR0001": {"name": "Centre amiti\u00e9 de solidarit\u00e9 internationale de la r\u00e9gion des Appalaches (C.A.S.I.R.A.)", "designationCode": "C", "categoryCode": "09", "address": "37 RUE NOTRE-DAME OUEST", "city": "THETFORD MINES", "province": "QC", "country": "CA", "postalCode": "G6G1J1", "twitter": "None", "instagram": "None", "facebook": "None", "youtube": "None", "website": "None", "summary": "None", "logo": "None", "latitude": 46.090591542068076, "longitude": -71.30077859677387}, "830035804RR0001": {"name": "Centre apostolique cit\u00e9 de la gr\u00e2ce", "designationCode": "C", "categoryCode": "39", "address": "302-2850 RUE LOUIS-PAR\u00c9", "city": "LACHINE", "province": "QC", "country": "CA", "postalCode": "H8S1K8", "twitter": "None", "instagram": "None", "facebook": "None", "youtube": "None", "website": "None", "summary": "None", "logo": "None", "latitude": 45.44267345051608, "longitude": -73.68938252983439}, "840078901RR0001": {"name": "Centre apostolique rocher d'eau vive", "designationCode": "C", "categoryCode": "49", "address": "218-6830 RUE JARRY E.", "city": "SAINT-L\u00c9ONARD", "province": "QC", "country": "CA", "postalCode": "H1P1W3", "twitter": "None", "instagram": "None", "facebook": "None", "youtube": "None", "website": "None", "summary": "None", "logo": "None", "latitude": 45.59793232246553, "longitude": -73.57876839387798}, "838186088RR0001": {"name": "Centre chr\u00e9tien de la famille de Montr\u00e9al / Centro Cristiano de la Familia de Montreal", "designationCode": "C", "categoryCode": "39", "address": "7351, 13E AVENUE OUEST", "city": "LAVAL", "province": "QC", "country": "CA", "postalCode": "H7R3B3", "twitter": "None", "instagram": "None", "facebook": "None", "youtube": "None", "website": "None", "summary": "None", "logo": "None", "latitude": 45.53915813794789, "longitude": -73.87354933706514}, "843245044RR0001": {"name": "Centre chr\u00e9tien international de la joie / Joy Christian Center International", "designationCode": "C", "categoryCode": "39", "address": "6615 CH DE LA COTE-DES-NEIGES BUREAU 200", "city": "MONTREAL", "province": "QC", "country": "CA", "postalCode": "H3S2B3", "twitter": "None", "instagram": "None", "facebook": "None", "youtube": "None", "website": "None", "summary": "None", "logo": "None", "latitude": 45.5026761704367, "longitude": -73.63613204605012}, "837670371RR0001": {"name": "Centre chr\u00e9tien maison de pri\u00e8re pour les nations", "designationCode": "C", "categoryCode": "39", "address": "9002 RUE,PICASSO", "city": "SAINT-L\u00c9ONARD", "province": "QC", "country": "CA", "postalCode": "H1P3E5", "twitter": "None", "instagram": "None", "facebook": "None", "youtube": "None", "website": "None", "summary": "None", "logo": "None", "latitude": 45.6017888151366, "longitude": -73.59934599391181}, "856839824RR0001": {"name": "Centre chr\u00e9tien source de vie pour les nations", "designationCode": "C", "categoryCode": "47", "address": "6640 PIERRE GADOIS", "city": "MONTR\u00c9AL", "province": "QC", "country": "CA", "postalCode": "H1M2T7", "twitter": "None", "instagram": "None", "facebook": "None", "youtube": "None", "website": "None", "summary": "None", "logo": "None", "latitude": 45.59363520286816, "longitude": -73.56020145810481}, "118844463RR0001": {"name": "Centre comminautaire rendez-vous 50+", "designationCode": "C", "categoryCode": "09", "address": "4121 42\u00c8ME RUE", "city": "MONTREAL", "province": "QC", "country": "CA", "postalCode": "H1Z1R8", "twitter": "None", "instagram": "None", "facebook": "None", "youtube": "None", "website": "None", "summary": "None", "logo": "None", "latitude": 45.57931365474057, "longitude": -73.61826563324469}, "821389046RR0001": {"name": "Centre communautaire de l'espoir Bethesda/ Bethesda Community Center of Hope", "designationCode": "C", "categoryCode": "09", "address": "645, 27E AVENUE               APT 9", "city": "POINTE-AUX-TREMBLES", "province": "QC", "country": "CA", "postalCode": "H1A3N9", "twitter": "None", "instagram": "None", "facebook": "None", "youtube": "None", "website": "None", "summary": "None", "logo": "None", "latitude": 45.65275643104039, "longitude": -73.49240264654624}, "866410897RR0001": {"name": "Centre communautaire de la petite Italie", "designationCode": "C", "categoryCode": "59", "address": "505 RUE JEAN-TALON EST", "city": "MONTREAL", "province": "QC", "country": "CA", "postalCode": "H2R1T6", "twitter": "None", "instagram": "None", "facebook": "None", "youtube": "None", "website": "None", "summary": "None", "logo": "None", "latitude": 45.539232977523184, "longitude": -73.6138766034103}, "852793231RR0001": {"name": "Centre communautaire de loisirs Claude-Nault", "designationCode": "C", "categoryCode": "56", "address": "4677 RUE TRAVERSY", "city": "DRUMMONDVILLE", "province": "QC", "country": "CA", "postalCode": "J2A2G2", "twitter": "None", "instagram": "None", "facebook": "None", "youtube": "None", "website": "None", "summary": "None", "logo": "None", "latitude": 45.82904039797467, "longitude": -72.41961691413215}, "104266804RR0001": {"name": "Centre communautaire des a\u00een\u00e9s de Soulanges", "designationCode": "C", "categoryCode": "01", "address": "12 CURE CHOLET", "city": "ST POLYCARPE", "province": "QC", "country": "CA", "postalCode": "J0P1X0", "twitter": "None", "instagram": "None", "facebook": "None", "youtube": "None", "website": "None", "summary": "None", "logo": "None", "latitude": 45.301812915892526, "longitude": -74.30095553384511}, "835036922RR0001": {"name": "Centre communautaire des femmes actives", "designationCode": "C", "categoryCode": "09", "address": "4500, RUE SAINT-ANTOINE OUEST", "city": "MONTR\u00c9AL", "province": "QC", "country": "CA", "postalCode": "H4C1E1", "twitter": "None", "instagram": "None", "facebook": "None", "youtube": "None", "website": "None", "summary": "None", "logo": "None", "latitude": 45.476124276703864, "longitude": -73.59174641866247}, "805495132RR0001": {"name": "Centre communautaire international Impact for Christ Minis tries", "designationCode": "C", "categoryCode": "39", "address": "8011, AVENUE LOUIS-LUMI\u00c8RE", "city": "MONTREAL", "province": "QC", "country": "CA", "postalCode": "H1E2Y6", "twitter": "None", "instagram": "None", "facebook": "None", "youtube": "None", "website": "None", "summary": "None", "logo": "None", "latitude": 45.63826185235723, "longitude": -73.59531102319795}, "896359049RR0001": {"name": "Centre communautaire pour ain\u00e9s Relais sant\u00e9 Matane", "designationCode": "C", "categoryCode": "09", "address": "807, AV. DU PHARE E", "city": "MATANE", "province": "QC", "country": "CA", "postalCode": "G4W1A9", "twitter": "None", "instagram": "None", "facebook": "None", "youtube": "None", "website": "None", "summary": "None", "logo": "None", "latitude": 48.853321703272194, "longitude": -67.49478542310587}, "830000261RR0001": {"name": "Centre communautaire Beaumont Community Center", "designationCode": "C", "categoryCode": "56", "address": "5600 49 ST", "city": "BEAUMONT", "province": "AB", "country": "CA", "postalCode": "T4X1A1", "twitter": "None", "instagram": "None", "facebook": "None", "youtube": "None", "website": "None", "summary": "None", "logo": "None", "latitude": 53.35782856506449, "longitude": -113.41396383308307}, "834216038RR0001": {"name": "Centre communautaire Chabad de Saint-Lazare", "designationCode": "C", "categoryCode": "42", "address": "1955, CHEMIN STE-ANG\u00c9LIQUE", "city": "ST-LAZARE", "province": "QC", "country": "CA", "postalCode": "J7T2Y4", "twitter": "None", "instagram": "None", "facebook": "None", "youtube": "None", "website": "None", "summary": "None", "logo": "None", "latitude": 45.400291416613655, "longitude": -74.14138951956261}, "837707421RR0001": {"name": "Centre communautaire Musulman de Longueuil", "designationCode": "C", "categoryCode": "60", "address": "1398, CHEMIN CHAMBLY", "city": "LONGUEUIL", "province": "QC", "country": "CA", "postalCode": "J4J3X3", "twitter": "None", "instagram": "None", "facebook": "None", "youtube": "None", "website": "None", "summary": "None", "logo": "None"}}