{"106701931RR0001": {"name": "ALLIANCE CHURCH OF LA RONGE", "designationCode": "C", "categoryCode": "39", "address": "BOX 226", "city": "LA RONGE", "province": "SK", "country": "CA", "postalCode": "S0J1L0", "twitter": "None", "instagram": "None", "facebook": "None", "youtube": "None", "website": "None", "summary": "None", "logo": "None", "latitude": 55.104968852218384, "longitude": -105.2789552305204}, "131958266RR0001": {"name": "ALLIANCE CHURCH TERRACE B C", "designationCode": "C", "categoryCode": "39", "address": "4923 AGAR AVE", "city": "TERRACE", "province": "BC", "country": "CA", "postalCode": "V8G1H8", "twitter": "None", "instagram": "None", "facebook": "None", "youtube": "None", "website": "None", "summary": "None", "logo": "None", "latitude": 54.5109565100989, "longitude": -128.60802386081136}, "129880886RR0001": {"name": "ALLIANCE CHURCH, ALBERTA BEACH", "designationCode": "C", "categoryCode": "39", "address": "BOX 148", "city": "ALBERTA BEACH", "province": "AB", "country": "CA", "postalCode": "T0E0A0", "twitter": "None", "instagram": "None", "facebook": "None", "youtube": "None", "website": "None", "summary": "None", "logo": "None", "latitude": 53.67729000000003, "longitude": -114.35111999999998}, "119293025RR0002": {"name": "ALLIANCE COMMUNITY CHURCH", "designationCode": "C", "categoryCode": "39", "address": "4404-47TH AVE.", "city": "SYLVAN LAKE", "province": "AB", "country": "CA", "postalCode": "T4S1N4", "twitter": "None", "instagram": "None", "facebook": "None", "youtube": "None", "website": "None", "summary": "None", "logo": "None", "latitude": 52.304699501009615, "longitude": -114.08743286081135}, "892295056RR0001": {"name": "ALLIANCE CULTURELLE L A C", "designationCode": "C", "categoryCode": "29", "address": "1474 FLEURY EST", "city": "MONTREAL", "province": "QC", "country": "CA", "postalCode": "H2C1T1", "twitter": "None", "instagram": "None", "facebook": "None", "youtube": "None", "website": "None", "summary": "None", "logo": "None", "latitude": 45.562346780454774, "longitude": -73.65663291990322}, "140874538RR0001": {"name": "ALLIANCE DES COMMUNAUTES CULTURELLES POUR L'EGALITE DANS LA SANTE ET LES SERVICES SOCIAUX AU QUEBEC", "designationCode": "C", "categoryCode": "09", "address": "408-7000, AVENUE DU PARC", "city": "MONTREAL", "province": "QC", "country": "CA", "postalCode": "H3N1X1", "twitter": "None", "instagram": "None", "facebook": "None", "youtube": "None", "website": "None", "summary": "None", "logo": "None", "latitude": 45.52974575434264, "longitude": -73.62027633265039}, "132123423RR0001": {"name": "ALLIANCE EVANGELIQUE REFORMEE-INSTITUT FAREL, FACULTE DE THEOLOGIE REFORMEE DE QUEBEC", "designationCode": "C", "categoryCode": "20", "address": "4824 CH DE LA COTE-DES-NEIGES BUREAU 201", "city": "MONTREAL", "province": "QC", "country": "CA", "postalCode": "H3V1G4", "twitter": "None", "instagram": "None", "facebook": "None", "youtube": "None", "website": "None", "summary": "None", "logo": "None", "latitude": 45.49532050288555, "longitude": -73.61328180391251}, "857977730RR0001": {"name": "ALLIANCE FOR ARTS EDUCATION IN MANITOBA INC", "designationCode": "C", "categoryCode": "22", "address": "3RD FLOOR, 245 MCDERMOT AVENUE", "city": "WINNIPEG", "province": "MB", "country": "CA", "postalCode": "R3B0S6", "twitter": "None", "instagram": "None", "facebook": "None", "youtube": "None", "website": "None", "summary": "None", "logo": "None", "latitude": 49.897426902590986, "longitude": -97.14132111128748}, "118782754RR0001": {"name": "ALLIANCE FOR CANADIAN NEW MUSIC PROJECTS", "designationCode": "C", "categoryCode": "22", "address": "20 ST. JOSEPH STREET", "city": "TORONTO", "province": "ON", "country": "CA", "postalCode": "M4Y1J9", "twitter": "None", "instagram": "None", "facebook": "None", "youtube": "None", "website": "None", "summary": "None", "logo": "None", "latitude": 43.66585438386507, "longitude": -79.38641480988512}, "895648335RR0001": {"name": "ALLIANCE FOR EQUALITY OF BLIND CANADIANS / L'ALLIANCE POUR L'EGALITE DES PERSONNES AVEUGLES DU CANADA", "designationCode": "C", "categoryCode": "09", "address": "PO BOX 20262 RPO TOWN CENTRE", "city": "KELOWNA", "province": "BC", "country": "CA", "postalCode": "V1Y9H2", "twitter": "None", "instagram": "None", "facebook": "None", "youtube": "None", "website": "None", "summary": "None", "logo": "None", "latitude": 49.88697900000005, "longitude": -119.49661249999994}, "898431275RR0001": {"name": "ALLIANCE FOR PROGRESS WORLDWIDE - A CHARITABLE FOUNDATION", "designationCode": "C", "categoryCode": "09", "address": "13731- DEER RUN BLVD S.E.", "city": "CALGARY", "province": "AB", "country": "CA", "postalCode": "T2J6L3", "twitter": "None", "instagram": "None", "facebook": "None", "youtube": "None", "website": "None", "summary": "None", "logo": "None", "latitude": 50.92955381848347, "longitude": -114.01108469138427}, "139274864RR0001": {"name": "ALLIANCE FOR SOUTH ASIAN AIDS PREVENTION", "designationCode": "C", "categoryCode": "11", "address": "120 CARLTON ST.               SUITE 315", "city": "TORONTO", "province": "ON", "country": "CA", "postalCode": "M5A4K3", "twitter": "None", "instagram": "None", "facebook": "None", "youtube": "None", "website": "None", "summary": "None", "logo": "None", "latitude": 43.66252218347842, "longitude": -79.37634981294354}, "894894435RR0001": {"name": "ALLIANCE FRAN\u00c7AISE DE LA R\u00c9GION DE LA CAPITALE NATIONALE DU CANADA", "designationCode": "C", "categoryCode": "29", "address": "352 MACLAREN ST", "city": "OTTAWA", "province": "ON", "country": "CA", "postalCode": "K2P0M6", "twitter": "None", "instagram": "None", "facebook": "None", "youtube": "None", "website": "None", "summary": "None", "logo": "None", "latitude": 45.415002647498525, "longitude": -75.69504142088417}, "118782796RR0001": {"name": "ALLIANCE FRANCAISE DE TORONTO", "designationCode": "C", "categoryCode": "22", "address": "95 SHEPPARD AVE W", "city": "TORONTO", "province": "ON", "country": "CA", "postalCode": "M2N1M4", "twitter": "None", "instagram": "None", "facebook": "None", "youtube": "None", "website": "None", "summary": "None", "logo": "None", "latitude": 43.76040087480538, "longitude": -79.41583746113457}, "899800510RR0001": {"name": "ALLIANCE HOLY FELLOWSHIP GROUP", "designationCode": "C", "categoryCode": "39", "address": "1000 OLD SAMBRO ROAD", "city": "HARRIETSFIELD", "province": "NS", "country": "CA", "postalCode": "B3V1B1", "twitter": "None", "instagram": "None", "facebook": "None", "youtube": "None", "website": "None", "summary": "None", "logo": "None", "latitude": 44.57539174274318, "longitude": -63.63417992149068}, "827559279RR0001": {"name": "ALLIANCE OF DIVINE LOVE OF WINNIPEG INC.", "designationCode": "C", "categoryCode": "39", "address": "1783 MATHERS AVE", "city": "WINNIPEG", "province": "MB", "country": "CA", "postalCode": "R3N0N7", "twitter": "None", "instagram": "None", "facebook": "None", "youtube": "None", "website": "None", "summary": "None", "logo": "None", "latitude": 49.853619449362235, "longitude": -97.20022127546311}, "844536342RR0001": {"name": "ALLIANCE POUR LA CONSERVATION MARINE/THE MARINE CONSERVANCY", "designationCode": "C", "categoryCode": "20", "address": "542, ROCKHILL CRESCENT", "city": "BEACONSFIELD", "province": "QC", "country": "CA", "postalCode": "H9W3G3", "twitter": "None", "instagram": "None", "facebook": "None", "youtube": "None", "website": "None", "summary": "None", "logo": "None", "latitude": 45.42392434674276, "longitude": -73.8908124216342}, "888960648RR0001": {"name": "ALLIANCE SOCIAL FUN FOR ALL CLUB", "designationCode": "C", "categoryCode": "56", "address": "BOX 14", "city": "ALLIANCE", "province": "AB", "country": "CA", "postalCode": "T0B0A0", "twitter": "None", "instagram": "None", "facebook": "None", "youtube": "None", "website": "None", "summary": "None", "logo": "None", "latitude": 52.43345000000005, "longitude": -111.78502999999995}, "876948274RR0001": {"name": "ALLIANCE SOCIOCULTURELLE ET AIDE P\u00c9DAGOGIQUE (ASAP)", "designationCode": "C", "categoryCode": "22", "address": "4121, 42E RUE", "city": "MONTREAL", "province": "QC", "country": "CA", "postalCode": "H1Z1R8", "twitter": "None", "instagram": "None", "facebook": "None", "youtube": "None", "website": "None", "summary": "None", "logo": "None", "latitude": 45.57931365474057, "longitude": -73.61826563324469}, "889817391RR0001": {"name": "ALLIANCE SPORT-\u00c9TUDES ENSEIGNEMENT SUP\u00c9RIEUR", "designationCode": "C", "categoryCode": "20", "address": "5701 AV CHRISTOPHE-COLOMB", "city": "MONTREAL", "province": "QC", "country": "CA", "postalCode": "H2S2E9", "twitter": "None", "instagram": "None", "facebook": "None", "youtube": "None", "website": "None", "summary": "None", "logo": "None", "latitude": 45.53454826146908, "longitude": -73.59413095793191}, "120507439RR0001": {"name": "ALLIANCE SYNDICATS ET TIERS-MONDE", "designationCode": "A", "categoryCode": "03", "address": "1601, AVENUE DE LORIMIER", "city": "MONTREAL", "province": "QC", "country": "CA", "postalCode": "H2K4M5", "twitter": "None", "instagram": "None", "facebook": "None", "youtube": "None", "website": "None", "summary": "None", "logo": "None", "latitude": 45.52585110551643, "longitude": -73.55249927569425}, "140813072RR0001": {"name": "ALLIANCE-JEUNESSE CHUTES-DE-LA-CHAUDIERE", "designationCode": "C", "categoryCode": "09", "address": "1659, BOUL. GUILLAUME-COUTURE", "city": "LEVIS", "province": "QC", "country": "CA", "postalCode": "G6W0L3", "twitter": "None", "instagram": "None", "facebook": "None", "youtube": "None", "website": "None", "summary": "None", "logo": "None", "latitude": 46.74357396976159, "longitude": -71.248559408448}, "846532992RR0001": {"name": "ALLIANCE-TRANSITION 180 (DEGR\u00c9)", "designationCode": "C", "categoryCode": "57", "address": "156, RANG DE L'EGLISE SUD", "city": "SAINT-MARCEL-DE-RICHELIEU", "province": "QC", "country": "CA", "postalCode": "J0H1T0", "twitter": "None", "instagram": "None", "facebook": "None", "youtube": "None", "website": "None", "summary": "None", "logo": "None", "latitude": 45.85549161532687, "longitude": -72.89903826481596}, "118782846RR0001": {"name": "ALLIED ARTS COUNCIL OF LETHBRIDGE", "designationCode": "C", "categoryCode": "22", "address": "318 7TH STREET SOUTH", "city": "LETHBRIDGE", "province": "AB", "country": "CA", "postalCode": "T1J2G2", "twitter": "None", "instagram": "None", "facebook": "None", "youtube": "None", "website": "None", "summary": "None", "logo": "None", "latitude": 49.69560026447973, "longitude": -112.8371823329381}, "118782853RR0001": {"name": "ALLIED ARTS COUNCIL OF PINCHER CREEK", "designationCode": "C", "categoryCode": "22", "address": "BOX 2434", "city": "PINCHER CREEK", "province": "AB", "country": "CA", "postalCode": "T0K1W0", "twitter": "None", "instagram": "None", "facebook": "None", "youtube": "None", "website": "None", "summary": "None", "logo": "None", "latitude": 49.48739000000006, "longitude": -113.9366800732874}, "892913567RR0001": {"name": "ALLIED ARTS COUNCIL OF SPRUCE GROVE", "designationCode": "C", "categoryCode": "22", "address": "PO BOX 3511", "city": "SPRUCE GROVE", "province": "AB", "country": "CA", "postalCode": "T7X3A8", "twitter": "None", "instagram": "None", "facebook": "None", "youtube": "None", "website": "None", "summary": "None", "logo": "None", "latitude": 53.544624000000056, "longitude": -113.90185249999993}, "898324017RR0001": {"name": "ALLIES FOR AUTISM FOUNDATION", "designationCode": "A", "categoryCode": "59", "address": "5552 DALHART HILL NW", "city": "CALGARY", "province": "AB", "country": "CA", "postalCode": "T3A1S9", "twitter": "None", "instagram": "None", "facebook": "None", "youtube": "None", "website": "None", "summary": "None", "logo": "None", "latitude": 51.11535390397596, "longitude": -114.16288683265039}, "135298081RR0001": {"name": "ALLISTON & DISTRICT HUMANE SOCIETY", "designationCode": "C", "categoryCode": "54", "address": "PO BOX 1455", "city": "EVERETT", "province": "ON", "country": "CA", "postalCode": "L0M1J0", "twitter": "None", "instagram": "None", "facebook": "None", "youtube": "None", "website": "None", "summary": "None", "logo": "None", "latitude": 44.191250000000025, "longitude": -79.93888999999996}, "871771762RR0001": {"name": "ALLISTON \"COMMUNITY POLICING\" COMMITTEE", "designationCode": "C", "categoryCode": "59", "address": "PO BOX 67", "city": "ALLISTON", "province": "ON", "country": "CA", "postalCode": "L9R1T9", "twitter": "None", "instagram": "None", "facebook": "None", "youtube": "None", "website": "None", "summary": "None", "logo": "None", "latitude": 44.15432100000005, "longitude": -79.86752449999993}, "106702475RR0001": {"name": "ALLISTON ALLIANCE CHURCH", "designationCode": "C", "categoryCode": "39", "address": "648 VICTORIA ST E", "city": "ALLISTON", "province": "ON", "country": "CA", "postalCode": "L9R1K1", "twitter": "None", "instagram": "None", "facebook": "None", "youtube": "None", "website": "None", "summary": "None", "logo": "None", "latitude": 44.16154955632303, "longitude": -79.83333699208299}, "896029162RR0001": {"name": "ALLISTON HISTORICAL SOCIETY", "designationCode": "C", "categoryCode": "50", "address": "PO BOX 88", "city": "ALLISTON", "province": "ON", "country": "CA", "postalCode": "L9R1T9", "twitter": "None", "instagram": "None", "facebook": "None", "youtube": "None", "website": "None", "summary": "None", "logo": "None", "latitude": 44.15432100000005, "longitude": -79.86752449999993}, "106702509RR0001": {"name": "ALLISTON INTERDENOMINATIONAL CHRISTIAN SCHOOL SOCIETY", "designationCode": "C", "categoryCode": "20", "address": "4428 ADJALA-TECUMSETH TOWNLINE", "city": "ALLISTON", "province": "ON", "country": "CA", "postalCode": "L9R1V4", "twitter": "None", "instagram": "None", "facebook": "None", "youtube": "None", "website": "None", "summary": "None", "logo": "None", "latitude": 44.129186677188706, "longitude": -79.8728600801245}, "119288918RR0256": {"name": "ALLISTON ONTARIO CONGREGATION OF JEHOVAH'S WITNESSES", "designationCode": "C", "categoryCode": "61", "address": "12 D A JONES AVENUE", "city": "BEETON", "province": "ON", "country": "CA", "postalCode": "L0G1A0", "twitter": "None", "instagram": "None", "facebook": "None", "youtube": "None", "website": "None", "summary": "None", "logo": "None", "latitude": 44.081203220138136, "longitude": -79.79118017660774}, "864141221RR0001": {"name": "ALLISTON PENTECOSTAL CHURCH", "designationCode": "C", "categoryCode": "36", "address": "BOX 215", "city": "ALLISTON", "province": "ON", "country": "CA", "postalCode": "L9R1V5", "twitter": "None", "instagram": "None", "facebook": "None", "youtube": "None", "website": "None", "summary": "None", "logo": "None", "latitude": 44.15432100000005, "longitude": -79.86752449999993}, "888650868RR0001": {"name": "ALLO PROF!", "designationCode": "C", "categoryCode": "21", "address": "1000 RUE FULLUM", "city": "MONTREAL", "province": "QC", "country": "CA", "postalCode": "H2K3L7", "twitter": "None", "instagram": "None", "facebook": "None", "youtube": "None", "website": "None", "summary": "None", "logo": "None", "latitude": 45.52680096113459, "longitude": -73.54741562782034}, "894698018RR0001": {"name": "ALLOWAY TRUST", "designationCode": "B", "categoryCode": "05", "address": "64 PRINCE ANDREW PLACE", "city": "TORONTO", "province": "ON", "country": "CA", "postalCode": "M3C2H4", "twitter": "None", "instagram": "None", "facebook": "None", "youtube": "None", "website": "None", "summary": "None", "logo": "None", "latitude": 43.72744531308779, "longitude": -79.3455808686303}, "132813411RR0001": {"name": "ALLSAW PENTECOSTAL CHURCH", "designationCode": "C", "categoryCode": "36", "address": "PO BOX 723", "city": "HALIBURTON", "province": "ON", "country": "CA", "postalCode": "K0M1S0", "twitter": "None", "instagram": "None", "facebook": "None", "youtube": "None", "website": "None", "summary": "None", "logo": "None", "latitude": 45.24560095765924, "longitude": -78.57868961447684}, "891339582RR0001": {"name": "ALLSTATE INSURANCE COMPANY OF CANADA EMPLOYEES CHARITABLE FUND", "designationCode": "B", "categoryCode": "75", "address": "27 ALLSTATE PARKWAY           SUITE 100", "city": "MARKHAM", "province": "ON", "country": "CA", "postalCode": "L3R5P8", "twitter": "None", "instagram": "None", "facebook": "None", "youtube": "None", "website": "None", "summary": "None", "logo": "None", "latitude": 43.85090579188038, "longitude": -79.36613824822578}, "851943019RR0001": {"name": "ALMA BIBLE CHURCH", "designationCode": "C", "categoryCode": "39", "address": "PO BOX 41", "city": "ALMA", "province": "ON", "country": "CA", "postalCode": "N0B1A0", "twitter": "None", "instagram": "None", "facebook": "None", "youtube": "None", "website": "None", "summary": "None", "logo": "None", "latitude": 43.61335225785596, "longitude": -80.14956272208858}, "118784123RR0001": {"name": "ALMA PASTORAL CHARGE", "designationCode": "C", "categoryCode": "44", "address": "ALMA UNITED CHURCH            PO BOX 117", "city": "ALMA", "province": "ON", "country": "CA", "postalCode": "N0B1A0", "twitter": "None", "instagram": "None", "facebook": "None", "youtube": "None", "website": "None", "summary": "None", "logo": "None", "latitude": 43.72839900000001, "longitude": -80.50338450000001}, "118784156RR0001": {"name": "ALMA UNITED BAPTIST CHURCH", "designationCode": "C", "categoryCode": "31", "address": "4069 SCENIC DR", "city": "ALMA", "province": "NB", "country": "CA", "postalCode": "E4H1P2", "twitter": "None", "instagram": "None", "facebook": "None", "youtube": "None", "website": "None", "summary": "None", "logo": "None", "latitude": 45.607640187056454, "longitude": -64.93813706673791}, "876166828RR0001": {"name": "ALMA-ALBERT PASTORAL CHARGE", "designationCode": "C", "categoryCode": "44", "address": "5312 ROUTE 114", "city": "HOPEWELL HILL", "province": "NB", "country": "CA", "postalCode": "E4H3N2", "twitter": "None", "instagram": "None", "facebook": "None", "youtube": "None", "website": "None", "summary": "None", "logo": "None", "latitude": 45.76631931449034, "longitude": -64.68145732511103}, "899625073RR0001": {"name": "ALMADINA SCHOOL SOCIETY", "designationCode": "C", "categoryCode": "20", "address": "118 - 3132 26 ST NE", "city": "CALGARY", "province": "AB", "country": "CA", "postalCode": "T1Y6Z1", "twitter": "None", "instagram": "None", "facebook": "None", "youtube": "None", "website": "None", "summary": "None", "logo": "None", "latitude": 51.0800132514571, "longitude": -113.99818679190999}, "106703416RR0001": {"name": "ALMAGUIN HIGHLANDS COMMUNITY LIVING", "designationCode": "C", "categoryCode": "11", "address": "P.O.BOX 370                   78 ONTARIO STREET", "city": "SUNDRIDGE", "province": "ON", "country": "CA", "postalCode": "P0A1Z0", "twitter": "None", "instagram": "None", "facebook": "None", "youtube": "None", "website": "None", "summary": "None", "logo": "None", "latitude": 45.77070678112065, "longitude": -79.3940653545551}, "131685570RR0001": {"name": "ALMAGUIN MISSIONARY CHURCH", "designationCode": "C", "categoryCode": "39", "address": "PO BOX 123", "city": "SOUTH RIVER", "province": "ON", "country": "CA", "postalCode": "P0A1X0", "twitter": "None", "instagram": "None", "facebook": "None", "youtube": "None", "website": "None", "summary": "None", "logo": "None", "latitude": 45.660326070379305, "longitude": -79.63452456354597}, "885453811RR0001": {"name": "ALMANAR YOUTH ASSOCIATION", "designationCode": "C", "categoryCode": "60", "address": "506 BUCKINGHAM BLVD.", "city": "WATERLOO", "province": "ON", "country": "CA", "postalCode": "N2T2T9", "twitter": "None", "instagram": "None", "facebook": "None", "youtube": "None", "website": "None", "summary": "None", "logo": "None", "latitude": 43.45696627226047, "longitude": -80.57145244364942}, "898630306RR0001": {"name": "ALMANARAH PRESBYTERIAN CHURCH", "designationCode": "C", "categoryCode": "39", "address": "255 EXPORT BLVD", "city": "MISSISSAUGA", "province": "ON", "country": "CA", "postalCode": "L5S1Y4", "twitter": "None", "instagram": "None", "facebook": "None", "youtube": "None", "website": "None", "summary": "None", "logo": "None", "latitude": 43.65131116795517, "longitude": -79.70352138086398}, "138603097RR0001": {"name": "ALMEHDI ALMUNTATHAR UNION", "designationCode": "C", "categoryCode": "39", "address": "91 MEG DR", "city": "LONDON", "province": "ON", "country": "CA", "postalCode": "N6E2V2", "twitter": "None", "instagram": "None", "facebook": "None", "youtube": "None", "website": "None", "summary": "None", "logo": "None", "latitude": 42.921426929222726, "longitude": -81.23100545992249}, "135634095RR0001": {"name": "ALMISE CO-OPERATIVE HOMES INC.", "designationCode": "C", "categoryCode": "09", "address": "16 CONCORDE PL                9TH FLOOR OFFICE", "city": "NORTH YORK", "province": "ON", "country": "CA", "postalCode": "M3C3S6", "twitter": "None", "instagram": "None", "facebook": "None", "youtube": "None", "website": "None", "summary": "None", "logo": "None", "latitude": 43.7302904827164, "longitude": -79.32850618821028}, "872201496RR0001": {"name": "ALMOND TREE MINISTRIES INC.", "designationCode": "C", "categoryCode": "39", "address": "BOX 626", "city": "CANORA", "province": "SK", "country": "CA", "postalCode": "S0A0L0", "twitter": "None", "instagram": "None", "facebook": "None", "youtube": "None", "website": "None", "summary": "None", "logo": "None", "latitude": 51.62535661313478, "longitude": -102.4443087080291}, "854728300RR0001": {"name": "ALMONER FOUNDATION", "designationCode": "A", "categoryCode": "53", "address": "1250-1500 WEST GEORGIA STREET BOX 62", "city": "VANCOUVER", "province": "BC", "country": "CA", "postalCode": "V6G2Z6", "twitter": "None", "instagram": "None", "facebook": "None", "youtube": "None", "website": "None", "summary": "None", "logo": "None", "latitude": 49.290187500000016, "longitude": -123.130035}, "118784198RR0001": {"name": "ALMONTE BAPTIST CHURCH", "designationCode": "C", "categoryCode": "31", "address": "P O BOX 293", "city": "ALMONTE", "province": "ON", "country": "CA", "postalCode": "K0A1A0", "twitter": "None", "instagram": "None", "facebook": "None", "youtube": "None", "website": "None", "summary": "None", "logo": "None", "latitude": 45.223665000000054, "longitude": -76.20363799999993}, "118784206RR0001": {"name": "ALMONTE COMMUNITY CO-ORDINATORS", "designationCode": "C", "categoryCode": "59", "address": "118 MILL ST                   PO BOX 538", "city": "ALMONTE", "province": "ON", "country": "CA", "postalCode": "K0A1A0", "twitter": "None", "instagram": "None", "facebook": "None", "youtube": "None", "website": "None", "summary": "None", "logo": "None", "latitude": 45.22513171106246, "longitude": -76.19407534707712}, "118784214RR0001": {"name": "ALMONTE GENERAL HOSPITAL CORPORATION", "designationCode": "C", "categoryCode": "10", "address": "75 SPRING STREET", "city": "ALMONTE", "province": "ON", "country": "CA", "postalCode": "K0A1A0", "twitter": "None", "instagram": "None", "facebook": "None", "youtube": "None", "website": "None", "summary": "None", "logo": "None", "latitude": 45.228625275370035, "longitude": -76.19006701046806}, "877913012RR0001": {"name": "ALMONTE GENERAL HOSPITAL FOUNDATION", "designationCode": "A", "categoryCode": "13", "address": "P.O.BOX 940                   75 SPRING STREET", "city": "ALMONTE", "province": "ON", "country": "CA", "postalCode": "K0A1A0", "twitter": "None", "instagram": "None", "facebook": "None", "youtube": "None", "website": "None", "summary": "None", "logo": "None", "latitude": 45.228625275370035, "longitude": -76.19006701046806}, "118784172RR0001": {"name": "ALMONTE IN CONCERT", "designationCode": "C", "categoryCode": "22", "address": "P.O. BOX 1199", "city": "ALMONTE", "province": "ON", "country": "CA", "postalCode": "K0A1A0", "twitter": "None", "instagram": "None", "facebook": "None", "youtube": "None", "website": "None", "summary": "None", "logo": "None", "latitude": 45.223665000000054, "longitude": -76.20363799999993}, "890305444RR0001": {"name": "ALMONTE LIONS CLUB CHARITABLE FOUNDATION", "designationCode": "C", "categoryCode": "09", "address": "BOX 643                       56 MILL ST", "city": "ALMONTE", "province": "ON", "country": "CA", "postalCode": "K0A1A0", "twitter": "None", "instagram": "None", "facebook": "None", "youtube": "None", "website": "None", "summary": "None", "logo": "None", "latitude": 45.2253527510244, "longitude": -76.1962485180334}, "118784222RR0001": {"name": "ALMONTE PASTORAL CHARGE", "designationCode": "C", "categoryCode": "44", "address": "PO BOX 190                    106 ELGIN ST", "city": "ALMONTE", "province": "ON", "country": "CA", "postalCode": "K0A1A0", "twitter": "None", "instagram": "None", "facebook": "None", "youtube": "None", "website": "None", "summary": "None", "logo": "None", "latitude": 45.22356702419208, "longitude": -76.1932898780072}, "106703697RR0001": {"name": "ALMONTE PRESBYTERIAN CHURCH", "designationCode": "C", "categoryCode": "37", "address": "111 CHURCH ST                 BOX 1073", "city": "ALMONTE", "province": "ON", "country": "CA", "postalCode": "K0A1A0", "twitter": "None", "instagram": "None", "facebook": "None", "youtube": "None", "website": "None", "summary": "None", "logo": "None", "latitude": 45.222881113509196, "longitude": -76.19207849815366}, "100161512RR0001": {"name": "ALONSA AND DISTRICT RECREATIONAL CO-OP INC.", "designationCode": "C", "categoryCode": "56", "address": "BOX 131", "city": "ALONSA", "province": "MB", "country": "CA", "postalCode": "R0H0A0", "twitter": "None", "instagram": "None", "facebook": "None", "youtube": "None", "website": "None", "summary": "None", "logo": "None", "latitude": 50.87914000000006, "longitude": -99.08464999999995}, "886967595RR0001": {"name": "ALONSA COMMUNITY CO-OPERATIVE INC.", "designationCode": "C", "categoryCode": "56", "address": "BOX 99", "city": "ALONSA", "province": "MB", "country": "CA", "postalCode": "R0H0A0", "twitter": "None", "instagram": "None", "facebook": "None", "youtube": "None", "website": "None", "summary": "None", "logo": "None", "latitude": 50.87914000000006, "longitude": -99.08464999999995}, "119288918RR0916": {"name": "ALOUETTE CONGREGATION OF JEHOVAH'S WITNESSES", "designationCode": "C", "categoryCode": "61", "address": "21533 - 126 AVENUE", "city": "MAPLE RIDGE", "province": "BC", "country": "CA", "postalCode": "V4R2H1", "twitter": "None", "instagram": "None", "facebook": "None", "youtube": "None", "website": "None", "summary": "None", "logo": "None", "latitude": 49.23104548600597, "longitude": -122.6244015}, "866720808RR0001": {"name": "ALOUETTE HOME START SOCIETY", "designationCode": "C", "categoryCode": "09", "address": "5 - 11160 234A ST", "city": "MAPLE RIDGE", "province": "BC", "country": "CA", "postalCode": "V2W0B8", "twitter": "None", "instagram": "None", "facebook": "None", "youtube": "None", "website": "None", "summary": "None", "logo": "None", "latitude": 49.20508795781637, "longitude": -122.57297773853094}, "891650921RR0001": {"name": "ALOUETTE RIVER MANAGEMENT SOCIETY", "designationCode": "C", "categoryCode": "52", "address": "24959 ALOUETTE RD.            ALLCO PARK", "city": "MAPLE RIDGE", "province": "BC", "country": "CA", "postalCode": "V4R1R8", "twitter": "None", "instagram": "None", "facebook": "None", "youtube": "None", "website": "None", "summary": "None", "logo": "None", "latitude": 49.242890000000045, "longitude": -122.53309999999999}, "129489175RR0001": {"name": "ALOUETTE SUBSTANCE ABUSE PROGRAMS SOCIETY", "designationCode": "C", "categoryCode": "11", "address": "22477 LOUGHEED HWY", "city": "MAPLE RIDGE", "province": "BC", "country": "CA", "postalCode": "V2X2T8", "twitter": "None", "instagram": "None", "facebook": "None", "youtube": "None", "website": "None", "summary": "None", "logo": "None", "latitude": 49.21713580090503, "longitude": -122.59953464398377}, "895088235RR0001": {"name": "ALPHA AND OMEGA MISSION OF JESUS CHRIST TO TORONTO", "designationCode": "B", "categoryCode": "39", "address": "210 - 125 BONIS AVE", "city": "SCARBOROUGH", "province": "ON", "country": "CA", "postalCode": "M1T3R8", "twitter": "None", "instagram": "None", "facebook": "None", "youtube": "None", "website": "None", "summary": "None", "logo": "None", "latitude": 43.7846378586479, "longitude": -79.29456783288154}, "891257792RR0001": {"name": "ALPHA CHARITABLE FOUNDATION", "designationCode": "B", "categoryCode": "11", "address": "1262 DON MILLS ROAD", "city": "DON MILLS", "province": "ON", "country": "CA", "postalCode": "M3B2W7", "twitter": "None", "instagram": "None", "facebook": "None", "youtube": "None", "website": "None", "summary": "None", "logo": "None", "latitude": 43.74482736412958, "longitude": -79.3455156181828}, "118784305RR0001": {"name": "ALPHA COMMUNITY", "designationCode": "C", "categoryCode": "21", "address": "67 PALMERSTON AVE", "city": "TORONTO", "province": "ON", "country": "CA", "postalCode": "M6J2J2", "twitter": "None", "instagram": "None", "facebook": "None", "youtube": "None", "website": "None", "summary": "None", "logo": "None", "latitude": 43.6491879775232, "longitude": -79.40738750455897}, "129671475RR0001": {"name": "ALPHA COURT NON-PROFIT HOUSING CORPORATION", "designationCode": "C", "categoryCode": "01", "address": "221 WILSON ST", "city": "THUNDER BAY", "province": "ON", "country": "CA", "postalCode": "P7B1M7", "twitter": "None", "instagram": "None", "facebook": "None", "youtube": "None", "website": "None", "summary": "None", "logo": "None", "latitude": 48.43233290285078, "longitude": -89.22372290481266}, "893325167RR0001": {"name": "ALPHA DELTA PHI FOUNDATION OF CANADA", "designationCode": "C", "categoryCode": "21", "address": "42 RAVENSBOURNE CRESC.", "city": "TORONTO", "province": "ON", "country": "CA", "postalCode": "M9A2A8", "twitter": "None", "instagram": "None", "facebook": "None", "youtube": "None", "website": "None", "summary": "None", "logo": "None", "latitude": 43.67653103635528, "longitude": -79.53842544284136}, "851105361RR0001": {"name": "ALPHA Education", "designationCode": "C", "categoryCode": "21", "address": "85 SCARSDALE RD. SUITE 305", "city": "TORONTO", "province": "ON", "country": "CA", "postalCode": "M3B2R2", "twitter": "None", "instagram": "None", "facebook": "None", "youtube": "None", "website": "None", "summary": "None", "logo": "None", "latitude": 43.750398089387616, "longitude": -79.35509030105658}, "132588443RR0001": {"name": "ALPHA HAUTE-YAMASKA INC", "designationCode": "C", "categoryCode": "21", "address": "125 RUE PRINCIPALE", "city": "GRANBY", "province": "QC", "country": "CA", "postalCode": "J2G2T9", "twitter": "None", "instagram": "None", "facebook": "None", "youtube": "None", "website": "None", "summary": "None", "logo": "None", "latitude": 45.39881258621364, "longitude": -72.72393157213361}, "106704042RR0001": {"name": "ALPHA HOUSE", "designationCode": "C", "categoryCode": "57", "address": "647 BROADVIEW AVENUE", "city": "TORONTO", "province": "ON", "country": "CA", "postalCode": "M4K2N9", "twitter": "None", "instagram": "None", "facebook": "None", "youtube": "None", "website": "None", "summary": "None", "logo": "None", "latitude": 43.67316565335557, "longitude": -79.35599837411289}, "130377625RR0001": {"name": "ALPHA HOUSE PROJECT INC", "designationCode": "C", "categoryCode": "01", "address": "PO BOX 37015 RPO              ST. VITAL CENTRE", "city": "WINNIPEG", "province": "MB", "country": "CA", "postalCode": "R2M5R3", "twitter": "None", "instagram": "None", "facebook": "None", "youtube": "None", "website": "None", "summary": "None", "logo": "None", "latitude": 49.83084000000008, "longitude": -97.11148999999995}, "860699164RR0001": {"name": "ALPHA KOREAN UNITED CHURCH", "designationCode": "C", "categoryCode": "44", "address": "49 BOGERT AVE", "city": "NORTH YORK", "province": "ON", "country": "CA", "postalCode": "M2N1K4", "twitter": "None", "instagram": "None", "facebook": "None", "youtube": "None", "website": "None", "summary": "None", "logo": "None", "latitude": 43.76005980599, "longitude": -79.41341935994596}, "872606157RR0001": {"name": "ALPHA MINISTRIES CANADA", "designationCode": "C", "categoryCode": "47", "address": "230-11331 COPPERSMITH WAY", "city": "RICHMOND", "province": "BC", "country": "CA", "postalCode": "V7A5J9", "twitter": "None", "instagram": "None", "facebook": "None", "youtube": "None", "website": "None", "summary": "None", "logo": "None", "latitude": 49.13078453043996, "longitude": -123.09902027699232}, "118784347RR0001": {"name": "ALPHA OMEGA FOUNDATION OF CANADA", "designationCode": "A", "categoryCode": "21", "address": "317 - 4600 BATHURST ST", "city": "NORTH YORK", "province": "ON", "country": "CA", "postalCode": "M2R3V3", "twitter": "None", "instagram": "None", "facebook": "None", "youtube": "None", "website": "None", "summary": "None", "logo": "None", "latitude": 43.764549213428396, "longitude": -79.4407190577642}, "118784362RR0001": {"name": "ALPHA OMEGA WOMEN'S ALUMNAE TRUST FUND", "designationCode": "C", "categoryCode": "65", "address": "7 - 390 WELLINGTON CRES", "city": "WINNIPEG", "province": "MB", "country": "CA", "postalCode": "R3M0B7", "twitter": "None", "instagram": "None", "facebook": "None", "youtube": "None", "website": "None", "summary": "None", "logo": "None", "latitude": 49.873155278896895, "longitude": -97.15788972026637}, "867584245RR0001": {"name": "ALPHA PRIVATE CHARITABLE FOUNDATION OF CALGARY", "designationCode": "B", "categoryCode": "03", "address": "407 TUSCANY RIDGE HEIGHTS NW", "city": "CALGARY", "province": "AB", "country": "CA", "postalCode": "T3L3B6", "twitter": "None", "instagram": "None", "facebook": "None", "youtube": "None", "website": "None", "summary": "None", "logo": "None", "latitude": 51.12834351373423, "longitude": -114.25592299668178}, "897534632RR0001": {"name": "ALPHA-ENTRAIDE DES CHUTES-DE-LA-CHAUDIERE", "designationCode": "C", "categoryCode": "20", "address": "2285 BOUL GUILLAUME-COUTURE", "city": "LEVIS", "province": "QC", "country": "CA", "postalCode": "G6W2S2", "twitter": "None", "instagram": "None", "facebook": "None", "youtube": "None", "website": "None", "summary": "None", "logo": "None", "latitude": 46.75555849209416, "longitude": -71.23226556578562}, "130485154RR0001": {"name": "ALPHA-NICOLET (SERVICE D'EDUCATION POPULAIRE EN ALPHABETISATION)", "designationCode": "C", "categoryCode": "20", "address": "690, RUE MONSEIGNEUR-PANET", "city": "NICOLET", "province": "QC", "country": "CA", "postalCode": "J3T1W1", "twitter": "None", "instagram": "None", "facebook": "None", "youtube": "None", "website": "None", "summary": "None", "logo": "None", "latitude": 46.22988447988997, "longitude": -72.61078254828931}, "891304495RR0001": {"name": "ALPHA-OMEGA CHRISTIAN MINISTRIES", "designationCode": "C", "categoryCode": "49", "address": "5 - 1260 KENNEDY RD", "city": "SCARBOROUGH", "province": "ON", "country": "CA", "postalCode": "M1P2L3", "twitter": "None", "instagram": "None", "facebook": "None", "youtube": "None", "website": "None", "summary": "None", "logo": "None", "latitude": 43.75708192754928, "longitude": -79.27782751102158}, "822647871RR0001": {"name": "ALPHA-1 ANTITRYPSIN DEFICIENCY CANADA INC.", "designationCode": "C", "categoryCode": "11", "address": "241 - 13300 TECUMSEH RD E", "city": "WINDSOR", "province": "ON", "country": "CA", "postalCode": "N8N4R8", "twitter": "None", "instagram": "None", "facebook": "None", "youtube": "None", "website": "None", "summary": "None", "logo": "None", "latitude": 42.31226834564882, "longitude": -82.8993133268698}, "118948470RR0001": {"name": "ALPHAB\u00c9TISATION IOTA", "designationCode": "C", "categoryCode": "20", "address": "200 SAINT-LOUIS", "city": "LEMOYNE", "province": "QC", "country": "CA", "postalCode": "J4R2L6", "twitter": "None", "instagram": "None", "facebook": "None", "youtube": "None", "website": "None", "summary": "None", "logo": "None", "latitude": 45.50011694587115, "longitude": -73.49455106007282}, "139362941RR0001": {"name": "ALPHABEILLE VANIER", "designationCode": "C", "categoryCode": "21", "address": "235 RUE BEAUCAGE", "city": "QU\u00c9BEC", "province": "QC", "country": "CA", "postalCode": "G1M1H2", "twitter": "None", "instagram": "None", "facebook": "None", "youtube": "None", "website": "None", "summary": "None", "logo": "None", "latitude": 46.81584549096897, "longitude": -71.26110024173357}, "139269153RR0001": {"name": "ALPHABETISATION SANS LIMITE/LITERACY UNLIMITED", "designationCode": "C", "categoryCode": "21", "address": "501 ST-JEAN BLVD.", "city": "POINTE CLAIRE", "province": "QC", "country": "CA", "postalCode": "H9R3J5", "twitter": "None", "instagram": "None", "facebook": "None", "youtube": "None", "website": "None", "summary": "None", "logo": "None", "latitude": 45.449812475734184, "longitude": -73.81803713382254}, "890380686RR0001": {"name": "ALPHAPLUS CENTRE / CENTRE ALPHAPLUS", "designationCode": "C", "categoryCode": "21", "address": "5TH FLOOR,120 EGLINTON AVE. E", "city": "TORONTO", "province": "ON", "country": "CA", "postalCode": "M4P1E2", "twitter": "None", "instagram": "None", "facebook": "None", "youtube": "None", "website": "None", "summary": "None", "logo": "None", "latitude": 43.70748715794321, "longitude": -79.39482867805408}, "888320694RR0001": {"name": "ALPHARE", "designationCode": "C", "categoryCode": "21", "address": "2640 BOUL DIONNE", "city": "SAINT-GEORGES", "province": "QC", "country": "CA", "postalCode": "G5Y3X8", "twitter": "None", "instagram": "None", "facebook": "None", "youtube": "None", "website": "None", "summary": "None", "logo": "None", "latitude": 46.11151055311927, "longitude": -70.67174053335417}, "118784396RR0001": {"name": "ALPHONSE AND LUCY GRIFFITH PARE FOUNDATION INC.", "designationCode": "C", "categoryCode": "21", "address": "904-239 KENSINGTON", "city": "WESTMOUNT", "province": "QC", "country": "CA", "postalCode": "H3Z2H1", "twitter": "None", "instagram": "None", "facebook": "None", "youtube": "None", "website": "None", "summary": "None", "logo": "None", "latitude": 45.48289514490145, "longitude": -73.59236848776632}, "886676881RR0001": {"name": "ALPINE BAPTIST ASSOCIATION OF BRITISH COLUMBIA", "designationCode": "C", "categoryCode": "31", "address": "805 SHERBROOKE AVE", "city": "KAMLOOPS", "province": "BC", "country": "CA", "postalCode": "V2B1V9", "twitter": "None", "instagram": "None", "facebook": "None", "youtube": "None", "website": "None", "summary": "None", "logo": "None", "latitude": 50.704369492353955, "longitude": -120.3642804657222}, "106704174RR0001": {"name": "ALPINE CHURCH OF GOD", "designationCode": "C", "categoryCode": "39", "address": "925 2ND AVE SE", "city": "SWIFT CURRENT", "province": "SK", "country": "CA", "postalCode": "S9H4T2", "twitter": "None", "instagram": "None", "facebook": "None", "youtube": "None", "website": "None", "summary": "None", "logo": "None", "latitude": 50.26832752870921, "longitude": -107.80163676112329}, "837585793RR0001": {"name": "ALS Double Play", "designationCode": "A", "categoryCode": "03", "address": "227 ANGUS GLEN BLVD", "city": "MARKHAM", "province": "ON", "country": "CA", "postalCode": "L6C0K1", "twitter": "None", "instagram": "None", "facebook": "None", "youtube": "None", "website": "None", "summary": "None", "logo": "None", "latitude": 43.89007641300698, "longitude": -79.33366504783821}, "120630827RR0001": {"name": "ALS Society of Alberta", "designationCode": "C", "categoryCode": "11", "address": "7874 10 ST NE", "city": "CALGARY", "province": "AB", "country": "CA", "postalCode": "T2E8W1", "twitter": "None", "instagram": "None", "facebook": "None", "youtube": "None", "website": "None", "summary": "None", "logo": "None", "latitude": 51.12070060355937, "longitude": -114.04155899393494}, "829367812RR0001": {"name": "ALS Society of Prince Edward Island Inc.", "designationCode": "C", "categoryCode": "11", "address": "PO BOX 1643", "city": "SUMMERSIDE", "province": "PE", "country": "CA", "postalCode": "C1N2V5", "twitter": "None", "instagram": "None", "facebook": "None", "youtube": "None", "website": "None", "summary": "None", "logo": "None", "latitude": 46.39407900000006, "longitude": -63.791980999999936}, "813136744RR0001": {"name": "ALS SOCIETY OF NEWFOUNDLAND & LABRADOR CORPORATION", "designationCode": "C", "categoryCode": "19", "address": "P O BOX 844", "city": "CORNER BROOK", "province": "NL", "country": "CA", "postalCode": "A2H6H6", "twitter": "None", "instagram": "None", "facebook": "None", "youtube": "None", "website": "None", "summary": "None", "logo": "None", "latitude": 48.95097900000006, "longitude": -57.950103499999926}, "118784438RR0001": {"name": "ALSASK UNITED CHURCH", "designationCode": "C", "categoryCode": "44", "address": "PO BOX 134", "city": "OYEN", "province": "AB", "country": "CA", "postalCode": "T0J2J0", "twitter": "None", "instagram": "None", "facebook": "None", "youtube": "None", "website": "None", "summary": "None", "logo": "None", "latitude": 51.366820000000075, "longitude": -110.46831999999995}, "118784446RR0001": {"name": "ALSFELDT UNITED CHURCH", "designationCode": "C", "categoryCode": "44", "address": "RR #2", "city": "AYTON", "province": "ON", "country": "CA", "postalCode": "N0G1C0", "twitter": "None", "instagram": "None", "facebook": "None", "youtube": "None", "website": "None", "summary": "None", "logo": "None", "latitude": 43.954613052160035, "longitude": -80.89639667867361}, "891379125RR0001": {"name": "ALSTROM SYNDROME CANADA", "designationCode": "C", "categoryCode": "11", "address": "BOX 204                       R.R. #2", "city": "FINCH", "province": "ON", "country": "CA", "postalCode": "K0C1K0", "twitter": "None", "instagram": "None", "facebook": "None", "youtube": "None", "website": "None", "summary": "None", "logo": "None", "latitude": 45.12304500000006, "longitude": -75.06814399999993}, "864275631RR0001": {"name": "ALSTROM SYNDROME INTERNATIONAL SOCIETY", "designationCode": "C", "categoryCode": "11", "address": "BOX 47, RR #3, TUSKET         386 BELLEVILLE ROAD", "city": "YARMOUTH", "province": "NS", "country": "CA", "postalCode": "B0W3M0", "twitter": "None", "instagram": "None", "facebook": "None", "youtube": "None", "website": "None", "summary": "None", "logo": "None", "latitude": 43.85290861299053, "longitude": -65.92102957328652}, "865247456RR0001": {"name": "ALTA VISTA BAPTIST CHURCH", "designationCode": "C", "categoryCode": "31", "address": "887 CANTERBURY AVENUE", "city": "OTTAWA", "province": "ON", "country": "CA", "postalCode": "K1G3A3", "twitter": "None", "instagram": "None", "facebook": "None", "youtube": "None", "website": "None", "summary": "None", "logo": "None", "latitude": 45.38925243883067, "longitude": -75.62774397169481}}