{"868654781RR0001": {"name": "THE JAMILE AND GABBOUR RAMIA CANCER FOUNDATION", "designationCode": "B", "categoryCode": "03", "address": "7071 BAYERS ROAD              SUITE 4007", "city": "HALIFAX", "province": "NS", "country": "CA", "postalCode": "B3L2C2", "twitter": "None", "instagram": "None", "facebook": "None", "youtube": "None", "website": "None", "summary": "None", "logo": "None", "latitude": 44.65370574279748, "longitude": -63.627277609595474}, "138791439RR0001": {"name": "THE JANE AUSTEN SOCIETY OF NORTH AMERICA (CANADA)", "designationCode": "C", "categoryCode": "21", "address": "3250 FOREST HILL              APT. 1706", "city": "MONTREAL", "province": "QC", "country": "CA", "postalCode": "H3V1C8", "twitter": "None", "instagram": "None", "facebook": "None", "youtube": "None", "website": "None", "summary": "None", "logo": "None", "latitude": 45.49412602553522, "longitude": -73.60829649096897}, "140530916RR0001": {"name": "THE JANE GOODALL INSTITUTE FOR WILDLIFE RESEARCH, EDUCATION AND CONSERVATION / L'INSTITUT JANE GOODALL POUR LA RECHERCHE, L'EDUCATION ET LA CONSERVATION DE LA FAUNE", "designationCode": "C", "categoryCode": "54", "address": "UNIVERSITY OF TORONTO MAILROOM563 SPADINA CRES", "city": "TORONTO", "province": "ON", "country": "CA", "postalCode": "M5S2J7", "twitter": "None", "instagram": "None", "facebook": "None", "youtube": "None", "website": "None", "summary": "None", "logo": "None", "latitude": 43.66774998831461, "longitude": -79.39863994503438}, "855854378RR0001": {"name": "THE JANE SKORYNA FOUNDATION / LA FONDATION JANE SKORYNA", "designationCode": "B", "categoryCode": "03", "address": "1485 SHERBROOKE O             SUITE 6C", "city": "MONTREAL", "province": "QC", "country": "CA", "postalCode": "H3G0A3", "twitter": "None", "instagram": "None", "facebook": "None", "youtube": "None", "website": "None", "summary": "None", "logo": "None", "latitude": 45.49730933250616, "longitude": -73.58107393034788}, "119239119RR0001": {"name": "THE JANET AND CHARLES BURNS FOUNDATION", "designationCode": "B", "categoryCode": "03", "address": "1314 KING-VAUGHAN RD.", "city": "MAPLE", "province": "ON", "country": "CA", "postalCode": "L6A2A5", "twitter": "None", "instagram": "None", "facebook": "None", "youtube": "None", "website": "None", "summary": "None", "logo": "None", "latitude": 43.91687748437175, "longitude": -79.49509502914094}, "872140777RR0001": {"name": "THE JANET E HUTCHISON FOUNDATION/LA FONDATION JANET E HUTC", "designationCode": "B", "categoryCode": "03", "address": "123 FRONT STREET WEST         SUITE 911", "city": "TORONTO", "province": "ON", "country": "CA", "postalCode": "M5J2M2", "twitter": "None", "instagram": "None", "facebook": "None", "youtube": "None", "website": "None", "summary": "None", "logo": "None", "latitude": 43.645151024121596, "longitude": -79.38313372938431}, "119239127RR0001": {"name": "THE JANEWAY CHILDREN'S HOSPITAL FOUNDATION", "designationCode": "A", "categoryCode": "13", "address": "300 PRINCE PHILIP DRIVE", "city": "ST. JOHN'S", "province": "NL", "country": "CA", "postalCode": "A1B3V6", "twitter": "None", "instagram": "None", "facebook": "None", "youtube": "None", "website": "None", "summary": "None", "logo": "None", "latitude": 47.57084245692611, "longitude": -52.73881194319158}, "853691939RR0001": {"name": "THE JANUSZ KORCZAK ASSOCIATION OF CANADA", "designationCode": "C", "categoryCode": "29", "address": "6216 LOGAN LANE", "city": "VANCOUVER", "province": "BC", "country": "CA", "postalCode": "V6T2K9", "twitter": "None", "instagram": "None", "facebook": "None", "youtube": "None", "website": "None", "summary": "None", "logo": "None", "latitude": 49.25930955792582, "longitude": -123.24580065954318}, "894744036RR0001": {"name": "THE JARISLOWSKY FOUNDATION/LA FONDATION JARISLOWSKY", "designationCode": "A", "categoryCode": "23", "address": "1010 SHERBROOKE ST W STE 2005", "city": "MONTREAL", "province": "QC", "country": "CA", "postalCode": "H3A2R7", "twitter": "None", "instagram": "None", "facebook": "None", "youtube": "None", "website": "None", "summary": "None", "logo": "None", "latitude": 45.5023064815339, "longitude": -73.57605998485214}, "863860425RR0001": {"name": "THE JASMINE FOUNDATION INC.", "designationCode": "B", "categoryCode": "03", "address": "PO BOX 340", "city": "ROSENORT", "province": "MB", "country": "CA", "postalCode": "R0G1W0", "twitter": "None", "instagram": "None", "facebook": "None", "youtube": "None", "website": "None", "summary": "None", "logo": "None", "latitude": 49.45817000000005, "longitude": -97.43545999999998}, "884054404RR0001": {"name": "THE JCCC FOUNDATION", "designationCode": "A", "categoryCode": "03", "address": "6 GARAMOND COURT", "city": "TORONTO", "province": "ON", "country": "CA", "postalCode": "M3C1Z5", "twitter": "None", "instagram": "None", "facebook": "None", "youtube": "None", "website": "None", "summary": "None", "logo": "None", "latitude": 43.725981709129236, "longitude": -79.33380878700429}, "119239176RR0001": {"name": "THE JEAN AND SIDNEY BROWN FAMILY FOUNDATION", "designationCode": "B", "categoryCode": "03", "address": "500 - 400 APPLEWOOD CRES", "city": "CONCORD", "province": "ON", "country": "CA", "postalCode": "L4K0C3", "twitter": "None", "instagram": "None", "facebook": "None", "youtube": "None", "website": "None", "summary": "None", "logo": "None", "latitude": 43.80423065416364, "longitude": -79.53880727488524}, "119239184RR0001": {"name": "THE JEAN BELIVEAU FOUNDATION-LA FONDATION JEAN BELIVEAU", "designationCode": "A", "categoryCode": "05", "address": "2300 BOUL RENE LEVESQUE OUEST", "city": "MONTREAL", "province": "QC", "country": "CA", "postalCode": "H3H2R5", "twitter": "None", "instagram": "None", "facebook": "None", "youtube": "None", "website": "None", "summary": "None", "logo": "None", "latitude": 45.4883134726471, "longitude": -73.58219016804209}, "133840629RR0001": {"name": "THE JEFFERY HALE FOUNDATION - LA FONDATION JEFFERY HALE", "designationCode": "A", "categoryCode": "13", "address": "1270 CHEMIN STE-FOY           BUREAU 1124", "city": "QUEBEC", "province": "QC", "country": "CA", "postalCode": "G1S2M4", "twitter": "None", "instagram": "None", "facebook": "None", "youtube": "None", "website": "None", "summary": "None", "logo": "None", "latitude": 46.795915761948145, "longitude": -71.251954217053}, "875258410RR0001": {"name": "THE JEFFREY LYON TRUST", "designationCode": "B", "categoryCode": "15", "address": "220 DANIEL AVE", "city": "OTTAWA", "province": "ON", "country": "CA", "postalCode": "K1Y0C9", "twitter": "None", "instagram": "None", "facebook": "None", "youtube": "None", "website": "None", "summary": "None", "logo": "None", "latitude": 45.401287547319534, "longitude": -75.7466021826417}, "791565310RR0001": {"name": "THE JENNA DELANEY FOUNDATION", "designationCode": "B", "categoryCode": "03", "address": "25 MARIGOLD DR", "city": "TRURO", "province": "NS", "country": "CA", "postalCode": "B2N6E7", "twitter": "None", "instagram": "None", "facebook": "None", "youtube": "None", "website": "None", "summary": "None", "logo": "None", "latitude": 45.347133069604176, "longitude": -63.28556640831311}, "861050169RR0001": {"name": "THE JEREMY & JUDITH FREEDMAN FAMILY FOUNDATION", "designationCode": "B", "categoryCode": "03", "address": "413 LYTTON BLVD", "city": "NORTH YORK", "province": "ON", "country": "CA", "postalCode": "M5N1S3", "twitter": "None", "instagram": "None", "facebook": "None", "youtube": "None", "website": "None", "summary": "None", "logo": "None", "latitude": 43.71207580930822, "longitude": -79.42061854065443}, "108085218RR0001": {"name": "THE JERUSALEM FOUNDATION OF CANADA INC. - LA FONDATION JERUSALEM DU CANADA INC.", "designationCode": "C", "categoryCode": "52", "address": "510 - 5165 CH QUEEN-MARY", "city": "MONTREAL", "province": "QC", "country": "CA", "postalCode": "H3W1X7", "twitter": "None", "instagram": "None", "facebook": "None", "youtube": "None", "website": "None", "summary": "None", "logo": "None", "latitude": 45.48504827228912, "longitude": -73.62804484433582}, "891674376RR0001": {"name": "THE JESSE GLASS FOUNDATION", "designationCode": "B", "categoryCode": "03", "address": "55 PRINCE ARTHUR AVE          SUITE 1004", "city": "TORONTO", "province": "ON", "country": "CA", "postalCode": "M5R1B3", "twitter": "None", "instagram": "None", "facebook": "None", "youtube": "None", "website": "None", "summary": "None", "logo": "None", "latitude": 43.66912181652159, "longitude": -79.39833648958398}, "898771928RR0001": {"name": "THE JESSIE RICHARDSON AWARD SOCIETY", "designationCode": "C", "categoryCode": "22", "address": "249-3381 CAMBIE STREET", "city": "VANCOUVER", "province": "BC", "country": "CA", "postalCode": "V5Z1T4", "twitter": "None", "instagram": "None", "facebook": "None", "youtube": "None", "website": "None", "summary": "None", "logo": "None", "latitude": 49.25517378573488, "longitude": -123.1151819905936}, "119239242RR0001": {"name": "THE JESUIT FATHERS OF SASKATCHEWAN", "designationCode": "C", "categoryCode": "46", "address": "UNIV OF REGINA", "city": "REGINA", "province": "SK", "country": "CA", "postalCode": "S4S0A2", "twitter": "None", "instagram": "None", "facebook": "None", "youtube": "None", "website": "None", "summary": "None", "logo": "None", "latitude": 50.419710000000066, "longitude": -104.59363999999994}, "119239259RR0001": {"name": "THE JESUIT FATHERS OF UPPER CANADA", "designationCode": "C", "categoryCode": "46", "address": "43 QUEENS PARK CRES E", "city": "TORONTO", "province": "ON", "country": "CA", "postalCode": "M5S2C3", "twitter": "None", "instagram": "None", "facebook": "None", "youtube": "None", "website": "None", "summary": "None", "logo": "None", "latitude": 43.66441275021635, "longitude": -79.39092008350191}, "130515109RR0001": {"name": "THE JESUIT SEMINARY ASSOCIATION (SUBSIDIARY OF THE JESUIT FATHERS UPPER CANADA)", "designationCode": "C", "categoryCode": "21", "address": "43 QUEENS PARK CRESCENT E", "city": "TORONTO", "province": "ON", "country": "CA", "postalCode": "M5S2C3", "twitter": "None", "instagram": "None", "facebook": "None", "youtube": "None", "website": "None", "summary": "None", "logo": "None", "latitude": 43.66441275021635, "longitude": -79.39092008350191}, "119239283RR0001": {"name": "THE JETAVANA BUDDHIST SOCIETY OF VANCOUVER", "designationCode": "C", "categoryCode": "35", "address": "995 EAST 41ST AVE.", "city": "VANCOUVER", "province": "BC", "country": "CA", "postalCode": "V5W1P8", "twitter": "None", "instagram": "None", "facebook": "None", "youtube": "None", "website": "None", "summary": "None", "logo": "None", "latitude": 49.23287248600596, "longitude": -123.08499352553522}, "107534695RR0001": {"name": "THE JEWISH CAMP COUNCIL OF TORONTO", "designationCode": "C", "categoryCode": "56", "address": "202-1118 CENTRE ST.", "city": "THORNHILL", "province": "ON", "country": "CA", "postalCode": "L4J7R9", "twitter": "None", "instagram": "None", "facebook": "None", "youtube": "None", "website": "None", "summary": "None", "logo": "None", "latitude": 43.80836370191124, "longitude": -79.46223249907639}, "890059942RR0001": {"name": "THE JEWISH CEMETERY TRUST FUND", "designationCode": "C", "categoryCode": "59", "address": "1147 CHAPMAN STREET", "city": "VICTORIA", "province": "BC", "country": "CA", "postalCode": "V8V2T5", "twitter": "None", "instagram": "None", "facebook": "None", "youtube": "None", "website": "None", "summary": "None", "logo": "None", "latitude": 48.41292760502643, "longitude": -123.35498547322403}, "899654123RR0001": {"name": "THE JEWISH CENTRE FOR LEARNING AND LIVING", "designationCode": "C", "categoryCode": "21", "address": "75 STRAUSS RD", "city": "THORNHILL", "province": "ON", "country": "CA", "postalCode": "L4J8Z4", "twitter": "None", "instagram": "None", "facebook": "None", "youtube": "None", "website": "None", "summary": "None", "logo": "None", "latitude": 43.83862879098634, "longitude": -79.46327696404877}, "857308530RR0001": {"name": "THE JEWISH CHAPLAINCY SOCIETY", "designationCode": "C", "categoryCode": "49", "address": "550 EAST 7TH AVENUE #204", "city": "VANCOUVER", "province": "BC", "country": "CA", "postalCode": "V5T1N7", "twitter": "None", "instagram": "None", "facebook": "None", "youtube": "None", "website": "None", "summary": "None", "logo": "None", "latitude": 49.263917467684124, "longitude": -123.09191991618097}, "119284289RR0001": {"name": "THE JEWISH FEDERATION OF VICTORIA AND VANCOUVER ISLAND SOCIETY", "designationCode": "C", "categoryCode": "03", "address": "3636 SHELBOURNE ST", "city": "VICTORIA", "province": "BC", "country": "CA", "postalCode": "V8P4H2", "twitter": "None", "instagram": "None", "facebook": "None", "youtube": "None", "website": "None", "summary": "None", "logo": "None", "latitude": 48.45971792200936, "longitude": -123.3330049405041}, "119239317RR0001": {"name": "THE JEWISH FOUNDATION OF MANITOBA", "designationCode": "A", "categoryCode": "23", "address": "C400 123 DONCASTER ST", "city": "WINNIPEG", "province": "MB", "country": "CA", "postalCode": "R3N2B2", "twitter": "None", "instagram": "None", "facebook": "None", "youtube": "None", "website": "None", "summary": "None", "logo": "None", "latitude": 49.86779026460563, "longitude": -97.20862592209049}, "108085259RR0001": {"name": "THE JEWISH HISTORICAL SOCIETY OF BRITISH COLUMBIA", "designationCode": "C", "categoryCode": "50", "address": "6184 ASH ST", "city": "VANCOUVER", "province": "BC", "country": "CA", "postalCode": "V5Z3G9", "twitter": "None", "instagram": "None", "facebook": "None", "youtube": "None", "website": "None", "summary": "None", "logo": "None", "latitude": 49.228899988343244, "longitude": -123.11794051661977}, "119239341RR0001": {"name": "THE JEWISH HOME FOR THE AGED", "designationCode": "C", "categoryCode": "01", "address": "3560 BATHURST ST", "city": "TORONTO", "province": "ON", "country": "CA", "postalCode": "M6A2E1", "twitter": "None", "instagram": "None", "facebook": "None", "youtube": "None", "website": "None", "summary": "None", "logo": "None", "latitude": 43.730265584771324, "longitude": -79.43232918168847}, "107534943RR0001": {"name": "THE JEWISH REFORM CONGREGATION OF OTTAWA-TEMPLE ISRAEL", "designationCode": "C", "categoryCode": "42", "address": "1301 PRINCE OF WALES DR", "city": "OTTAWA", "province": "ON", "country": "CA", "postalCode": "K2C1N2", "twitter": "None", "instagram": "None", "facebook": "None", "youtube": "None", "website": "None", "summary": "None", "logo": "None", "latitude": 45.37125659732212, "longitude": -75.70647238617369}, "890052863RR0001": {"name": "THE JEWISH SENIORS HOUSING SOCIETY OF VANCOUVER ISLAND", "designationCode": "C", "categoryCode": "01", "address": "3636 SHELBOURNE STREET", "city": "VICTORIA", "province": "BC", "country": "CA", "postalCode": "V8P2H2", "twitter": "None", "instagram": "None", "facebook": "None", "youtube": "None", "website": "None", "summary": "None", "logo": "None", "latitude": 48.45971792200936, "longitude": -123.3330049405041}, "866265192RR0001": {"name": "THE JEWISH SOCIAL SERVICES OF HAMILTON INC.", "designationCode": "C", "categoryCode": "09", "address": "30 KING STREET EAST", "city": "DUNDAS", "province": "ON", "country": "CA", "postalCode": "L9H5G6", "twitter": "None", "instagram": "None", "facebook": "None", "youtube": "None", "website": "None", "summary": "None", "logo": "None", "latitude": 43.26577801268251, "longitude": -79.95219295301132}, "107535007RR0001": {"name": "THE JEWISH THEOLOGICAL SOCIETY OF CANADA", "designationCode": "C", "categoryCode": "20", "address": "310-3845 BATHURST ST.", "city": "TORONTO", "province": "ON", "country": "CA", "postalCode": "M3H3N2", "twitter": "None", "instagram": "None", "facebook": "None", "youtube": "None", "website": "None", "summary": "None", "logo": "None", "latitude": 43.74047087039064, "longitude": -79.43473796055765}, "119239366RR0001": {"name": "THE JEWISH YOUTH LIBRARY OF OTTAWA", "designationCode": "C", "categoryCode": "50", "address": "192 SWITZER AVE", "city": "OTTAWA", "province": "ON", "country": "CA", "postalCode": "K1Z7A8", "twitter": "None", "instagram": "None", "facebook": "None", "youtube": "None", "website": "None", "summary": "None", "logo": "None", "latitude": 45.38541613737099, "longitude": -75.74187425630453}, "881178511RR0001": {"name": "THE JIM MEEKISON & CAROLYN KEYSTONE FOUNDATION", "designationCode": "B", "categoryCode": "03", "address": "4 GLENGROVE AVENUE WEST", "city": "TORONTO", "province": "ON", "country": "CA", "postalCode": "M4R1N4", "twitter": "None", "instagram": "None", "facebook": "None", "youtube": "None", "website": "None", "summary": "None", "logo": "None", "latitude": 43.71942018347844, "longitude": -79.40154981294354}, "890952377RR0001": {"name": "THE JIM PATTISON FOUNDATION", "designationCode": "B", "categoryCode": "43", "address": "1800-1067 CORDOVA ST W", "city": "VANCOUVER", "province": "BC", "country": "CA", "postalCode": "V6C1C7", "twitter": "None", "instagram": "None", "facebook": "None", "youtube": "None", "website": "None", "summary": "None", "logo": "None"}, "890136393RR0001": {"name": "THE JOACHIM AND CHARLOTTE KELLERMAN CHARITABLE FOUNDATION", "designationCode": "C", "categoryCode": "23", "address": "94 AVENUE ROAD", "city": "TORONTO", "province": "ON", "country": "CA", "postalCode": "M5R2H2", "twitter": "None", "instagram": "None", "facebook": "None", "youtube": "None", "website": "None", "summary": "None", "logo": "None", "latitude": 43.67254512600267, "longitude": -79.39574627381833}, "891845646RR0001": {"name": "THE JOAN AND CLIFFORD HATCH FOUNDATION", "designationCode": "B", "categoryCode": "03", "address": "80 ROSEDALE HEIGHTS DRIVE", "city": "TORONTO", "province": "ON", "country": "CA", "postalCode": "M4T1C5", "twitter": "None", "instagram": "None", "facebook": "None", "youtube": "None", "website": "None", "summary": "None", "logo": "None", "latitude": 43.68728215794321, "longitude": -79.37976620358928}, "889375192RR0001": {"name": "THE JOAN AND JERRY LOZINSKI FOUNDATION", "designationCode": "B", "categoryCode": "13", "address": "49 CLARENDON AVENUE", "city": "TORONTO", "province": "ON", "country": "CA", "postalCode": "M4V1J2", "twitter": "None", "instagram": "None", "facebook": "None", "youtube": "None", "website": "None", "summary": "None", "logo": "None", "latitude": 43.68298480209484, "longitude": -79.40401681473256}, "857168900RR0001": {"name": "THE JOAN AND REGIS DUFFY FOUNDATION", "designationCode": "B", "categoryCode": "03", "address": "31 MAPLEWOOD CRESCENT", "city": "CHARLOTTETOWN", "province": "PE", "country": "CA", "postalCode": "C1A7R5", "twitter": "None", "instagram": "None", "facebook": "None", "youtube": "None", "website": "None", "summary": "None", "logo": "None", "latitude": 46.24551711379765, "longitude": -63.152036859137915}, "895437010RR0001": {"name": "THE JOAN DECKELBAUM SCHOLARSHIP FOUNDATION", "designationCode": "B", "categoryCode": "23", "address": "3085 CHATHAM ST", "city": "RICHMOND", "province": "BC", "country": "CA", "postalCode": "V7E2Y4", "twitter": "None", "instagram": "None", "facebook": "None", "youtube": "None", "website": "None", "summary": "None", "logo": "None", "latitude": 49.12652032544407, "longitude": -123.19100443057579}, "866540784RR0001": {"name": "THE JOAN THEATRE COMPANY", "designationCode": "C", "categoryCode": "22", "address": "1047 CRAVEN ROAD", "city": "TORONTO", "province": "ON", "country": "CA", "postalCode": "M4J4V7", "twitter": "None", "instagram": "None", "facebook": "None", "youtube": "None", "website": "None", "summary": "None", "logo": "None", "latitude": 43.68124940383171, "longitude": -79.32481881098165}, "897033361RR0001": {"name": "THE JOB SAFETY SKILLS SOCIETY OF ALBERTA", "designationCode": "C", "categoryCode": "21", "address": "101 AIRPORT RD NW", "city": "EDMONTON", "province": "AB", "country": "CA", "postalCode": "T5G3K2", "twitter": "None", "instagram": "None", "facebook": "None", "youtube": "None", "website": "None", "summary": "None", "logo": "None", "latitude": 53.57079293147307, "longitude": -113.52311441015104}, "891544777RR0001": {"name": "THE JOB YELLOWHEAD MEMORIAL EDUCATION FUND, INC.", "designationCode": "B", "categoryCode": "23", "address": "1103 MONCTON AVENUE", "city": "WINNIPEG", "province": "MB", "country": "CA", "postalCode": "R2K1Z4", "twitter": "None", "instagram": "None", "facebook": "None", "youtube": "None", "website": "None", "summary": "None", "logo": "None", "latitude": 49.91022131946443, "longitude": -97.06724849420027}, "846626877RR0001": {"name": "THE JOE CHITHALEN MEMORIAL MUSICAL INSTRUMENT LENDING LIBRARY", "designationCode": "C", "categoryCode": "22", "address": "256 CONCESSION 2              RR 3", "city": "PORT DOVER", "province": "ON", "country": "CA", "postalCode": "N0A1N3", "twitter": "None", "instagram": "None", "facebook": "None", "youtube": "None", "website": "None", "summary": "None", "logo": "None", "latitude": 43.01447459002277, "longitude": -79.84542831098166}, "107803421RR0001": {"name": "THE JOE DWEK OHR HAEMET SEPHARDIC SCHOOL", "designationCode": "C", "categoryCode": "20", "address": "7026 BATHURST ST", "city": "THORNHILL", "province": "ON", "country": "CA", "postalCode": "L4J8K3", "twitter": "None", "instagram": "None", "facebook": "None", "youtube": "None", "website": "None", "summary": "None", "logo": "None", "latitude": 43.79461578322474, "longitude": -79.44626688796176}, "858078470RR0001": {"name": "THE JOE PLASKETT FOUNDATION", "designationCode": "C", "categoryCode": "22", "address": "1610 - 1055 HASTINGS ST W", "city": "VANCOUVER", "province": "BC", "country": "CA", "postalCode": "V6E2E9", "twitter": "None", "instagram": "None", "facebook": "None", "youtube": "None", "website": "None", "summary": "None", "logo": "None", "latitude": 49.2875699392347, "longitude": -123.11848196099034}, "872996624RR0001": {"name": "THE JOEY AND ODETTE BASMAJI FOUNDATION LA FONDATION DE LA FAMILLE JOEY ET ODETTE BASMAJI", "designationCode": "B", "categoryCode": "03", "address": "6125 CH. DE LA COTE DE LIESSE", "city": "ST-LAURENT", "province": "QC", "country": "CA", "postalCode": "H4T1C8", "twitter": "None", "instagram": "None", "facebook": "None", "youtube": "None", "website": "None", "summary": "None", "logo": "None", "latitude": 45.48910989570119, "longitude": -73.68751440582767}, "877513580RR0001": {"name": "THE JOHANN RUBIN FOUNDATION", "designationCode": "B", "categoryCode": "03", "address": "65 REGINA AVENUE", "city": "TORONTO", "province": "ON", "country": "CA", "postalCode": "M6A1R4", "twitter": "None", "instagram": "None", "facebook": "None", "youtube": "None", "website": "None", "summary": "None", "logo": "None", "latitude": 43.72681480209486, "longitude": -79.43637631473257}, "856808845RR0001": {"name": "THE JOHANNA AND WALFRED CARLSON MEMORIAL SCHOLARSHIP FUND", "designationCode": "B", "categoryCode": "21", "address": "136 WESTFIELD DRIVE", "city": "REGINA", "province": "SK", "country": "CA", "postalCode": "S4S2S7", "twitter": "None", "instagram": "None", "facebook": "None", "youtube": "None", "website": "None", "summary": "None", "logo": "None", "latitude": 50.406099442148886, "longitude": -104.62637893865778}, "119138832RR0001": {"name": "THE JOHN A. SANDERSON AND FAMILY TRUST", "designationCode": "B", "categoryCode": "05", "address": "(THE CANADA TRUST CO.)        PO BOX 10085", "city": "VANCOUVER", "province": "BC", "country": "CA", "postalCode": "V7Y1B6", "twitter": "None", "instagram": "None", "facebook": "None", "youtube": "None", "website": "None", "summary": "None", "logo": "None", "latitude": 49.28294993392596, "longitude": -123.11892994113924}, "848978417RR0001": {"name": "THE JOHN AND DEBORAH HARRIS FAMILY FOUNDATION", "designationCode": "B", "categoryCode": "03", "address": "4211 YONGE ST. SUITE 225", "city": "TORONTO", "province": "ON", "country": "CA", "postalCode": "M2P2A9", "twitter": "None", "instagram": "None", "facebook": "None", "youtube": "None", "website": "None", "summary": "None", "logo": "None"}, "839190949RR0001": {"name": "THE JOHN AND JUDY BRAGG FAMILY FOUNDATION", "designationCode": "B", "categoryCode": "03", "address": "P.O. BOX 220                  4881 MAIN STREET", "city": "OXFORD", "province": "NS", "country": "CA", "postalCode": "B0M1P0", "twitter": "None", "instagram": "None", "facebook": "None", "youtube": "None", "website": "None", "summary": "None", "logo": "None", "latitude": 45.73008246635644, "longitude": -63.87556107172864}, "865128177RR0001": {"name": "THE JOHN AND PAT MCCUTCHEON CHARITABLE FOUNDATION", "designationCode": "B", "categoryCode": "03", "address": "3093 DUNDAS ST W", "city": "TORONTO", "province": "ON", "country": "CA", "postalCode": "M6P1Z9", "twitter": "None", "instagram": "None", "facebook": "None", "youtube": "None", "website": "None", "summary": "None", "logo": "None", "latitude": 43.665480525102545, "longitude": -79.47266302553523}, "875327967RR0001": {"name": "THE JOHN BLACK FOUNDATION", "designationCode": "C", "categoryCode": "49", "address": "898 HENDERSON HIGHWAY", "city": "WINNIPEG", "province": "MB", "country": "CA", "postalCode": "R2K3T4", "twitter": "None", "instagram": "None", "facebook": "None", "youtube": "None", "website": "None", "summary": "None", "logo": "None", "latitude": 49.93253463503371, "longitude": -97.0995141915285}, "890471642RR0001": {"name": "THE JOHN BROUWER FOUNDATION", "designationCode": "B", "categoryCode": "03", "address": "3480 WHITE OAK ROAD", "city": "LONDON", "province": "ON", "country": "CA", "postalCode": "N6E2Z9", "twitter": "None", "instagram": "None", "facebook": "None", "youtube": "None", "website": "None", "summary": "None", "logo": "None", "latitude": 42.928573210946894, "longitude": -81.24908720307063}, "895624229RR0001": {"name": "THE JOHN C. AND SALLY HORSFALL EATON FOUNDATION", "designationCode": "B", "categoryCode": "03", "address": "55 ST. CLAIR AVENUE           SUITE 260", "city": "TORONTO", "province": "ON", "country": "CA", "postalCode": "M4V2Y7", "twitter": "None", "instagram": "None", "facebook": "None", "youtube": "None", "website": "None", "summary": "None", "logo": "None", "latitude": 43.68740282763009, "longitude": -79.39690778919734}, "890567324RR0001": {"name": "THE JOHN DAVID AND SIGNY EATON CHARITABLE FOUNDATION", "designationCode": "B", "categoryCode": "03", "address": "17485 MCLAREN ROAD", "city": "CALEDON VILLAGE", "province": "ON", "country": "CA", "postalCode": "L7K1S2", "twitter": "None", "instagram": "None", "facebook": "None", "youtube": "None", "website": "None", "summary": "None", "logo": "None", "latitude": 43.82388635325034, "longitude": -79.99490625893212}, "119239531RR0001": {"name": "THE JOHN DOBSON FOUNDATION", "designationCode": "B", "categoryCode": "21", "address": "1010 SHERBROOKE ST. W.        SUITE 2300", "city": "MONTREAL", "province": "QC", "country": "CA", "postalCode": "H3A2R7", "twitter": "None", "instagram": "None", "facebook": "None", "youtube": "None", "website": "None", "summary": "None", "logo": "None"}, "888701190RR0001": {"name": "THE JOHN E LOWES INSURANCE EDUCATION FUND", "designationCode": "C", "categoryCode": "21", "address": "18 KING STREET EAST, 6TH FLOOR", "city": "TORONTO", "province": "ON", "country": "CA", "postalCode": "M5C1C4", "twitter": "None", "instagram": "None", "facebook": "None", "youtube": "None", "website": "None", "summary": "None", "logo": "None", "latitude": 43.64935016515658, "longitude": -79.37696809423504}, "889881868RR0001": {"name": "THE JOHN F QUINNEY FAMILY FOUNDATION", "designationCode": "B", "categoryCode": "05", "address": "94 PINE VALLEY DRIVE", "city": "LONDON", "province": "ON", "country": "CA", "postalCode": "N6J4L9", "twitter": "None", "instagram": "None", "facebook": "None", "youtube": "None", "website": "None", "summary": "None", "logo": "None", "latitude": 42.94387269830917, "longitude": -81.28173560364145}, "888459997RR0001": {"name": "THE JOHN G EWART ROTARY SCHOLARSHIP FUND OF THE ROTARY CLUB OF COBOURG", "designationCode": "C", "categoryCode": "21", "address": "8050 DANFORTH ROAD WEST       RR.4", "city": "COBOURG", "province": "ON", "country": "CA", "postalCode": "K9A4J7", "twitter": "None", "instagram": "None", "facebook": "None", "youtube": "None", "website": "None", "summary": "None", "logo": "None", "latitude": 44.00179584056207, "longitude": -78.2193349478698}, "119239580RR0001": {"name": "THE JOHN H AND MARIE KOZIAK FAMILY FOUNDATION", "designationCode": "B", "categoryCode": "03", "address": "BOX 4412", "city": "EDMONTON", "province": "AB", "country": "CA", "postalCode": "T6E4T5", "twitter": "None", "instagram": "None", "facebook": "None", "youtube": "None", "website": "None", "summary": "None", "logo": "None", "latitude": 53.499354000000054, "longitude": -113.46577549999994}, "889292074RR0001": {"name": "THE JOHN HACKNEY FOUNDATION FOR THE NOOSPHERE/LA FONDATION JOHN HACKNEY POUR NOOSPHERE", "designationCode": "B", "categoryCode": "03", "address": "1100 RENE LEVESQUE BLVD WEST  SUITE 650", "city": "MONTREAL", "province": "QC", "country": "CA", "postalCode": "H3B4N4", "twitter": "None", "instagram": "None", "facebook": "None", "youtube": "None", "website": "None", "summary": "None", "logo": "None", "latitude": 45.49793912268445, "longitude": -73.57065156535295}, "129933370RR0001": {"name": "THE JOHN HOWARD SOCIETY OF ALBERTA", "designationCode": "C", "categoryCode": "59", "address": "10523 100 AVE NW              2ND FLOOR", "city": "EDMONTON", "province": "AB", "country": "CA", "postalCode": "T5J0A8", "twitter": "None", "instagram": "None", "facebook": "None", "youtube": "None", "website": "None", "summary": "None", "logo": "None", "latitude": 53.53878449235396, "longitude": -113.50239202553523}, "108085374RR0001": {"name": "THE JOHN HOWARD SOCIETY OF BRANDON INC.", "designationCode": "C", "categoryCode": "59", "address": "153-8TH STREET", "city": "BRANDON", "province": "MB", "country": "CA", "postalCode": "R7A3W9", "twitter": "None", "instagram": "None", "facebook": "None", "youtube": "None", "website": "None", "summary": "None", "logo": "None", "latitude": 49.84710583900777, "longitude": -99.94865992660942}, "107542581RR0001": {"name": "THE JOHN HOWARD SOCIETY OF BRITISH COLUMBIA", "designationCode": "C", "categoryCode": "59", "address": "763 KINGSWAY", "city": "VANCOUVER", "province": "BC", "country": "CA", "postalCode": "V5V3C2", "twitter": "None", "instagram": "None", "facebook": "None", "youtube": "None", "website": "None", "summary": "None", "logo": "None", "latitude": 49.25592965757537, "longitude": -123.0879953887678}, "130523467RR0001": {"name": "THE JOHN HOWARD SOCIETY OF CANADA", "designationCode": "C", "categoryCode": "59", "address": "809 BLACKBURN MEWS", "city": "KINGSTON", "province": "ON", "country": "CA", "postalCode": "K7P2N6", "twitter": "None", "instagram": "None", "facebook": "None", "youtube": "None", "website": "None", "summary": "None", "logo": "None", "latitude": 44.25138075327475, "longitude": -76.57103968405535}, "108085333RR0001": {"name": "THE JOHN HOWARD SOCIETY OF FREDERICTON, INC.", "designationCode": "C", "categoryCode": "59", "address": "294 MAIN STREET", "city": "FREDERICTON", "province": "NB", "country": "CA", "postalCode": "E3A1C9", "twitter": "None", "instagram": "None", "facebook": "None", "youtube": "None", "website": "None", "summary": "None", "logo": "None", "latitude": 45.97543517343779, "longitude": -66.64642105011815}, "105221899RR0001": {"name": "THE JOHN HOWARD SOCIETY OF GRANDE PRAIRIE", "designationCode": "C", "categoryCode": "59", "address": "200-10135 101 AVE", "city": "GRANDE PRAIRIE", "province": "AB", "country": "CA", "postalCode": "T8V0Y4", "twitter": "None", "instagram": "None", "facebook": "None", "youtube": "None", "website": "None", "summary": "None", "logo": "None", "latitude": 55.17149301684733, "longitude": -118.79899083157734}, "107542649RR0001": {"name": "THE JOHN HOWARD SOCIETY OF HAMILTON, BURLINGTON & AREA", "designationCode": "C", "categoryCode": "59", "address": "654 BARTON STREET E", "city": "HAMILTON", "province": "ON", "country": "CA", "postalCode": "L8L3A2", "twitter": "None", "instagram": "None", "facebook": "None", "youtube": "None", "website": "None", "summary": "None", "logo": "None", "latitude": 43.256722035230084, "longitude": -79.83719084722135}, "898795257RR0001": {"name": "THE JOHN HOWARD SOCIETY OF LONDON AND DISTRICT", "designationCode": "C", "categoryCode": "59", "address": "601 QUEENS AVENUE", "city": "LONDON", "province": "ON", "country": "CA", "postalCode": "N6B1Y9", "twitter": "None", "instagram": "None", "facebook": "None", "youtube": "None", "website": "None", "summary": "None", "logo": "None", "latitude": 42.98991006797868, "longitude": -81.23270292685679}, "119239648RR0001": {"name": "THE JOHN HOWARD SOCIETY OF MANITOBA INC", "designationCode": "C", "categoryCode": "59", "address": "MAIN FLOOR-583 ELLICE AVE", "city": "WINNIPEG", "province": "MB", "country": "CA", "postalCode": "R3B1Z7", "twitter": "None", "instagram": "None", "facebook": "None", "youtube": "None", "website": "None", "summary": "None", "logo": "None", "latitude": 49.89294351875456, "longitude": -97.15819972009349}, "132891045RR0001": {"name": "THE JOHN HOWARD SOCIETY OF NEW BRUNSWICK, INC.", "designationCode": "C", "categoryCode": "59", "address": "68 CARLETON STREET", "city": "ST. JOHN", "province": "NB", "country": "CA", "postalCode": "E2L2Z4", "twitter": "None", "instagram": "None", "facebook": "None", "youtube": "None", "website": "None", "summary": "None", "logo": "None", "latitude": 45.27576666388715, "longitude": -66.06204869969416}, "108085408RR0001": {"name": "THE JOHN HOWARD SOCIETY OF NEWFOUNDLAND AND LABRADOR INC.", "designationCode": "C", "categoryCode": "59", "address": "342 PENNYWELL RD", "city": "ST. JOHN'S", "province": "NL", "country": "CA", "postalCode": "A1E1V9", "twitter": "None", "instagram": "None", "facebook": "None", "youtube": "None", "website": "None", "summary": "None", "logo": "None", "latitude": 47.55724111798125, "longitude": -52.736229030267076}, "107542524RR0001": {"name": "THE JOHN HOWARD SOCIETY OF NORTH ISLAND", "designationCode": "C", "categoryCode": "59", "address": "#201-140A 10TH AVENUE", "city": "CAMPBELL RIVER", "province": "BC", "country": "CA", "postalCode": "V9W4E3", "twitter": "None", "instagram": "None", "facebook": "None", "youtube": "None", "website": "None", "summary": "None", "logo": "None", "latitude": 50.02548606121662, "longitude": -125.24504977363249}, "108085424RR0001": {"name": "THE JOHN HOWARD SOCIETY OF PRINCE EDWARD ISLAND", "designationCode": "B", "categoryCode": "09", "address": "PO BOX 1211                   STN CENTRAL", "city": "CHARLOTTETOWN", "province": "PE", "country": "CA", "postalCode": "C1A7M8", "twitter": "None", "instagram": "None", "facebook": "None", "youtube": "None", "website": "None", "summary": "None", "logo": "None", "latitude": 46.23659700000006, "longitude": -63.12815449999994}, "119239606RR0001": {"name": "THE JOHN HOWARD SOCIETY OF RED DEER", "designationCode": "C", "categoryCode": "59", "address": "4916 50 ST", "city": "RED DEER", "province": "AB", "country": "CA", "postalCode": "T4N1X7", "twitter": "None", "instagram": "None", "facebook": "None", "youtube": "None", "website": "None", "summary": "None", "logo": "None", "latitude": 52.269016471579235, "longitude": -113.81259133236193}, "107542573RR0001": {"name": "THE JOHN HOWARD SOCIETY OF THE LOWER MAINLAND OF BRITISH COLUMBIA", "designationCode": "C", "categoryCode": "59", "address": "763 KINGSWAY", "city": "VANCOUVER", "province": "BC", "country": "CA", "postalCode": "V5V3C2", "twitter": "None", "instagram": "None", "facebook": "None", "youtube": "None", "website": "None", "summary": "None", "logo": "None", "latitude": 49.25592965757537, "longitude": -123.0879953887678}, "107542540RR0001": {"name": "THE JOHN HOWARD SOCIETY OF THE NORTH OKANAGAN/KOOTENAY REGION OF B.C.", "designationCode": "C", "categoryCode": "59", "address": "2307 43 ST", "city": "VERNON", "province": "BC", "country": "CA", "postalCode": "V1T6K7", "twitter": "None", "instagram": "None", "facebook": "None", "youtube": "None", "website": "None", "summary": "None", "logo": "None", "latitude": 50.25790331914731, "longitude": -119.29663348144791}, "107542565RR0001": {"name": "THE JOHN HOWARD SOCIETY OF VICTORIA", "designationCode": "C", "categoryCode": "59", "address": "2675 BRIDGE ST", "city": "VICTORIA", "province": "BC", "country": "CA", "postalCode": "V8T4Y4", "twitter": "None", "instagram": "None", "facebook": "None", "youtube": "None", "website": "None", "summary": "None", "logo": "None", "latitude": 48.43675217375491, "longitude": -123.37326042348123}, "131538118RR0001": {"name": "THE JOHN HOWARD SOCIETY SOUTH OKANAGAN/KOOTENAY REGION OF B C", "designationCode": "C", "categoryCode": "59", "address": "2,1441 ST PAUL ST", "city": "KELOWNA", "province": "BC", "country": "CA", "postalCode": "V1Y2E4", "twitter": "None", "instagram": "None", "facebook": "None", "youtube": "None", "website": "None", "summary": "None", "logo": "None", "latitude": 49.88782841909517, "longitude": -119.49185981663713}, "119239671RR0001": {"name": "THE JOHN HUSSEY FOUNDATION", "designationCode": "B", "categoryCode": "03", "address": "1280 22ND ST W", "city": "NORTH VANCOUVER", "province": "BC", "country": "CA", "postalCode": "V7P2G1", "twitter": "None", "instagram": "None", "facebook": "None", "youtube": "None", "website": "None", "summary": "None", "logo": "None", "latitude": 49.32998449711447, "longitude": -123.10946155536962}, "102693330RR0001": {"name": "THE JOHN MCCONNELL AND MARGARET ANN WILSON MCCONNELL MEMORIAL FOUNDATION", "designationCode": "B", "categoryCode": "03", "address": "239 - 1 MANITOBA ST", "city": "BRACEBRIDGE", "province": "ON", "country": "CA", "postalCode": "P1L1S2", "twitter": "None", "instagram": "None", "facebook": "None", "youtube": "None", "website": "None", "summary": "None", "logo": "None", "latitude": 45.04029550311199, "longitude": -79.30857751602863}, "119239713RR0001": {"name": "THE JOHN MCKELLAR CHARITABLE FOUNDATION", "designationCode": "B", "categoryCode": "23", "address": "66 WELLINGTON ST. WEST        SUITE 4100", "city": "TORONTO", "province": "ON", "country": "CA", "postalCode": "M5K1B7", "twitter": "None", "instagram": "None", "facebook": "None", "youtube": "None", "website": "None", "summary": "None", "logo": "None", "latitude": 43.647055248975605, "longitude": -79.38109901041601}, "868208893RR0001": {"name": "THE JOHN VOLKEN FOUNDATION", "designationCode": "B", "categoryCode": "03", "address": "6911 KING GEORGE HWY", "city": "SURREY", "province": "BC", "country": "CA", "postalCode": "V3W5A1", "twitter": "None", "instagram": "None", "facebook": "None", "youtube": "None", "website": "None", "summary": "None", "logo": "None", "latitude": 49.128232950947016, "longitude": -122.84563595907564}, "119239770RR0001": {"name": "THE JOHN W.S. PRESTON FOUNDATION", "designationCode": "B", "categoryCode": "03", "address": "2851 JOHN ST                  SUITE #1", "city": "MARKHAM", "province": "ON", "country": "CA", "postalCode": "L3R5R7", "twitter": "None", "instagram": "None", "facebook": "None", "youtube": "None", "website": "None", "summary": "None", "logo": "None", "latitude": 43.82506670327219, "longitude": -79.3526156673496}, "890650179RR0001": {"name": "THE JOHNIE (SAM) NICHOLSON MEMORIAL TRUST FUND", "designationCode": "C", "categoryCode": "50", "address": "PO BOX 744", "city": "BADDECK", "province": "NS", "country": "CA", "postalCode": "B0E1B0", "twitter": "None", "instagram": "None", "facebook": "None", "youtube": "None", "website": "None", "summary": "None", "logo": "None", "latitude": 46.087500000000034, "longitude": -60.780119999999954}, "119239739RR0001": {"name": "THE JOHNSON FAMILY FOUNDATION", "designationCode": "B", "categoryCode": "55", "address": "175 SIGNAL HILL RD", "city": "ST. JOHN'S", "province": "NL", "country": "CA", "postalCode": "A1A1B2", "twitter": "None", "instagram": "None", "facebook": "None", "youtube": "None", "website": "None", "summary": "None", "logo": "None", "latitude": 47.572135432771134, "longitude": -52.689958890905544}, "119239754RR0001": {"name": "THE JOHNSTON CEMETERY ASSOCIATION", "designationCode": "C", "categoryCode": "59", "address": "PO BOX 343", "city": "OAK LAKE", "province": "MB", "country": "CA", "postalCode": "R0M1P0", "twitter": "None", "instagram": "None", "facebook": "None", "youtube": "None", "website": "None", "summary": "None", "logo": "None", "latitude": 49.76430756929151, "longitude": -100.63254783087561}, "119239788RR0001": {"name": "THE JOINT CEMETERY COMMITTEE", "designationCode": "C", "categoryCode": "59", "address": "141 FERRY ROAD RR3", "city": "O'LEARY", "province": "PE", "country": "CA", "postalCode": "C0B1V0", "twitter": "None", "instagram": "None", "facebook": "None", "youtube": "None", "website": "None", "summary": "None", "logo": "None", "latitude": 46.76718600000001, "longitude": -64.09043207718258}, "130153687RR0001": {"name": "THE JORDAN HISTORICAL MUSEUM OF THE TWENTY", "designationCode": "C", "categoryCode": "50", "address": "3800 MAIN STREET", "city": "JORDAN", "province": "ON", "country": "CA", "postalCode": "L0R1S0", "twitter": "None", "instagram": "None", "facebook": "None", "youtube": "None", "website": "None", "summary": "None", "logo": "None", "latitude": 43.14746629808414, "longitude": -79.36978105208006}, "866504426RR0001": {"name": "THE JORDANA LOKASH FOUNDATION", "designationCode": "C", "categoryCode": "11", "address": "310-18 LOWER VILLAGE GATE", "city": "TORONTO", "province": "ON", "country": "CA", "postalCode": "M5P3M1", "twitter": "None", "instagram": "None", "facebook": "None", "youtube": "None", "website": "None", "summary": "None", "logo": "None", "latitude": 43.68758559585116, "longitude": -79.41584056792135}, "864408091RR0001": {"name": "THE JOSEPH AND EDNA SANFILIPPO MEMORIAL TRUST FUND", "designationCode": "A", "categoryCode": "21", "address": "380 WELLINGTON ST., 12TH FLOOR", "city": "LONDON", "province": "ON", "country": "CA", "postalCode": "N6A5B5", "twitter": "None", "instagram": "None", "facebook": "None", "youtube": "None", "website": "None", "summary": "None", "logo": "None", "latitude": 42.98403487844074, "longitude": -81.24475227780037}, "892471160RR0001": {"name": "THE JOSEPH AND FANNY OPPENHEIMER FOUNDATION", "designationCode": "B", "categoryCode": "23", "address": "39 - 1 PLACE VILLE-MARIE", "city": "MONTREAL", "province": "QC", "country": "CA", "postalCode": "H3B4M7", "twitter": "None", "instagram": "None", "facebook": "None", "youtube": "None", "website": "None", "summary": "None", "logo": "None", "latitude": 45.50188724476333, "longitude": -73.56787382018557}, "119239812RR0001": {"name": "THE JOSEPH AND FANNY TANENBAUM CHARITABLE FOUNDATION", "designationCode": "B", "categoryCode": "03", "address": "1051 TAPSCOTT ROAD", "city": "SCARBOROUGH", "province": "ON", "country": "CA", "postalCode": "M1X1A1", "twitter": "None", "instagram": "None", "facebook": "None", "youtube": "None", "website": "None", "summary": "None", "logo": "None", "latitude": 43.82487783461231, "longitude": -79.24262752622865}, "119239853RR0001": {"name": "THE JOSEPH B LUBOTTA CHARITABLE FOUNDATION", "designationCode": "B", "categoryCode": "03", "address": "19 APOLLO DR", "city": "TORONTO", "province": "ON", "country": "CA", "postalCode": "M3B2G7", "twitter": "None", "instagram": "None", "facebook": "None", "youtube": "None", "website": "None", "summary": "None", "logo": "None", "latitude": 43.746909769346274, "longitude": -79.36252609172489}}