{"868026949RR0001": {"name": "I AM TELLING YOU THE TRUTH", "designationCode": "C", "categoryCode": "47", "address": "2913 KINGSTON RD", "city": "SCARBOROUGH", "province": "ON", "country": "CA", "postalCode": "M1M1N6", "twitter": "None", "instagram": "None", "facebook": "None", "youtube": "None", "website": "None", "summary": "None", "logo": "None", "latitude": 43.72334279265979, "longitude": -79.23433006200605}, "884296302RR0001": {"name": "I BELIEVE NETWORK", "designationCode": "C", "categoryCode": "39", "address": "1816 MARIE AVENUE", "city": "SUDBURY", "province": "ON", "country": "CA", "postalCode": "P3E2X8", "twitter": "None", "instagram": "None", "facebook": "None", "youtube": "None", "website": "None", "summary": "None", "logo": "None", "latitude": 46.45167590175426, "longitude": -80.98674624655234}, "890568140RR0001": {"name": "I C C MINISTRIES ASSOCIATION", "designationCode": "C", "categoryCode": "47", "address": "2796 ST MORITZ WAY", "city": "ABBOTSFORD", "province": "BC", "country": "CA", "postalCode": "V3G1C3", "twitter": "None", "instagram": "None", "facebook": "None", "youtube": "None", "website": "None", "summary": "None", "logo": "None", "latitude": 49.04904388233586, "longitude": -122.25340791782575}, "788073294RR0001": {"name": "I Can for Kids Foundation", "designationCode": "C", "categoryCode": "01", "address": "26 RIVERVIEW PK SE", "city": "CALGARY", "province": "AB", "country": "CA", "postalCode": "T2C3Z7", "twitter": "None", "instagram": "None", "facebook": "None", "youtube": "None", "website": "None", "summary": "None", "logo": "None"}, "812398923RR0001": {"name": "I Can Dream Theatre / Theatre Je Peux Rever", "designationCode": "C", "categoryCode": "20", "address": "52 PROM WESTLAND", "city": "MONTREAL-OUEST", "province": "QC", "country": "CA", "postalCode": "H4X1M2", "twitter": "None", "instagram": "None", "facebook": "None", "youtube": "None", "website": "None", "summary": "None", "logo": "None", "latitude": 45.45037755087513, "longitude": -73.6412922596208}, "753516723RR0001": {"name": "I Can, We Can! Incorporated", "designationCode": "C", "categoryCode": "21", "address": "8 REDFINCH WAY", "city": "BRAMPTON", "province": "ON", "country": "CA", "postalCode": "L7A2B3", "twitter": "None", "instagram": "None", "facebook": "None", "youtube": "None", "website": "None", "summary": "None", "logo": "None", "latitude": 43.6969651423913, "longitude": -79.81742652954593}, "821102712RR0001": {"name": "I Challenge Diabetes", "designationCode": "C", "categoryCode": "11", "address": "839 SHEPPARD AVE W", "city": "NORTH YORK", "province": "ON", "country": "CA", "postalCode": "M3H2T3", "twitter": "None", "instagram": "None", "facebook": "None", "youtube": "None", "website": "None", "summary": "None", "logo": "None", "latitude": 43.7527547510244, "longitude": -79.45140770829249}, "898388467RR0001": {"name": "I CAN THERAPEUTIC EQUESTRIAN RIDING ASSOCIATION OF NIAGARA INC.", "designationCode": "C", "categoryCode": "56", "address": "1234 HOUSE ROAD", "city": "RIDGEWAY", "province": "ON", "country": "CA", "postalCode": "L0S1N0", "twitter": "None", "instagram": "None", "facebook": "None", "youtube": "None", "website": "None", "summary": "None", "logo": "None", "latitude": 42.90867898275606, "longitude": -79.0798171187491}, "854589132RR0001": {"name": "I CARE INTERNATIONAL", "designationCode": "B", "categoryCode": "09", "address": "1933 KEMPTON PARK DRIVE", "city": "MISSISSAUGA", "province": "ON", "country": "CA", "postalCode": "L5M2Z7", "twitter": "None", "instagram": "None", "facebook": "None", "youtube": "None", "website": "None", "summary": "None", "logo": "None", "latitude": 43.561618312799325, "longitude": -79.69445517848676}, "896281359RR0001": {"name": "I CORISTI CHAMBER CHOIR SOCIETY", "designationCode": "C", "categoryCode": "22", "address": "BOX 52068", "city": "EDMONTON", "province": "AB", "country": "CA", "postalCode": "T6G2T5", "twitter": "None", "instagram": "None", "facebook": "None", "youtube": "None", "website": "None", "summary": "None", "logo": "None", "latitude": 53.54623500000005, "longitude": -113.49037249999994}, "828987669RR0001": {"name": "I Furiosi Baroque Ensemble", "designationCode": "C", "categoryCode": "22", "address": "94 WESTMINSTER AVENUE", "city": "TORONTO", "province": "ON", "country": "CA", "postalCode": "M6R1N4", "twitter": "None", "instagram": "None", "facebook": "None", "youtube": "None", "website": "None", "summary": "None", "logo": "None", "latitude": 43.647494216227, "longitude": -79.44806775895891}, "819807041RR0001": {"name": "I Giggle in Canada Inc.", "designationCode": "C", "categoryCode": "21", "address": "31 THIRD STREET", "city": "TORONTO", "province": "ON", "country": "CA", "postalCode": "M8V2X7", "twitter": "None", "instagram": "None", "facebook": "None", "youtube": "None", "website": "None", "summary": "None", "logo": "None", "latitude": 43.60000191392388, "longitude": -79.49996074443636}, "840917041RR0001": {"name": "I Love First Peoples / J'aime les Premiers Peuples", "designationCode": "C", "categoryCode": "09", "address": "202 - 180 BOUL DU MONT-BLEU", "city": "GATINEAU", "province": "QC", "country": "CA", "postalCode": "J8Z3J5", "twitter": "None", "instagram": "None", "facebook": "None", "youtube": "None", "website": "None", "summary": "None", "logo": "None", "latitude": 45.46100249047804, "longitude": -75.76368227130817}, "888662392RR0001": {"name": "I O D E CLARK HOUSE TRUST FUND", "designationCode": "C", "categoryCode": "21", "address": "55 WOODFIELD CRESCENT", "city": "FREDERICTON", "province": "NB", "country": "CA", "postalCode": "E3B2N2", "twitter": "None", "instagram": "None", "facebook": "None", "youtube": "None", "website": "None", "summary": "None", "logo": "None", "latitude": 45.96077711573089, "longitude": -66.66147253511451}, "846183655RR0001": {"name": "I See Hope Vision Care Program", "designationCode": "C", "categoryCode": "11", "address": "13330 LANOUE AVENUE", "city": "TECUMSEH", "province": "ON", "country": "CA", "postalCode": "N8N5E1", "twitter": "None", "instagram": "None", "facebook": "None", "youtube": "None", "website": "None", "summary": "None", "logo": "None", "latitude": 42.309656445026015, "longitude": -82.87034172133659}, "806700332RR0001": {"name": "I Want To Help Africa", "designationCode": "C", "categoryCode": "09", "address": "PO BOX 45666                  RPO SUNNYSIDE MALL", "city": "SURREY", "province": "BC", "country": "CA", "postalCode": "V4A9N3", "twitter": "None", "instagram": "None", "facebook": "None", "youtube": "None", "website": "None", "summary": "None", "logo": "None", "latitude": 49.04577758735484, "longitude": -122.85084454245168}, "859411027RR0001": {"name": "I Will Bring Change Justice Foundation", "designationCode": "C", "categoryCode": "03", "address": "8061 264 ST", "city": "LANGLEY", "province": "BC", "country": "CA", "postalCode": "V1M3M3", "twitter": "None", "instagram": "None", "facebook": "None", "youtube": "None", "website": "None", "summary": "None", "logo": "None", "latitude": 49.149315, "longitude": -122.49266252362878}, "860240449RR0001": {"name": "I WILL - EDUCATION AND POVERTY RELIEF ASSOCIATION", "designationCode": "C", "categoryCode": "09", "address": "53 SUMMERHILL GARDENS", "city": "TORONTO", "province": "ON", "country": "CA", "postalCode": "M4T1B3", "twitter": "None", "instagram": "None", "facebook": "None", "youtube": "None", "website": "None", "summary": "None", "logo": "None", "latitude": 43.683772945322886, "longitude": -79.3860978655432}, "119305969RR0001": {"name": "I. Joseph of Canada", "designationCode": "C", "categoryCode": "09", "address": "205 - 3500 DUFFERIN ST", "city": "NORTH YORK", "province": "ON", "country": "CA", "postalCode": "M3K1N2", "twitter": "None", "instagram": "None", "facebook": "None", "youtube": "None", "website": "None", "summary": "None", "logo": "None", "latitude": 43.729457961971306, "longitude": -79.45828846673182}, "890047731RR0001": {"name": "I.A.M. INTERNATIONAL ASSOCIATION OF MINISTRIES INC.", "designationCode": "C", "categoryCode": "49", "address": "458-35 AVENUE NORTH WEST", "city": "CALGARY", "province": "AB", "country": "CA", "postalCode": "T2K0C1", "twitter": "None", "instagram": "None", "facebook": "None", "youtube": "None", "website": "None", "summary": "None", "logo": "None", "latitude": 51.08419500000005, "longitude": -114.06933349999994}, "893212373RR0001": {"name": "I.A.S. IMPLANT AWARENESS SOCIETY", "designationCode": "C", "categoryCode": "09", "address": "102-6086 BOUNDARY DR W", "city": "SURREY", "province": "BC", "country": "CA", "postalCode": "V3X2B3", "twitter": "None", "instagram": "None", "facebook": "None", "youtube": "None", "website": "None", "summary": "None", "logo": "None", "latitude": 49.113310018430774, "longitude": -122.88707688306036}, "108085002RR0001": {"name": "I.C.C. FOUNDATION/FONDATION I.C.C.", "designationCode": "C", "categoryCode": "22", "address": "75 ALBERT STREET              SUITE 1001", "city": "OTTAWA", "province": "ON", "country": "CA", "postalCode": "K1P5E7", "twitter": "None", "instagram": "None", "facebook": "None", "youtube": "None", "website": "None", "summary": "None", "logo": "None", "latitude": 45.42207928642739, "longitude": -75.69532471400531}, "897408605RR0001": {"name": "I.D. MINISTRIES", "designationCode": "C", "categoryCode": "36", "address": "P.O. BOX 434", "city": "GRIMSBY", "province": "ON", "country": "CA", "postalCode": "L3M4H8", "twitter": "None", "instagram": "None", "facebook": "None", "youtube": "None", "website": "None", "summary": "None", "logo": "None", "latitude": 43.199079000000054, "longitude": -79.58552299999994}, "118966217RR0001": {"name": "I.E. WELDON SECONDARY SCHOOL CHARITABLE TRUST", "designationCode": "C", "categoryCode": "21", "address": "24 WELDON ROAD", "city": "LINDSAY", "province": "ON", "country": "CA", "postalCode": "K9V4R4", "twitter": "None", "instagram": "None", "facebook": "None", "youtube": "None", "website": "None", "summary": "None", "logo": "None", "latitude": 44.360393551772646, "longitude": -78.71579150784872}, "118966480RR0001": {"name": "I.L. PERETZ SENIOR CITIZEN CORPORATION", "designationCode": "C", "categoryCode": "09", "address": "1641 OUELLETTE AVE", "city": "WINDSOR", "province": "ON", "country": "CA", "postalCode": "N8X1K9", "twitter": "None", "instagram": "None", "facebook": "None", "youtube": "None", "website": "None", "summary": "None", "logo": "None", "latitude": 42.297327661377, "longitude": -83.0260792052914}, "140903139RR0001": {"name": "I.R.C.D. - THE INSTITUTE FOR RESEARCH COMMUNICATION AND DEVELOPMENT I.R.C.D.- L'INSTITUT POUR LA RECHERCHE, LA COMMUNICATION ET LE DEVELOPPEMENT", "designationCode": "C", "categoryCode": "49", "address": "630 SHERBROOKE STREET WEST    SUITE 400", "city": "MONTREAL", "province": "QC", "country": "CA", "postalCode": "H3A1E4", "twitter": "None", "instagram": "None", "facebook": "None", "youtube": "None", "website": "None", "summary": "None", "logo": "None", "latitude": 45.505404, "longitude": -73.5724035}, "862141041RR0001": {"name": "I.S.O.F.T. INTERACTIVE SELF-LIGATION ORTHOPAEDIC TECHNOLOGIES FOUNDATION", "designationCode": "B", "categoryCode": "13", "address": "2300 YONGE STREET             SUITE 707", "city": "TORONTO", "province": "ON", "country": "CA", "postalCode": "M4P1E4", "twitter": "None", "instagram": "None", "facebook": "None", "youtube": "None", "website": "None", "summary": "None", "logo": "None", "latitude": 43.70721096779967, "longitude": -79.39846036808203}, "871021440RR0001": {"name": "I-KUAN TAO MING HWA TEMPLE", "designationCode": "C", "categoryCode": "39", "address": "396 KAMLOOPS ST", "city": "VANCOUVER", "province": "BC", "country": "CA", "postalCode": "V5K3V1", "twitter": "None", "instagram": "None", "facebook": "None", "youtube": "None", "website": "None", "summary": "None", "logo": "None", "latitude": 49.28148732361936, "longitude": -123.05447946223109}, "783309693RR0001": {"name": "Iberoamerican Community Marriage Encounter of Calgary", "designationCode": "C", "categoryCode": "49", "address": "15225 PRESTWICK BLVD SE", "city": "CALGARY", "province": "AB", "country": "CA", "postalCode": "T2Z3L3", "twitter": "None", "instagram": "None", "facebook": "None", "youtube": "None", "website": "None", "summary": "None", "logo": "None", "latitude": 50.91839504440535, "longitude": -113.96566655802401}, "816364418RR0001": {"name": "Iberville Charitable Trust", "designationCode": "B", "categoryCode": "43", "address": "780 SASKATCHEWAN AVE W", "city": "PORTAGE LA PRAIRIE", "province": "MB", "country": "CA", "postalCode": "R1N0M7", "twitter": "None", "instagram": "None", "facebook": "None", "youtube": "None", "website": "None", "summary": "None", "logo": "None", "latitude": 49.97373494820344, "longitude": -98.30132080652011}, "804508455RR0001": {"name": "Ibis International Charity", "designationCode": "B", "categoryCode": "09", "address": "40 KING ST W", "city": "TORONTO", "province": "ON", "country": "CA", "postalCode": "M5H3Y4", "twitter": "None", "instagram": "None", "facebook": "None", "youtube": "None", "website": "None", "summary": "None", "logo": "None", "latitude": 43.64887614798855, "longitude": -79.37924907940429}, "847282282RR0001": {"name": "Ice on Whyte Festival Society", "designationCode": "C", "categoryCode": "22", "address": "12-7730 106 STREET", "city": "EDMONTON", "province": "AB", "country": "CA", "postalCode": "T6E4W3", "twitter": "None", "instagram": "None", "facebook": "None", "youtube": "None", "website": "None", "summary": "None", "logo": "None", "latitude": 53.51375252787249, "longitude": -113.50354018053464}, "834178428RR0001": {"name": "Icelandic River Community Foundation Inc.", "designationCode": "A", "categoryCode": "03", "address": "BOX 159", "city": "ARBORG", "province": "MB", "country": "CA", "postalCode": "R0C0A0", "twitter": "None", "instagram": "None", "facebook": "None", "youtube": "None", "website": "None", "summary": "None", "logo": "None", "latitude": 50.91022850109325, "longitude": -97.2043884534773}, "855602785RR0001": {"name": "Icelandic River Heritage Sites Inc.", "designationCode": "C", "categoryCode": "52", "address": "BOX 555", "city": "RIVERTON", "province": "MB", "country": "CA", "postalCode": "R0C2R0", "twitter": "None", "instagram": "None", "facebook": "None", "youtube": "None", "website": "None", "summary": "None", "logo": "None", "latitude": 50.99757300000002, "longitude": -97.00410710537368}, "832050041RR0001": {"name": "Icing Smiles Canada", "designationCode": "C", "categoryCode": "09", "address": "4-14 HOFFMAN ST", "city": "KITCHENER", "province": "ON", "country": "CA", "postalCode": "N2M3M4", "twitter": "None", "instagram": "None", "facebook": "None", "youtube": "None", "website": "None", "summary": "None", "logo": "None", "latitude": 43.431623491054935, "longitude": -80.4779044479486}, "809900129RR0001": {"name": "Ideal Hope Foundation", "designationCode": "B", "categoryCode": "09", "address": "1100 RODICK ROAD", "city": "MARKHAM", "province": "ON", "country": "CA", "postalCode": "L3R8C3", "twitter": "None", "instagram": "None", "facebook": "None", "youtube": "None", "website": "None", "summary": "None", "logo": "None", "latitude": 43.85354731167416, "longitude": -79.34634013941884}, "830356093RR0001": {"name": "Ideal-Way Inc.", "designationCode": "C", "categoryCode": "09", "address": "25-50 NORTHUMBERLAND ROAD", "city": "LONDON", "province": "ON", "country": "CA", "postalCode": "N6H5J2", "twitter": "None", "instagram": "None", "facebook": "None", "youtube": "None", "website": "None", "summary": "None", "logo": "None", "latitude": 42.982691976878094, "longitude": -81.33304700385365}, "839311628RR0001": {"name": "Idlewyld Cemetery", "designationCode": "C", "categoryCode": "59", "address": "P.O. BOX 34", "city": "TESSIER", "province": "SK", "country": "CA", "postalCode": "S0L3G0", "twitter": "None", "instagram": "None", "facebook": "None", "youtube": "None", "website": "None", "summary": "None", "logo": "None", "latitude": 51.80009000000007, "longitude": -107.43459999999999}, "821215860RR0001": {"name": "If National Institute of Families Foundation for Child & Youth Mental Health", "designationCode": "C", "categoryCode": "11", "address": "1000 - 355 BURRARD ST", "city": "VANCOUVER", "province": "BC", "country": "CA", "postalCode": "V6C2G8", "twitter": "None", "instagram": "None", "facebook": "None", "youtube": "None", "website": "None", "summary": "None", "logo": "None", "latitude": 49.287312051358924, "longitude": -123.11674798600596}, "774612493RR0001": {"name": "Iglesia de Cristo Misionera (Fil. 4:13) Inc.", "designationCode": "C", "categoryCode": "39", "address": "700 WESTON RD,", "city": "TORONTO", "province": "ON", "country": "CA", "postalCode": "M6N3R2", "twitter": "None", "instagram": "None", "facebook": "None", "youtube": "None", "website": "None", "summary": "None", "logo": "None", "latitude": 43.682536813751604, "longitude": -79.47799617903502}, "847650454RR0001": {"name": "Iglesia de Cristo Misionera Downsview Inc.", "designationCode": "C", "categoryCode": "39", "address": "137 OLSER STREET", "city": "TORONTO", "province": "ON", "country": "CA", "postalCode": "M6N2Y9", "twitter": "None", "instagram": "None", "facebook": "None", "youtube": "None", "website": "None", "summary": "None", "logo": "None", "latitude": 43.66811400000006, "longitude": -79.45849249999993}, "815217971RR0001": {"name": "Iglesia de Cristo Misionera St. Catharines Inc.", "designationCode": "C", "categoryCode": "39", "address": "P.O. BOX 20041                GRANTHAM POSTAL OUTLET", "city": "ST. CATHARINES", "province": "ON", "country": "CA", "postalCode": "L2P2L2", "twitter": "None", "instagram": "None", "facebook": "None", "youtube": "None", "website": "None", "summary": "None", "logo": "None", "latitude": 43.16991749999999, "longitude": -79.219593}, "823554241RR0001": {"name": "Iglesia de Dios en Cristo Jesus (Church of God in Jesus Chr ist of Calgary)", "designationCode": "C", "categoryCode": "39", "address": "POST OFFICE BOX 53186         RPO MARLBOROUGH NE", "city": "CALGARY", "province": "AB", "country": "CA", "postalCode": "T2A7L9", "twitter": "None", "instagram": "None", "facebook": "None", "youtube": "None", "website": "None", "summary": "None", "logo": "None", "latitude": 51.059556000000015, "longitude": -113.96975741544264}, "885475541RR0001": {"name": "Iglesia de Jesucristo Palabra Miel Vancouver Church", "designationCode": "C", "categoryCode": "43", "address": "5-89 STAR CRES", "city": "NEW WESTMINISTER", "province": "BC", "country": "CA", "postalCode": "V3M6X7", "twitter": "None", "instagram": "None", "facebook": "None", "youtube": "None", "website": "None", "summary": "None", "logo": "None", "latitude": 49.19578200000001, "longitude": -122.9256963309334}, "729444729RR0001": {"name": "Iglesia de Juda Monte de Sion (Church of Judah Mount Zion)", "designationCode": "C", "categoryCode": "39", "address": "11327 88 AVE", "city": "DELTA", "province": "BC", "country": "CA", "postalCode": "V4C3B8", "twitter": "None", "instagram": "None", "facebook": "None", "youtube": "None", "website": "None", "summary": "None", "logo": "None", "latitude": 49.163360467684114, "longitude": -122.90894058090484}, "107396905RR0072": {"name": "Iglesia del Evangelio Cuadrangular Rios De Agua Viva", "designationCode": "C", "categoryCode": "39", "address": "156 EQUATOR CRES", "city": "MAPLE", "province": "ON", "country": "CA", "postalCode": "L6A2Y2", "twitter": "None", "instagram": "None", "facebook": "None", "youtube": "None", "website": "None", "summary": "None", "logo": "None", "latitude": 43.860819122396016, "longitude": -79.53952956108242}, "810783837RR0001": {"name": "Iglesia del Nazareno Casa de Pan Church of The Nazarene House of Bread", "designationCode": "C", "categoryCode": "39", "address": "1630 BEARD DRIVE", "city": "MILTON", "province": "ON", "country": "CA", "postalCode": "L9T5M9", "twitter": "None", "instagram": "None", "facebook": "None", "youtube": "None", "website": "None", "summary": "None", "logo": "None", "latitude": 43.53188211489418, "longitude": -79.83873474228183}, "844715508RR0001": {"name": "Iglesia Amistad Christiana (Toronto)", "designationCode": "C", "categoryCode": "36", "address": "530 MIDLAND AVE", "city": "SCARBOROUGH", "province": "ON", "country": "CA", "postalCode": "M1N1T1", "twitter": "None", "instagram": "None", "facebook": "None", "youtube": "None", "website": "None", "summary": "None", "logo": "None", "latitude": 43.71742182930352, "longitude": -79.25081382448474}, "836697052RR0001": {"name": "Iglesia Bautista Vida Neuva", "designationCode": "C", "categoryCode": "31", "address": "568 RICHMOND STREET", "city": "LONDON", "province": "ON", "country": "CA", "postalCode": "N6A3G1", "twitter": "None", "instagram": "None", "facebook": "None", "youtube": "None", "website": "None", "summary": "None", "logo": "None", "latitude": 42.9890756960875, "longitude": -81.25069645902845}, "819677527RR0001": {"name": "Iglesia Cristiana de Newmarket", "designationCode": "C", "categoryCode": "36", "address": "193 FLAGSTONE WAY", "city": "NEWMARKET", "province": "ON", "country": "CA", "postalCode": "L3X2Z7", "twitter": "None", "instagram": "None", "facebook": "None", "youtube": "None", "website": "None", "summary": "None", "logo": "None", "latitude": 44.06103587870052, "longitude": -79.48780728628314}, "824182497RR0001": {"name": "Iglesia Cristiana Eben-Ezer de las Asambleas de Dios", "designationCode": "C", "categoryCode": "39", "address": "33 MCCORMACK ST.", "city": "TORONTO", "province": "ON", "country": "CA", "postalCode": "M6N1X8", "twitter": "None", "instagram": "None", "facebook": "None", "youtube": "None", "website": "None", "summary": "None", "logo": "None", "latitude": 43.6766499441977, "longitude": -79.47346553482605}, "840804595RR0001": {"name": "Iglesia Cristiana Filadelfia", "designationCode": "C", "categoryCode": "36", "address": "2172 FIDDLERS WAY", "city": "OAKVILLE", "province": "ON", "country": "CA", "postalCode": "L6M0M4", "twitter": "None", "instagram": "None", "facebook": "None", "youtube": "None", "website": "None", "summary": "None", "logo": "None", "latitude": 43.44386660921002, "longitude": -79.76578151719669}, "847410040RR0001": {"name": "Iglesia Cristiana Pentecostal Buenas Nuevas", "designationCode": "C", "categoryCode": "39", "address": "233 - 356 ONTARIO ST", "city": "STRATFORD", "province": "ON", "country": "CA", "postalCode": "N5A7X6", "twitter": "None", "instagram": "None", "facebook": "None", "youtube": "None", "website": "None", "summary": "None", "logo": "None", "latitude": 43.37125945715252, "longitude": -80.97183955536961}, "829873629RR0001": {"name": "Iglesia Cristiana Piedra Angular (Canada) Inc.", "designationCode": "C", "categoryCode": "39", "address": "34 PIERPONT PL", "city": "MISSISSAUGA", "province": "ON", "country": "CA", "postalCode": "L5N5V1", "twitter": "None", "instagram": "None", "facebook": "None", "youtube": "None", "website": "None", "summary": "None", "logo": "None", "latitude": 43.580276840988944, "longitude": -79.74197211991451}, "815460910RR0001": {"name": "Iglesia Cristiana Una Fe Vensedora", "designationCode": "C", "categoryCode": "39", "address": "63 PRINCESS STREET,", "city": "LEAMINGTON", "province": "ON", "country": "CA", "postalCode": "N8H2Y5", "twitter": "None", "instagram": "None", "facebook": "None", "youtube": "None", "website": "None", "summary": "None", "logo": "None", "latitude": 42.049944670552264, "longitude": -82.59845898641}, "823523378RR0001": {"name": "Iglesia Cristiana Vida Nueva Fellowship of Calgary (New Life Christian Church)", "designationCode": "C", "categoryCode": "39", "address": "2523 56TH STREET NORTHEAST", "city": "CALGARY", "province": "AB", "country": "CA", "postalCode": "T1Y6E7", "twitter": "None", "instagram": "None", "facebook": "None", "youtube": "None", "website": "None", "summary": "None", "logo": "None", "latitude": 51.07466059838998, "longitude": -113.95265704261634}, "839364973RR0001": {"name": "Iglesia De Cristo Misionera Hamilton Inc.", "designationCode": "C", "categoryCode": "39", "address": "69 PRINCESS ST", "city": "HAMILTON", "province": "ON", "country": "CA", "postalCode": "L8L3K8", "twitter": "None", "instagram": "None", "facebook": "None", "youtube": "None", "website": "None", "summary": "None", "logo": "None", "latitude": 43.25908208523267, "longitude": -79.83717496543375}, "829281500RR0001": {"name": "Iglesia De Cristo Misionera London Inc.", "designationCode": "C", "categoryCode": "39", "address": "85 POND'S EDGE COURT", "city": "LONDON", "province": "ON", "country": "CA", "postalCode": "N5Z5C4", "twitter": "None", "instagram": "None", "facebook": "None", "youtube": "None", "website": "None", "summary": "None", "logo": "None"}, "804764371RR0001": {"name": "Iglesia De Cristo Palabra Viva Inc.", "designationCode": "C", "categoryCode": "39", "address": "510 FERNDALE DRIVE NORTH", "city": "BARRIE", "province": "ON", "country": "CA", "postalCode": "L4N0S1", "twitter": "None", "instagram": "None", "facebook": "None", "youtube": "None", "website": "None", "summary": "None", "logo": "None", "latitude": 44.39591756007282, "longitude": -79.73747808996453}, "831960513RR0001": {"name": "Iglesia De Cristo Pentecostal", "designationCode": "C", "categoryCode": "39", "address": "10 KIDBROOK RD", "city": "BRAMPTON", "province": "ON", "country": "CA", "postalCode": "L6P1Z8", "twitter": "None", "instagram": "None", "facebook": "None", "youtube": "None", "website": "None", "summary": "None", "logo": "None", "latitude": 43.776204453517195, "longitude": -79.70084993104038}, "820750313RR0001": {"name": "Iglesia De Dios Alfa Y Omega", "designationCode": "C", "categoryCode": "39", "address": "1 ELROSE AVENUE", "city": "TORONTO", "province": "ON", "country": "CA", "postalCode": "M9M2H5", "twitter": "None", "instagram": "None", "facebook": "None", "youtube": "None", "website": "None", "summary": "None", "logo": "None", "latitude": 43.717665509579284, "longitude": -79.52560382566818}, "827472176RR0001": {"name": "Iglesia De Dios Emmanuel", "designationCode": "C", "categoryCode": "39", "address": "3017 MONTROSE RD", "city": "NIAGARA FALLS", "province": "ON", "country": "CA", "postalCode": "L2H0J7", "twitter": "None", "instagram": "None", "facebook": "None", "youtube": "None", "website": "None", "summary": "None", "logo": "None", "latitude": 43.12952990221653, "longitude": -79.12698647532922}, "811068196RR0001": {"name": "Iglesia De Dios Generacion De Josue", "designationCode": "C", "categoryCode": "39", "address": "1245 MARTIN GROVE RD", "city": "ETOBICOKE", "province": "ON", "country": "CA", "postalCode": "M9W4X2", "twitter": "None", "instagram": "None", "facebook": "None", "youtube": "None", "website": "None", "summary": "None", "logo": "None", "latitude": 43.710691796583596, "longitude": -79.57959197103192}, "811764752RR0001": {"name": "Iglesia Del Dios Vivo Columna y Apoyo de la Verdad \"La Luz Del Mundo\"", "designationCode": "C", "categoryCode": "39", "address": "16 - 800 ARROW ROAD", "city": "TORONTO", "province": "ON", "country": "CA", "postalCode": "M9M2Z8", "twitter": "None", "instagram": "None", "facebook": "None", "youtube": "None", "website": "None", "summary": "None", "logo": "None", "latitude": 43.7490330377116, "longitude": -79.53225026608536}, "758581128RR0001": {"name": "Iglesia Del Dios Vivo, Columna Y Apoyo De La Verdad \" La Luz Del Mundo \"", "designationCode": "C", "categoryCode": "39", "address": "94B MONTREAL RD", "city": "VANIER", "province": "ON", "country": "CA", "postalCode": "K1L6E6", "twitter": "None", "instagram": "None", "facebook": "None", "youtube": "None", "website": "None", "summary": "None", "logo": "None", "latitude": 45.43388499333998, "longitude": -75.66704798886268}, "805075918RR0001": {"name": "Iglesia Emanuel Calgary Church", "designationCode": "C", "categoryCode": "34", "address": "4304 16 ST SW", "city": "CALGARY", "province": "AB", "country": "CA", "postalCode": "T2T4H9", "twitter": "None", "instagram": "None", "facebook": "None", "youtube": "None", "website": "None", "summary": "None", "logo": "None", "latitude": 51.015690000000006, "longitude": -114.10039883360268}, "760978098RR0001": {"name": "Iglesia Evangelica Camino a la Vida Eterna de Calgary/\u00c9glise\u00e9vang\u00e9lique chemin de la vie \u00e9ternelle de Calgary", "designationCode": "C", "categoryCode": "39", "address": "116 29 AVE NW", "city": "CALGARY", "province": "AB", "country": "CA", "postalCode": "T2M2L8", "twitter": "None", "instagram": "None", "facebook": "None", "youtube": "None", "website": "None", "summary": "None", "logo": "None", "latitude": 51.07876253318127, "longitude": -114.06360133236194}, "723739496RR0001": {"name": "Iglesia Evangelica Camino Para El Reino Inc.", "designationCode": "B", "categoryCode": "39", "address": "100 SAHARA TRAIL", "city": "BRAMPTON", "province": "ON", "country": "CA", "postalCode": "L6R1P4", "twitter": "None", "instagram": "None", "facebook": "None", "youtube": "None", "website": "None", "summary": "None", "logo": "None", "latitude": 43.75200718953335, "longitude": -79.76141628707698}, "865092944RR0001": {"name": "Iglesia Evangelica Hispana Faro de Luz de Edmonton", "designationCode": "C", "categoryCode": "39", "address": "17504 98A AVENUE", "city": "EDMONTON", "province": "AB", "country": "CA", "postalCode": "T5T5T8", "twitter": "None", "instagram": "None", "facebook": "None", "youtube": "None", "website": "None", "summary": "None", "logo": "None", "latitude": 53.53427947936953, "longitude": -113.6271703211092}, "832054316RR0001": {"name": "Iglesia Evangelica Jesucristo La Roca Eterna Fellowship", "designationCode": "C", "categoryCode": "39", "address": "236 PRAIRIE ROSE PL S", "city": "LETHBRIDGE", "province": "AB", "country": "CA", "postalCode": "T1K5V7", "twitter": "None", "instagram": "None", "facebook": "None", "youtube": "None", "website": "None", "summary": "None", "logo": "None", "latitude": 49.64781778099007, "longitude": -112.79108431829889}, "848434437RR0001": {"name": "Iglesia Evangelica Luz de Esperanza", "designationCode": "C", "categoryCode": "39", "address": "6-7551 140TH STREET", "city": "SURREY", "province": "BC", "country": "CA", "postalCode": "V3W5J9", "twitter": "None", "instagram": "None", "facebook": "None", "youtube": "None", "website": "None", "summary": "None", "logo": "None", "latitude": 49.139865000000015, "longitude": -122.83453401612883}, "834946881RR0001": {"name": "Iglesia Evangelica Pentecostal Jehova Jireh", "designationCode": "C", "categoryCode": "39", "address": "21 FLAX GARDEN WAY", "city": "TORONTO", "province": "ON", "country": "CA", "postalCode": "M3N2H4", "twitter": "None", "instagram": "None", "facebook": "None", "youtube": "None", "website": "None", "summary": "None", "logo": "None", "latitude": 43.77401904553054, "longitude": -79.52529829557398}, "850411232RR0001": {"name": "Iglesia Evangelica Pentecostal Tiempo de Cosecha Ministerio Internacional Levantando al Caido Church", "designationCode": "C", "categoryCode": "39", "address": "25 HUCKLEBERRY SQUARE", "city": "BRAMPTON", "province": "ON", "country": "CA", "postalCode": "L6S1Y2", "twitter": "None", "instagram": "None", "facebook": "None", "youtube": "None", "website": "None", "summary": "None", "logo": "None", "latitude": 43.726135431040376, "longitude": -79.7289067872641}, "835400144RR0001": {"name": "Iglesia Evangelica Rios De Agua Viva", "designationCode": "C", "categoryCode": "39", "address": "145 NORTHOVER ST", "city": "NORTH YORK", "province": "ON", "country": "CA", "postalCode": "M3L1W8", "twitter": "None", "instagram": "None", "facebook": "None", "youtube": "None", "website": "None", "summary": "None", "logo": "None", "latitude": 43.74122905995726, "longitude": -79.50133778778371}, "834602450RR0001": {"name": "Iglesia Hacedores de Historia", "designationCode": "C", "categoryCode": "39", "address": "1395 LAWRENCE AVE W           PO BOX 20018", "city": "NORTH YORK", "province": "ON", "country": "CA", "postalCode": "M6L1A4", "twitter": "None", "instagram": "None", "facebook": "None", "youtube": "None", "website": "None", "summary": "None", "logo": "None", "latitude": 43.70899978960138, "longitude": -79.47728137800803}, "118828235RR0006": {"name": "Iglesia Hispana De Bradford Church of the Nazarene", "designationCode": "B", "categoryCode": "39", "address": "205 BRITANNIA AVE", "city": "BRADFORD", "province": "ON", "country": "CA", "postalCode": "L3Z1A4", "twitter": "None", "instagram": "None", "facebook": "None", "youtube": "None", "website": "None", "summary": "None", "logo": "None", "latitude": 44.12275606121077, "longitude": -79.5598404478602}, "820030690RR0001": {"name": "Iglesia Hispana Del Nazareno Verdad Y Vida - Spanish Church of the Nazarene Truth and Life", "designationCode": "C", "categoryCode": "39", "address": "85 CHARLES ST", "city": "LONDON", "province": "ON", "country": "CA", "postalCode": "N6H1H1", "twitter": "None", "instagram": "None", "facebook": "None", "youtube": "None", "website": "None", "summary": "None", "logo": "None", "latitude": 42.98455259339834, "longitude": -81.26685851543633}, "806720017RR0001": {"name": "Iglesia Hispana Nuevo Manantial", "designationCode": "C", "categoryCode": "39", "address": "260 JEFFCOAT DRIVE", "city": "ETOBICOKE", "province": "ON", "country": "CA", "postalCode": "M9W3E3", "twitter": "None", "instagram": "None", "facebook": "None", "youtube": "None", "website": "None", "summary": "None", "logo": "None", "latitude": 43.71731911798125, "longitude": -79.58973836692819}, "747837524RR0001": {"name": "Iglesia Jehova Shalom Edmonton Ministerios Ebenezer", "designationCode": "C", "categoryCode": "39", "address": "4047 ORCHARDS DR SW", "city": "EDMONTON", "province": "AB", "country": "CA", "postalCode": "T6X1V2", "twitter": "None", "instagram": "None", "facebook": "None", "youtube": "None", "website": "None", "summary": "None", "logo": "None", "latitude": 53.40744506365219, "longitude": -113.47054956673807}, "837818038RR0001": {"name": "Iglesia Jesus El Salvador", "designationCode": "C", "categoryCode": "39", "address": "39 DONNA DRIVE", "city": "BRAMPTON", "province": "ON", "country": "CA", "postalCode": "L6Z3V3", "twitter": "None", "instagram": "None", "facebook": "None", "youtube": "None", "website": "None", "summary": "None", "logo": "None", "latitude": 43.719153190691785, "longitude": -79.78615882015691}, "844636407RR0001": {"name": "Iglesia La Arbolada", "designationCode": "C", "categoryCode": "36", "address": "5 - 720 BURNHAMTHORPE RD W", "city": "MISSISSAUGA", "province": "ON", "country": "CA", "postalCode": "L5C3G1", "twitter": "None", "instagram": "None", "facebook": "None", "youtube": "None", "website": "None", "summary": "None", "logo": "None", "latitude": 43.57831867941039, "longitude": -79.6527302984595}, "809612963RR0001": {"name": "Iglesia La Casa Del Padre", "designationCode": "C", "categoryCode": "39", "address": "412-1855 JANE STREET", "city": "TORONTO", "province": "ON", "country": "CA", "postalCode": "M6M3K6", "twitter": "None", "instagram": "None", "facebook": "None", "youtube": "None", "website": "None", "summary": "None", "logo": "None", "latitude": 43.68956603710819, "longitude": -79.50045107914559}, "870224334RR0001": {"name": "Iglesia La Vid", "designationCode": "C", "categoryCode": "36", "address": "135 WOODFIELD", "city": "NEPEAN", "province": "ON", "country": "CA", "postalCode": "K2G0A1", "twitter": "None", "instagram": "None", "facebook": "None", "youtube": "None", "website": "None", "summary": "None", "logo": "None", "latitude": 45.33434932835123, "longitude": -75.73732767182166}, "786508721RR0001": {"name": "Iglesia Luz Del Mundo", "designationCode": "C", "categoryCode": "39", "address": "600 BANK ST", "city": "OTTAWA", "province": "ON", "country": "CA", "postalCode": "K1S3T6", "twitter": "None", "instagram": "None", "facebook": "None", "youtube": "None", "website": "None", "summary": "None", "logo": "None", "latitude": 45.40732470384909, "longitude": -75.69089442356722}, "859037970RR0001": {"name": "Iglesia Menonita Palabra de Vida en Calgary (Word of Life Mennonite Church in Calgary)", "designationCode": "C", "categoryCode": "34", "address": "72 ABINGDON CRT NE", "city": "CALGARY", "province": "AB", "country": "CA", "postalCode": "T2A6S5", "twitter": "None", "instagram": "None", "facebook": "None", "youtube": "None", "website": "None", "summary": "None", "logo": "None", "latitude": 51.06183526311386, "longitude": -113.92396996849216}, "823950084RR0001": {"name": "Iglesia Ni Cristo Church of Christ Inc.", "designationCode": "C", "categoryCode": "39", "address": "70 MCNAUGHTON AVE", "city": "REGINA", "province": "SK", "country": "CA", "postalCode": "S4R4M3", "twitter": "None", "instagram": "None", "facebook": "None", "youtube": "None", "website": "None", "summary": "None", "logo": "None", "latitude": 50.480746971435025, "longitude": -104.64691491947053}, "811100247RR0001": {"name": "Iglesia Pentecostal Casa De Oracion", "designationCode": "C", "categoryCode": "39", "address": "408-45 GULLIVER ROAD", "city": "TORONTO", "province": "ON", "country": "CA", "postalCode": "M6M2M3", "twitter": "None", "instagram": "None", "facebook": "None", "youtube": "None", "website": "None", "summary": "None", "logo": "None", "latitude": 43.698665517312264, "longitude": -79.47867493254094}, "797880523RR0001": {"name": "Iglesia Pentecostal Cordero de Dios", "designationCode": "C", "categoryCode": "39", "address": "12-10 THE COUNTRY WAY,", "city": "KITCHENER", "province": "ON", "country": "CA", "postalCode": "N2E2T8", "twitter": "None", "instagram": "None", "facebook": "None", "youtube": "None", "website": "None", "summary": "None", "logo": "None", "latitude": 43.41067429283269, "longitude": -80.48148292610604}, "851865550RR0001": {"name": "Iglesia Pentecostal Eben-Ezer", "designationCode": "C", "categoryCode": "39", "address": "PO BOX 47512 CENTRE MALL RPO", "city": "HAMILTON", "province": "ON", "country": "CA", "postalCode": "L8H7S7", "twitter": "None", "instagram": "None", "facebook": "None", "youtube": "None", "website": "None", "summary": "None", "logo": "None", "latitude": 43.25093997388791, "longitude": -79.81053008223152}, "837353457RR0001": {"name": "Iglesia Pentecostal Hispana de Barrie", "designationCode": "C", "categoryCode": "39", "address": "211 MARSELLUS DRIVE", "city": "BARRIE", "province": "ON", "country": "CA", "postalCode": "L4N8V5", "twitter": "None", "instagram": "None", "facebook": "None", "youtube": "None", "website": "None", "summary": "None", "logo": "None", "latitude": 44.327436380600986, "longitude": -79.7248730246435}, "846768661RR0001": {"name": "Iglesia Pentecostal Hispana de Ottawa", "designationCode": "C", "categoryCode": "39", "address": "51 GREENBANK RD", "city": "NEPEAN", "province": "ON", "country": "CA", "postalCode": "K2H8K4", "twitter": "None", "instagram": "None", "facebook": "None", "youtube": "None", "website": "None", "summary": "None", "logo": "None", "latitude": 45.338062157943206, "longitude": -75.78627339321416}, "830806535RR0001": {"name": "Iglesia Pentecostal Hispana De Brampton", "designationCode": "C", "categoryCode": "39", "address": "66 GOWER CRESCENT", "city": "BRAMPTON", "province": "ON", "country": "CA", "postalCode": "L6R0Y1", "twitter": "None", "instagram": "None", "facebook": "None", "youtube": "None", "website": "None", "summary": "None", "logo": "None", "latitude": 43.76074647847549, "longitude": -79.77346606385238}, "801901166RR0001": {"name": "Iglesia Pentecostal Hispana De Scarborough (Emanuel)", "designationCode": "C", "categoryCode": "39", "address": "403-10 GOWER STREET", "city": "TORONTO", "province": "ON", "country": "CA", "postalCode": "M4B3N3", "twitter": "None", "instagram": "None", "facebook": "None", "youtube": "None", "website": "None", "summary": "None", "logo": "None", "latitude": 43.70213605306102, "longitude": -79.29771700571281}, "803446020RR0001": {"name": "Iglesia Pentecostal Hispana De Windsor", "designationCode": "C", "categoryCode": "39", "address": "1052 LANGLOIS AVENUE", "city": "WINDSOR", "province": "ON", "country": "CA", "postalCode": "N9A2H5", "twitter": "None", "instagram": "None", "facebook": "None", "youtube": "None", "website": "None", "summary": "None", "logo": "None", "latitude": 42.31335112712787, "longitude": -83.01882457268186}, "891738387RR0001": {"name": "Iglesia Pentecostal Hispana Ebenezer", "designationCode": "C", "categoryCode": "36", "address": "P.O. BOX 2523", "city": "SARDIS", "province": "BC", "country": "CA", "postalCode": "V2R1A8", "twitter": "None", "instagram": "None", "facebook": "None", "youtube": "None", "website": "None", "summary": "None", "logo": "None", "latitude": 49.129320000000064, "longitude": -121.96022999999997}, "832581409RR0001": {"name": "Iglesia Pentecostal Jehova es mi Pastor", "designationCode": "C", "categoryCode": "39", "address": "12 MAHONEY AVE", "city": "TORONTO", "province": "ON", "country": "CA", "postalCode": "M6M2H4", "twitter": "None", "instagram": "None", "facebook": "None", "youtube": "None", "website": "None", "summary": "None", "logo": "None", "latitude": 43.69119213962136, "longitude": -79.49919768096827}, "806407276RR0001": {"name": "Iglesia Pentecostal La Senda Antigua", "designationCode": "C", "categoryCode": "39", "address": "2102 LAWRENCE AVE. E.", "city": "SCARBOROUGH", "province": "ON", "country": "CA", "postalCode": "M1R2Z9", "twitter": "None", "instagram": "None", "facebook": "None", "youtube": "None", "website": "None", "summary": "None", "logo": "None", "latitude": 43.74635318016022, "longitude": -79.29027891508446}, "787115328RR0001": {"name": "Iglesia Pentecostal La Senda Antigua de Montreal", "designationCode": "C", "categoryCode": "39", "address": "816 1RE AV", "city": "LAVAL", "province": "QC", "country": "CA", "postalCode": "H7R4H2", "twitter": "None", "instagram": "None", "facebook": "None", "youtube": "None", "website": "None", "summary": "None", "logo": "None", "latitude": 45.55472197861973, "longitude": -73.86438348378425}, "815752019RR0001": {"name": "Iglesia Pentecostal Poder De Dios", "designationCode": "C", "categoryCode": "37", "address": "3145 GLADWIN RD", "city": "ABBOTSFORD", "province": "BC", "country": "CA", "postalCode": "V2T5T4", "twitter": "None", "instagram": "None", "facebook": "None", "youtube": "None", "website": "None", "summary": "None", "logo": "None", "latitude": 49.05921166250218, "longitude": -122.31598486098423}, "816359525RR0001": {"name": "Iglesia Pentecostal Rio de Vida", "designationCode": "C", "categoryCode": "39", "address": "9-404 43RD E AVE", "city": "VANCOUVER", "province": "BC", "country": "CA", "postalCode": "V5W1T4", "twitter": "None", "instagram": "None", "facebook": "None", "youtube": "None", "website": "None", "summary": "None", "logo": "None", "latitude": 49.231108841084314, "longitude": -123.09590682927092}}