{"897190617RR0001": {"name": "New Edinburgh Community & Arts Centre / Centre communautaire et des arts de New Edinburgh", "designationCode": "C", "categoryCode": "55", "address": "255 MACKAY STREET", "city": "OTTAWA", "province": "ON", "country": "CA", "postalCode": "K1M2B6", "twitter": "None", "instagram": "None", "facebook": "None", "youtube": "None", "website": "None", "summary": "None", "logo": "None", "latitude": 45.44081099137301, "longitude": -75.68325061700031}, "842509606RR0001": {"name": "New Estevan Regional Nursing Home Committee Inc.", "designationCode": "A", "categoryCode": "03", "address": "1201 2ND STREET", "city": "ESTEVAN", "province": "SK", "country": "CA", "postalCode": "S4A0M1", "twitter": "None", "instagram": "None", "facebook": "None", "youtube": "None", "website": "None", "summary": "None", "logo": "None", "latitude": 49.1388982431242, "longitude": -102.9963982044336}, "119247021RR0001": {"name": "New Federation House / Maison nouvelle f\u00e9d\u00e9ration", "designationCode": "C", "categoryCode": "21", "address": "130 ALBERT ST. SUITE 201", "city": "OTTAWA", "province": "ON", "country": "CA", "postalCode": "K1P5G4", "twitter": "None", "instagram": "None", "facebook": "None", "youtube": "None", "website": "None", "summary": "None", "logo": "None", "latitude": 45.421156698568986, "longitude": -75.69738100178901}, "823635693RR0001": {"name": "New Generation Haiti (Canada) Ministries", "designationCode": "C", "categoryCode": "01", "address": "PO BOX 144", "city": "MILNER", "province": "BC", "country": "CA", "postalCode": "V0X1T0", "twitter": "None", "instagram": "None", "facebook": "None", "youtube": "None", "website": "None", "summary": "None", "logo": "None", "latitude": 49.127680000000055, "longitude": -122.62306999999998}, "119288918RR0817": {"name": "New Germany Congregation of Jehovah's Witnesses, New Germany, Nova Scotia", "designationCode": "C", "categoryCode": "61", "address": "1636 WENTWORTH ROAD", "city": "WINDSOR", "province": "NS", "country": "CA", "postalCode": "B0N2T0", "twitter": "None", "instagram": "None", "facebook": "None", "youtube": "None", "website": "None", "summary": "None", "logo": "None", "latitude": 44.97681749847079, "longitude": -64.04364882503299}, "119288918RR0041": {"name": "New Glasgow Congregation of Jehovah's Witnesses, New Glasgow, Nova Scotia", "designationCode": "C", "categoryCode": "61", "address": "POST OFFICE BOX 316", "city": "STELLARTON", "province": "NS", "country": "CA", "postalCode": "B0K1S0", "twitter": "None", "instagram": "None", "facebook": "None", "youtube": "None", "website": "None", "summary": "None", "logo": "None", "latitude": 45.56177000000008, "longitude": -62.65966999999995}, "821046349RR0001": {"name": "New Heart Church", "designationCode": "C", "categoryCode": "39", "address": "906 - 10 BLOORVIEW PL", "city": "NORTH YORK", "province": "ON", "country": "CA", "postalCode": "M2J0B1", "twitter": "None", "instagram": "None", "facebook": "None", "youtube": "None", "website": "None", "summary": "None", "logo": "None", "latitude": 43.773737124329244, "longitude": -79.35959789229052}, "835451055RR0001": {"name": "New Heaven Church", "designationCode": "C", "categoryCode": "39", "address": "1 - 375 JOHN STREET", "city": "THORNHILL", "province": "ON", "country": "CA", "postalCode": "L3T5W5", "twitter": "None", "instagram": "None", "facebook": "None", "youtube": "None", "website": "None", "summary": "None", "logo": "None", "latitude": 43.82038848730496, "longitude": -79.38964192339432}, "118788991RR0001": {"name": "New Heights Baptist Church", "designationCode": "C", "categoryCode": "39", "address": "PO BOX 236", "city": "ARCADIA", "province": "NS", "country": "CA", "postalCode": "B0W1B0", "twitter": "None", "instagram": "None", "facebook": "None", "youtube": "None", "website": "None", "summary": "None", "logo": "None", "latitude": 43.82606000000004, "longitude": -66.06526999999994}, "888945722RR0001": {"name": "New Heights School and Learning Services Society", "designationCode": "C", "categoryCode": "20", "address": "4041 BRESKENS DR SW", "city": "CALGARY", "province": "AB", "country": "CA", "postalCode": "T3E7M1", "twitter": "None", "instagram": "None", "facebook": "None", "youtube": "None", "website": "None", "summary": "None", "logo": "None", "latitude": 51.01843492645275, "longitude": -114.12192055011815}, "825819600RR0001": {"name": "New Hope Animal Rescue", "designationCode": "C", "categoryCode": "54", "address": "4990 JONES BASELINE", "city": "GUELPH", "province": "ON", "country": "CA", "postalCode": "N1H6H8", "twitter": "None", "instagram": "None", "facebook": "None", "youtube": "None", "website": "None", "summary": "None", "logo": "None", "latitude": 43.56998396557774, "longitude": -80.17301228898026}, "107859670RR0001": {"name": "New Hope Christian Fellowship", "designationCode": "C", "categoryCode": "36", "address": "BOX 843", "city": "PRINCETON", "province": "BC", "country": "CA", "postalCode": "V0X1W0", "twitter": "None", "instagram": "None", "facebook": "None", "youtube": "None", "website": "None", "summary": "None", "logo": "None", "latitude": 49.458687000000054, "longitude": -120.50591299999994}, "846342913RR0001": {"name": "New Hope Christian Fellowship", "designationCode": "B", "categoryCode": "39", "address": "30079 ZONE RD 6", "city": "BOTHWELL", "province": "ON", "country": "CA", "postalCode": "N0P1C0", "twitter": "None", "instagram": "None", "facebook": "None", "youtube": "None", "website": "None", "summary": "None", "logo": "None", "latitude": 42.61703310935425, "longitude": -81.91267462551266}, "888918067RR0001": {"name": "New Hope Christian Fellowship", "designationCode": "C", "categoryCode": "39", "address": "BOX 402                       586 MAIN ST.", "city": "SHAWVILLE", "province": "QC", "country": "CA", "postalCode": "J0X2Y0", "twitter": "None", "instagram": "None", "facebook": "None", "youtube": "None", "website": "None", "summary": "None", "logo": "None", "latitude": 45.60695232564401, "longitude": -76.49914629506647}, "849179932RR0001": {"name": "New Hope Church Hamilton (Christian Reformed)", "designationCode": "C", "categoryCode": "39", "address": "1429 MAIN STREET EAST,        POST OFFICE BOX 102", "city": "HAMILTON", "province": "ON", "country": "CA", "postalCode": "L8K1C2", "twitter": "None", "instagram": "None", "facebook": "None", "youtube": "None", "website": "None", "summary": "None", "logo": "None", "latitude": 43.24032206301567, "longitude": -79.809313867188}, "847169844RR0001": {"name": "New Hope Community Bikes", "designationCode": "C", "categoryCode": "59", "address": "30 DESJARDINS CRT", "city": "HAMILTON", "province": "ON", "country": "CA", "postalCode": "L8S3R8", "twitter": "None", "instagram": "None", "facebook": "None", "youtube": "None", "website": "None", "summary": "None", "logo": "None", "latitude": 43.27011232638934, "longitude": -79.89682777335699}, "118805936RR0001": {"name": "New Hope Community Church", "designationCode": "C", "categoryCode": "36", "address": "BOX 179", "city": "VILNA", "province": "AB", "country": "CA", "postalCode": "T0A3L0", "twitter": "None", "instagram": "None", "facebook": "None", "youtube": "None", "website": "None", "summary": "None", "logo": "None", "latitude": 54.11403000000007, "longitude": -111.91908999999998}, "119172302RR0001": {"name": "New Hope Community Church", "designationCode": "C", "categoryCode": "31", "address": "47286 HOMESTEAD RD", "city": "STEEVES MOUNTAIN", "province": "NB", "country": "CA", "postalCode": "E1G4P4", "twitter": "None", "instagram": "None", "facebook": "None", "youtube": "None", "website": "None", "summary": "None", "logo": "None", "latitude": 46.08777663330295, "longitude": -64.98272832679335}, "815377023RR0001": {"name": "New Hope Community Church, Gospel Crusade Inc.", "designationCode": "C", "categoryCode": "39", "address": "1840-15TH STREET WEST", "city": "PRINCE ALBERT", "province": "SK", "country": "CA", "postalCode": "S6V3T7", "twitter": "None", "instagram": "None", "facebook": "None", "youtube": "None", "website": "None", "summary": "None", "logo": "None", "latitude": 53.19932952986306, "longitude": -105.79911299999999}, "867121808RR0001": {"name": "New Hope Dog Rescue Inc.", "designationCode": "C", "categoryCode": "54", "address": "SITE 905 PO BOX 11 RR 9", "city": "SASKATOON", "province": "SK", "country": "CA", "postalCode": "S7K1P3", "twitter": "None", "instagram": "None", "facebook": "None", "youtube": "None", "website": "None", "summary": "None", "logo": "None", "latitude": 52.13049000000005, "longitude": -106.65926449999994}, "830737359RR0001": {"name": "New Hope Dog RESQ", "designationCode": "C", "categoryCode": "54", "address": "P.O.BOX 10191", "city": "THUNDER BAY", "province": "ON", "country": "CA", "postalCode": "P7B6T7", "twitter": "None", "instagram": "None", "facebook": "None", "youtube": "None", "website": "None", "summary": "None", "logo": "None", "latitude": 48.38168400000005, "longitude": -89.24550199999993}, "713284529RR0001": {"name": "New Hope Evangelical Christian Church", "designationCode": "C", "categoryCode": "39", "address": "6 - 3680 VICTORIA PARK AVE", "city": "NORTH YORK", "province": "ON", "country": "CA", "postalCode": "M2H3K1", "twitter": "None", "instagram": "None", "facebook": "None", "youtube": "None", "website": "None", "summary": "None", "logo": "None", "latitude": 43.803557907573364, "longitude": -79.33610374280191}, "132278227RR0001": {"name": "New Hope Gospel Church of Provost", "designationCode": "C", "categoryCode": "39", "address": "BOX 62", "city": "PROVOST", "province": "AB", "country": "CA", "postalCode": "T0B3S0", "twitter": "None", "instagram": "None", "facebook": "None", "youtube": "None", "website": "None", "summary": "None", "logo": "None", "latitude": 52.82485171250891, "longitude": -110.88936481833932}, "108031634RR0001": {"name": "New Hope Lutheran Church", "designationCode": "C", "categoryCode": "32", "address": "264 MACKENZIE ST", "city": "SUDBURY", "province": "ON", "country": "CA", "postalCode": "P3C4Y6", "twitter": "None", "instagram": "None", "facebook": "None", "youtube": "None", "website": "None", "summary": "None", "logo": "None", "latitude": 46.498836174705794, "longitude": -80.9978546867645}, "867920555RR0001": {"name": "New Hope Pentecostal Fellowship", "designationCode": "C", "categoryCode": "36", "address": "5014-49 STREET", "city": "OLDS", "province": "AB", "country": "CA", "postalCode": "T4H1H3", "twitter": "None", "instagram": "None", "facebook": "None", "youtube": "None", "website": "None", "summary": "None", "logo": "None", "latitude": 51.79312726672055, "longitude": -114.10578939286745}, "801383076RR0001": {"name": "New Hope Pentecostal Sanctuary (Lloydminster)", "designationCode": "C", "categoryCode": "39", "address": "PO BOX 718", "city": "KITSCOTY", "province": "AB", "country": "CA", "postalCode": "T0B2P0", "twitter": "None", "instagram": "None", "facebook": "None", "youtube": "None", "website": "None", "summary": "None", "logo": "None", "latitude": 53.33346000000006, "longitude": -110.33489999999995}, "804403590RR0001": {"name": "New Hope Recovery Foundation", "designationCode": "A", "categoryCode": "03", "address": "1800-510 GEORGIA W ST", "city": "VANCOUVER", "province": "BC", "country": "CA", "postalCode": "V6B0M3", "twitter": "None", "instagram": "None", "facebook": "None", "youtube": "None", "website": "None", "summary": "None", "logo": "None", "latitude": 49.28012307167682, "longitude": -123.11442679241839}, "128689932RR0001": {"name": "New Hope United Church", "designationCode": "C", "categoryCode": "44", "address": "37 - 9100 JANE ST", "city": "CONCORD", "province": "ON", "country": "CA", "postalCode": "L4K0A4", "twitter": "None", "instagram": "None", "facebook": "None", "youtube": "None", "website": "None", "summary": "None", "logo": "None", "latitude": 43.82975626781707, "longitude": -79.53247610392897}, "132725391RR0001": {"name": "New Hope United Church", "designationCode": "C", "categoryCode": "44", "address": "4651 COUNTY ROAD #2", "city": "PORT HOPE", "province": "ON", "country": "CA", "postalCode": "L1A3V5", "twitter": "None", "instagram": "None", "facebook": "None", "youtube": "None", "website": "None", "summary": "None", "logo": "None", "latitude": 43.97368838262729, "longitude": -78.34158555759579}, "834912255RR0001": {"name": "New Hope Youth Centre", "designationCode": "C", "categoryCode": "49", "address": "1014 VICTORIA AVENUE EST", "city": "THUNDER BAY", "province": "ON", "country": "CA", "postalCode": "P7C1B6", "twitter": "None", "instagram": "None", "facebook": "None", "youtube": "None", "website": "None", "summary": "None", "logo": "None", "latitude": 48.38416953563412, "longitude": -89.2519605}, "119055465RR0001": {"name": "New Horizon Searchers of Bengough Inc.", "designationCode": "C", "categoryCode": "56", "address": "BOX 222", "city": "BENGOUGH", "province": "SK", "country": "CA", "postalCode": "S0C0K0", "twitter": "None", "instagram": "None", "facebook": "None", "youtube": "None", "website": "None", "summary": "None", "logo": "None", "latitude": 49.39772000000005, "longitude": -105.12856999999997}, "107854010RR0001": {"name": "New Horizons Baptist Church", "designationCode": "C", "categoryCode": "31", "address": "819 MAITLAND STREET", "city": "LONDON", "province": "ON", "country": "CA", "postalCode": "N5Y2W6", "twitter": "None", "instagram": "None", "facebook": "None", "youtube": "None", "website": "None", "summary": "None", "logo": "None", "latitude": 43.000294212591676, "longitude": -81.24365422609475}, "745643692RR0001": {"name": "New Horizons Charitable Foundation", "designationCode": "B", "categoryCode": "05", "address": "38 - 30 GREEN VALLEY DR", "city": "KITCHENER", "province": "ON", "country": "CA", "postalCode": "N2P1G8", "twitter": "None", "instagram": "None", "facebook": "None", "youtube": "None", "website": "None", "summary": "None", "logo": "None", "latitude": 43.39966847657092, "longitude": -80.43308586594631}, "831153481RR0001": {"name": "New Horizons Christian Church", "designationCode": "C", "categoryCode": "39", "address": "5369 LESLIE CRES", "city": "NANAIMO", "province": "BC", "country": "CA", "postalCode": "V9V1S9", "twitter": "None", "instagram": "None", "facebook": "None", "youtube": "None", "website": "None", "summary": "None", "logo": "None", "latitude": 49.23438551731226, "longitude": -123.99907330252755}, "805541737RR0001": {"name": "New Immigrants Foundation for Special Needs", "designationCode": "C", "categoryCode": "29", "address": "D211 - 69 LEBOVIC AVE", "city": "SCARBOROUGH", "province": "ON", "country": "CA", "postalCode": "M1L0H2", "twitter": "None", "instagram": "None", "facebook": "None", "youtube": "None", "website": "None", "summary": "None", "logo": "None"}, "824777056RR0001": {"name": "New Jerusalem Church of God", "designationCode": "C", "categoryCode": "39", "address": "UNIT #2                       50 LEADING ROAD", "city": "ETOBICOKE", "province": "ON", "country": "CA", "postalCode": "M9V4B5", "twitter": "None", "instagram": "None", "facebook": "None", "youtube": "None", "website": "None", "summary": "None", "logo": "None", "latitude": 43.75327404772356, "longitude": -79.60877287154449}, "831736897RR0001": {"name": "New Journey Foundation", "designationCode": "B", "categoryCode": "09", "address": "200 - 305 BROADWAY", "city": "WINNIPEG", "province": "MB", "country": "CA", "postalCode": "R3C3J7", "twitter": "None", "instagram": "None", "facebook": "None", "youtube": "None", "website": "None", "summary": "None", "logo": "None", "latitude": 49.887785209013664, "longitude": -97.14005744783303}, "836934109RR0001": {"name": "New Kindness", "designationCode": "C", "categoryCode": "09", "address": "394 OLD ORCHARD GROVE", "city": "TORONTO", "province": "ON", "country": "CA", "postalCode": "M5M2E9", "twitter": "None", "instagram": "None", "facebook": "None", "youtube": "None", "website": "None", "summary": "None", "logo": "None", "latitude": 43.73182413240799, "longitude": -79.41846645504639}, "804026094RR0001": {"name": "New Leaf Faith Church", "designationCode": "C", "categoryCode": "39", "address": "19 - 3035 ARTESIAN DR", "city": "MISSISSAUGA", "province": "ON", "country": "CA", "postalCode": "L5M7S6", "twitter": "None", "instagram": "None", "facebook": "None", "youtube": "None", "website": "None", "summary": "None", "logo": "None", "latitude": 43.54637875275517, "longitude": -79.71505275237979}, "813232816RR0001": {"name": "New Leaf Link", "designationCode": "C", "categoryCode": "20", "address": "2862 HOLLEFORD ROAD", "city": "HARTINGTON", "province": "ON", "country": "CA", "postalCode": "K0H1W0", "twitter": "None", "instagram": "None", "facebook": "None", "youtube": "None", "website": "None", "summary": "None", "logo": "None", "latitude": 44.454848123906274, "longitude": -76.64350505757274}, "854956794RR0001": {"name": "New Leaf Yoga Foundation", "designationCode": "C", "categoryCode": "59", "address": "PO BOX 97044 RPO RONCESVALLES", "city": "TORONTO", "province": "ON", "country": "CA", "postalCode": "M6R3B3", "twitter": "None", "instagram": "None", "facebook": "None", "youtube": "None", "website": "None", "summary": "None", "logo": "None", "latitude": 43.64608872134299, "longitude": -79.44894927050362}, "755699527RR0001": {"name": "New Life in Christ International Ministries, Calgary", "designationCode": "C", "categoryCode": "39", "address": "108 WENTWORTH LANE SW", "city": "CALGARY", "province": "AB", "country": "CA", "postalCode": "T3H0E1", "twitter": "None", "instagram": "None", "facebook": "None", "youtube": "None", "website": "None", "summary": "None", "logo": "None", "latitude": 51.06165550375092, "longitude": -114.217002}, "823421441RR0001": {"name": "New Life Baptist Church of Calgary", "designationCode": "C", "categoryCode": "31", "address": "104 SADDLELAKE DRIVE NE", "city": "CALGARY", "province": "AB", "country": "CA", "postalCode": "T3J0P2", "twitter": "None", "instagram": "None", "facebook": "None", "youtube": "None", "website": "None", "summary": "None", "logo": "None", "latitude": 51.12615752928615, "longitude": -113.93352386081135}, "892184243RR0001": {"name": "New Life Charity", "designationCode": "C", "categoryCode": "09", "address": "BOX 214", "city": "ARTHUR", "province": "ON", "country": "CA", "postalCode": "N0G1A0", "twitter": "None", "instagram": "None", "facebook": "None", "youtube": "None", "website": "None", "summary": "None", "logo": "None", "latitude": 44.05516430804911, "longitude": -80.92867545949541}, "826142622RR0001": {"name": "New Life Christian Church - Chilliwack", "designationCode": "C", "categoryCode": "39", "address": "2038 MCCAFFREY ROAD", "city": "AGASSIZ", "province": "BC", "country": "CA", "postalCode": "V0M1A1", "twitter": "None", "instagram": "None", "facebook": "None", "youtube": "None", "website": "None", "summary": "None", "logo": "None", "latitude": 49.24169799971153, "longitude": -121.77243548124544}, "839933371RR0001": {"name": "New Life Church", "designationCode": "C", "categoryCode": "36", "address": "96 INVERNESS WAY", "city": "BRADFORD", "province": "ON", "country": "CA", "postalCode": "L3Z0W5", "twitter": "None", "instagram": "None", "facebook": "None", "youtube": "None", "website": "None", "summary": "None", "logo": "None", "latitude": 44.096381148257706, "longitude": -79.57530799584701}, "118966357RR0001": {"name": "New Life Church (Ignace)", "designationCode": "C", "categoryCode": "36", "address": "IGNACE GOSPEL CHURCH          BOX 464 630 PINE STREET", "city": "IGNACE", "province": "ON", "country": "CA", "postalCode": "P0T1T0", "twitter": "None", "instagram": "None", "facebook": "None", "youtube": "None", "website": "None", "summary": "None", "logo": "None", "latitude": 49.40501990754082, "longitude": -91.65756557308833}, "802292466RR0001": {"name": "New Life Church - Peterborough Inc.", "designationCode": "C", "categoryCode": "39", "address": "4014 WALLACE POINT RD", "city": "PETERBOROUGH", "province": "ON", "country": "CA", "postalCode": "K9J0E4", "twitter": "None", "instagram": "None", "facebook": "None", "youtube": "None", "website": "None", "summary": "None", "logo": "None", "latitude": 44.272089124251806, "longitude": -78.30796657284291}, "132487802RR0001": {"name": "New Life Community Church", "designationCode": "C", "categoryCode": "36", "address": "879 ST. CLAIR AVENUE WEST", "city": "TORONTO", "province": "ON", "country": "CA", "postalCode": "M6C1C4", "twitter": "None", "instagram": "None", "facebook": "None", "youtube": "None", "website": "None", "summary": "None", "logo": "None", "latitude": 43.68004870716731, "longitude": -79.43311856968076}, "823473830RR0001": {"name": "New Life Community Church", "designationCode": "C", "categoryCode": "39", "address": "PO BOX 20678 STN MAIN", "city": "STEINBACH", "province": "MB", "country": "CA", "postalCode": "R5G1S1", "twitter": "None", "instagram": "None", "facebook": "None", "youtube": "None", "website": "None", "summary": "None", "logo": "None", "latitude": 49.53143090703223, "longitude": -96.69328233906832}, "889649562RR0001": {"name": "New Life Community Church", "designationCode": "C", "categoryCode": "36", "address": "BOX 339", "city": "KINDERSLEY", "province": "SK", "country": "CA", "postalCode": "S0L1S0", "twitter": "None", "instagram": "None", "facebook": "None", "youtube": "None", "website": "None", "summary": "None", "logo": "None", "latitude": 51.46791900000005, "longitude": -109.15522999999993}, "840923643RR0001": {"name": "New Life Community Church Hatchet Lake", "designationCode": "C", "categoryCode": "31", "address": "1760 PROSPECT ROAD", "city": "HATCHET LAKE", "province": "NS", "country": "CA", "postalCode": "B3T1P9", "twitter": "None", "instagram": "None", "facebook": "None", "youtube": "None", "website": "None", "summary": "None", "logo": "None", "latitude": 44.57533861558667, "longitude": -63.711403740118385}, "856085071RR0001": {"name": "New Life Covenant Centre Inc.", "designationCode": "C", "categoryCode": "39", "address": "7050 BRAMALEA ROAD B.         UNIT 42-48", "city": "MISSISSAUGA", "province": "ON", "country": "CA", "postalCode": "L5S1S9", "twitter": "None", "instagram": "None", "facebook": "None", "youtube": "None", "website": "None", "summary": "None", "logo": "None", "latitude": 43.68526403713469, "longitude": -79.66421261734608}, "107396905RR0010": {"name": "New Life Foursquare Church", "designationCode": "C", "categoryCode": "39", "address": "308 10TH AVE S", "city": "CRANBROOK", "province": "BC", "country": "CA", "postalCode": "V1C2N6", "twitter": "None", "instagram": "None", "facebook": "None", "youtube": "None", "website": "None", "summary": "None", "logo": "None", "latitude": 49.50647355865858, "longitude": -115.76754766679247}, "800758336RR0001": {"name": "New Life Global Church", "designationCode": "C", "categoryCode": "39", "address": "1121 DUNDAS STREET EAST       BLOCK B, BACK UNIT #4", "city": "WHITBY", "province": "ON", "country": "CA", "postalCode": "L1N2K4", "twitter": "None", "instagram": "None", "facebook": "None", "youtube": "None", "website": "None", "summary": "None", "logo": "None", "latitude": 43.88395990423575, "longitude": -78.92397431181837}, "859119158RR0001": {"name": "New Life Gospel Ministry", "designationCode": "C", "categoryCode": "39", "address": "PO BOX 14525 RPO BAYLY", "city": "AJAX", "province": "ON", "country": "CA", "postalCode": "L1S7L4", "twitter": "None", "instagram": "None", "facebook": "None", "youtube": "None", "website": "None", "summary": "None", "logo": "None", "latitude": 43.848374145476775, "longitude": -78.99864607353297}, "835827197RR0001": {"name": "New Life International Apostolic Church of Jesus Christ", "designationCode": "C", "categoryCode": "39", "address": "11-440 MALAGA ROAD", "city": "OSHAWA", "province": "ON", "country": "CA", "postalCode": "L1J1N8", "twitter": "None", "instagram": "None", "facebook": "None", "youtube": "None", "website": "None", "summary": "None", "logo": "None", "latitude": 43.87567169382682, "longitude": -78.85810375778993}, "810507889RR0001": {"name": "New Life International Community Church", "designationCode": "C", "categoryCode": "39", "address": "1749 GOYER", "city": "CHOMEDEY LAVAL", "province": "QC", "country": "CA", "postalCode": "H7T1M6", "twitter": "None", "instagram": "None", "facebook": "None", "youtube": "None", "website": "None", "summary": "None", "logo": "None", "latitude": 45.55010589953254, "longitude": -73.76727414112189}, "822008488RR0001": {"name": "New Life Kingdom Ministries", "designationCode": "C", "categoryCode": "39", "address": "103 FAIRHILL AVE", "city": "BRAMPTON", "province": "ON", "country": "CA", "postalCode": "L7A2H5", "twitter": "None", "instagram": "None", "facebook": "None", "youtube": "None", "website": "None", "summary": "None", "logo": "None", "latitude": 43.68732290645746, "longitude": -79.8213481152982}, "887876613RR0001": {"name": "New Life Korean Methodist Church", "designationCode": "C", "categoryCode": "39", "address": "10201 YONGE STREET", "city": "RICHMOND HILL", "province": "ON", "country": "CA", "postalCode": "L4C3B2", "twitter": "None", "instagram": "None", "facebook": "None", "youtube": "None", "website": "None", "summary": "None", "logo": "None", "latitude": 43.87618087483404, "longitude": -79.43830794416904}, "892797721RR0001": {"name": "New Life Ministries International", "designationCode": "C", "categoryCode": "47", "address": "301 - 901A MACLEOD TRAIL SW", "city": "HIGH RIVER", "province": "AB", "country": "CA", "postalCode": "T1V1C3", "twitter": "None", "instagram": "None", "facebook": "None", "youtube": "None", "website": "None", "summary": "None", "logo": "None", "latitude": 50.57658032543347, "longitude": -113.8865402075506}, "873605612RR0001": {"name": "New Life Pentecostal Church of Edmonton", "designationCode": "C", "categoryCode": "39", "address": "13535 122 AVENUE", "city": "EDMONTON", "province": "AB", "country": "CA", "postalCode": "T5L2V7", "twitter": "None", "instagram": "None", "facebook": "None", "youtube": "None", "website": "None", "summary": "None", "logo": "None", "latitude": 53.572462513994026, "longitude": -113.55553219594324}, "854780467RR0001": {"name": "New Life Pentecostal Church of Lethbridge", "designationCode": "C", "categoryCode": "39", "address": "244 13 ST N", "city": "LETHBRIDGE", "province": "AB", "country": "CA", "postalCode": "T1H2R7", "twitter": "None", "instagram": "None", "facebook": "None", "youtube": "None", "website": "None", "summary": "None", "logo": "None", "latitude": 49.70244586372556, "longitude": -112.82419248629442}, "837186154RR0001": {"name": "New Life Pentecostal Ministries Canada", "designationCode": "C", "categoryCode": "39", "address": "25 PEEL CENTRE DRIVE          PO BOX 51001", "city": "BRAMPTON", "province": "ON", "country": "CA", "postalCode": "L6T5M2", "twitter": "None", "instagram": "None", "facebook": "None", "youtube": "None", "website": "None", "summary": "None", "logo": "None", "latitude": 43.71731362994847, "longitude": -79.72348416328963}, "864202528RR0001": {"name": "New Life Victory Church of Shaunavon Inc.", "designationCode": "C", "categoryCode": "43", "address": "PO BOX 1425", "city": "SHAUNAVON", "province": "SK", "country": "CA", "postalCode": "S0N2M0", "twitter": "None", "instagram": "None", "facebook": "None", "youtube": "None", "website": "None", "summary": "None", "logo": "None", "latitude": 49.64645000000007, "longitude": -108.41961999999995}, "835754813RR0001": {"name": "New Livingstones Fellowship", "designationCode": "C", "categoryCode": "39", "address": "13038 103 AVE", "city": "SURREY", "province": "BC", "country": "CA", "postalCode": "V3T1R5", "twitter": "None", "instagram": "None", "facebook": "None", "youtube": "None", "website": "None", "summary": "None", "logo": "None", "latitude": 49.189846485140606, "longitude": -122.86091186081134}, "140269168RR0001": {"name": "New London Rural Community Fire Company", "designationCode": "C", "categoryCode": "59", "address": "BOX 8031", "city": "KENSINGTON", "province": "PE", "country": "CA", "postalCode": "C0B1M0", "twitter": "None", "instagram": "None", "facebook": "None", "youtube": "None", "website": "None", "summary": "None", "logo": "None", "latitude": 46.53816900000005, "longitude": -63.71270899999993}, "822335543RR0001": {"name": "New Market Funds Society", "designationCode": "C", "categoryCode": "59", "address": "90 - 425 CARRALL ST", "city": "VANCOUVER", "province": "BC", "country": "CA", "postalCode": "V6B6E3", "twitter": "None", "instagram": "None", "facebook": "None", "youtube": "None", "website": "None", "summary": "None", "logo": "None", "latitude": 49.28107458090486, "longitude": -123.10442464770009}, "828373712RR0001": {"name": "New Reality International", "designationCode": "C", "categoryCode": "09", "address": "5462 ELLIOT LAKE RD", "city": "100 MILE HOUSE", "province": "BC", "country": "CA", "postalCode": "V0K2E1", "twitter": "None", "instagram": "None", "facebook": "None", "youtube": "None", "website": "None", "summary": "None", "logo": "None", "latitude": 51.70353655395599, "longitude": -121.32639052969016}, "807002514RR0001": {"name": "New Relationship Trust Foundation", "designationCode": "C", "categoryCode": "21", "address": "1008-100 PARK ROYAL SOUTH", "city": "WEST VANCOUVER", "province": "BC", "country": "CA", "postalCode": "V7T1A2", "twitter": "None", "instagram": "None", "facebook": "None", "youtube": "None", "website": "None", "summary": "None", "logo": "None", "latitude": 49.32569590460703, "longitude": -123.14032646493908}, "850333196RR0001": {"name": "New Routes to the Future Ecological Foundation", "designationCode": "A", "categoryCode": "03", "address": "2901 7TH CONCESSION           RR 4", "city": "UXBRIDGE", "province": "ON", "country": "CA", "postalCode": "L9P1R4", "twitter": "None", "instagram": "None", "facebook": "None", "youtube": "None", "website": "None", "summary": "None", "logo": "None", "latitude": 44.0376608970003, "longitude": -79.0883047435459}, "814741229RR0001": {"name": "New Shepherd Guide Ministries", "designationCode": "C", "categoryCode": "39", "address": "12 - 190 BOVAIRD DR W", "city": "BRAMPTON", "province": "ON", "country": "CA", "postalCode": "L7A1A2", "twitter": "None", "instagram": "None", "facebook": "None", "youtube": "None", "website": "None", "summary": "None", "logo": "None", "latitude": 43.70167439437733, "longitude": -79.79119594194817}, "832116701RR0001": {"name": "New Song Church Anglican Network in Canada", "designationCode": "C", "categoryCode": "39", "address": "14460 SIMCOE STREET NORTH", "city": "PORT PERRY", "province": "ON", "country": "CA", "postalCode": "L9L1G3", "twitter": "None", "instagram": "None", "facebook": "None", "youtube": "None", "website": "None", "summary": "None", "logo": "None", "latitude": 44.093784207311536, "longitude": -78.9425452504179}, "899780910RR0001": {"name": "New Start Society", "designationCode": "C", "categoryCode": "09", "address": "SUITE 900                     45 ALDERNEY DRIVE", "city": "DARTMOUTH", "province": "NS", "country": "CA", "postalCode": "B2Y2N6", "twitter": "None", "instagram": "None", "facebook": "None", "youtube": "None", "website": "None", "summary": "None", "logo": "None", "latitude": 44.66510530339292, "longitude": -63.56945518549857}, "849637707RR0001": {"name": "New Tang Dynasty Charities", "designationCode": "C", "categoryCode": "22", "address": "420 CONSUMERS RD", "city": "NORTH YORK", "province": "ON", "country": "CA", "postalCode": "M2J1P8", "twitter": "None", "instagram": "None", "facebook": "None", "youtube": "None", "website": "None", "summary": "None", "logo": "None", "latitude": 43.770924973537014, "longitude": -79.32508053756283}, "107396905RR0073": {"name": "New Testament Shekinah Bible Assembly Foursquare Church", "designationCode": "C", "categoryCode": "39", "address": "15 COTTESMORE CRES", "city": "MARKHAM", "province": "ON", "country": "CA", "postalCode": "L3R3X7", "twitter": "None", "instagram": "None", "facebook": "None", "youtube": "None", "website": "None", "summary": "None", "logo": "None", "latitude": 43.82820986037866, "longitude": -79.31242509310985}, "835834516RR0001": {"name": "New Tusket Pine Grove Cemetery Association", "designationCode": "C", "categoryCode": "59", "address": "4356 HIGHWAY 1", "city": "WEYMOUTH", "province": "NS", "country": "CA", "postalCode": "B0W3T0", "twitter": "None", "instagram": "None", "facebook": "None", "youtube": "None", "website": "None", "summary": "None", "logo": "None", "latitude": 44.4054134362156, "longitude": -66.00530565591322}, "846065985RR0001": {"name": "New Unionville Home Society", "designationCode": "C", "categoryCode": "09", "address": "4300 HIGHWAY NO 7", "city": "UNIONVILLE", "province": "ON", "country": "CA", "postalCode": "L3R1L8", "twitter": "None", "instagram": "None", "facebook": "None", "youtube": "None", "website": "None", "summary": "None", "logo": "None", "latitude": 43.83051000000006, "longitude": -79.32727699999994}, "846425502RR0001": {"name": "New Victory Way Church Society", "designationCode": "C", "categoryCode": "39", "address": "214 ANDERSON DR", "city": "QUESNEL", "province": "BC", "country": "CA", "postalCode": "V2J1G1", "twitter": "None", "instagram": "None", "facebook": "None", "youtube": "None", "website": "None", "summary": "None", "logo": "None", "latitude": 52.97307475102441, "longitude": -122.51079666094431}, "808134241RR0001": {"name": "New Vintage Theatre Society", "designationCode": "C", "categoryCode": "22", "address": "400-275 LAWRENCE AVE", "city": "KELOWNA", "province": "BC", "country": "CA", "postalCode": "V1Y6L2", "twitter": "None", "instagram": "None", "facebook": "None", "youtube": "None", "website": "None", "summary": "None", "logo": "None", "latitude": 49.8852486975588, "longitude": -119.49735439826846}, "108029257RR0001": {"name": "New Vision Community Church", "designationCode": "C", "categoryCode": "44", "address": "38 ALDBOROUGH AVE", "city": "ST THOMAS", "province": "ON", "country": "CA", "postalCode": "N5R4T1", "twitter": "None", "instagram": "None", "facebook": "None", "youtube": "None", "website": "None", "summary": "None", "logo": "None", "latitude": 42.761514654378175, "longitude": -81.17272952277519}, "856118799RR0001": {"name": "New Vision Living Word Ministries, INT.", "designationCode": "C", "categoryCode": "39", "address": "712 51ST AVE E", "city": "VANCOUVER", "province": "BC", "country": "CA", "postalCode": "V5X1E3", "twitter": "None", "instagram": "None", "facebook": "None", "youtube": "None", "website": "None", "summary": "None", "logo": "None", "latitude": 49.22357747013695, "longitude": -123.09002380252755}, "831470489RR0001": {"name": "New Vision Supportive Housing Society", "designationCode": "C", "categoryCode": "57", "address": "24271 - 63A CRESCENT", "city": "LANGLEY", "province": "BC", "country": "CA", "postalCode": "V2Y2G4", "twitter": "None", "instagram": "None", "facebook": "None", "youtube": "None", "website": "None", "summary": "None", "logo": "None", "latitude": 49.11744514400742, "longitude": -122.55138183100563}, "106884679RR0001": {"name": "New Vision United Church", "designationCode": "C", "categoryCode": "44", "address": "24 MAIN ST WEST", "city": "HAMILTON", "province": "ON", "country": "CA", "postalCode": "L8P1H2", "twitter": "None", "instagram": "None", "facebook": "None", "youtube": "None", "website": "None", "summary": "None", "logo": "None"}, "832179501RR0001": {"name": "New Way Community Society", "designationCode": "C", "categoryCode": "39", "address": "189 TALISMAN AVE", "city": "VANCOUVER", "province": "BC", "country": "CA", "postalCode": "V5Y2L6", "twitter": "None", "instagram": "None", "facebook": "None", "youtube": "None", "website": "None", "summary": "None", "logo": "None", "latitude": 49.24672599030513, "longitude": -123.11014298943975}, "827267170RR0001": {"name": "New West Pine United Church", "designationCode": "C", "categoryCode": "44", "address": "2960 HIGHWAY # 10             R.R. 2", "city": "NEW GERMANY", "province": "NS", "country": "CA", "postalCode": "B0R1E0", "twitter": "None", "instagram": "None", "facebook": "None", "youtube": "None", "website": "None", "summary": "None", "logo": "None", "latitude": 44.47984138994971, "longitude": -64.62464239254311}, "801275603RR0001": {"name": "New West Symphony & Chorus", "designationCode": "C", "categoryCode": "22", "address": "28 SUNCASTLE CRES SE", "city": "CALGARY", "province": "AB", "country": "CA", "postalCode": "T2X2W8", "twitter": "None", "instagram": "None", "facebook": "None", "youtube": "None", "website": "None", "summary": "None", "logo": "None", "latitude": 50.90123650790586, "longitude": -114.03560689967676}, "809795081RR0001": {"name": "New Westminster Homelessness Coalition Society", "designationCode": "C", "categoryCode": "09", "address": "750 CARNARVON ST", "city": "NEW WESTMINSTER", "province": "BC", "country": "CA", "postalCode": "V3M1E7", "twitter": "None", "instagram": "None", "facebook": "None", "youtube": "None", "website": "None", "summary": "None", "logo": "None", "latitude": 49.20216956473988, "longitude": -122.9122273475574}, "870215126RR0001": {"name": "New Westminster Revival Fellowship", "designationCode": "C", "categoryCode": "47", "address": "9361 BOTHWELL DR", "city": "SURREY", "province": "BC", "country": "CA", "postalCode": "V4N6G9", "twitter": "None", "instagram": "None", "facebook": "None", "youtube": "None", "website": "None", "summary": "None", "logo": "None", "latitude": 49.172925688585664, "longitude": -122.75168256315989}, "135887891RR0001": {"name": "New Westminster United Reformed Church", "designationCode": "C", "categoryCode": "39", "address": "23251 WESTMINSTER HWY", "city": "RICHMOND", "province": "BC", "country": "CA", "postalCode": "V6V1C1", "twitter": "None", "instagram": "None", "facebook": "None", "youtube": "None", "website": "None", "summary": "None", "logo": "None", "latitude": 49.18087855103083, "longitude": -122.96624798219749}, "820114833RR0001": {"name": "New Wine Deliverance and Healing Fellowship", "designationCode": "C", "categoryCode": "39", "address": "PO BOX 129", "city": "108 MILE RANCH", "province": "BC", "country": "CA", "postalCode": "V0K2Z0", "twitter": "None", "instagram": "None", "facebook": "None", "youtube": "None", "website": "None", "summary": "None", "logo": "None", "latitude": 51.75124800000006, "longitude": -121.34758399999993}, "846044857RR0001": {"name": "New World Ministries Inc.", "designationCode": "C", "categoryCode": "39", "address": "P.O. BOX 204", "city": "MILTON", "province": "ON", "country": "CA", "postalCode": "L9T4N9", "twitter": "None", "instagram": "None", "facebook": "None", "youtube": "None", "website": "None", "summary": "None", "logo": "None", "latitude": 43.51104600000005, "longitude": -79.88386399999993}, "819766650RR0001": {"name": "New World Theatre Project Inc.", "designationCode": "C", "categoryCode": "22", "address": "354 WATER ST.                 PO BOX 1781", "city": "ST. JOHN'S", "province": "NL", "country": "CA", "postalCode": "A1C5P9", "twitter": "None", "instagram": "None", "facebook": "None", "youtube": "None", "website": "None", "summary": "None", "logo": "None", "latitude": 47.5601708551272, "longitude": -52.71111728547508}, "827553454RR0001": {"name": "Newark Pastoral Charge", "designationCode": "C", "categoryCode": "44", "address": "344994 QUAKER STREET          R.R.#3", "city": "NORWICH", "province": "ON", "country": "CA", "postalCode": "N0J1P0", "twitter": "None", "instagram": "None", "facebook": "None", "youtube": "None", "website": "None", "summary": "None", "logo": "None", "latitude": 42.98829864888352, "longitude": -80.69071788175894}, "866912421RR0001": {"name": "Newbrook Community Church", "designationCode": "C", "categoryCode": "36", "address": "BOX 163", "city": "NEWBROOK", "province": "AB", "country": "CA", "postalCode": "T0A2P0", "twitter": "None", "instagram": "None", "facebook": "None", "youtube": "None", "website": "None", "summary": "None", "logo": "None", "latitude": 54.326100000000054, "longitude": -112.94303999999994}, "838727493RR0001": {"name": "Newcastle Art Show Inc.", "designationCode": "C", "categoryCode": "22", "address": "187 KING AVENUE EAST", "city": "NEWCASTLE", "province": "ON", "country": "CA", "postalCode": "L1B1H4", "twitter": "None", "instagram": "None", "facebook": "None", "youtube": "None", "website": "None", "summary": "None", "logo": "None", "latitude": 43.91833490755397, "longitude": -78.58502713015761}, "895650547RR0001": {"name": "Newcastle Pentecostal Church", "designationCode": "C", "categoryCode": "36", "address": "978 NORTH STREET", "city": "NEWCASTLE", "province": "ON", "country": "CA", "postalCode": "L1B1L9", "twitter": "None", "instagram": "None", "facebook": "None", "youtube": "None", "website": "None", "summary": "None", "logo": "None", "latitude": 43.932767503995265, "longitude": -78.59830446465135}, "828385229RR0001": {"name": "Newcomer Centre of Peel", "designationCode": "C", "categoryCode": "09", "address": "165 DUNDAS STREET WEST        SUITE 116", "city": "MISSISSAUGA", "province": "ON", "country": "CA", "postalCode": "L5B2N6", "twitter": "None", "instagram": "None", "facebook": "None", "youtube": "None", "website": "None", "summary": "None", "logo": "None", "latitude": 43.57692013462967, "longitude": -79.62022192414413}, "107769903RR0001": {"name": "Newell Foundation", "designationCode": "C", "categoryCode": "09", "address": "500 3RD STREET EAST", "city": "BROOKS", "province": "AB", "country": "CA", "postalCode": "T1R1P6", "twitter": "None", "instagram": "None", "facebook": "None", "youtube": "None", "website": "None", "summary": "None", "logo": "None", "latitude": 50.57024981652159, "longitude": -111.88964968529703}, "803212612RR0001": {"name": "Newfoundland & Labrador Folk Arts Society Inc.", "designationCode": "C", "categoryCode": "22", "address": "206 - 223 DUCKWORTH ST", "city": "ST. JOHN'S", "province": "NL", "country": "CA", "postalCode": "A1C6N1", "twitter": "None", "instagram": "None", "facebook": "None", "youtube": "None", "website": "None", "summary": "None", "logo": "None", "latitude": 47.56688769579903, "longitude": -52.7049029980381}}