{"802926444RR0001": {"name": "Aspire Change Foundation", "designationCode": "C", "categoryCode": "21", "address": "7 CYGNUS DRIVE", "city": "RICHMOND HILL", "province": "ON", "country": "CA", "postalCode": "L4C8P3", "twitter": "None", "instagram": "None", "facebook": "None", "youtube": "None", "website": "None", "summary": "None", "logo": "None", "latitude": 43.85868199526815, "longitude": -79.41642607617297}, "829487024RR0001": {"name": "Aspire Youth Services Ltd.", "designationCode": "C", "categoryCode": "01", "address": "68 CITADEL MANOR NW", "city": "CALGARY", "province": "AB", "country": "CA", "postalCode": "T3G3Y4", "twitter": "None", "instagram": "None", "facebook": "None", "youtube": "None", "website": "None", "summary": "None", "logo": "None", "latitude": 51.143192350539586, "longitude": -114.1760116584628}, "812251635RR0001": {"name": "Assembl\u00e9e \u00e9vang\u00e9lique des sauv\u00e9s en J\u00e9sus-Christ", "designationCode": "C", "categoryCode": "39", "address": "264 RUE PRINCIPALE", "city": "LAVAL", "province": "QC", "country": "CA", "postalCode": "H7X3T2", "twitter": "None", "instagram": "None", "facebook": "None", "youtube": "None", "website": "None", "summary": "None", "logo": "None", "latitude": 45.533825665820395, "longitude": -73.80316288813557}, "817284987RR0001": {"name": "Assembl\u00e9e \u00c9vang\u00e9lique de la Derni\u00e9re Heure", "designationCode": "C", "categoryCode": "39", "address": "283 RUE LABERGE", "city": "REPENTIGNY", "province": "QC", "country": "CA", "postalCode": "J6A4C2", "twitter": "None", "instagram": "None", "facebook": "None", "youtube": "None", "website": "None", "summary": "None", "logo": "None", "latitude": 45.73331570413756, "longitude": -73.4762378323906}, "801022807RR0001": {"name": "Assembl\u00e9e \u00c9vang\u00e9lique de la Nouvelle J\u00e9rusalem / Evangelical Assembly of the New Jerusalem", "designationCode": "C", "categoryCode": "39", "address": "259 RUE DES PENSEES", "city": "GATINEAU", "province": "QC", "country": "CA", "postalCode": "J8R1N4", "twitter": "None", "instagram": "None", "facebook": "None", "youtube": "None", "website": "None", "summary": "None", "logo": "None", "latitude": 45.507351532315894, "longitude": -75.60451071856428}, "770845923RR0001": {"name": "Assembl\u00e9e \u00c9vang\u00e9lique de L\u00e9vis", "designationCode": "C", "categoryCode": "39", "address": "A - 911 CH BELAIR E           SS 303", "city": "LEVIS", "province": "QC", "country": "CA", "postalCode": "G6Z2L2", "twitter": "None", "instagram": "None", "facebook": "None", "youtube": "None", "website": "None", "summary": "None", "logo": "None", "latitude": 46.640804830919535, "longitude": -71.22815374352282}, "843912445RR0001": {"name": "Assembl\u00e9e chr\u00e9tienne \u00c9vang\u00e9lique le refuge de paix", "designationCode": "C", "categoryCode": "39", "address": "8877, BOUL.SAINT-LAURENT", "city": "MONTR\u00c9AL", "province": "QC", "country": "CA", "postalCode": "H2N1M4", "twitter": "None", "instagram": "None", "facebook": "None", "youtube": "None", "website": "None", "summary": "None", "logo": "None", "latitude": 45.54264196476991, "longitude": -73.64446656895961}, "841362064RR0001": {"name": "Assembl\u00e9e chr\u00e9tienne de la baie", "designationCode": "C", "categoryCode": "49", "address": "CASE POSTAL 52", "city": "LA BAIE", "province": "QC", "country": "CA", "postalCode": "G7B3P9", "twitter": "None", "instagram": "None", "facebook": "None", "youtube": "None", "website": "None", "summary": "None", "logo": "None", "latitude": 48.28750800000006, "longitude": -70.92716299999994}, "827951179RR0001": {"name": "Assembl\u00e9e chr\u00e9tienne de la croissance", "designationCode": "C", "categoryCode": "39", "address": "4, RUE BROME", "city": "MERCIER", "province": "QC", "country": "CA", "postalCode": "J6R2N7", "twitter": "None", "instagram": "None", "facebook": "None", "youtube": "None", "website": "None", "summary": "None", "logo": "None", "latitude": 45.34206990342769, "longitude": -73.74106406783443}, "833226004RR0001": {"name": "Assembl\u00e9e chr\u00e9tienne espoir et vie", "designationCode": "C", "categoryCode": "39", "address": "195 CH DES LACS", "city": "LAC-BEAUPORT", "province": "QC", "country": "CA", "postalCode": "G3B1C5", "twitter": "None", "instagram": "None", "facebook": "None", "youtube": "None", "website": "None", "summary": "None", "logo": "None", "latitude": 46.97793157201805, "longitude": -71.29184141133354}, "815710298RR0001": {"name": "Assembl\u00e9e chr\u00e9tienne Ber\u00e9e", "designationCode": "C", "categoryCode": "39", "address": "5807 AV CHRISTOPHE-COLOMB", "city": "MONTREAL", "province": "QC", "country": "CA", "postalCode": "H2S2G3", "twitter": "None", "instagram": "None", "facebook": "None", "youtube": "None", "website": "None", "summary": "None", "logo": "None", "latitude": 45.535000378036685, "longitude": -73.59517147916797}, "826455198RR0001": {"name": "Assembl\u00e9e chr\u00e9tienne, Mission Deschaillons", "designationCode": "C", "categoryCode": "39", "address": "100 - 1596 RTE MARIE-VICTORIN", "city": "DESCHAILLONS-SUR-SAINT-LAURENT", "province": "QC", "country": "CA", "postalCode": "G0S1G0", "twitter": "None", "instagram": "None", "facebook": "None", "youtube": "None", "website": "None", "summary": "None", "logo": "None", "latitude": 46.55139127006742, "longitude": -72.12507820027108}, "889188447RR0001": {"name": "Assembl\u00e9e de Dieu nouvelle onction / Asamblea de Dios nuevauncion", "designationCode": "C", "categoryCode": "36", "address": "3960 RUE TALON                R.R.6", "city": "SAINTE-CATHERINE", "province": "QC", "country": "CA", "postalCode": "J0L1E0", "twitter": "None", "instagram": "None", "facebook": "None", "youtube": "None", "website": "None", "summary": "None", "logo": "None", "latitude": 45.38930836831319, "longitude": -73.5548489486411}, "845195395RR0001": {"name": "Assembl\u00e9e de Dieu Mon Rocher", "designationCode": "C", "categoryCode": "39", "address": "49 SOLMAR AVE", "city": "WHITBY", "province": "ON", "country": "CA", "postalCode": "L1R2Z6", "twitter": "None", "instagram": "None", "facebook": "None", "youtube": "None", "website": "None", "summary": "None", "logo": "None", "latitude": 43.92674291866247, "longitude": -78.9366267352127}, "821896958RR0001": {"name": "Assembl\u00e9e du coin", "designationCode": "C", "categoryCode": "39", "address": "746, RUE PRINCIPALE", "city": "LAC-DROLET", "province": "QC", "country": "CA", "postalCode": "G0Y1C0", "twitter": "None", "instagram": "None", "facebook": "None", "youtube": "None", "website": "None", "summary": "None", "logo": "None", "latitude": 45.72086592619295, "longitude": -70.85317681429987}, "844795104RR0001": {"name": "Assembl\u00e9e du peuple de Dieu", "designationCode": "C", "categoryCode": "39", "address": "7-1 PLACE LANCTOT", "city": "SAINT-CONSTANT", "province": "QC", "country": "CA", "postalCode": "J5A2E3", "twitter": "None", "instagram": "None", "facebook": "None", "youtube": "None", "website": "None", "summary": "None", "logo": "None", "latitude": 45.385747500432686, "longitude": -73.55604235928213}, "802955914RR0001": {"name": "Assembl\u00e9e du Shiloh", "designationCode": "C", "categoryCode": "39", "address": "105 RUE LORANGER", "city": "TROIS-RIVIERES", "province": "QC", "country": "CA", "postalCode": "G8T3S6", "twitter": "None", "instagram": "None", "facebook": "None", "youtube": "None", "website": "None", "summary": "None", "logo": "None", "latitude": 46.363861528737885, "longitude": -72.50971743479128}, "858721608RR0001": {"name": "Assembl\u00e9e les Messagers de J\u00e9sus-Christ, Minist\u00e8re International D'\u00c9vang\u00e9lisation", "designationCode": "C", "categoryCode": "39", "address": "2710 RUE MASSON               BUREAU 201", "city": "MONTREAL", "province": "QC", "country": "CA", "postalCode": "H1Y1W5", "twitter": "None", "instagram": "None", "facebook": "None", "youtube": "None", "website": "None", "summary": "None", "logo": "None", "latitude": 45.5466583030758, "longitude": -73.5756714339259}, "850582669RR0001": {"name": "Assembl\u00e9e rocher du salut / Assembly Rock of Salvation", "designationCode": "C", "categoryCode": "39", "address": "1-3770 52E AVENUE", "city": "MONTR\u00c9AL", "province": "QC", "country": "CA", "postalCode": "H1A0A6", "twitter": "None", "instagram": "None", "facebook": "None", "youtube": "None", "website": "None", "summary": "None", "logo": "None", "latitude": 45.67133490966906, "longitude": -73.50349515479128}, "118855642RR0001": {"name": "Assembl\u00e9e Biblique de New Carlisle / New Carlisle Bible Chapel", "designationCode": "C", "categoryCode": "39", "address": "BOX 307", "city": "NEW CARLISLE", "province": "QC", "country": "CA", "postalCode": "G0C1Z0", "twitter": "None", "instagram": "None", "facebook": "None", "youtube": "None", "website": "None", "summary": "None", "logo": "None", "latitude": 48.00876000000005, "longitude": -65.33776999999998}, "818275026RR0001": {"name": "Assembl\u00e9e Chr\u00e9tienne du R\u00e9veil des Nations/Christian Assembly for Revival of the Nations", "designationCode": "C", "categoryCode": "39", "address": "2053, RUE DU CUR\u00c9-LALANDE", "city": "MASCOUCHE", "province": "QC", "country": "CA", "postalCode": "J7L2C7", "twitter": "None", "instagram": "None", "facebook": "None", "youtube": "None", "website": "None", "summary": "None", "logo": "None", "latitude": 45.727443365543216, "longitude": -73.64044968720067}, "815922984RR0001": {"name": "Assembl\u00e9e Chr\u00e9tienne Crosspointe", "designationCode": "C", "categoryCode": "39", "address": "355 RUE SAINT-PHILIPPE", "city": "LA PRAIRIE", "province": "QC", "country": "CA", "postalCode": "J5R1G8", "twitter": "None", "instagram": "None", "facebook": "None", "youtube": "None", "website": "None", "summary": "None", "logo": "None", "latitude": 45.41751741880671, "longitude": -73.49669453231589}, "837115633RR0001": {"name": "Assembl\u00e9e Chr\u00e9tienne La Maison sur le Roc", "designationCode": "C", "categoryCode": "39", "address": "1159 RUE COUSINEAU", "city": "SAINT-LIN-LAURENTIDES", "province": "QC", "country": "CA", "postalCode": "J5M0G9", "twitter": "None", "instagram": "None", "facebook": "None", "youtube": "None", "website": "None", "summary": "None", "logo": "None", "latitude": 45.819805986958265, "longitude": -73.75887896240398}, "817928963RR0001": {"name": "Assembl\u00e9e Couronne du Vainqueur", "designationCode": "", "categoryCode": "", "address": "207 - 8101 PLACE MONTOIRE", "city": "ANJOU", "province": "QC", "country": "CA", "postalCode": "H1K1J2", "twitter": "None", "instagram": "None", "facebook": "None", "youtube": "None", "website": "None", "summary": "None", "logo": "None", "latitude": 45.606829485140594, "longitude": -73.5542645029142}, "846641868RR0001": {"name": "Assembl\u00e9e J\u00e9sus-Christ le fondement / J\u00e9sus-Christ the Foundation Assembly", "designationCode": "C", "categoryCode": "39", "address": "347 RUE DU SEMINAIRE", "city": "GRANBY", "province": "QC", "country": "CA", "postalCode": "J2J0C8", "twitter": "None", "instagram": "None", "facebook": "None", "youtube": "None", "website": "None", "summary": "None", "logo": "None", "latitude": 45.398800990016674, "longitude": -72.77089992073995}, "118791235RR0001": {"name": "Assemblea Cristiana Pentecostale Italiana", "designationCode": "C", "categoryCode": "36", "address": "686 OSSINGTON AVE", "city": "TORONTO", "province": "ON", "country": "CA", "postalCode": "M6G3T7", "twitter": "None", "instagram": "None", "facebook": "None", "youtube": "None", "website": "None", "summary": "None", "logo": "None", "latitude": 43.66063913183107, "longitude": -79.42517410479527}, "835616517RR0001": {"name": "Assemblies of God Fuente Inagotable", "designationCode": "C", "categoryCode": "36", "address": "454 MILLRISE SQUARE SW.", "city": "CALGARY", "province": "AB", "country": "CA", "postalCode": "T2Y4C1", "twitter": "None", "instagram": "None", "facebook": "None", "youtube": "None", "website": "None", "summary": "None", "logo": "None", "latitude": 50.91465600000001, "longitude": -114.09926405704306}, "860155993RR0001": {"name": "Assembly of God Evangelical Mission Community Church", "designationCode": "C", "categoryCode": "39", "address": "16 PERRIER ST                 NOTRE DAME", "city": "ILE-PERROT", "province": "QC", "country": "CA", "postalCode": "J7V8X8", "twitter": "None", "instagram": "None", "facebook": "None", "youtube": "None", "website": "None", "summary": "None", "logo": "None", "latitude": 45.38299359562002, "longitude": -73.92845516406004}, "815949763RR0001": {"name": "Assessment and Diagnostic of Dementia", "designationCode": "C", "categoryCode": "11", "address": "2535 RUE GUENETTE", "city": "SAINT-LAURENT", "province": "QC", "country": "CA", "postalCode": "H4R2E9", "twitter": "None", "instagram": "None", "facebook": "None", "youtube": "None", "website": "None", "summary": "None", "logo": "None", "latitude": 45.501477209042314, "longitude": -73.73059671475605}, "119094092RR0001": {"name": "Assiniboia Auxiliary for Long Term Care Homes", "designationCode": "C", "categoryCode": "09", "address": "PO BOX 454", "city": "ASSINIBOIA", "province": "SK", "country": "CA", "postalCode": "S0H0B0", "twitter": "None", "instagram": "None", "facebook": "None", "youtube": "None", "website": "None", "summary": "None", "logo": "None", "latitude": 49.63287300000006, "longitude": -105.99348049999993}, "813372554RR0001": {"name": "Assiniboia Communities in Bloom", "designationCode": "C", "categoryCode": "53", "address": "101-3RD AVENUE EAST           P.O. BOX 2020", "city": "ASSINIBOIA", "province": "SK", "country": "CA", "postalCode": "S0H0B0", "twitter": "None", "instagram": "None", "facebook": "None", "youtube": "None", "website": "None", "summary": "None", "logo": "None", "latitude": 49.63194745984361, "longitude": -105.99220276089669}, "812044170RR0001": {"name": "Assiniboine Food Forest Incorporated", "designationCode": "C", "categoryCode": "59", "address": "1735 ROSSER AVE E", "city": "BRANDON", "province": "MB", "country": "CA", "postalCode": "R7A7J2", "twitter": "None", "instagram": "None", "facebook": "None", "youtube": "None", "website": "None", "summary": "None", "logo": "None", "latitude": 49.84849658338366, "longitude": -99.91665875003643}, "808664015RR0001": {"name": "Assiniboine Park Conservancy Inc.", "designationCode": "C", "categoryCode": "50", "address": "55 PAVILION CRESCENT", "city": "WINNIPEG", "province": "MB", "country": "CA", "postalCode": "R3P2N6", "twitter": "None", "instagram": "None", "facebook": "None", "youtube": "None", "website": "None", "summary": "None", "logo": "None", "latitude": 49.87180780083706, "longitude": -97.22915651952236}, "831971189RR0001": {"name": "Assiniboine Valley Health and Wellness Foundation Inc.", "designationCode": "C", "categoryCode": "11", "address": "36 FOURTH AVE N               DRAWER 188", "city": "YORKTON", "province": "SK", "country": "CA", "postalCode": "S3N2V7", "twitter": "None", "instagram": "None", "facebook": "None", "youtube": "None", "website": "None", "summary": "None", "logo": "None", "latitude": 51.211638586733216, "longitude": -102.45863386678396}, "812570653RR0001": {"name": "Assist Group for Putting Youth in Sport", "designationCode": "C", "categoryCode": "09", "address": "1332 OAK AVENUE,", "city": "WINDSOR", "province": "ON", "country": "CA", "postalCode": "N8X2B3", "twitter": "None", "instagram": "None", "facebook": "None", "youtube": "None", "website": "None", "summary": "None", "logo": "None", "latitude": 42.29931282460033, "longitude": -83.04137574851424}, "118848712RR0001": {"name": "Assisted Living Southwestern Ontario", "designationCode": "C", "categoryCode": "11", "address": "3141 SANDWICH STREET", "city": "WINDSOR", "province": "ON", "country": "CA", "postalCode": "N9C1A7", "twitter": "None", "instagram": "None", "facebook": "None", "youtube": "None", "website": "None", "summary": "None", "logo": "None", "latitude": 42.30363642238471, "longitude": -83.0746049682037}, "813913829RR0001": {"name": "Associates Resourcing the Church", "designationCode": "C", "categoryCode": "47", "address": "346 - 50 OTTAWA ST S", "city": "KITCHENER", "province": "ON", "country": "CA", "postalCode": "N2G3S7", "twitter": "None", "instagram": "None", "facebook": "None", "youtube": "None", "website": "None", "summary": "None", "logo": "None", "latitude": 43.440078990870376, "longitude": -80.47341334842217}, "829445816RR0001": {"name": "Association canadienne des camps p\u00e9diatriques d'oncologie (ACCPO) / Canadian Association of Pediatric Oncology Camps (CAPOC)", "designationCode": "C", "categoryCode": "19", "address": "940 QUEENSDALE AVENUE EAST", "city": "HAMILTON", "province": "ON", "country": "CA", "postalCode": "L8V1N4", "twitter": "None", "instagram": "None", "facebook": "None", "youtube": "None", "website": "None", "summary": "None", "logo": "None", "latitude": 43.23245185316529, "longitude": -79.83742773925208}, "129778742RR0001": {"name": "Association coop\u00e9rative d'\u00e9conomie familiale (ACEF) des Bois-Francs", "designationCode": "C", "categoryCode": "09", "address": "59, MONFETTE, LOCAL 230", "city": "VICTORIAVILLE", "province": "QC", "country": "CA", "postalCode": "G6P1J8", "twitter": "None", "instagram": "None", "facebook": "None", "youtube": "None", "website": "None", "summary": "None", "logo": "None", "latitude": 46.06164779188039, "longitude": -71.9668892342031}, "821955218RR0001": {"name": "Association culturelle musulmane de Rouyn-Noranda", "designationCode": "C", "categoryCode": "60", "address": "20 RUE MONSEIGNEUR-TESSIER O", "city": "ROUYN-NORANDA", "province": "QC", "country": "CA", "postalCode": "J9X2S4", "twitter": "None", "instagram": "None", "facebook": "None", "youtube": "None", "website": "None", "summary": "None", "logo": "None", "latitude": 48.23913177011264, "longitude": -79.02053365047942}, "819521337RR0001": {"name": "Association culturelle musulmane de Val D'Or", "designationCode": "C", "categoryCode": "60", "address": "1153 4IEME AVENUE", "city": "VAL-D'OR", "province": "QC", "country": "CA", "postalCode": "J9P1K1", "twitter": "None", "instagram": "None", "facebook": "None", "youtube": "None", "website": "None", "summary": "None", "logo": "None", "latitude": 48.105715925875835, "longitude": -77.79593842382702}, "868014952RR0001": {"name": "Association d'\u00e9glises r\u00e9form\u00e9es baptistes du Qu\u00e9bec", "designationCode": "C", "categoryCode": "31", "address": "2775, RUE RAGEOT", "city": "QU\u00c9BEC", "province": "QC", "country": "CA", "postalCode": "G1M2L4", "twitter": "None", "instagram": "None", "facebook": "None", "youtube": "None", "website": "None", "summary": "None", "logo": "None", "latitude": 46.811399374141565, "longitude": -71.28272203817293}, "888794948RR0001": {"name": "Association d'aide Humanitaire", "designationCode": "C", "categoryCode": "59", "address": "3547 RIVI\u00c8RE-CACH\u00c9E ST", "city": "BOISBRIAND", "province": "QC", "country": "CA", "postalCode": "J7E4H4", "twitter": "None", "instagram": "None", "facebook": "None", "youtube": "None", "website": "None", "summary": "None", "logo": "None", "latitude": 45.61261996335627, "longitude": -73.864565991373}, "100296318RR0001": {"name": "Association d'entraide des personnes handicap\u00e9es physiques de Montr\u00e9al (ALPHA)", "designationCode": "C", "categoryCode": "56", "address": "163-14115 RUE PRINCE-ARTHUR", "city": "MONTREAL", "province": "QC", "country": "CA", "postalCode": "H1A1A8", "twitter": "None", "instagram": "None", "facebook": "None", "youtube": "None", "website": "None", "summary": "None", "logo": "None", "latitude": 45.67149856953654, "longitude": -73.50907747258886}, "890681265RR0001": {"name": "Association d'entraide en sant\u00e9 mentale \u00abL'\u00e9veil\u00bb de Brome-Missisquoi", "designationCode": "C", "categoryCode": "19", "address": "217 RUE D'OXFORD #4", "city": "COWANSVILLE", "province": "QC", "country": "CA", "postalCode": "J2K2M5", "twitter": "None", "instagram": "None", "facebook": "None", "youtube": "None", "website": "None", "summary": "None", "logo": "None", "latitude": 45.20211288481735, "longitude": -72.7428630035207}, "120503982RR0001": {"name": "Association d'entraide pour la sant\u00e9 mentale \"La Passerelle\"", "designationCode": "C", "categoryCode": "09", "address": "198 BOUL PERRON EST", "city": "NEW RICHMOND", "province": "QC", "country": "CA", "postalCode": "G0C2B0", "twitter": "None", "instagram": "None", "facebook": "None", "youtube": "None", "website": "None", "summary": "None", "logo": "None", "latitude": 48.14783207827912, "longitude": -65.83911358324211}, "889841672RR0001": {"name": "Association d'informations en logements et immeubles adapt\u00e9s(AILIA)", "designationCode": "C", "categoryCode": "09", "address": "240 AVENUE ST-LAURENT E 7", "city": "SAINT-LAMBERT", "province": "QC", "country": "CA", "postalCode": "J4R2S2", "twitter": "None", "instagram": "None", "facebook": "None", "youtube": "None", "website": "None", "summary": "None", "logo": "None", "latitude": 45.49818246768412, "longitude": -73.50655088773155}, "132460536RR0001": {"name": "Association de l'action volontaire Appalaches", "designationCode": "C", "categoryCode": "09", "address": "37 RUE NOTRE-DAME OUEST", "city": "THETFORD-MINES", "province": "QC", "country": "CA", "postalCode": "G6G1J1", "twitter": "None", "instagram": "None", "facebook": "None", "youtube": "None", "website": "None", "summary": "None", "logo": "None", "latitude": 46.090591542068076, "longitude": -71.30077859677387}, "875783011RR0001": {"name": "Association de la fibromyalgie r\u00e9gion Mont\u00e9r\u00e9gie", "designationCode": "C", "categoryCode": "11", "address": "205 - 570 BOUL ROLAND-THERRIEN", "city": "LONGUEUIL", "province": "QC", "country": "CA", "postalCode": "J4H3V9", "twitter": "None", "instagram": "None", "facebook": "None", "youtube": "None", "website": "None", "summary": "None", "logo": "None", "latitude": 45.54509385619505, "longitude": -73.4918842601414}, "861241651RR0001": {"name": "Association de la fibromyalgie Arthabaska-\u00c9rable", "designationCode": "C", "categoryCode": "11", "address": "C.P. 282", "city": "VICTORIAVILLE", "province": "QC", "country": "CA", "postalCode": "G6P6S9", "twitter": "None", "instagram": "None", "facebook": "None", "youtube": "None", "website": "None", "summary": "None", "logo": "None", "latitude": 46.05566100000006, "longitude": -71.95945399999994}, "774724926RR0001": {"name": "Association de la S\u00e9pulture Musulmane au Qu\u00e9bec", "designationCode": "C", "categoryCode": "09", "address": "2675 RUE LACORDAIRE", "city": "MONTREAL", "province": "QC", "country": "CA", "postalCode": "H1N2M5", "twitter": "None", "instagram": "None", "facebook": "None", "youtube": "None", "website": "None", "summary": "None", "logo": "None", "latitude": 45.572033786023354, "longitude": -73.53988319510651}, "870160033RR0001": {"name": "Association de parents pour la d\u00e9ficience intellectuelle et les troubles envahissants du d\u00e9veloppement", "designationCode": "C", "categoryCode": "11", "address": "5-3958 RUE DANDURAND", "city": "MONTREAL", "province": "QC", "country": "CA", "postalCode": "H1X1P7", "twitter": "None", "instagram": "None", "facebook": "None", "youtube": "None", "website": "None", "summary": "None", "logo": "None", "latitude": 45.558357684978986, "longitude": -73.57218453661507}, "823718028RR0001": {"name": "Association des aidants naturels de la C\u00f4te-Nord", "designationCode": "C", "categoryCode": "11", "address": "19, AVENUE ROBERVAL S-S", "city": "BAIE-COMEAU", "province": "QC", "country": "CA", "postalCode": "G4Z1N5", "twitter": "None", "instagram": "None", "facebook": "None", "youtube": "None", "website": "None", "summary": "None", "logo": "None", "latitude": 49.215720876767286, "longitude": -68.14609023760728}, "892738998RR0001": {"name": "Association des b\u00e9n\u00e9voles de l'H\u00f4pital de LaSalle", "designationCode": "C", "categoryCode": "19", "address": "8585 TERRACE CHAMPLAIN", "city": "LASALLE", "province": "QC", "country": "CA", "postalCode": "H8P1C1", "twitter": "None", "instagram": "None", "facebook": "None", "youtube": "None", "website": "None", "summary": "None", "logo": "None", "latitude": 45.42043200000006, "longitude": -73.62266749999993}, "815765680RR0001": {"name": "Association des b\u00e9n\u00e9voles des centres d'h\u00e9bergement Drapeau-Deschambault et Hubert-Maisonneuve", "designationCode": "C", "categoryCode": "09", "address": "100 RUE CHANOINE-LIONEL-GROULX", "city": "SAINT-THERESE", "province": "QC", "country": "CA", "postalCode": "J7E5E1", "twitter": "None", "instagram": "None", "facebook": "None", "youtube": "None", "website": "None", "summary": "None", "logo": "None", "latitude": 45.640655520370686, "longitude": -73.84113406878673}, "820001824RR0001": {"name": "Association des b\u00e9n\u00e9voles du centre d'h\u00e9bergement Idola St-Jean", "designationCode": "C", "categoryCode": "09", "address": "250, BOUL. CARTIER OUEST", "city": "LAVAL", "province": "QC", "country": "CA", "postalCode": "H7N5S5", "twitter": "None", "instagram": "None", "facebook": "None", "youtube": "None", "website": "None", "summary": "None", "logo": "None", "latitude": 45.55824843153131, "longitude": -73.69461346609756}, "842878977RR0001": {"name": "Association des b\u00e9n\u00e9voles du C.H. Fernand Larocque", "designationCode": "C", "categoryCode": "09", "address": "5436, BOULEVARD L\u00c9VESQUE EST", "city": "LAVAL", "province": "QC", "country": "CA", "postalCode": "H7C1N7", "twitter": "None", "instagram": "None", "facebook": "None", "youtube": "None", "website": "None", "summary": "None", "logo": "None", "latitude": 45.615664154019406, "longitude": -73.64450487186254}, "813456555RR0001": {"name": "Association des b\u00e9n\u00e9voles du CHSLD Vigi Deux-Montagnes", "designationCode": "C", "categoryCode": "09", "address": "580, 20E AVENUE", "city": "DEUX-MONTAGNES", "province": "QC", "country": "CA", "postalCode": "J7R7E9", "twitter": "None", "instagram": "None", "facebook": "None", "youtube": "None", "website": "None", "summary": "None", "logo": "None", "latitude": 45.54267884090295, "longitude": -73.9145693534824}, "850536061RR0001": {"name": "Association des b\u00e9n\u00e9voles du CHSLD Vigi Marie-Claret Inc.", "designationCode": "C", "categoryCode": "09", "address": "3345, BOUL. HENRI-BOURASSA EST", "city": "MONTREAL", "province": "QC", "country": "CA", "postalCode": "H1H1H6", "twitter": "None", "instagram": "None", "facebook": "None", "youtube": "None", "website": "None", "summary": "None", "logo": "None", "latitude": 45.58643826034391, "longitude": -73.64944403208474}, "100300979RR0001": {"name": "Association des b\u00e9n\u00e9voles en h\u00e9bergement du CSSS de Saint-L\u00e9onard et Saint-Michel", "designationCode": "C", "categoryCode": "11", "address": "3130 JARRY EST", "city": "MONTREAL", "province": "QC", "country": "CA", "postalCode": "H1Z4N8", "twitter": "None", "instagram": "None", "facebook": "None", "youtube": "None", "website": "None", "summary": "None", "logo": "None", "latitude": 45.562247363004396, "longitude": -73.61093677456907}, "128134467RR0001": {"name": "Association des biblioth\u00e8ques publiques du Qu\u00e9bec / Qu\u00e9bec Public Library Association", "designationCode": "C", "categoryCode": "59", "address": "1453 RUE BEAUBIEN EST         BUREAU 215", "city": "MONTR\u00c9AL", "province": "QC", "country": "CA", "postalCode": "H2G3C6", "twitter": "None", "instagram": "None", "facebook": "None", "youtube": "None", "website": "None", "summary": "None", "logo": "None", "latitude": 45.54155824536893, "longitude": -73.59817305860092}, "856464680RR0001": {"name": "Association des coeurs all\u00e9g\u00e9s de Granby", "designationCode": "C", "categoryCode": "11", "address": "488 RUE SAINT-HUBERT", "city": "GRANBY", "province": "QC", "country": "CA", "postalCode": "J2G5P4", "twitter": "None", "instagram": "None", "facebook": "None", "youtube": "None", "website": "None", "summary": "None", "logo": "None", "latitude": 45.418913444082115, "longitude": -72.72658303139227}, "838384220RR0001": {"name": "Association des d\u00e9bats d'\u00e9tudiants du Qu\u00e9bec / Quebec Student Debating Association", "designationCode": "C", "categoryCode": "21", "address": "4603 AVENUE KENSINGTON", "city": "MONTREAL", "province": "QC", "country": "CA", "postalCode": "H4B2W6", "twitter": "None", "instagram": "None", "facebook": "None", "youtube": "None", "website": "None", "summary": "None", "logo": "None", "latitude": 45.47061526868244, "longitude": -73.63393847625379}, "106730732RR0001": {"name": "Association des enfants et adultes handicap\u00e9s de Boucherville et Varennes (A.E.A.H.B.V.)", "designationCode": "C", "categoryCode": "11", "address": "C.P. 631", "city": "BOUCHERVILLE", "province": "QC", "country": "CA", "postalCode": "J4B6Y3", "twitter": "None", "instagram": "None", "facebook": "None", "youtube": "None", "website": "None", "summary": "None", "logo": "None", "latitude": 45.60427500000006, "longitude": -73.45165399999993}, "841256605RR0001": {"name": "Association des familles du Centre-Sud", "designationCode": "C", "categoryCode": "09", "address": "1489 RUE DUFRESNE", "city": "MONTREAL", "province": "QC", "country": "CA", "postalCode": "H2K3J4", "twitter": "None", "instagram": "None", "facebook": "None", "youtube": "None", "website": "None", "summary": "None", "logo": "None", "latitude": 45.52893927200067, "longitude": -73.54836989632989}, "875156473RR0001": {"name": "Association des gens de la Petite-Rivi\u00e8re de Saint-Jean du sud", "designationCode": "C", "categoryCode": "09", "address": "8397 13E AVENUE SAINT-MICH\u00c8L", "city": "MONTR\u00c9AL", "province": "QC", "country": "CA", "postalCode": "H1Z3K5", "twitter": "None", "instagram": "None", "facebook": "None", "youtube": "None", "website": "None", "summary": "None", "logo": "None", "latitude": 45.56714929032251, "longitude": -73.61392987800804}, "830865416RR0001": {"name": "Association des jeunes de Fermont", "designationCode": "C", "categoryCode": "09", "address": "100 PLACE DAVIAULT, CP 2010", "city": "FERMONT", "province": "QC", "country": "CA", "postalCode": "G0G1J0", "twitter": "None", "instagram": "None", "facebook": "None", "youtube": "None", "website": "None", "summary": "None", "logo": "None", "latitude": 52.79736551762939, "longitude": -67.09012036984238}, "868434176RR0001": {"name": "Association des juristes progressistes", "designationCode": "C", "categoryCode": "09", "address": "5323, RUE BREBEUF             LOCAL 10", "city": "MONTREAL", "province": "QC", "country": "CA", "postalCode": "H2J3L8", "twitter": "None", "instagram": "None", "facebook": "None", "youtube": "None", "website": "None", "summary": "None", "logo": "None", "latitude": 45.53381223203872, "longitude": -73.58763162655094}, "100304591RR0001": {"name": "Association des locataires de Villeray Inc.", "designationCode": "C", "categoryCode": "09", "address": "7378 LAJEUNESSE LOCAL 213", "city": "MONTREAL", "province": "QC", "country": "CA", "postalCode": "H2R2H8", "twitter": "None", "instagram": "None", "facebook": "None", "youtube": "None", "website": "None", "summary": "None", "logo": "None", "latitude": 45.5405610824054, "longitude": -73.61735839399262}, "891620791RR0001": {"name": "Association des parents d'enfants handicap\u00e9s (APEH) Inc.", "designationCode": "C", "categoryCode": "09", "address": "1900, RUE ROYALE", "city": "TROIS-RIVIERES", "province": "QC", "country": "CA", "postalCode": "G9A4K9", "twitter": "None", "instagram": "None", "facebook": "None", "youtube": "None", "website": "None", "summary": "None", "logo": "None", "latitude": 46.33849005773554, "longitude": -72.54654407718259}, "802297010RR0001": {"name": "Association des parents et amis des victimes du g\u00e9nocide au Rwanda (Page-Rwanda)", "designationCode": "C", "categoryCode": "09", "address": "8329, RUE LAJEUNESSE", "city": "MONTR\u00c9AL", "province": "QC", "country": "CA", "postalCode": "H2P2E7", "twitter": "None", "instagram": "None", "facebook": "None", "youtube": "None", "website": "None", "summary": "None", "logo": "None", "latitude": 45.54481697919664, "longitude": -73.63218281028915}, "886149053RR0001": {"name": "Association des personnes avec une d\u00e9ficience de l'audition inc.", "designationCode": "C", "categoryCode": "09", "address": "7260 BOUL CLOUTIER", "city": "QUEBEC", "province": "QC", "country": "CA", "postalCode": "G1H3E8", "twitter": "None", "instagram": "None", "facebook": "None", "youtube": "None", "website": "None", "summary": "None", "logo": "None", "latitude": 46.85359350207748, "longitude": -71.27384134566348}, "133941609RR0001": {"name": "Association des personnes handicap\u00e9es de Gasp\u00e9 Inc. (APHG Inc).", "designationCode": "C", "categoryCode": "20", "address": "24 - 37 RUE CHRETIEN", "city": "GASPE", "province": "QC", "country": "CA", "postalCode": "G4X1E1", "twitter": "None", "instagram": "None", "facebook": "None", "youtube": "None", "website": "None", "summary": "None", "logo": "None", "latitude": 48.83405322453688, "longitude": -64.48124186081135}, "128972726RR0001": {"name": "Association des personnes handicap\u00e9es visuelles de l'Estrie", "designationCode": "C", "categoryCode": "09", "address": "838 ST CHARLES 2EME ETAGE", "city": "SHERBROOKE", "province": "QC", "country": "CA", "postalCode": "J1H4Z2", "twitter": "None", "instagram": "None", "facebook": "None", "youtube": "None", "website": "None", "summary": "None", "logo": "None", "latitude": 45.39333157868313, "longitude": -71.88772545669117}, "894353036RR0001": {"name": "Association des personnes handicap\u00e9es visuelles de Lanaudi\u00e8re", "designationCode": "C", "categoryCode": "09", "address": "118-2500, BOUL. MASCOUCHE", "city": "MASCOUCHE", "province": "QC", "country": "CA", "postalCode": "J7R1H5", "twitter": "None", "instagram": "None", "facebook": "None", "youtube": "None", "website": "None", "summary": "None", "logo": "None", "latitude": 45.74389239018424, "longitude": -73.61772075862127}, "823869086RR0001": {"name": "Association des personnes proches aidantes Drummond", "designationCode": "C", "categoryCode": "09", "address": "255 RUE BROCK", "city": "DRUMMONDVILLE", "province": "QC", "country": "CA", "postalCode": "J2C1M5", "twitter": "None", "instagram": "None", "facebook": "None", "youtube": "None", "website": "None", "summary": "None", "logo": "None", "latitude": 45.88389463108206, "longitude": -72.48787668869153}, "875207276RR0002": {"name": "Association des personnes Handicap\u00e9es de Portneuf", "designationCode": "C", "categoryCode": "09", "address": "204, RUE PERRIN", "city": "SAINT-RAYMOND", "province": "QC", "country": "CA", "postalCode": "G3L1C7", "twitter": "None", "instagram": "None", "facebook": "None", "youtube": "None", "website": "None", "summary": "None", "logo": "None", "latitude": 46.89269576850954, "longitude": -71.83179208246271}, "849739230RR0001": {"name": "Association des podiatres sans fronti\u00e8res", "designationCode": "C", "categoryCode": "11", "address": "1050, RUE BERRI", "city": "MONTR\u00c9AL", "province": "QC", "country": "CA", "postalCode": "H2L4X2", "twitter": "None", "instagram": "None", "facebook": "None", "youtube": "None", "website": "None", "summary": "None", "logo": "None", "latitude": 45.51317172410422, "longitude": -73.55653566584904}, "822298550RR0001": {"name": "Association des proches aidants de la Capitale-Nationale", "designationCode": "C", "categoryCode": "11", "address": "1670 RUE DINA-BELANGER", "city": "QU\u00c9BEC", "province": "QC", "country": "CA", "postalCode": "G1S0A5", "twitter": "None", "instagram": "None", "facebook": "None", "youtube": "None", "website": "None", "summary": "None", "logo": "None", "latitude": 46.78610748958399, "longitude": -71.24948905799535}, "833065535RR0001": {"name": "Association des proches aidants Arthabaska-\u00c9rable", "designationCode": "C", "categoryCode": "11", "address": "40 RUE ALICE", "city": "VICTORIAVILLE", "province": "QC", "country": "CA", "postalCode": "G6P3H4", "twitter": "None", "instagram": "None", "facebook": "None", "youtube": "None", "website": "None", "summary": "None", "logo": "None", "latitude": 46.060798275318874, "longitude": -71.96620186842873}, "855253811RR0001": {"name": "Association des seniors en S\u00e9curit\u00e9 - Security for Seniors Association", "designationCode": "C", "categoryCode": "09", "address": "60 METEGHAN CONNECTOR ROAD    C.P. 178", "city": "METEGHAN", "province": "NS", "country": "CA", "postalCode": "B0W2J0", "twitter": "None", "instagram": "None", "facebook": "None", "youtube": "None", "website": "None", "summary": "None", "logo": "None", "latitude": 44.16554193781324, "longitude": -66.14924273516925}, "846652006RR0001": {"name": "Association des Anciens du S\u00e9minaire de Ste-Th\u00e9r\u00e8se et du Coll\u00e8ge Lionel-Groulx", "designationCode": "C", "categoryCode": "21", "address": "4150 BOUL ST-MARTIN OUEST", "city": "LAVAL", "province": "QC", "country": "CA", "postalCode": "H7T1C1", "twitter": "None", "instagram": "None", "facebook": "None", "youtube": "None", "website": "None", "summary": "None", "logo": "None", "latitude": 45.549641086300525, "longitude": -73.76521456604543}, "852123280RR0001": {"name": "Association des Auxiliaires b\u00e9n\u00e9voles du centre hospitalier de Granby", "designationCode": "A", "categoryCode": "19", "address": "205 BOUL LECLERC OUEST", "city": "GRANBY", "province": "QC", "country": "CA", "postalCode": "J2G1T7", "twitter": "None", "instagram": "None", "facebook": "None", "youtube": "None", "website": "None", "summary": "None", "logo": "None", "latitude": 45.410031365543226, "longitude": -72.72222665098964}, "100301019RR0001": {"name": "Association des B\u00e9n\u00e9voles de l'hopital et des centres d'h\u00e9bergement en soins de longue dur\u00e9e de Chicoutimi", "designationCode": "C", "categoryCode": "19", "address": "305 RUE ST-VALLIER", "city": "CHICOUTIMI", "province": "QC", "country": "CA", "postalCode": "G7H5H6", "twitter": "None", "instagram": "None", "facebook": "None", "youtube": "None", "website": "None", "summary": "None", "logo": "None", "latitude": 48.426379384607515, "longitude": -71.0502546240482}, "827225665RR0001": {"name": "Association des B\u00e9n\u00e9voles du Centre d'H\u00e9bergement de la Pini\u00e8re", "designationCode": "C", "categoryCode": "09", "address": "4895, RUE SAINT-JOSEPH", "city": "LAVAL", "province": "QC", "country": "CA", "postalCode": "H7C1H6", "twitter": "None", "instagram": "None", "facebook": "None", "youtube": "None", "website": "None", "summary": "None", "logo": "None", "latitude": 45.610974678630996, "longitude": -73.64913596228841}, "841448897RR0001": {"name": "Association des Chr\u00e9tiens \u00e9vang\u00e9liques d'Ottawa - ACEO", "designationCode": "C", "categoryCode": "47", "address": "92 FAIRLOP WAY", "city": "NEPEAN", "province": "ON", "country": "CA", "postalCode": "K2J5B6", "twitter": "None", "instagram": "None", "facebook": "None", "youtube": "None", "website": "None", "summary": "None", "logo": "None", "latitude": 45.28203146906909, "longitude": -75.73256455066642}, "838734119RR0001": {"name": "Association des G\u00e9n\u00e9reux pour enfants handicap\u00e9s / Association of the Generous for the Handicapped Children", "designationCode": "C", "categoryCode": "11", "address": "341 RUE BETH-HALEVY", "city": "BOISBRIAND", "province": "QC", "country": "CA", "postalCode": "J7E4H4", "twitter": "None", "instagram": "None", "facebook": "None", "youtube": "None", "website": "None", "summary": "None", "logo": "None", "latitude": 45.6117125229095, "longitude": -73.86715325532357}, "141079046RR0001": {"name": "Association des Juristes d'expression Francaise de l'Alberta", "designationCode": "C", "categoryCode": "59", "address": "314 - 8627 91 ST NW", "city": "EDMONTON", "province": "AB", "country": "CA", "postalCode": "T6C3N1", "twitter": "None", "instagram": "None", "facebook": "None", "youtube": "None", "website": "None", "summary": "None", "logo": "None", "latitude": 53.5223435029142, "longitude": -113.46738528455239}, "810852137RR0001": {"name": "Association des Patients Immunod\u00e9ficients du Qu\u00e9bec", "designationCode": "C", "categoryCode": "11", "address": "880 - 2600 BOUL LAURIER", "city": "QUEBEC", "province": "QC", "country": "CA", "postalCode": "G1V4W2", "twitter": "None", "instagram": "None", "facebook": "None", "youtube": "None", "website": "None", "summary": "None", "logo": "None", "latitude": 46.771007926769876, "longitude": -71.28123332116652}, "889581401RR0001": {"name": "Association des Personnes Aidantes de la Vall\u00e9e-de-la-Bastiscan", "designationCode": "C", "categoryCode": "09", "address": "301 RUE SAINT-JACQUES         BUREAU 207", "city": "SAINTE-THECLE", "province": "QC", "country": "CA", "postalCode": "G0X3G0", "twitter": "None", "instagram": "None", "facebook": "None", "youtube": "None", "website": "None", "summary": "None", "logo": "None", "latitude": 46.814861832128564, "longitude": -72.50614230680709}, "843910373RR0001": {"name": "Association des Personnes Proches Aidantes de B\u00e9cancour-Nicolet-Yamaska", "designationCode": "C", "categoryCode": "11", "address": "4225 AVENUE LANDRY", "city": "BECANCOUR", "province": "QC", "country": "CA", "postalCode": "G9H2A7", "twitter": "None", "instagram": "None", "facebook": "None", "youtube": "None", "website": "None", "summary": "None", "logo": "None", "latitude": 46.27301170497428, "longitude": -72.51059248514059}, "815962139RR0001": {"name": "Association du lac Tomcod", "designationCode": "C", "categoryCode": "52", "address": "471 RUE CHABOT", "city": "ST-FRANCOIS-XAVIER DE BROMPTON", "province": "QC", "country": "CA", "postalCode": "J0B2V0", "twitter": "None", "instagram": "None", "facebook": "None", "youtube": "None", "website": "None", "summary": "None", "logo": "None", "latitude": 45.531150706217666, "longitude": -72.03120940330865}, "871981601RR0001": {"name": "Association du trouble primaire du langage de l'Est", "designationCode": "C", "categoryCode": "09", "address": "206-299 RUE LAFONTAINE", "city": "RIVI\u00c8RE-DU-LOUP", "province": "QC", "country": "CA", "postalCode": "G5R3A9", "twitter": "None", "instagram": "None", "facebook": "None", "youtube": "None", "website": "None", "summary": "None", "logo": "None", "latitude": 47.83280983542035, "longitude": -69.53688377459773}, "119221539RR0001": {"name": "Association du Camp des c\u00e8dres / The Cedar Lodge Association", "designationCode": "C", "categoryCode": "49", "address": "1283 RUE BEAUMONT", "city": "VAL-DAVID", "province": "QC", "country": "CA", "postalCode": "J0T2N0", "twitter": "None", "instagram": "None", "facebook": "None", "youtube": "None", "website": "None", "summary": "None", "logo": "None", "latitude": 46.03500205201729, "longitude": -74.20466575478702}, "890852742RR0001": {"name": "Association du Centre communautaire de Hatley", "designationCode": "C", "categoryCode": "50", "address": "100 MAIN", "city": "HATLEY", "province": "QC", "country": "CA", "postalCode": "J0B4B0", "twitter": "None", "instagram": "None", "facebook": "None", "youtube": "None", "website": "None", "summary": "None", "logo": "None", "latitude": 45.1842270272071, "longitude": -71.93645348864301}, "144945730RR0001": {"name": "Association du Mont O'Brien / Mont O'Brien Association", "designationCode": "C", "categoryCode": "59", "address": "CASIER POSTALE 904", "city": "ALLEYN-ET-CAWOOD", "province": "QC", "country": "CA", "postalCode": "J0X1P0", "twitter": "None", "instagram": "None", "facebook": "None", "youtube": "None", "website": "None", "summary": "None", "logo": "None", "latitude": 45.94175700000005, "longitude": -76.17644899999993}, "118793769RR0001": {"name": "Association du Syndrome de Down", "designationCode": "C", "categoryCode": "01", "address": "836 ST-CHARLES", "city": "SHERBROOKE", "province": "QC", "country": "CA", "postalCode": "J1H4Z2", "twitter": "None", "instagram": "None", "facebook": "None", "youtube": "None", "website": "None", "summary": "None", "logo": "None", "latitude": 45.39333157868313, "longitude": -71.88772545669117}, "830305041RR0001": {"name": "Association for the Advancement of Science and Engineering Education (AASEE)", "designationCode": "C", "categoryCode": "21", "address": "152-388 SANDARAC DR NW", "city": "CALGARY", "province": "AB", "country": "CA", "postalCode": "T3K4E3", "twitter": "None", "instagram": "None", "facebook": "None", "youtube": "None", "website": "None", "summary": "None", "logo": "None", "latitude": 51.140742765480084, "longitude": -114.10788505567497}, "880783691RR0001": {"name": "Association for the Alberta Network of Immigrant Women", "designationCode": "C", "categoryCode": "59", "address": "107-1409 EDMONTON TRAIL NE", "city": "CALGARY", "province": "AB", "country": "CA", "postalCode": "T2E3K8", "twitter": "None", "instagram": "None", "facebook": "None", "youtube": "None", "website": "None", "summary": "None", "logo": "None", "latitude": 51.06474142492354, "longitude": -114.0563351775058}, "118793827RR0001": {"name": "Association for Baha'i Studies / Association d'Etudes Baha'ies", "designationCode": "C", "categoryCode": "47", "address": "7200 LESLIE ST", "city": "THORNHILL", "province": "ON", "country": "CA", "postalCode": "L3T6L8", "twitter": "None", "instagram": "None", "facebook": "None", "youtube": "None", "website": "None", "summary": "None", "logo": "None", "latitude": 43.81241625284208, "longitude": -79.37417860632449}}