{"890141443RR0001": {"name": "ASHFIELD PRESBYTERIAN CHURCH,", "designationCode": "C", "categoryCode": "37", "address": "R.R 3                         86205 EIGHTEEN MILE LINE", "city": "LUCKNOW", "province": "ON", "country": "CA", "postalCode": "N0G2H0", "twitter": "None", "instagram": "None", "facebook": "None", "youtube": "None", "website": "None", "summary": "None", "logo": "None", "latitude": 44.010796141092314, "longitude": -81.69001807796012}, "883152936RR0001": {"name": "ASHKENAZ FOUNDATION", "designationCode": "C", "categoryCode": "22", "address": "455 SPADINA AVENUE            SUITE 303", "city": "TORONTO", "province": "ON", "country": "CA", "postalCode": "M5G2G8", "twitter": "None", "instagram": "None", "facebook": "None", "youtube": "None", "website": "None", "summary": "None", "logo": "None", "latitude": 43.658199094090826, "longitude": -79.39998861391322}, "118791086RR0001": {"name": "ASHMORE BETHEL BAPTIST CHURCH", "designationCode": "C", "categoryCode": "31", "address": "PO BOX 39", "city": "PLYMPTON", "province": "NS", "country": "CA", "postalCode": "B0W2R0", "twitter": "None", "instagram": "None", "facebook": "None", "youtube": "None", "website": "None", "summary": "None", "logo": "None", "latitude": 44.51036000000005, "longitude": -65.90906999999999}, "861938736RR0001": {"name": "ASHOKA CANADA", "designationCode": "A", "categoryCode": "03", "address": "606-366 ADELAIDE STREET WEST", "city": "TORONTO", "province": "ON", "country": "CA", "postalCode": "M5V1R9", "twitter": "None", "instagram": "None", "facebook": "None", "youtube": "None", "website": "None", "summary": "None", "logo": "None", "latitude": 43.64649301033038, "longitude": -79.39679578282923}, "891374282RR0001": {"name": "ASHTON CREEK CHRISTIAN FELLOWSHIP", "designationCode": "C", "categoryCode": "39", "address": "BOX 663", "city": "ENDERBY", "province": "BC", "country": "CA", "postalCode": "V0E1V0", "twitter": "None", "instagram": "None", "facebook": "None", "youtube": "None", "website": "None", "summary": "None", "logo": "None", "latitude": 50.55260000000004, "longitude": -119.14013999999997}, "134970813RR0001": {"name": "ASHTON UNITED CHURCH,", "designationCode": "C", "categoryCode": "44", "address": "8060 FALLOWFIELD RD           RR 1", "city": "ASHTON", "province": "ON", "country": "CA", "postalCode": "K0A1B0", "twitter": "None", "instagram": "None", "facebook": "None", "youtube": "None", "website": "None", "summary": "None", "logo": "None", "latitude": 45.17484178763949, "longitude": -75.97582789739775}, "886313790RR0001": {"name": "ASIA EVANGELISTIC FELLOWSHIP (CANADA)", "designationCode": "C", "categoryCode": "47", "address": "5849 LINCOLN ST", "city": "VANCOUVER", "province": "BC", "country": "CA", "postalCode": "V5R4P6", "twitter": "None", "instagram": "None", "facebook": "None", "youtube": "None", "website": "None", "summary": "None", "logo": "None", "latitude": 49.231043549541226, "longitude": -123.02655403445068}, "862623527RR0001": {"name": "ASIA MISSION CENTER INTERNATIONAL", "designationCode": "C", "categoryCode": "39", "address": "113 - 1585 MARKHAM ROAD", "city": "TORONTO", "province": "ON", "country": "CA", "postalCode": "M1B2W1", "twitter": "None", "instagram": "None", "facebook": "None", "youtube": "None", "website": "None", "summary": "None", "logo": "None", "latitude": 43.79216002859364, "longitude": -79.23798998234197}, "893150565RR0001": {"name": "ASIA SPAN INTERNATIONAL INC.", "designationCode": "C", "categoryCode": "21", "address": "PO BOX 3611 STN TERMINAL", "city": "VANCOUVER", "province": "BC", "country": "CA", "postalCode": "V6B3Y6", "twitter": "None", "instagram": "None", "facebook": "None", "youtube": "None", "website": "None", "summary": "None", "logo": "None", "latitude": 49.28024400000005, "longitude": -123.11294749999993}, "118791144RR0001": {"name": "ASIA-PACIFIC FOUNDATION OF CANADA", "designationCode": "C", "categoryCode": "21", "address": "900 - 675 HASTINGS ST W", "city": "VANCOUVER", "province": "BC", "country": "CA", "postalCode": "V6B1N2", "twitter": "None", "instagram": "None", "facebook": "None", "youtube": "None", "website": "None", "summary": "None", "logo": "None", "latitude": 49.285231353886466, "longitude": -123.1136772712795}, "833726078RR0001": {"name": "ASIA'S HOPE CANADA", "designationCode": "C", "categoryCode": "01", "address": "300-1500, RUE DU COLL\u00c8GE", "city": "ST-LAURENT", "province": "QC", "country": "CA", "postalCode": "H4L5G6", "twitter": "None", "instagram": "None", "facebook": "None", "youtube": "None", "website": "None", "summary": "None", "logo": "None", "latitude": 45.509172947256125, "longitude": -73.67522496528952}, "118791128RR0001": {"name": "ASIALINK MINISTRIES", "designationCode": "C", "categoryCode": "47", "address": "BOX 939", "city": "CAMBRIDGE", "province": "ON", "country": "CA", "postalCode": "N1R5X9", "twitter": "None", "instagram": "None", "facebook": "None", "youtube": "None", "website": "None", "summary": "None", "logo": "None", "latitude": 43.36140300000005, "longitude": -80.31533299999994}, "897670790RR0001": {"name": "ASIAN CANADIAN BENEVOLENT ASSOCIATION FOR THE ELDERLY", "designationCode": "C", "categoryCode": "56", "address": "201-427 DUNLEVY AVENUE", "city": "VANCOUVER", "province": "BC", "country": "CA", "postalCode": "V6A3Y4", "twitter": "None", "instagram": "None", "facebook": "None", "youtube": "None", "website": "None", "summary": "None", "logo": "None", "latitude": 49.28103633953609, "longitude": -123.09546046364713}, "887940849RR0001": {"name": "ASIAN CHRISTIAN CHURCH", "designationCode": "C", "categoryCode": "39", "address": "13208 95 ST NW", "city": "EDMONTON", "province": "AB", "country": "CA", "postalCode": "T5E3Y4", "twitter": "None", "instagram": "None", "facebook": "None", "youtube": "None", "website": "None", "summary": "None", "logo": "None", "latitude": 53.59245412101103, "longitude": -113.48786761994316}, "889432431RR0001": {"name": "ASIAN COMMUNITY AIDS SERVICES", "designationCode": "C", "categoryCode": "13", "address": "260 SPADINA AVENUE, SUITE 410", "city": "TORONTO", "province": "ON", "country": "CA", "postalCode": "M5T2E4", "twitter": "None", "instagram": "None", "facebook": "None", "youtube": "None", "website": "None", "summary": "None", "logo": "None", "latitude": 43.65198494587113, "longitude": -79.39782395216086}, "127290005RR0001": {"name": "ASIAN OUTREACH INTERNATIONAL (CANADA)", "designationCode": "C", "categoryCode": "47", "address": "2450 MILLTOWER CRT", "city": "MISSISSAUGA", "province": "ON", "country": "CA", "postalCode": "L5N5Z6", "twitter": "None", "instagram": "None", "facebook": "None", "youtube": "None", "website": "None", "summary": "None", "logo": "None", "latitude": 43.59753944771745, "longitude": -79.75686307989524}, "707308722RR0001": {"name": "ASK Family Trust", "designationCode": "B", "categoryCode": "05", "address": "370 QUEEN ST S", "city": "MISSISSAUGA", "province": "ON", "country": "CA", "postalCode": "L5M1M2", "twitter": "None", "instagram": "None", "facebook": "None", "youtube": "None", "website": "None", "summary": "None", "logo": "None", "latitude": 43.57515280515329, "longitude": -79.70493050334687}, "711885525RR0001": {"name": "ASK Foundation", "designationCode": "B", "categoryCode": "09", "address": "370 QUEEN STREET SOUTH", "city": "MISSISSAUGA", "province": "ON", "country": "CA", "postalCode": "L5M1M2", "twitter": "None", "instagram": "None", "facebook": "None", "youtube": "None", "website": "None", "summary": "None", "logo": "None", "latitude": 43.57515280515329, "longitude": -79.70493050334687}, "891964173RR0001": {"name": "ASK WELLNESS SOCIETY", "designationCode": "C", "categoryCode": "11", "address": "433 TRANQUILLE RD", "city": "KAMLOOPS", "province": "BC", "country": "CA", "postalCode": "V2B3G9", "twitter": "None", "instagram": "None", "facebook": "None", "youtube": "None", "website": "None", "summary": "None", "logo": "None", "latitude": 50.69100498389984, "longitude": -120.35882081115454}, "118791151RR0001": {"name": "ASKENNONIA SENIOR CENTRE INC.", "designationCode": "C", "categoryCode": "56", "address": "527 LEN SELF BLVD.", "city": "MIDLAND", "province": "ON", "country": "CA", "postalCode": "L4R5N6", "twitter": "None", "instagram": "None", "facebook": "None", "youtube": "None", "website": "None", "summary": "None", "logo": "None", "latitude": 44.744595291543234, "longitude": -79.88166015189168}, "890144447RR0001": {"name": "ASKER LUTHERAN CHURCH", "designationCode": "C", "categoryCode": "32", "address": "RR#1, SITE 20 BOX 13", "city": "PONOKA", "province": "AB", "country": "CA", "postalCode": "T4J1R1", "twitter": "None", "instagram": "None", "facebook": "None", "youtube": "None", "website": "None", "summary": "None", "logo": "None", "latitude": 52.67526900000006, "longitude": -113.58076399999993}, "820398675RR0001": {"name": "ASLAN INTERNATIONAL ASSOCIATION", "designationCode": "C", "categoryCode": "47", "address": "PO BOX 76056 SOUTHGATE RPO", "city": "EDMONTON", "province": "AB", "country": "CA", "postalCode": "T6H5Y7", "twitter": "None", "instagram": "None", "facebook": "None", "youtube": "None", "website": "None", "summary": "None", "logo": "None", "latitude": 53.494935000000055, "longitude": -113.54074099999994}, "864865829RR0001": {"name": "ASM MATERIALS CAMP CANADA", "designationCode": "B", "categoryCode": "21", "address": "19 CLAUDETTE GATE", "city": "HAMILTON", "province": "ON", "country": "CA", "postalCode": "L9B2S3", "twitter": "None", "instagram": "None", "facebook": "None", "youtube": "None", "website": "None", "summary": "None", "logo": "None", "latitude": 43.21155889312725, "longitude": -79.9111582903225}, "864263157RR0002": {"name": "ASPARAGUS COMMUNITY THEATRE", "designationCode": "C", "categoryCode": "22", "address": "PO BOX 219", "city": "ARMSTRONG", "province": "BC", "country": "CA", "postalCode": "V0E1B0", "twitter": "None", "instagram": "None", "facebook": "None", "youtube": "None", "website": "None", "summary": "None", "logo": "None", "latitude": 50.44798500000006, "longitude": -119.19492799999993}, "860063528RR0001": {"name": "ASPEN CULTURAL HEALING SOCIETY", "designationCode": "C", "categoryCode": "09", "address": "12547 BLACKSTOCK ST", "city": "MAPLE RIDGE", "province": "BC", "country": "CA", "postalCode": "V2X5N7", "twitter": "None", "instagram": "None", "facebook": "None", "youtube": "None", "website": "None", "summary": "None", "logo": "None", "latitude": 49.23015358673322, "longitude": -122.61538505277254}, "119047017RR0001": {"name": "ASPEN FAMILY AND COMMUNITY NETWORK SOCIETY", "designationCode": "C", "categoryCode": "09", "address": "200-2609 15ST NE", "city": "CALGARY", "province": "AB", "country": "CA", "postalCode": "T2E8Y4", "twitter": "None", "instagram": "None", "facebook": "None", "youtube": "None", "website": "None", "summary": "None", "logo": "None", "latitude": 51.07602300000005, "longitude": -114.02238049999994}, "864322193RR0001": {"name": "ASPEN FOUNDATION", "designationCode": "B", "categoryCode": "03", "address": "1292 VENABLES STREET", "city": "VANCOUVER", "province": "BC", "country": "CA", "postalCode": "V6J1V4", "twitter": "None", "instagram": "None", "facebook": "None", "youtube": "None", "website": "None", "summary": "None", "logo": "None", "latitude": 49.27675749841348, "longitude": -123.07839198848747}, "118791185RR0001": {"name": "ASPEN RIDGE CHRISTIAN FELLOWSHIP", "designationCode": "C", "categoryCode": "36", "address": "BOX 1776", "city": "ATHABASCA", "province": "AB", "country": "CA", "postalCode": "T9S2B5", "twitter": "None", "instagram": "None", "facebook": "None", "youtube": "None", "website": "None", "summary": "None", "logo": "None", "latitude": 54.721284000000054, "longitude": -113.28321049999994}, "118791193RR0001": {"name": "ASPEN VALLEY WILDLIFE SANCTUARY (ROSSEAU)", "designationCode": "C", "categoryCode": "54", "address": "1116 CRAWFORD ST", "city": "ROSSEAU", "province": "ON", "country": "CA", "postalCode": "P0C1J0", "twitter": "None", "instagram": "None", "facebook": "None", "youtube": "None", "website": "None", "summary": "None", "logo": "None", "latitude": 45.25691828707494, "longitude": -79.58615789329164}, "140872144RR0001": {"name": "ASPEN VIEW REGIONAL DIVISION #19", "designationCode": "C", "categoryCode": "20", "address": "3600 48 AVE", "city": "ATHABASCA", "province": "AB", "country": "CA", "postalCode": "T9S1M8", "twitter": "None", "instagram": "None", "facebook": "None", "youtube": "None", "website": "None", "summary": "None", "logo": "None", "latitude": 54.717024277825736, "longitude": -113.25910744613053}, "107726317RR0001": {"name": "ASPEN WINDS / VENTS DE TREMBLE INC.", "designationCode": "C", "categoryCode": "01", "address": "BOX 297", "city": "NOTRE-DAME-DE-LOURDES", "province": "MB", "country": "CA", "postalCode": "R0G1M0", "twitter": "None", "instagram": "None", "facebook": "None", "youtube": "None", "website": "None", "summary": "None", "logo": "None", "latitude": 49.53271200000006, "longitude": -98.55750049999993}, "863981759RR0001": {"name": "ASPENHEIM CHARITABLE TRUST", "designationCode": "B", "categoryCode": "39", "address": "780 SASKATCHEWAN AVE W", "city": "PORTAGE LA PRAIRIE", "province": "MB", "country": "CA", "postalCode": "R1N0M7", "twitter": "None", "instagram": "None", "facebook": "None", "youtube": "None", "website": "None", "summary": "None", "logo": "None"}, "848417341RR0001": {"name": "ASPERGER MANITOBA INC.", "designationCode": "C", "categoryCode": "11", "address": "204-825 SHERBROOK ST", "city": "WINNIPEG", "province": "MB", "country": "CA", "postalCode": "R3A1M5", "twitter": "None", "instagram": "None", "facebook": "None", "youtube": "None", "website": "None", "summary": "None", "logo": "None", "latitude": 49.905053935370574, "longitude": -97.15499593846792}, "866749690RR0001": {"name": "ASPERGER'S SOCIETY OF ONTARIO", "designationCode": "C", "categoryCode": "11", "address": "231-3219 YONGE ST", "city": "TORONTO", "province": "ON", "country": "CA", "postalCode": "M4N3S1", "twitter": "None", "instagram": "None", "facebook": "None", "youtube": "None", "website": "None", "summary": "None", "logo": "None", "latitude": 43.72822237330483, "longitude": -79.40298575587182}, "871346623RR0001": {"name": "ASPIRE SPECIAL NEEDS RESOURCE CENTRE", "designationCode": "C", "categoryCode": "11", "address": "4826 47TH STREET", "city": "RED DEER", "province": "AB", "country": "CA", "postalCode": "T4N1R2", "twitter": "None", "instagram": "None", "facebook": "None", "youtube": "None", "website": "None", "summary": "None", "logo": "None", "latitude": 52.266195511541184, "longitude": -113.8106025}, "868427618RR0001": {"name": "ASQUITH BAPTIST CHURCH INC.", "designationCode": "C", "categoryCode": "31", "address": "PO BOX 334", "city": "ASQUITH", "province": "SK", "country": "CA", "postalCode": "S0K0J0", "twitter": "None", "instagram": "None", "facebook": "None", "youtube": "None", "website": "None", "summary": "None", "logo": "None", "latitude": 52.13273000000004, "longitude": -107.22944999999999}, "118791219RR0001": {"name": "ASQUITH PASTORAL CHARGE", "designationCode": "C", "categoryCode": "44", "address": "PO BOX 53", "city": "ASQUITH", "province": "SK", "country": "CA", "postalCode": "S0K0J0", "twitter": "None", "instagram": "None", "facebook": "None", "youtube": "None", "website": "None", "summary": "None", "logo": "None", "latitude": 52.13273000000004, "longitude": -107.22944999999999}, "129932737RR0001": {"name": "ASSAUT SEXUEL SECOURS (VAL D'OR) INC", "designationCode": "C", "categoryCode": "09", "address": "C.P. 697", "city": "VAL D'OR", "province": "QC", "country": "CA", "postalCode": "J9P4P6", "twitter": "None", "instagram": "None", "facebook": "None", "youtube": "None", "website": "None", "summary": "None", "logo": "None", "latitude": 48.11084700000005, "longitude": -77.79766399999993}, "839536885RR0001": {"name": "ASSEMBL\u00c9E \u00c9VANGELIQUE DE GIRARDVILLE", "designationCode": "C", "categoryCode": "34", "address": "1081 RG., NOTRE DAME", "city": "GIRARDVILLE", "province": "QC", "country": "CA", "postalCode": "G0W1R0", "twitter": "None", "instagram": "None", "facebook": "None", "youtube": "None", "website": "None", "summary": "None", "logo": "None", "latitude": 48.95492484331089, "longitude": -72.51894604558291}, "888132669RR0001": {"name": "ASSEMBL\u00c9E CHR\u00c9TIENNE \u00c9VANG\u00c9LIQUE DE BAIE-COMEAU", "designationCode": "C", "categoryCode": "34", "address": "16 DAMASE POTVIN", "city": "BAIE-COMEAU", "province": "QC", "country": "CA", "postalCode": "G4Z2G4", "twitter": "None", "instagram": "None", "facebook": "None", "youtube": "None", "website": "None", "summary": "None", "logo": "None", "latitude": 49.206603333862496, "longitude": -68.17936174482065}, "891677973RR0001": {"name": "ASSEMBL\u00c9E CHR\u00c9TIENNE DE DRUMMONDVILLE", "designationCode": "C", "categoryCode": "39", "address": "7 - 3815 CH GLENDAY", "city": "SHERBROOKE", "province": "QC", "country": "CA", "postalCode": "J1M0C2", "twitter": "None", "instagram": "None", "facebook": "None", "youtube": "None", "website": "None", "summary": "None", "logo": "None", "latitude": 45.34275950727508, "longitude": -71.84276588001796}, "832707954RR0001": {"name": "ASSEMBL\u00c9E CHR\u00c9TIENNE DE FARNHAM", "designationCode": "C", "categoryCode": "34", "address": "1901, RUE PRINCIPALE EST", "city": "FARNHAM", "province": "QC", "country": "CA", "postalCode": "J2N1N5", "twitter": "None", "instagram": "None", "facebook": "None", "youtube": "None", "website": "None", "summary": "None", "logo": "None", "latitude": 45.27250476383502, "longitude": -72.95492597636935}, "132003542RR0001": {"name": "ASSEMBL\u00c9E CHR\u00c9TIENNE DE GRANBY", "designationCode": "C", "categoryCode": "39", "address": "324 RUE DENISON O", "city": "GRANBY", "province": "QC", "country": "CA", "postalCode": "J2G4E4", "twitter": "None", "instagram": "None", "facebook": "None", "youtube": "None", "website": "None", "summary": "None", "logo": "None", "latitude": 45.38985413402411, "longitude": -72.73418640267788}, "132605544RR0001": {"name": "ASSEMBL\u00c9E CHR\u00c9TIENNE DE GRAND'M\u00c8RE", "designationCode": "C", "categoryCode": "39", "address": "1751 AVE DU BOCAGE", "city": "GRAND-MERE", "province": "QC", "country": "CA", "postalCode": "G9T5K5", "twitter": "None", "instagram": "None", "facebook": "None", "youtube": "None", "website": "None", "summary": "None", "logo": "None", "latitude": 46.61453793228113, "longitude": -72.71733088519272}, "119012771RR0001": {"name": "ASSEMBL\u00c9E CHR\u00c9TIENNE DE JONQUI\u00c8RE", "designationCode": "C", "categoryCode": "39", "address": "C P 2244", "city": "JONQUIERE", "province": "QC", "country": "CA", "postalCode": "G7X7X7", "twitter": "None", "instagram": "None", "facebook": "None", "youtube": "None", "website": "None", "summary": "None", "logo": "None", "latitude": 48.41346300000005, "longitude": -71.25355249999993}, "892368481RR0001": {"name": "ASSEMBL\u00c9E CHR\u00c9TIENNE DE LA GR\u00c2CE", "designationCode": "C", "categoryCode": "39", "address": "103 AVE. PHILIPSBURG          C.P. 773", "city": "BEDFORD", "province": "QC", "country": "CA", "postalCode": "J0J1A0", "twitter": "None", "instagram": "None", "facebook": "None", "youtube": "None", "website": "None", "summary": "None", "logo": "None", "latitude": 45.114936914796, "longitude": -72.99028721590989}, "130114465RR0001": {"name": "ASSEMBL\u00c9E CHR\u00c9TIENNE DE MONT-TREMBLANT", "designationCode": "C", "categoryCode": "36", "address": "1224 LABELLE", "city": "MONT-TREMBLANT", "province": "QC", "country": "CA", "postalCode": "J8E2N5", "twitter": "None", "instagram": "None", "facebook": "None", "youtube": "None", "website": "None", "summary": "None", "logo": "None", "latitude": 46.13755909686078, "longitude": -74.5888049662418}, "852752690RR0001": {"name": "ASSEMBL\u00c9E CHR\u00c9TIENNE DE ROUYN-NORANDA", "designationCode": "C", "categoryCode": "39", "address": "525, RUE MARTEL", "city": "ROUYN-NORANDA", "province": "QC", "country": "CA", "postalCode": "J9X3L8", "twitter": "None", "instagram": "None", "facebook": "None", "youtube": "None", "website": "None", "summary": "None", "logo": "None", "latitude": 48.2331206877776, "longitude": -78.99577370370486}, "134718311RR0001": {"name": "ASSEMBL\u00c9E CHR\u00c9TIENNE DE STANSTEAD", "designationCode": "C", "categoryCode": "39", "address": "9, RUE HACKETT                CP 75", "city": "STANSTEAD", "province": "QC", "country": "CA", "postalCode": "J0B3E0", "twitter": "None", "instagram": "None", "facebook": "None", "youtube": "None", "website": "None", "summary": "None", "logo": "None", "latitude": 45.0226075100989, "longitude": -72.09090258243405}, "132194507RR0001": {"name": "ASSEMBL\u00c9E CHR\u00c9TIENNE DE TROIS-RIVI\u00c8RES OUEST", "designationCode": "C", "categoryCode": "39", "address": "831 CH DES PETITES TERRES", "city": "TROIS-RIVIERES", "province": "QC", "country": "CA", "postalCode": "G9B7G5", "twitter": "None", "instagram": "None", "facebook": "None", "youtube": "None", "website": "None", "summary": "None", "logo": "None", "latitude": 46.30472840798667, "longitude": -72.66052893063635}, "891140170RR0001": {"name": "ASSEMBL\u00c9E CHR\u00c9TIENNE DU T\u00c9MISCOUATA", "designationCode": "C", "categoryCode": "38", "address": "805 RUE DU CENTRE", "city": "TEMISCOUATA-SUR-LE-LAC", "province": "QC", "country": "CA", "postalCode": "G0L1E0", "twitter": "None", "instagram": "None", "facebook": "None", "youtube": "None", "website": "None", "summary": "None", "logo": "None", "latitude": 47.6818824457269, "longitude": -68.87921695311316}, "804834943RR0001": {"name": "ASSEMBL\u00c9E CHR\u00c9TIENNE SHEKINAH", "designationCode": "C", "categoryCode": "39", "address": "4000 AVENUE DE COURTRAI       BUREAU 200", "city": "MONTR\u00c9AL", "province": "QC", "country": "CA", "postalCode": "H3S1C2", "twitter": "None", "instagram": "None", "facebook": "None", "youtube": "None", "website": "None", "summary": "None", "logo": "None", "latitude": 45.50136554703108, "longitude": -73.64185786438937}, "119008357RR0001": {"name": "ASSEMBL\u00c9E DE LA PAROLE DE DIEU (GRANBY)", "designationCode": "C", "categoryCode": "39", "address": "223 ST-CHARLES S.             C.P.682", "city": "GRANBY", "province": "QC", "country": "CA", "postalCode": "J2G8W7", "twitter": "None", "instagram": "None", "facebook": "None", "youtube": "None", "website": "None", "summary": "None", "logo": "None", "latitude": 45.39593407660566, "longitude": -72.73434482982312}, "867542698RR0001": {"name": "ASSEMBL\u00c9E VIE NOUVELLE BEAUCE-BELLECHASSE", "designationCode": "C", "categoryCode": "39", "address": "35 RUE GODBOUT", "city": "STE-CLAIRE", "province": "QC", "country": "CA", "postalCode": "G0R2V0", "twitter": "None", "instagram": "None", "facebook": "None", "youtube": "None", "website": "None", "summary": "None", "logo": "None", "latitude": 46.57812519175966, "longitude": -70.81946399803809}, "866248701RR0001": {"name": "ASSEMBL\u00c9E-\u00c9GLISE DE DIEU DU TEMPS DE LA MOISSON/HARVEST TIME ASSEMBLY CHURCH OF GOD", "designationCode": "C", "categoryCode": "39", "address": "382 COLVILLE", "city": "CHATEAUGUAY", "province": "QC", "country": "CA", "postalCode": "J6J2C4", "twitter": "None", "instagram": "None", "facebook": "None", "youtube": "None", "website": "None", "summary": "None", "logo": "None", "latitude": 45.36458656506448, "longitude": -73.7174364775232}, "892511098RR0001": {"name": "ASSEMBLAGE ET S\u00c9RIGRAPHIE - LES MOULINS", "designationCode": "C", "categoryCode": "09", "address": "712 CHEMIN PINCOURT", "city": "MASCOUCHE", "province": "QC", "country": "CA", "postalCode": "J7L2W7", "twitter": "None", "instagram": "None", "facebook": "None", "youtube": "None", "website": "None", "summary": "None", "logo": "None", "latitude": 45.75072100715605, "longitude": -73.66280953185455}, "106727464RR0001": {"name": "ASSEMBLE CHRETIENNE LAMATER", "designationCode": "C", "categoryCode": "39", "address": "3845 CARON", "city": "LAVAL", "province": "QC", "country": "CA", "postalCode": "H7E1W3", "twitter": "None", "instagram": "None", "facebook": "None", "youtube": "None", "website": "None", "summary": "None", "logo": "None", "latitude": 45.60158067084072, "longitude": -73.66109754553052}, "892574468RR0001": {"name": "ASSEMBLEE BAPTISTE EVANGELIQUE DE ST. LEONARD INC.", "designationCode": "C", "categoryCode": "31", "address": "554 RTE 17, C.P. 2141", "city": "ST-LEONARD", "province": "NB", "country": "CA", "postalCode": "E7E2M7", "twitter": "None", "instagram": "None", "facebook": "None", "youtube": "None", "website": "None", "summary": "None", "logo": "None", "latitude": 47.17208135943629, "longitude": -67.91182565971049}, "118791300RR0001": {"name": "ASSEMBLEE CHRETIENNE BONNE NOUVELLE", "designationCode": "C", "categoryCode": "39", "address": "215 RUE CARON", "city": "QUEBEC", "province": "QC", "country": "CA", "postalCode": "G1K5V6", "twitter": "None", "instagram": "None", "facebook": "None", "youtube": "None", "website": "None", "summary": "None", "logo": "None", "latitude": 46.815288484332534, "longitude": -71.23078313959267}, "131956559RR0001": {"name": "ASSEMBLEE CHRETIENNE DE CAP-DE-LA-MADELEINE", "designationCode": "C", "categoryCode": "39", "address": "225 RUE LUPIEN", "city": "TROIS-RIVIERES", "province": "QC", "country": "CA", "postalCode": "G8T6W5", "twitter": "None", "instagram": "None", "facebook": "None", "youtube": "None", "website": "None", "summary": "None", "logo": "None", "latitude": 46.36775346987715, "longitude": -72.52543161270113}, "886965599RR0001": {"name": "ASSEMBLEE CHRETIENNE DE COATICOOK", "designationCode": "C", "categoryCode": "39", "address": "308, CH. PERREAULT", "city": "HATLEY", "province": "QC", "country": "CA", "postalCode": "J0B4B0", "twitter": "None", "instagram": "None", "facebook": "None", "youtube": "None", "website": "None", "summary": "None", "logo": "None", "latitude": 45.22122565102237, "longitude": -71.93713797080825}, "118791318RR0001": {"name": "ASSEMBLEE CHRETIENNE DE COOKSHIRE", "designationCode": "C", "categoryCode": "34", "address": "125 RUE PRINCIPALE OUEST", "city": "COOKSHIRE", "province": "QC", "country": "CA", "postalCode": "J0B1M0", "twitter": "None", "instagram": "None", "facebook": "None", "youtube": "None", "website": "None", "summary": "None", "logo": "None", "latitude": 45.412665358329846, "longitude": -71.6316994911132}, "118791367RR0001": {"name": "ASSEMBLEE CHRETIENNE DE HEARST", "designationCode": "C", "categoryCode": "39", "address": "CP 2680", "city": "HEARST", "province": "ON", "country": "CA", "postalCode": "P0L1N0", "twitter": "None", "instagram": "None", "facebook": "None", "youtube": "None", "website": "None", "summary": "None", "logo": "None", "latitude": 49.68503700000005, "longitude": -83.65433749999994}, "118791375RR0001": {"name": "ASSEMBLEE CHRETIENNE DE LA TUQUE", "designationCode": "C", "categoryCode": "39", "address": "2902 BOUL. DUCHARME           R.R. 3", "city": "LA TUQUE", "province": "QC", "country": "CA", "postalCode": "G9X4S8", "twitter": "None", "instagram": "None", "facebook": "None", "youtube": "None", "website": "None", "summary": "None", "logo": "None", "latitude": 47.39746513627446, "longitude": -72.78538242653967}, "118791391RR0001": {"name": "ASSEMBLEE CHRETIENNE DE PRICE", "designationCode": "C", "categoryCode": "39", "address": "133 ROUTE 132 OUEST", "city": "STE-ANGELE DE MERICI", "province": "QC", "country": "CA", "postalCode": "G0J2H0", "twitter": "None", "instagram": "None", "facebook": "None", "youtube": "None", "website": "None", "summary": "None", "logo": "None", "latitude": 48.53474728792245, "longitude": -68.1264340140157}, "890359771RR0001": {"name": "ASSEMBLEE CHRETIENNE DE RIVIERE-DES-PRAIRIES", "designationCode": "C", "categoryCode": "39", "address": "9401, 4E RUE RDP", "city": "MONTREAL", "province": "QC", "country": "CA", "postalCode": "H1E3G8", "twitter": "None", "instagram": "None", "facebook": "None", "youtube": "None", "website": "None", "summary": "None", "logo": "None", "latitude": 45.653283973368275, "longitude": -73.57085698141834}, "118791409RR0001": {"name": "ASSEMBLEE CHRETIENNE DE RIVIERE-DU-LOUP", "designationCode": "C", "categoryCode": "39", "address": "472 LAFONTAINE", "city": "RIVIERE-DU-LOUP", "province": "QC", "country": "CA", "postalCode": "G5R3C2", "twitter": "None", "instagram": "None", "facebook": "None", "youtube": "None", "website": "None", "summary": "None", "logo": "None", "latitude": 47.82871039465645, "longitude": -69.53188608800262}, "118791417RR0001": {"name": "ASSEMBLEE CHRETIENNE DE ROLLET", "designationCode": "C", "categoryCode": "39", "address": "687 AV LARIVIERE", "city": "ROUYN-NORANDA", "province": "QC", "country": "CA", "postalCode": "J9X4K1", "twitter": "None", "instagram": "None", "facebook": "None", "youtube": "None", "website": "None", "summary": "None", "logo": "None", "latitude": 48.226586132407974, "longitude": -79.00655393268516}, "106727431RR0001": {"name": "ASSEMBLEE CHRETIENNE DE SHERBROOKE", "designationCode": "C", "categoryCode": "39", "address": "715 RUE DESORMEAUX", "city": "SHERBROOKE", "province": "QC", "country": "CA", "postalCode": "J1G2T6", "twitter": "None", "instagram": "None", "facebook": "None", "youtube": "None", "website": "None", "summary": "None", "logo": "None", "latitude": 46.35412525068651, "longitude": -72.4112443531022}, "132902388RR0001": {"name": "ASSEMBLEE CHRETIENNE DE SOREL", "designationCode": "C", "categoryCode": "39", "address": "294 DE LA RIVE", "city": "STE ANNE DE SOREL", "province": "QC", "country": "CA", "postalCode": "J3P1K4", "twitter": "None", "instagram": "None", "facebook": "None", "youtube": "None", "website": "None", "summary": "None", "logo": "None", "latitude": 46.0554405309309, "longitude": -73.07634219787649}, "118791441RR0001": {"name": "ASSEMBLEE CHRETIENNE DE STE-ANNE-DES-MONTS", "designationCode": "C", "categoryCode": "39", "address": "447 1E AVE OUEST              CP 9", "city": "STE-ANNE-DES-MONTS", "province": "QC", "country": "CA", "postalCode": "G4V1G4", "twitter": "None", "instagram": "None", "facebook": "None", "youtube": "None", "website": "None", "summary": "None", "logo": "None", "latitude": 49.12393648600596, "longitude": -66.52606241756594}, "888580099RR0001": {"name": "ASSEMBLEE CHRETIENNE DE VIMONT-AUTEUIL", "designationCode": "C", "categoryCode": "31", "address": "5393 BOUL.DES LAURENTIDES", "city": "LAVAL", "province": "QC", "country": "CA", "postalCode": "H7K2K1", "twitter": "None", "instagram": "None", "facebook": "None", "youtube": "None", "website": "None", "summary": "None", "logo": "None", "latitude": 45.62393187206408, "longitude": -73.7490016698311}, "827284522RR0001": {"name": "ASSEMBLEE CHRETIENNE LAVAL LAVAL CHRISTIAN ASSEMBLY", "designationCode": "C", "categoryCode": "36", "address": "5305 NOTRE DAME BLVD WEST     SUITE 107", "city": "LAVAL", "province": "QC", "country": "CA", "postalCode": "H7W4T8", "twitter": "None", "instagram": "None", "facebook": "None", "youtube": "None", "website": "None", "summary": "None", "logo": "None", "latitude": 45.53169526845129, "longitude": -73.78153899697024}, "100295138RR0001": {"name": "ASSEMBLEE CHRETIENNE LOCALE DE CHATEAUGUAY INC.", "designationCode": "C", "categoryCode": "39", "address": "53 STE-CATHERINE", "city": "BEAUHARNOIS", "province": "QC", "country": "CA", "postalCode": "J6N2R1", "twitter": "None", "instagram": "None", "facebook": "None", "youtube": "None", "website": "None", "summary": "None", "logo": "None", "latitude": 45.31260984595195, "longitude": -73.87130059510042}, "865796718RR0001": {"name": "ASSEMBLEE CHRETIENNE MULTI-ETHNIQUE DE MONTREAL", "designationCode": "C", "categoryCode": "46", "address": "2710 FREGAULT", "city": "LAVAL", "province": "QC", "country": "CA", "postalCode": "H7T0A8", "twitter": "None", "instagram": "None", "facebook": "None", "youtube": "None", "website": "None", "summary": "None", "logo": "None", "latitude": 45.562919910064124, "longitude": -73.76912151428249}, "895295269RR0001": {"name": "ASSEMBLEE CHRETIENNE PAROLE VIVANTE DE MONTREAL", "designationCode": "C", "categoryCode": "39", "address": "6630 AV PAPINEAU", "city": "MONTREAL", "province": "QC", "country": "CA", "postalCode": "H2G2X2", "twitter": "None", "instagram": "None", "facebook": "None", "youtube": "None", "website": "None", "summary": "None", "logo": "None", "latitude": 45.544162873420404, "longitude": -73.59883316154988}, "869871301RR0001": {"name": "ASSEMBLEE CHRETIENNE SOURCE D'EAU VIVE", "designationCode": "C", "categoryCode": "39", "address": "192 RUE NOTRE DAME", "city": "L'ASSOMPTION", "province": "QC", "country": "CA", "postalCode": "J5W3E1", "twitter": "None", "instagram": "None", "facebook": "None", "youtube": "None", "website": "None", "summary": "None", "logo": "None", "latitude": 45.826744768509556, "longitude": -73.4240701705809}, "891534448RR0001": {"name": "ASSEMBLEE CHRETIENNE ST-TIMOTHEE", "designationCode": "C", "categoryCode": "39", "address": "2, BOUL. DE MAPLE GROVE", "city": "BEAUHARNOIS", "province": "QC", "country": "CA", "postalCode": "J6N1K3", "twitter": "None", "instagram": "None", "facebook": "None", "youtube": "None", "website": "None", "summary": "None", "logo": "None", "latitude": 45.32526809373975, "longitude": -73.82789115621107}, "130349079RR0001": {"name": "ASSEMBLEE CHRETIENNE-LA BIBLE PARLE - SAGUENAY", "designationCode": "C", "categoryCode": "49", "address": "1694 RUE SIROIS", "city": "LA BAIE", "province": "QC", "country": "CA", "postalCode": "G7B2S3", "twitter": "None", "instagram": "None", "facebook": "None", "youtube": "None", "website": "None", "summary": "None", "logo": "None", "latitude": 48.33738623123065, "longitude": -70.89059734958728}, "131435018RR0001": {"name": "ASSEMBLEE DES EVEQUES CATHOLIQUES DU QUEBEC/THE ASSEMBLY OF QUEBEC CATHOLIC BISHOPS", "designationCode": "C", "categoryCode": "49", "address": "3331, RUE SHERBROOKE EST", "city": "MONTR\u00c9AL", "province": "QC", "country": "CA", "postalCode": "H1W1C5", "twitter": "None", "instagram": "None", "facebook": "None", "youtube": "None", "website": "None", "summary": "None", "logo": "None", "latitude": 45.545764703589306, "longitude": -73.55617477869441}, "891414500RR0001": {"name": "ASSEMBLEE DU SEIGNEUR", "designationCode": "C", "categoryCode": "49", "address": "105 RANG 9", "city": "SAINT-GEDEON", "province": "QC", "country": "CA", "postalCode": "G0M1T0", "twitter": "None", "instagram": "None", "facebook": "None", "youtube": "None", "website": "None", "summary": "None", "logo": "None", "latitude": 45.80682735749314, "longitude": -70.62883747207017}, "882575574RR0001": {"name": "ASSEMBLEE EVANGELIQUE ARTHABASKA", "designationCode": "C", "categoryCode": "39", "address": "13 RUE BELLEAU", "city": "VICTORIAVILLE", "province": "QC", "country": "CA", "postalCode": "G6P7Z6", "twitter": "None", "instagram": "None", "facebook": "None", "youtube": "None", "website": "None", "summary": "None", "logo": "None", "latitude": 46.049426036903526, "longitude": -71.92698016261774}, "846323160RR0001": {"name": "ASSEMBLEE EVANGELIQUE BON SAMARITAIN", "designationCode": "C", "categoryCode": "39", "address": "19555, 2E AVENUE", "city": "SAINT-GEORGES", "province": "QC", "country": "CA", "postalCode": "G5Y5B8", "twitter": "None", "instagram": "None", "facebook": "None", "youtube": "None", "website": "None", "summary": "None", "logo": "None", "latitude": 46.09291814184304, "longitude": -70.61864160335298}, "854752532RR0001": {"name": "ASSEMBLEE EVANGELIQUE DE L'ARRIERE SAISON D'OTTAWA/ OTTAWA GOSPEL ASSEMBLY OF LATTER RAIN", "designationCode": "C", "categoryCode": "39", "address": "3059 CARLING AVENUE           UNIT A", "city": "OTTAWA", "province": "ON", "country": "CA", "postalCode": "K2B7K4", "twitter": "None", "instagram": "None", "facebook": "None", "youtube": "None", "website": "None", "summary": "None", "logo": "None", "latitude": 45.35433840025369, "longitude": -75.80694410133283}, "118791516RR0001": {"name": "ASSEMBLEE EVANGELIQUE DE LA RIVE-SUD", "designationCode": "C", "categoryCode": "39", "address": "1029 DE LA PRAIRIE OUEST", "city": "ST-JEAN-CHRYSOSTOME", "province": "QC", "country": "CA", "postalCode": "G6Z2M3", "twitter": "None", "instagram": "None", "facebook": "None", "youtube": "None", "website": "None", "summary": "None", "logo": "None", "latitude": 46.725580029430404, "longitude": -71.21667002668903}, "881793129RR0001": {"name": "ASSEMBLEE EVANGELIQUE DE LAVAL", "designationCode": "C", "categoryCode": "39", "address": "3818, RUE MERC\u00c9DES", "city": "LAVAL", "province": "QC", "country": "CA", "postalCode": "H7P1L8", "twitter": "None", "instagram": "None", "facebook": "None", "youtube": "None", "website": "None", "summary": "None", "logo": "None", "latitude": 45.57521533443941, "longitude": -73.82304276767283}, "856803978RR0001": {"name": "ASSEMBLEE EVANGELIQUE DE MONTREAL", "designationCode": "C", "categoryCode": "39", "address": "7351, RUE DU MERLOT", "city": "LAVAL", "province": "QC", "country": "CA", "postalCode": "H7A0A8", "twitter": "None", "instagram": "None", "facebook": "None", "youtube": "None", "website": "None", "summary": "None", "logo": "None", "latitude": 45.65001504717531, "longitude": -73.61622652412157}, "868975335RR0001": {"name": "ASSEMBLEE EVANGELIQUE DE PENTECOTE", "designationCode": "C", "categoryCode": "36", "address": "576 RUE PRINCIPALE CP 67", "city": "ST HONORE CONTE BEAUCE SUD", "province": "QC", "country": "CA", "postalCode": "G0M1V0", "twitter": "None", "instagram": "None", "facebook": "None", "youtube": "None", "website": "None", "summary": "None", "logo": "None", "latitude": 45.96073748124544, "longitude": -70.81379058090484}, "118791532RR0001": {"name": "ASSEMBLEE EVANGELIQUE DE STE-FOY", "designationCode": "C", "categoryCode": "39", "address": "3033 RUE DE DOMPIERRE", "city": "QUEBEC", "province": "QC", "country": "CA", "postalCode": "G1X3W4", "twitter": "None", "instagram": "None", "facebook": "None", "youtube": "None", "website": "None", "summary": "None", "logo": "None", "latitude": 46.78182468359399, "longitude": -71.3162397442724}, "118943059RR0001": {"name": "ASSEMBLEE EVANGELIQUE GRACE - GRACE GOSPEL HALL", "designationCode": "C", "categoryCode": "39", "address": "14 EVERGREEN CRESCENT", "city": "BEACONSFIELD", "province": "QC", "country": "CA", "postalCode": "H9W2S2", "twitter": "None", "instagram": "None", "facebook": "None", "youtube": "None", "website": "None", "summary": "None", "logo": "None", "latitude": 45.4363079306077, "longitude": -73.85684062963801}, "889713160RR0001": {"name": "ASSEMBLEE EVANGELIQUE NAJOTH", "designationCode": "C", "categoryCode": "49", "address": "784 7E RANG", "city": "SAINTE-CLOTILDE-DE-BEAUCE", "province": "QC", "country": "CA", "postalCode": "G0N1C0", "twitter": "None", "instagram": "None", "facebook": "None", "youtube": "None", "website": "None", "summary": "None", "logo": "None", "latitude": 46.1414792613021, "longitude": -71.00383637237925}, "845941749RR0001": {"name": "ASSEMBLEE EVANGELIQUE PENTECOSTALE", "designationCode": "C", "categoryCode": "36", "address": "139 MIDWEST RD, UNIT 1A", "city": "SCARBOROUGH", "province": "ON", "country": "CA", "postalCode": "M1P3A6", "twitter": "None", "instagram": "None", "facebook": "None", "youtube": "None", "website": "None", "summary": "None", "logo": "None", "latitude": 43.75536226617227, "longitude": -79.26866882304245}, "872160205RR0001": {"name": "ASSEMBLEE EVANGELIQUE-CHRETIENNE DU SALUT POUR TOUS (AECST) /EVANGELICAL CHRISTIAN ASSEMBLY OF SOUL SAVING (ECASS)", "designationCode": "C", "categoryCode": "47", "address": "1470 STRAVINSKI", "city": "BROSSARD", "province": "QC", "country": "CA", "postalCode": "J4X2G3", "twitter": "None", "instagram": "None", "facebook": "None", "youtube": "None", "website": "None", "summary": "None", "logo": "None", "latitude": 45.44424484096028, "longitude": -73.49145719369288}, "118791557RR0001": {"name": "ASSEMBLEE FRANCOPHONE DU RENOUVEAU CHARISMATIQUE CATHOLIQUE DE SAULT STE-MARIE", "designationCode": "C", "categoryCode": "49", "address": "1168 NORTHWAY AVE.", "city": "SUDBURY", "province": "ON", "country": "CA", "postalCode": "P3A3A8", "twitter": "None", "instagram": "None", "facebook": "None", "youtube": "None", "website": "None", "summary": "None", "logo": "None", "latitude": 46.52311370272392, "longitude": -80.96779511968428}, "106727589RR0001": {"name": "ASSEMBLEE LUMIERE DU SOIR INC.", "designationCode": "C", "categoryCode": "39", "address": "16 RUE DU PONT", "city": "WARDEN", "province": "QC", "country": "CA", "postalCode": "J0E2M0", "twitter": "None", "instagram": "None", "facebook": "None", "youtube": "None", "website": "None", "summary": "None", "logo": "None", "latitude": 45.37943129309249, "longitude": -72.5039421397369}, "896973146RR0001": {"name": "ASSEMBLEE PENTEC\u00d4TE DE TIMMINS", "designationCode": "C", "categoryCode": "36", "address": "CP 88", "city": "TIMMINS", "province": "ON", "country": "CA", "postalCode": "P4N7C5", "twitter": "None", "instagram": "None", "facebook": "None", "youtube": "None", "website": "None", "summary": "None", "logo": "None", "latitude": 48.47611200000006, "longitude": -81.32891299999993}, "890390842RR0001": {"name": "ASSEMBLEE SOURCE DE VIE INC.", "designationCode": "C", "categoryCode": "39", "address": "155 RUE DE LA BERGE", "city": "GRENVILLE", "province": "QC", "country": "CA", "postalCode": "J0V1B0", "twitter": "None", "instagram": "None", "facebook": "None", "youtube": "None", "website": "None", "summary": "None", "logo": "None", "latitude": 45.64311058006812, "longitude": -74.74730532001269}, "705002095RR0001": {"name": "ASSEMBLEE SPIRITUELLE DES BAHA'IS DE HUDSON", "designationCode": "C", "categoryCode": "33", "address": "189 FAIRHAVEN", "city": "HUDSON", "province": "QC", "country": "CA", "postalCode": "J0P1H0", "twitter": "None", "instagram": "None", "facebook": "None", "youtube": "None", "website": "None", "summary": "None", "logo": "None", "latitude": 45.444870701915875, "longitude": -74.159364931964}, "118791615RR0001": {"name": "ASSEMBLEE SPIRITUELLE DES BAHA'IS DE MONTREAL", "designationCode": "C", "categoryCode": "33", "address": "177 PINE AVE. EAST", "city": "MONTR\u00c9AL", "province": "QC", "country": "CA", "postalCode": "H2W1N9", "twitter": "None", "instagram": "None", "facebook": "None", "youtube": "None", "website": "None", "summary": "None", "logo": "None", "latitude": 45.43318744011985, "longitude": -73.73858712738476}, "887203792RR0001": {"name": "ASSEMBLEE SPIRITUELLE DES BAHA'IS DE SHERBROOKE", "designationCode": "C", "categoryCode": "33", "address": "507 - 800 RUE DE VIMY", "city": "SHERBROOKE", "province": "QC", "country": "CA", "postalCode": "J1J3N7", "twitter": "None", "instagram": "None", "facebook": "None", "youtube": "None", "website": "None", "summary": "None", "logo": "None", "latitude": 45.41024739471377, "longitude": -71.910429585204}}