{"134898782RR0001": {"name": "PARENTS FOR COMMUNITY LIVING KITCHENER - WATERLOO INC", "designationCode": "C", "categoryCode": "59", "address": "102 - 30 DUPONT ST E", "city": "WATERLOO", "province": "ON", "country": "CA", "postalCode": "N2J2G9", "twitter": "None", "instagram": "None", "facebook": "None", "youtube": "None", "website": "None", "summary": "None", "logo": "None", "latitude": 43.466256, "longitude": -80.5204035}, "140840778RR0001": {"name": "PARENTS OF TECHNOLOGICALLY DEPENDENT CHILDREN OF ONTARIO", "designationCode": "C", "categoryCode": "01", "address": "87 CHESTNUT HILL", "city": "LONDON", "province": "ON", "country": "CA", "postalCode": "N6K4J7", "twitter": "None", "instagram": "None", "facebook": "None", "youtube": "None", "website": "None", "summary": "None", "logo": "None", "latitude": 42.965049499855766, "longitude": -81.3513900772695}, "132348822RR0001": {"name": "PARENTS PARTENAIRES EN EDUCATION", "designationCode": "C", "categoryCode": "21", "address": "B204 - 435 DONALD ST", "city": "OTTAWA", "province": "ON", "country": "CA", "postalCode": "K1K4X5", "twitter": "None", "instagram": "None", "facebook": "None", "youtube": "None", "website": "None", "summary": "None", "logo": "None", "latitude": 45.42786108506212, "longitude": -75.6548809824704}, "715130696RR0001": {"name": "PARENTS PLUS", "designationCode": "C", "categoryCode": "09", "address": "16117 7E AV", "city": "SAINT-GEORGES", "province": "QC", "country": "CA", "postalCode": "G5Y8P1", "twitter": "None", "instagram": "None", "facebook": "None", "youtube": "None", "website": "None", "summary": "None", "logo": "None", "latitude": 46.10407081822369, "longitude": -70.64859696583777}, "880697552RR0001": {"name": "PARENTS UNIQUES DES LAURENTIDES", "designationCode": "C", "categoryCode": "09", "address": "126 RUE DEMONTIGNY", "city": "SAINTE-AGATHE-DES-MONTS", "province": "QC", "country": "CA", "postalCode": "J8C3H7", "twitter": "None", "instagram": "None", "facebook": "None", "youtube": "None", "website": "None", "summary": "None", "logo": "None", "latitude": 46.056529519014354, "longitude": -74.27922060136149}, "891174971RR0001": {"name": "PARENTS-BRANCH\u00c9S", "designationCode": "C", "categoryCode": "09", "address": "590, SACR\u00c9-COEUR OUEST", "city": "ALMA", "province": "QC", "country": "CA", "postalCode": "G8B1L9", "twitter": "None", "instagram": "None", "facebook": "None", "youtube": "None", "website": "None", "summary": "None", "logo": "None", "latitude": 48.55015523561675, "longitude": -71.65029023079796}, "858915879RR0001": {"name": "PARENTS-ESPOIR", "designationCode": "C", "categoryCode": "09", "address": "363 RUE DE LA COURONNE        4 ETAGE BUREAU 410", "city": "QU\u00c9BEC", "province": "QC", "country": "CA", "postalCode": "G1K6E9", "twitter": "None", "instagram": "None", "facebook": "None", "youtube": "None", "website": "None", "summary": "None", "logo": "None", "latitude": 46.814550000000054, "longitude": -71.22487399999993}, "134720275RR0001": {"name": "PARENTS-MUSIQUE DES HAUTES LAURENTIDES", "designationCode": "C", "categoryCode": "21", "address": "700, BOUL. DR.GERVAIS", "city": "MONT-TREMBLANT", "province": "QC", "country": "CA", "postalCode": "J8E2T3", "twitter": "None", "instagram": "None", "facebook": "None", "youtube": "None", "website": "None", "summary": "None", "logo": "None", "latitude": 46.12258500000006, "longitude": -74.57608249999993}, "131825309RR0001": {"name": "PARENTS-SECOURS DU QUEBEC INC.", "designationCode": "C", "categoryCode": "59", "address": "17 RUE FUSEY                  SUITE 203", "city": "TROIS-RIVI\u00c8RES", "province": "QC", "country": "CA", "postalCode": "G8T2T3", "twitter": "None", "instagram": "None", "facebook": "None", "youtube": "None", "website": "None", "summary": "None", "logo": "None", "latitude": 46.36364452290951, "longitude": -72.52991052166874}, "107813446RR0001": {"name": "PARENTS-UNIS REPENTIGNY (LANAUDIERE)", "designationCode": "C", "categoryCode": "01", "address": "144 RUE SAINT-JOSEPH", "city": "JOLIETTE", "province": "QC", "country": "CA", "postalCode": "J6E5C4", "twitter": "None", "instagram": "None", "facebook": "None", "youtube": "None", "website": "None", "summary": "None", "logo": "None", "latitude": 46.026606530122855, "longitude": -73.44158207325879}, "891493348RR0001": {"name": "PARENTS, FAMILIES AND FRIENDS OF LESBIANS AND GAYS - NORTH TORONTO CHAPTER", "designationCode": "C", "categoryCode": "09", "address": "200 WOLVERLEIGH BLVD", "city": "TORONTO", "province": "ON", "country": "CA", "postalCode": "M4C1S2", "twitter": "None", "instagram": "None", "facebook": "None", "youtube": "None", "website": "None", "summary": "None", "logo": "None", "latitude": 43.68539319458693, "longitude": -79.32234778019496}, "889318267RR0001": {"name": "PARENTS' ASSOCIATION OF LAURIER", "designationCode": "C", "categoryCode": "21", "address": "8210-142 STREET", "city": "EDMONTON", "province": "AB", "country": "CA", "postalCode": "T5R0L9", "twitter": "None", "instagram": "None", "facebook": "None", "youtube": "None", "website": "None", "summary": "None", "logo": "None", "latitude": 53.51581727699232, "longitude": -113.56572769438444}, "119076560RR0002": {"name": "PARENTS' CHILD DEVELOPMENT CO-OPERATIVE", "designationCode": "C", "categoryCode": "01", "address": "2809 EARLY DR", "city": "SASKATOON", "province": "SK", "country": "CA", "postalCode": "S7H3K4", "twitter": "None", "instagram": "None", "facebook": "None", "youtube": "None", "website": "None", "summary": "None", "logo": "None", "latitude": 52.10859748326468, "longitude": -106.61336002553523}, "895635019RR0001": {"name": "PARENTS' LIFELINES OF EASTERN ONTARIO FAMILY MENTAL HEALTH SUPPORT ASSOCIATION", "designationCode": "C", "categoryCode": "11", "address": "1755 COURTWOOD CRES", "city": "OTTAWA", "province": "ON", "country": "CA", "postalCode": "K2C3J2", "twitter": "None", "instagram": "None", "facebook": "None", "youtube": "None", "website": "None", "summary": "None", "logo": "None", "latitude": 45.3712788753823, "longitude": -75.74975189982099}, "881405526RR0001": {"name": "PARENTS' PLACE - YARMOUTH FAMILY RESOURCE CENTRE", "designationCode": "C", "categoryCode": "09", "address": "34 BARNARD STREET", "city": "YARMOUTH", "province": "NS", "country": "CA", "postalCode": "B5A3T5", "twitter": "None", "instagram": "None", "facebook": "None", "youtube": "None", "website": "None", "summary": "None", "logo": "None", "latitude": 43.82856743825375, "longitude": -66.11980085636795}, "854164076RR0001": {"name": "PARETO FOUNDATION", "designationCode": "B", "categoryCode": "05", "address": "121 SKY COURT", "city": "KELOWNA", "province": "BC", "country": "CA", "postalCode": "V1V3A2", "twitter": "None", "instagram": "None", "facebook": "None", "youtube": "None", "website": "None", "summary": "None", "logo": "None", "latitude": 49.92711319473387, "longitude": -119.46215847262569}, "892386509RR0001": {"name": "PARHAM AGRICULTURAL SOCIETY", "designationCode": "C", "categoryCode": "56", "address": "BOX 38", "city": "PARHAM", "province": "ON", "country": "CA", "postalCode": "K0H2K0", "twitter": "None", "instagram": "None", "facebook": "None", "youtube": "None", "website": "None", "summary": "None", "logo": "None", "latitude": 44.656480000000045, "longitude": -76.71396999999996}, "119076768RR0001": {"name": "PARHAM FREE METHODIST CHURCH", "designationCode": "C", "categoryCode": "39", "address": "P O BOX 37", "city": "PARHAM", "province": "ON", "country": "CA", "postalCode": "K0H2K0", "twitter": "None", "instagram": "None", "facebook": "None", "youtube": "None", "website": "None", "summary": "None", "logo": "None", "latitude": 44.656480000000045, "longitude": -76.71396999999996}, "119076776RR0001": {"name": "PARHAM UNITED CHURCH", "designationCode": "C", "categoryCode": "44", "address": "1008 PUBLIC BEACH RD          RR#1", "city": "PARHAM", "province": "ON", "country": "CA", "postalCode": "K0H2K0", "twitter": "None", "instagram": "None", "facebook": "None", "youtube": "None", "website": "None", "summary": "None", "logo": "None", "latitude": 44.68980578045476, "longitude": -76.74778644962204}, "119034700RR0001": {"name": "PARIMA JEUNESSE INC.", "designationCode": "C", "categoryCode": "20", "address": "11A RUE GAGNON", "city": "SAINT-QUENTIN", "province": "NB", "country": "CA", "postalCode": "E8A1N4", "twitter": "None", "instagram": "None", "facebook": "None", "youtube": "None", "website": "None", "summary": "None", "logo": "None", "latitude": 47.514845646460266, "longitude": -67.39057430579271}, "119076784RR0001": {"name": "PARIS AGRICULTURAL SOCIETY", "designationCode": "C", "categoryCode": "20", "address": "P.O. BOX 124 STN MAIN", "city": "PARIS", "province": "ON", "country": "CA", "postalCode": "N3L3E7", "twitter": "None", "instagram": "None", "facebook": "None", "youtube": "None", "website": "None", "summary": "None", "logo": "None", "latitude": 43.18805877327488, "longitude": -80.37826650812369}, "119076792RR0001": {"name": "PARIS BAPTIST CHURCH", "designationCode": "C", "categoryCode": "31", "address": "13 HIRAM ROAD", "city": "PARIS", "province": "ON", "country": "CA", "postalCode": "N3L2P7", "twitter": "None", "instagram": "None", "facebook": "None", "youtube": "None", "website": "None", "summary": "None", "logo": "None", "latitude": 43.20233928726412, "longitude": -80.38408944918935}, "865652119RR0001": {"name": "PARIS MUSEUM AND HISTORICAL SOCIETY", "designationCode": "C", "categoryCode": "50", "address": "66 GRAND RIVER STREET NORTH", "city": "PARIS", "province": "ON", "country": "CA", "postalCode": "N3L2M2", "twitter": "None", "instagram": "None", "facebook": "None", "youtube": "None", "website": "None", "summary": "None", "logo": "None", "latitude": 43.19346462003957, "longitude": -80.3841570595453}, "875111122RR0001": {"name": "PARIS PARKS FOUNDATION", "designationCode": "A", "categoryCode": "53", "address": "70 CURTIS AVE S", "city": "PARIS", "province": "ON", "country": "CA", "postalCode": "N3L3J7", "twitter": "None", "instagram": "None", "facebook": "None", "youtube": "None", "website": "None", "summary": "None", "logo": "None", "latitude": 43.18587514487281, "longitude": -80.36785451335886}, "823492145RR0001": {"name": "PARIS PORT DOVER PIPE BAND", "designationCode": "C", "categoryCode": "22", "address": "1671 VILLA NOVA ROAD", "city": "WILSONVILLE", "province": "ON", "country": "CA", "postalCode": "N0E1Z0", "twitter": "None", "instagram": "None", "facebook": "None", "youtube": "None", "website": "None", "summary": "None", "logo": "None", "latitude": 42.999721763806356, "longitude": -80.22702395588311}, "107814725RR0001": {"name": "PARIS PRESBYTERIAN CHURCH", "designationCode": "C", "categoryCode": "37", "address": "164 GRAND RIVER ST N", "city": "PARIS", "province": "ON", "country": "CA", "postalCode": "N3L2M6", "twitter": "None", "instagram": "None", "facebook": "None", "youtube": "None", "website": "None", "summary": "None", "logo": "None", "latitude": 43.19669317623642, "longitude": -80.38489814643067}, "107797383RR0007": {"name": "PARIS SEVENTH-DAY ADVENTIST CHURCH", "designationCode": "C", "categoryCode": "41", "address": "BOX 21068 RPO NORTHVILLE PLAZA", "city": "PARIS", "province": "ON", "country": "CA", "postalCode": "N3L4A5", "twitter": "None", "instagram": "None", "facebook": "None", "youtube": "None", "website": "None", "summary": "None", "logo": "None", "latitude": 43.20767907101864, "longitude": -80.39372793946583}, "119076834RR0001": {"name": "PARISH CARE CENTRE SOCIETY", "designationCode": "C", "categoryCode": "59", "address": "5745 WALES ST", "city": "VANCOUVER", "province": "BC", "country": "CA", "postalCode": "V5R3N3", "twitter": "None", "instagram": "None", "facebook": "None", "youtube": "None", "website": "None", "summary": "None", "logo": "None", "latitude": 49.23203313044607, "longitude": -123.05170347342558}, "119076925RR0001": {"name": "PARISH OF ALL SAINTS", "designationCode": "C", "categoryCode": "30", "address": "7405 ROYAL OAK AVE", "city": "BURNABY", "province": "BC", "country": "CA", "postalCode": "V5J4J8", "twitter": "None", "instagram": "None", "facebook": "None", "youtube": "None", "website": "None", "summary": "None", "logo": "None", "latitude": 49.216404890811745, "longitude": -122.98849249170445}, "119076933RR0002": {"name": "PARISH OF ALL SAINTS (VICTORIA)", "designationCode": "C", "categoryCode": "30", "address": "BOX 4113", "city": "STONEWALL", "province": "MB", "country": "CA", "postalCode": "R0C2Z0", "twitter": "None", "instagram": "None", "facebook": "None", "youtube": "None", "website": "None", "summary": "None", "logo": "None", "latitude": 50.36947800000006, "longitude": -96.84479599999993}, "106983760RR0001": {"name": "PARISH OF ALL SAINTS ANGLICAN CHURCH", "designationCode": "C", "categoryCode": "30", "address": "601 SALT SPRINGS RD", "city": "SPRINGHILL", "province": "NS", "country": "CA", "postalCode": "B0M1X0", "twitter": "None", "instagram": "None", "facebook": "None", "youtube": "None", "website": "None", "summary": "None", "logo": "None", "latitude": 45.68239818763337, "longitude": -64.00930226882666}, "137786315RR0001": {"name": "PARISH OF ALL SAINTS BY THE SEA (CANSO)", "designationCode": "C", "categoryCode": "30", "address": "PO BOX 59", "city": "CANSO", "province": "NS", "country": "CA", "postalCode": "B0H1H0", "twitter": "None", "instagram": "None", "facebook": "None", "youtube": "None", "website": "None", "summary": "None", "logo": "None", "latitude": 45.643443709263856, "longitude": -61.4208012834455}, "119076909RR0002": {"name": "PARISH OF ALL SAINTS CHURCH", "designationCode": "C", "categoryCode": "30", "address": "PO BOX 44057  RPO BEDFORD", "city": "BEDFORD", "province": "NS", "country": "CA", "postalCode": "B4A3X5", "twitter": "None", "instagram": "None", "facebook": "None", "youtube": "None", "website": "None", "summary": "None", "logo": "None", "latitude": 44.74473275800495, "longitude": -63.65638700320198}, "130491103RR0001": {"name": "PARISH OF ALL SAINTS,", "designationCode": "C", "categoryCode": "30", "address": "33077 SECOND AVE", "city": "MISSION", "province": "BC", "country": "CA", "postalCode": "V2V1J7", "twitter": "None", "instagram": "None", "facebook": "None", "youtube": "None", "website": "None", "summary": "None", "logo": "None", "latitude": 49.135407472213096, "longitude": -122.30773880468418}, "130069040RR0001": {"name": "PARISH OF ALL SAINTS, AGASSIZ", "designationCode": "C", "categoryCode": "30", "address": "6904 LOUGHEED HIGHWAY", "city": "AGASSIZ", "province": "BC", "country": "CA", "postalCode": "V0M1A1", "twitter": "None", "instagram": "None", "facebook": "None", "youtube": "None", "website": "None", "summary": "None", "logo": "None", "latitude": 49.242121903778155, "longitude": -121.76933006089106}, "108027814RR0002": {"name": "PARISH OF ANNAPOLIS", "designationCode": "C", "categoryCode": "30", "address": "PO BOX 427", "city": "ANNAPOLIS ROYAL", "province": "NS", "country": "CA", "postalCode": "B0S1A0", "twitter": "None", "instagram": "None", "facebook": "None", "youtube": "None", "website": "None", "summary": "None", "logo": "None", "latitude": 44.74294007660574, "longitude": -65.518980048906}, "106713118RR0001": {"name": "PARISH OF ASSINIBOIA", "designationCode": "C", "categoryCode": "30", "address": "BOX 1046", "city": "ASSINIBOIA", "province": "SK", "country": "CA", "postalCode": "S0H0B0", "twitter": "None", "instagram": "None", "facebook": "None", "youtube": "None", "website": "None", "summary": "None", "logo": "None", "latitude": 49.63287300000006, "longitude": -105.99348049999993}, "107813693RR0002": {"name": "PARISH OF AVON VALLEY", "designationCode": "C", "categoryCode": "30", "address": "P.O. BOX 3904", "city": "WINDSOR", "province": "NS", "country": "CA", "postalCode": "B0N2T0", "twitter": "None", "instagram": "None", "facebook": "None", "youtube": "None", "website": "None", "summary": "None", "logo": "None", "latitude": 44.990170000000035, "longitude": -64.12904999999995}, "119229896RR0040": {"name": "PARISH OF BAY DE VERDE", "designationCode": "C", "categoryCode": "30", "address": "P.O. BOX 160", "city": "BAY DE VERDE", "province": "NL", "country": "CA", "postalCode": "A0A1E0", "twitter": "None", "instagram": "None", "facebook": "None", "youtube": "None", "website": "None", "summary": "None", "logo": "None", "latitude": 48.089270000000056, "longitude": -52.89737999999994}, "119229920RR0006": {"name": "PARISH OF BAY OF ISLANDS", "designationCode": "C", "categoryCode": "30", "address": "P.O. BOX 39", "city": "LARK HARBOUR", "province": "NL", "country": "CA", "postalCode": "A0L1H0", "twitter": "None", "instagram": "None", "facebook": "None", "youtube": "None", "website": "None", "summary": "None", "logo": "None", "latitude": 49.10003000000006, "longitude": -58.38172999999995}, "119229920RR0024": {"name": "PARISH OF BAY ST GEORGE", "designationCode": "C", "categoryCode": "39", "address": "GENERAL DELIVERY", "city": "ST.DAVID'S", "province": "NL", "country": "CA", "postalCode": "A0N1X0", "twitter": "None", "instagram": "None", "facebook": "None", "youtube": "None", "website": "None", "summary": "None", "logo": "None", "latitude": 48.20658900000005, "longitude": -58.866982999999934}, "108084658RR0082": {"name": "PARISH OF BEARBROOK ANGLICAN CHURCH", "designationCode": "C", "categoryCode": "30", "address": "BOX 51  5919 ROCKDALE RD", "city": "VARS", "province": "ON", "country": "CA", "postalCode": "K0A3H0", "twitter": "None", "instagram": "None", "facebook": "None", "youtube": "None", "website": "None", "summary": "None", "logo": "None", "latitude": 45.3505438698424, "longitude": -75.3499921678692}, "119229896RR0005": {"name": "PARISH OF BELL ISLAND", "designationCode": "C", "categoryCode": "30", "address": "PO BOX 1060", "city": "BELL ISLAND", "province": "NL", "country": "CA", "postalCode": "A0A4H0", "twitter": "None", "instagram": "None", "facebook": "None", "youtube": "None", "website": "None", "summary": "None", "logo": "None", "latitude": 47.62298000000004, "longitude": -52.94907999999998}, "107020232RR0014": {"name": "PARISH OF BELLEORAM", "designationCode": "C", "categoryCode": "30", "address": "P.O. BOX 9", "city": "BELLEORAM", "province": "NL", "country": "CA", "postalCode": "A0H1B0", "twitter": "None", "instagram": "None", "facebook": "None", "youtube": "None", "website": "None", "summary": "None", "logo": "None", "latitude": 47.51664000000005, "longitude": -55.41500999999994}, "134560572RR0001": {"name": "PARISH OF BELMONT", "designationCode": "C", "categoryCode": "30", "address": "P.O. BOX 375                  73 QUEEN ST", "city": "NORWOOD", "province": "ON", "country": "CA", "postalCode": "K0L2V0", "twitter": "None", "instagram": "None", "facebook": "None", "youtube": "None", "website": "None", "summary": "None", "logo": "None", "latitude": 44.38538394771798, "longitude": -77.9741397163103}, "119078368RR0002": {"name": "PARISH OF BLANDFORD", "designationCode": "C", "categoryCode": "30", "address": "P.O. BOX 12", "city": "BLANDFORD", "province": "NS", "country": "CA", "postalCode": "B0J1C0", "twitter": "None", "instagram": "None", "facebook": "None", "youtube": "None", "website": "None", "summary": "None", "logo": "None", "latitude": 44.530102160868516, "longitude": -64.12382349835245}, "119110450RR0001": {"name": "PARISH OF BLESSED SACRAMENT", "designationCode": "C", "categoryCode": "38", "address": "148 MADISON AVENUE", "city": "KITCHENER", "province": "ON", "country": "CA", "postalCode": "N2G3M6", "twitter": "None", "instagram": "None", "facebook": "None", "youtube": "None", "website": "None", "summary": "None", "logo": "None", "latitude": 43.442616519851086, "longitude": -80.48584714475723}, "107020232RR0005": {"name": "PARISH OF BONAVISTA", "designationCode": "C", "categoryCode": "30", "address": "BOX 489", "city": "BONAVISTA", "province": "NL", "country": "CA", "postalCode": "A0C1B0", "twitter": "None", "instagram": "None", "facebook": "None", "youtube": "None", "website": "None", "summary": "None", "logo": "None", "latitude": 48.60760000000005, "longitude": -53.09807999999998}, "119229920RR0025": {"name": "PARISH OF BONNE BAY SOUTH", "designationCode": "C", "categoryCode": "30", "address": "P.O. BOX 40", "city": "WOODY POINT", "province": "NL", "country": "CA", "postalCode": "A0K1P0", "twitter": "None", "instagram": "None", "facebook": "None", "youtube": "None", "website": "None", "summary": "None", "logo": "None", "latitude": 49.50001000000003, "longitude": -57.93161999999995}, "107020232RR0023": {"name": "PARISH OF BOTWOOD", "designationCode": "C", "categoryCode": "30", "address": "POST OFFICE BOX 819", "city": "BOTWOOD", "province": "NL", "country": "CA", "postalCode": "A0H1E0", "twitter": "None", "instagram": "None", "facebook": "None", "youtube": "None", "website": "None", "summary": "None", "logo": "None", "latitude": 49.12576868009626, "longitude": -55.37020900602628}, "107020232RR0015": {"name": "PARISH OF BROOKLYN", "designationCode": "C", "categoryCode": "30", "address": "BOX 71", "city": "LETHBRIDGE", "province": "NL", "country": "CA", "postalCode": "A0C1V0", "twitter": "None", "instagram": "None", "facebook": "None", "youtube": "None", "website": "None", "summary": "None", "logo": "None", "latitude": 48.369740000000036, "longitude": -53.85920999999996}, "119229896RR0028": {"name": "PARISH OF CARBONEAR", "designationCode": "C", "categoryCode": "30", "address": "P.O. BOX 915", "city": "CARBONEAR", "province": "NL", "country": "CA", "postalCode": "A1Y1C4", "twitter": "None", "instagram": "None", "facebook": "None", "youtube": "None", "website": "None", "summary": "None", "logo": "None", "latitude": 47.73637500000005, "longitude": -53.22950449999993}, "119229920RR0026": {"name": "PARISH OF CHANNEL, ST JAMES ANGLICAN CHURCH", "designationCode": "C", "categoryCode": "30", "address": "P.O. BOX 178", "city": "CHANNEL", "province": "NL", "country": "CA", "postalCode": "A0M1C0", "twitter": "None", "instagram": "None", "facebook": "None", "youtube": "None", "website": "None", "summary": "None", "logo": "None", "latitude": 47.535155366637035, "longitude": -52.75825925028318}, "119077154RR0003": {"name": "PARISH OF CHRIST CHURCH", "designationCode": "C", "categoryCode": "30", "address": "699 LEVILLE RD", "city": "NEW ROSS", "province": "NS", "country": "CA", "postalCode": "B0J2M0", "twitter": "None", "instagram": "None", "facebook": "None", "youtube": "None", "website": "None", "summary": "None", "logo": "None", "latitude": 44.748396419498256, "longitude": -64.40911546116324}, "119077170RR0002": {"name": "PARISH OF CHRIST CHURCH", "designationCode": "C", "categoryCode": "30", "address": "14 CHURCH ST", "city": "LANTZ", "province": "NS", "country": "CA", "postalCode": "B2S1P3", "twitter": "None", "instagram": "None", "facebook": "None", "youtube": "None", "website": "None", "summary": "None", "logo": "None", "latitude": 44.98540646459703, "longitude": -63.4824131465749}, "119077188RR0002": {"name": "PARISH OF CHRIST CHURCH", "designationCode": "C", "categoryCode": "30", "address": "PO BOX 2664", "city": "WINDSOR", "province": "NS", "country": "CA", "postalCode": "B0N2T0", "twitter": "None", "instagram": "None", "facebook": "None", "youtube": "None", "website": "None", "summary": "None", "logo": "None", "latitude": 44.990170000000035, "longitude": -64.12904999999995}, "119077196RR0002": {"name": "PARISH OF CHRIST CHURCH", "designationCode": "C", "categoryCode": "30", "address": "327 PROSPECT RD               RR 1", "city": "BERWICK", "province": "NS", "country": "CA", "postalCode": "B0P1E0", "twitter": "None", "instagram": "None", "facebook": "None", "youtube": "None", "website": "None", "summary": "None", "logo": "None", "latitude": 44.99321157568203, "longitude": -64.7493320083672}, "119077204RR0002": {"name": "PARISH OF CHRIST CHURCH", "designationCode": "C", "categoryCode": "30", "address": "PO BOX 196", "city": "SHELBURNE", "province": "NS", "country": "CA", "postalCode": "B0T1W0", "twitter": "None", "instagram": "None", "facebook": "None", "youtube": "None", "website": "None", "summary": "None", "logo": "None", "latitude": 43.57026600000006, "longitude": -65.35813399999994}, "873425359RR0001": {"name": "PARISH OF CHRIST CHURCH", "designationCode": "C", "categoryCode": "30", "address": "P.O. BOX 342", "city": "AMHERST", "province": "NS", "country": "CA", "postalCode": "B4H3Z5", "twitter": "None", "instagram": "None", "facebook": "None", "youtube": "None", "website": "None", "summary": "None", "logo": "None", "latitude": 45.83198400000006, "longitude": -64.20979249999993}, "887453280RR0001": {"name": "PARISH OF CHRIST CHURCH", "designationCode": "C", "categoryCode": "30", "address": "PO BOX 487", "city": "STELLARTON", "province": "NS", "country": "CA", "postalCode": "B0K1S0", "twitter": "None", "instagram": "None", "facebook": "None", "youtube": "None", "website": "None", "summary": "None", "logo": "None", "latitude": 45.56177000000008, "longitude": -62.65966999999995}, "888169794RR0002": {"name": "PARISH OF CHRIST CHURCH", "designationCode": "C", "categoryCode": "30", "address": "PO BOX 24083 RPO STRATFORD", "city": "STRATFORD", "province": "PE", "country": "CA", "postalCode": "C1B2V5", "twitter": "None", "instagram": "None", "facebook": "None", "youtube": "None", "website": "None", "summary": "None", "logo": "None", "latitude": 46.217686152128245, "longitude": -63.0982765677881}, "872506969RR0001": {"name": "PARISH OF CHRIST CHURCH, DARTMOUTH", "designationCode": "C", "categoryCode": "30", "address": "61 DUNDAS ST", "city": "DARTMOUTH", "province": "NS", "country": "CA", "postalCode": "B2Y4H5", "twitter": "None", "instagram": "None", "facebook": "None", "youtube": "None", "website": "None", "summary": "None", "logo": "None", "latitude": 44.66819644572689, "longitude": -63.567674899128505}, "892213042RR0001": {"name": "PARISH OF CHRIST THE REDEEMER - CFB ESQUIMALT (NADEN)", "designationCode": "C", "categoryCode": "38", "address": "CHAP (RC) CFB ESQUIMALT       PO BOX 17000 STN FORCES", "city": "VICTORIA", "province": "BC", "country": "CA", "postalCode": "V9A7N2", "twitter": "None", "instagram": "None", "facebook": "None", "youtube": "None", "website": "None", "summary": "None", "logo": "None", "latitude": 48.42822000000007, "longitude": -123.42446999999999}, "119077261RR0001": {"name": "PARISH OF CHURCH OF THE GOOD SHEPHERD", "designationCode": "C", "categoryCode": "30", "address": "1410 NANTON AVE", "city": "VANCOUVER", "province": "BC", "country": "CA", "postalCode": "V6H2E2", "twitter": "None", "instagram": "None", "facebook": "None", "youtube": "None", "website": "None", "summary": "None", "logo": "None", "latitude": 49.247329075864954, "longitude": -123.13708322274447}, "888276797RR0002": {"name": "PARISH OF CHURCH OF THE HOLY SPIRIT", "designationCode": "C", "categoryCode": "30", "address": "1 REGENY DRIVE", "city": "DARTMOUTH", "province": "NS", "country": "CA", "postalCode": "B2Y1Z7", "twitter": "None", "instagram": "None", "facebook": "None", "youtube": "None", "website": "None", "summary": "None", "logo": "None", "latitude": 44.666182771567975, "longitude": -63.54254537826783}, "108084658RR0108": {"name": "PARISH OF CLARENDON ANGLICAN CHURCH OF CANADA", "designationCode": "C", "categoryCode": "30", "address": "530 MAIN ST, PO BOX 278", "city": "SHAWVILLE", "province": "QC", "country": "CA", "postalCode": "J0X2Y0", "twitter": "None", "instagram": "None", "facebook": "None", "youtube": "None", "website": "None", "summary": "None", "logo": "None", "latitude": 45.6060737679613, "longitude": -76.49701539898429}, "119077295RR0002": {"name": "PARISH OF CLEMENTS", "designationCode": "C", "categoryCode": "30", "address": "PO BOX 171", "city": "CLEMENTSPORT", "province": "NS", "country": "CA", "postalCode": "B0S1E0", "twitter": "None", "instagram": "None", "facebook": "None", "youtube": "None", "website": "None", "summary": "None", "logo": "None", "latitude": 44.65360023264739, "longitude": -65.58874467073602}, "119229920RR0002": {"name": "PARISH OF CORNER BROOK", "designationCode": "C", "categoryCode": "30", "address": "25A MAIN STREET", "city": "CORNER BROOK", "province": "NL", "country": "CA", "postalCode": "A2H1C2", "twitter": "None", "instagram": "None", "facebook": "None", "youtube": "None", "website": "None", "summary": "None", "logo": "None", "latitude": 48.95312789498478, "longitude": -57.94530733361468}, "119229920RR0028": {"name": "PARISH OF COX'S COVE/MCIVERS", "designationCode": "C", "categoryCode": "39", "address": "67 LOWER COVE RD", "city": "MCIVERS", "province": "NL", "country": "CA", "postalCode": "A2H6B9", "twitter": "None", "instagram": "None", "facebook": "None", "youtube": "None", "website": "None", "summary": "None", "logo": "None", "latitude": 49.07712957852188, "longitude": -58.12142133598969}, "107302952RR0002": {"name": "PARISH OF EMMANUAL CHURCH", "designationCode": "C", "categoryCode": "30", "address": "322 HERRING COVE RD", "city": "HALIFAX", "province": "NS", "country": "CA", "postalCode": "B3R1V4", "twitter": "None", "instagram": "None", "facebook": "None", "youtube": "None", "website": "None", "summary": "None", "logo": "None", "latitude": 44.61419138522141, "longitude": -63.616179114317255}, "107020232RR0028": {"name": "PARISH OF FOGO ISLAND WEST", "designationCode": "C", "categoryCode": "30", "address": "POST OFFICE BOX 190", "city": "FOGO", "province": "NL", "country": "CA", "postalCode": "A0G2B0", "twitter": "None", "instagram": "None", "facebook": "None", "youtube": "None", "website": "None", "summary": "None", "logo": "None", "latitude": 49.716620000000034, "longitude": -54.28141999999997}, "132029695RR0001": {"name": "PARISH OF FRANKFORD / GLEN MILLER", "designationCode": "C", "categoryCode": "30", "address": "60 NORTH TRENT ST             BOX 419", "city": "FRANKFORD", "province": "ON", "country": "CA", "postalCode": "K0K2C0", "twitter": "None", "instagram": "None", "facebook": "None", "youtube": "None", "website": "None", "summary": "None", "logo": "None", "latitude": 44.20404984791384, "longitude": -77.59673941765286}, "107020232RR0011": {"name": "PARISH OF GANDER BAY", "designationCode": "C", "categoryCode": "30", "address": "PO BOX 107", "city": "VICTORIA COVE", "province": "NL", "country": "CA", "postalCode": "A0G4N0", "twitter": "None", "instagram": "None", "facebook": "None", "youtube": "None", "website": "None", "summary": "None", "logo": "None", "latitude": 48.79650150000002, "longitude": -54.2116575}, "119229920RR0015": {"name": "PARISH OF GRAND BAY", "designationCode": "C", "categoryCode": "30", "address": "P.O. BOX 361", "city": "CHANNEL", "province": "NL", "country": "CA", "postalCode": "A0M1C0", "twitter": "None", "instagram": "None", "facebook": "None", "youtube": "None", "website": "None", "summary": "None", "logo": "None", "latitude": 47.535155366637035, "longitude": -52.75825925028318}, "107020232RR0004": {"name": "PARISH OF GRAND FALLS", "designationCode": "C", "categoryCode": "30", "address": "P.O.BOX 308", "city": "GRAND FALLS-WINDSOR", "province": "NL", "country": "CA", "postalCode": "A2A2J7", "twitter": "None", "instagram": "None", "facebook": "None", "youtube": "None", "website": "None", "summary": "None", "logo": "None", "latitude": 48.927786000000054, "longitude": -55.65881149999993}, "119229920RR0021": {"name": "PARISH OF GREEN ISLAND", "designationCode": "C", "categoryCode": "30", "address": "GENERAL DELIVERY", "city": "GREEN COVE", "province": "NL", "country": "CA", "postalCode": "A0K2W0", "twitter": "None", "instagram": "None", "facebook": "None", "youtube": "None", "website": "None", "summary": "None", "logo": "None", "latitude": 51.381519000000054, "longitude": -56.57454349999993}, "119229896RR0021": {"name": "PARISH OF HEART'S CONTENT", "designationCode": "C", "categoryCode": "30", "address": "PO BOX 56", "city": "HEART'S CONTENT", "province": "NL", "country": "CA", "postalCode": "A0B1Z0", "twitter": "None", "instagram": "None", "facebook": "None", "youtube": "None", "website": "None", "summary": "None", "logo": "None", "latitude": 47.872160000000065, "longitude": -53.36845999999997}, "107020232RR0026": {"name": "PARISH OF HERMITAGE", "designationCode": "C", "categoryCode": "30", "address": "PO BOX 39", "city": "HERMITAGE", "province": "NL", "country": "CA", "postalCode": "A0H1S0", "twitter": "None", "instagram": "None", "facebook": "None", "youtube": "None", "website": "None", "summary": "None", "logo": "None", "latitude": 47.55744000000004, "longitude": -55.92790999999994}, "872525969RR0001": {"name": "PARISH OF HOLY CROSS CHURCH", "designationCode": "C", "categoryCode": "30", "address": "P.O BOX 54", "city": "LOCKEPORT", "province": "NS", "country": "CA", "postalCode": "B0T1L0", "twitter": "None", "instagram": "None", "facebook": "None", "youtube": "None", "website": "None", "summary": "None", "logo": "None", "latitude": 43.69726000000003, "longitude": -65.11463999999995}, "132371360RR0001": {"name": "PARISH OF HOLY CROSS JAPANESE CANADIAN ANGLICAN CHURCH", "designationCode": "C", "categoryCode": "30", "address": "4580 WALDEN STREET", "city": "VANCOUVER", "province": "BC", "country": "CA", "postalCode": "V5V3S5", "twitter": "None", "instagram": "None", "facebook": "None", "youtube": "None", "website": "None", "summary": "None", "logo": "None", "latitude": 49.24355947565664, "longitude": -123.0998739651313}, "888821998RR0001": {"name": "PARISH OF HOLY TRINITY", "designationCode": "C", "categoryCode": "30", "address": "1440 WEST 12TH AVENUE", "city": "VANCOUVER", "province": "BC", "country": "CA", "postalCode": "V6H1M8", "twitter": "None", "instagram": "None", "facebook": "None", "youtube": "None", "website": "None", "summary": "None", "logo": "None", "latitude": 49.26071949567217, "longitude": -123.13682148127411}, "894001577RR0001": {"name": "PARISH OF HOLY TRINITY", "designationCode": "C", "categoryCode": "30", "address": "15115 ROPER AVE", "city": "WHITE ROCK", "province": "BC", "country": "CA", "postalCode": "V4B2E8", "twitter": "None", "instagram": "None", "facebook": "None", "youtube": "None", "website": "None", "summary": "None", "logo": "None", "latitude": 49.02576747157924, "longitude": -122.80354127699232}, "893788083RR0002": {"name": "PARISH OF HOLY TRINITY CHURCH", "designationCode": "C", "categoryCode": "30", "address": "PO BOX 219", "city": "GEORGETOWN", "province": "PE", "country": "CA", "postalCode": "C0A1L0", "twitter": "None", "instagram": "None", "facebook": "None", "youtube": "None", "website": "None", "summary": "None", "logo": "None", "latitude": 46.198799489087506, "longitude": -62.55041554596116}, "119229920RR0018": {"name": "PARISH OF ISLE AUX MORTS/FOXROOST/MARGAREE", "designationCode": "C", "categoryCode": "30", "address": "PO BOX 140", "city": "ISLE-AUX-MORTS", "province": "NL", "country": "CA", "postalCode": "A0M1J0", "twitter": "None", "instagram": "None", "facebook": "None", "youtube": "None", "website": "None", "summary": "None", "logo": "None", "latitude": 47.58733500000005, "longitude": -58.974303499999934}, "119229896RR0014": {"name": "PARISH OF LABRADOR WEST", "designationCode": "C", "categoryCode": "30", "address": "600 HUDSON DRIVE", "city": "LABRADOR CITY", "province": "NL", "country": "CA", "postalCode": "A2V1M1", "twitter": "None", "instagram": "None", "facebook": "None", "youtube": "None", "website": "None", "summary": "None", "logo": "None", "latitude": 52.94329188387572, "longitude": -66.91560067419226}, "119077691RR0001": {"name": "PARISH OF LAST MOUNTAIN", "designationCode": "C", "categoryCode": "30", "address": "BOX 267", "city": "NOKOMIS", "province": "SK", "country": "CA", "postalCode": "S0G3R0", "twitter": "None", "instagram": "None", "facebook": "None", "youtube": "None", "website": "None", "summary": "None", "logo": "None", "latitude": 51.50703000000004, "longitude": -105.01040999999998}, "107020232RR0021": {"name": "PARISH OF LEWISPORTE", "designationCode": "C", "categoryCode": "30", "address": "PO BOX 696", "city": "LEWISPORTE", "province": "NL", "country": "CA", "postalCode": "A0G3A0", "twitter": "None", "instagram": "None", "facebook": "None", "youtube": "None", "website": "None", "summary": "None", "logo": "None", "latitude": 49.24179000000004, "longitude": -55.05992999999995}, "108084658RR0100": {"name": "PARISH OF LONG SAULT (CHRIST CHURCH)", "designationCode": "C", "categoryCode": "30", "address": "BOX 59", "city": "LONG SAULT", "province": "ON", "country": "CA", "postalCode": "K0C1P0", "twitter": "None", "instagram": "None", "facebook": "None", "youtube": "None", "website": "None", "summary": "None", "logo": "None", "latitude": 45.01324451560865, "longitude": -74.89606844091028}, "119077725RR0002": {"name": "PARISH OF MAITLAND ANGLICAN CHURCH OF CANADA", "designationCode": "C", "categoryCode": "30", "address": "1005 FINDLEY RD", "city": "UPPER KENNETCOOK", "province": "NS", "country": "CA", "postalCode": "B0N2L0", "twitter": "None", "instagram": "None", "facebook": "None", "youtube": "None", "website": "None", "summary": "None", "logo": "None", "latitude": 45.24769806053418, "longitude": -63.69217144757323}, "119229920RR0027": {"name": "PARISH OF MEADOWS", "designationCode": "C", "categoryCode": "30", "address": "9 MCAULEY'S RD                RR 3", "city": "IRISHTOWN-SUMMERSIDE", "province": "NL", "country": "CA", "postalCode": "A2H4A1", "twitter": "None", "instagram": "None", "facebook": "None", "youtube": "None", "website": "None", "summary": "None", "logo": "None", "latitude": 48.97829732388077, "longitude": -57.97001799454802}, "868945098RR0001": {"name": "PARISH OF MUSQUODOBOIT", "designationCode": "C", "categoryCode": "30", "address": "PO BOX 118", "city": "MUSQUODOBOIT HARBOUR", "province": "NS", "country": "CA", "postalCode": "B0J2L0", "twitter": "None", "instagram": "None", "facebook": "None", "youtube": "None", "website": "None", "summary": "None", "logo": "None", "latitude": 44.786579926712626, "longitude": -63.14877998110121}, "119077808RR0002": {"name": "PARISH OF NELSONVILLE", "designationCode": "C", "categoryCode": "30", "address": "409 RUE SUD", "city": "COWANSVILLE", "province": "QC", "country": "CA", "postalCode": "J2K2X6", "twitter": "None", "instagram": "None", "facebook": "None", "youtube": "None", "website": "None", "summary": "None", "logo": "None", "latitude": 45.20450382569684, "longitude": -72.74668322823048}, "119056224RR0001": {"name": "PARISH OF NEW LONDON", "designationCode": "C", "categoryCode": "30", "address": "BOX 7833", "city": "KENSINGTON", "province": "PE", "country": "CA", "postalCode": "C0B1M0", "twitter": "None", "instagram": "None", "facebook": "None", "youtube": "None", "website": "None", "summary": "None", "logo": "None", "latitude": 46.53816900000005, "longitude": -63.71270899999993}, "128967353RR0079": {"name": "PARISH OF OUR LADY OF DIVINE LOVE PENDLETON", "designationCode": "C", "categoryCode": "38", "address": "2084 CONCESSION #10", "city": "CURRAN", "province": "ON", "country": "CA", "postalCode": "K0B1C0", "twitter": "None", "instagram": "None", "facebook": "None", "youtube": "None", "website": "None", "summary": "None", "logo": "None", "latitude": 45.45047599264471, "longitude": -75.06221190994323}, "119077907RR0001": {"name": "PARISH OF OUR LADY OF SHILO-CFB SHILO", "designationCode": "C", "categoryCode": "38", "address": "C.F.B. SHILO                  P.O. BOX 5000 STATION MAIN", "city": "SHILO", "province": "MB", "country": "CA", "postalCode": "R0K2A0", "twitter": "None", "instagram": "None", "facebook": "None", "youtube": "None", "website": "None", "summary": "None", "logo": "None", "latitude": 49.805988000000056, "longitude": -99.64004299999993}, "886470996RR0001": {"name": "PARISH OF OUR LADY OF THE ASSUMPTION - C F B SHEARWATER", "designationCode": "C", "categoryCode": "38", "address": "PO BOX 99000 STN FORCES", "city": "HALIFAX", "province": "NS", "country": "CA", "postalCode": "B3K5X5", "twitter": "None", "instagram": "None", "facebook": "None", "youtube": "None", "website": "None", "summary": "None", "logo": "None", "latitude": 44.645478000000054, "longitude": -63.576552499999934}, "119077949RR0001": {"name": "PARISH OF OUR LADY OF THE SACRED HEART-CFB COMOX", "designationCode": "C", "categoryCode": "38", "address": "19 WING/CFB COMX", "city": "LAZO", "province": "BC", "country": "CA", "postalCode": "V0R2K0", "twitter": "None", "instagram": "None", "facebook": "None", "youtube": "None", "website": "None", "summary": "None", "logo": "None", "latitude": 49.54184700000006, "longitude": -124.79463349999993}, "119077972RR0001": {"name": "PARISH OF OUR LADY STAR OF THESEA-CFB ESQUIMALT", "designationCode": "C", "categoryCode": "38", "address": "PO BOX 17000 STN FORCES", "city": "VICTORIA", "province": "BC", "country": "CA", "postalCode": "V9A7N2", "twitter": "None", "instagram": "None", "facebook": "None", "youtube": "None", "website": "None", "summary": "None", "logo": "None", "latitude": 48.42854700000005, "longitude": -123.36445249999994}, "108084658RR0068": {"name": "PARISH OF PAKENHAM, (ST. MARK'S)", "designationCode": "C", "categoryCode": "30", "address": "186 JESSIE ST", "city": "PAKENHAM", "province": "ON", "country": "CA", "postalCode": "K0A2X0", "twitter": "None", "instagram": "None", "facebook": "None", "youtube": "None", "website": "None", "summary": "None", "logo": "None", "latitude": 45.33224175049458, "longitude": -76.29254588167903}, "119229920RR0013": {"name": "PARISH OF PASADENA/CORMACK", "designationCode": "C", "categoryCode": "30", "address": "P.O. BOX 119", "city": "PASADENA", "province": "NL", "country": "CA", "postalCode": "A0L1K0", "twitter": "None", "instagram": "None", "facebook": "None", "youtube": "None", "website": "None", "summary": "None", "logo": "None", "latitude": 49.005753000000055, "longitude": -57.59809099999994}}