{"833978331RR0001": {"name": "Platypus Childcare Society", "designationCode": "C", "categoryCode": "01", "address": "#1-40137 GOVERNMENT ROAD", "city": "SQUAMISH", "province": "BC", "country": "CA", "postalCode": "V8B0N7", "twitter": "None", "instagram": "None", "facebook": "None", "youtube": "None", "website": "None", "summary": "None", "logo": "None", "latitude": 49.73656513462968, "longitude": -123.13971402974748}, "820533198RR0001": {"name": "Play Better Foundation", "designationCode": "A", "categoryCode": "03", "address": "1250-1500 GEORGIA W ST        BOX 62", "city": "VANCOUVER", "province": "BC", "country": "CA", "postalCode": "V6G2Z6", "twitter": "None", "instagram": "None", "facebook": "None", "youtube": "None", "website": "None", "summary": "None", "logo": "None", "latitude": 49.290187500000016, "longitude": -123.130035}, "838151801RR0001": {"name": "Play Lab Learning Inc.", "designationCode": "C", "categoryCode": "21", "address": "2165 GALENA CRESCENT", "city": "OAKVILLE", "province": "ON", "country": "CA", "postalCode": "L6H4B1", "twitter": "None", "instagram": "None", "facebook": "None", "youtube": "None", "website": "None", "summary": "None", "logo": "None", "latitude": 43.48699633694958, "longitude": -79.69779290853491}, "826676280RR0001": {"name": "Playright Playgrounds Ingersoll", "designationCode": "C", "categoryCode": "56", "address": "45 CHARLES STREET WEST,", "city": "INGERSOLL", "province": "ON", "country": "CA", "postalCode": "N5C2L5", "twitter": "None", "instagram": "None", "facebook": "None", "youtube": "None", "website": "None", "summary": "None", "logo": "None", "latitude": 43.0385517352127, "longitude": -80.88490137370886}, "107849101RR0001": {"name": "Playwrights Guild of Canada", "designationCode": "C", "categoryCode": "81", "address": "401 RICHMOND STREET WEST      SUITE 350", "city": "TORONTO", "province": "ON", "country": "CA", "postalCode": "M5V3A8", "twitter": "None", "instagram": "None", "facebook": "None", "youtube": "None", "website": "None", "summary": "None", "logo": "None", "latitude": 43.64802194030256, "longitude": -79.39487429779568}, "807484068RR0001": {"name": "Pleasant Point Cemetery", "designationCode": "C", "categoryCode": "59", "address": "718 SKYLINE RD", "city": "OAKWOOD", "province": "ON", "country": "CA", "postalCode": "K0M2M0", "twitter": "None", "instagram": "None", "facebook": "None", "youtube": "None", "website": "None", "summary": "None", "logo": "None", "latitude": 44.3394108781236, "longitude": -78.90901755938033}, "890640006RR0001": {"name": "Pleasantvale Homes Society", "designationCode": "C", "categoryCode": "09", "address": "P.O. BOX 24076", "city": "KELOWNA", "province": "BC", "country": "CA", "postalCode": "V1Y9H2", "twitter": "None", "instagram": "None", "facebook": "None", "youtube": "None", "website": "None", "summary": "None", "logo": "None", "latitude": 49.88697900000005, "longitude": -119.49661249999994}, "841870033RR0001": {"name": "Plentiville Foundation", "designationCode": "B", "categoryCode": "03", "address": "1250 - 1500 WEST GEORGIA ST 62", "city": "VANCOUVER", "province": "BC", "country": "CA", "postalCode": "V6G2Z6", "twitter": "None", "instagram": "None", "facebook": "None", "youtube": "None", "website": "None", "summary": "None", "logo": "None", "latitude": 49.290187500000016, "longitude": -123.130035}, "809067788RR0001": {"name": "Plugged IN Community Centre Organization", "designationCode": "C", "categoryCode": "56", "address": "26 EASTPARK DRIVE", "city": "ST. ALBERT", "province": "AB", "country": "CA", "postalCode": "T8N6Z5", "twitter": "None", "instagram": "None", "facebook": "None", "youtube": "None", "website": "None", "summary": "None", "logo": "None", "latitude": 53.66673510104438, "longitude": -113.61285850516455}, "847432705RR0001": {"name": "Plum Blossom Centre Inc.", "designationCode": "C", "categoryCode": "59", "address": "2250 MIDLAND AVENUE           UNIT 11", "city": "TORONTO", "province": "ON", "country": "CA", "postalCode": "M1P4R9", "twitter": "None", "instagram": "None", "facebook": "None", "youtube": "None", "website": "None", "summary": "None", "logo": "None", "latitude": 43.775256993538314, "longitude": -79.27402211976658}, "869377705RR0001": {"name": "Plumbline.TV", "designationCode": "C", "categoryCode": "39", "address": "10 - 20280 97 AVE", "city": "LANGLEY", "province": "BC", "country": "CA", "postalCode": "V1M4B9", "twitter": "None", "instagram": "None", "facebook": "None", "youtube": "None", "website": "None", "summary": "None", "logo": "None", "latitude": 49.17917961689322, "longitude": -122.66062067708737}, "796125128RR0001": {"name": "Plusoneplusone Canada", "designationCode": "A", "categoryCode": "03", "address": "7941 RUE DUROCHER", "city": "MONTREAL", "province": "QC", "country": "CA", "postalCode": "H3N2A7", "twitter": "None", "instagram": "None", "facebook": "None", "youtube": "None", "website": "None", "summary": "None", "logo": "None", "latitude": 45.53198395366141, "longitude": -73.63279481028916}, "829458991RR0001": {"name": "Plympton Holy Cross Catholic Cemetery Society", "designationCode": "C", "categoryCode": "59", "address": "6765 HIGHWAY 101, RR 1", "city": "PLYMPTON", "province": "NS", "country": "CA", "postalCode": "B0W2R0", "twitter": "None", "instagram": "None", "facebook": "None", "youtube": "None", "website": "None", "summary": "None", "logo": "None", "latitude": 44.49164382501925, "longitude": -65.93530887069596}, "827896853RR0001": {"name": "Pneuma Church", "designationCode": "C", "categoryCode": "39", "address": "4750 57TH ST", "city": "DELTA", "province": "BC", "country": "CA", "postalCode": "V4K3C9", "twitter": "None", "instagram": "None", "facebook": "None", "youtube": "None", "website": "None", "summary": "None", "logo": "None", "latitude": 49.08858249708581, "longitude": -123.06527853652908}, "850447517RR0001": {"name": "Podowon Methodist Church", "designationCode": "C", "categoryCode": "39", "address": "58 - 1736 NEWTON ST", "city": "VICTORIA", "province": "BC", "country": "CA", "postalCode": "V8R2R2", "twitter": "None", "instagram": "None", "facebook": "None", "youtube": "None", "website": "None", "summary": "None", "logo": "None", "latitude": 48.43897716200906, "longitude": -123.33081723633867}, "816009856RR0001": {"name": "Poetry In Voice/Les Voix de la Po\u00e9sie", "designationCode": "B", "categoryCode": "22", "address": "15 - 15 AV LAURIER E", "city": "MONTREAL", "province": "QC", "country": "CA", "postalCode": "H2T1E4", "twitter": "None", "instagram": "None", "facebook": "None", "youtube": "None", "website": "None", "summary": "None", "logo": "None", "latitude": 45.5234245453863, "longitude": -73.59253683363134}, "824317242RR0001": {"name": "Poile Family Foundation", "designationCode": "B", "categoryCode": "03", "address": "154 ALEXANDRA BOULEVARD", "city": "TORONTO", "province": "ON", "country": "CA", "postalCode": "M4R1M2", "twitter": "None", "instagram": "None", "facebook": "None", "youtube": "None", "website": "None", "summary": "None", "logo": "None", "latitude": 43.71578217236992, "longitude": -79.40809548488079}, "798565099RR0001": {"name": "Poinciana Evangelistic Ministries", "designationCode": "C", "categoryCode": "39", "address": "22 BUSHCROFT TRAIL,", "city": "BRAMPTON", "province": "ON", "country": "CA", "postalCode": "L7A2L1", "twitter": "None", "instagram": "None", "facebook": "None", "youtube": "None", "website": "None", "summary": "None", "logo": "None", "latitude": 43.706233708840756, "longitude": -79.83280121928543}, "809456825RR0001": {"name": "Point Douglas Gospel Choir", "designationCode": "C", "categoryCode": "22", "address": "357 HAMPTON ST", "city": "WINNIPEG", "province": "MB", "country": "CA", "postalCode": "R3J1P7", "twitter": "None", "instagram": "None", "facebook": "None", "youtube": "None", "website": "None", "summary": "None", "logo": "None", "latitude": 49.885260841797, "longitude": -97.2122483378732}, "842226490RR0001": {"name": "Point Ellice House Preservation Society", "designationCode": "C", "categoryCode": "52", "address": "2616 PLEASANT ST", "city": "VICTORIA", "province": "BC", "country": "CA", "postalCode": "V8T4V3", "twitter": "None", "instagram": "None", "facebook": "None", "youtube": "None", "website": "None", "summary": "None", "logo": "None", "latitude": 48.43600816097297, "longitude": -123.37669320252142}, "119288918RR0568": {"name": "Point Pleasant Congregation of Jehovah's Witnesses, Halifax, Nova Scotia", "designationCode": "C", "categoryCode": "61", "address": "52 PARKLAND DRIVE  APT 104", "city": "HALIFAX", "province": "NS", "country": "CA", "postalCode": "B3M4G5", "twitter": "None", "instagram": "None", "facebook": "None", "youtube": "None", "website": "None", "summary": "None", "logo": "None", "latitude": 44.66083047980315, "longitude": -63.67034077266356}, "878985506RR0001": {"name": "Pointe au Baril Emergency Response Team", "designationCode": "C", "categoryCode": "59", "address": "59 PAYNE'S ROAD               PO BOX 249", "city": "POINTE AU BARIL", "province": "ON", "country": "CA", "postalCode": "P0G1K0", "twitter": "None", "instagram": "None", "facebook": "None", "youtube": "None", "website": "None", "summary": "None", "logo": "None", "latitude": 45.58465095755657, "longitude": -80.4093483906744}, "774649495RR0001": {"name": "Pointe-Claire Oldtimers Foundation / La Fondation des Anciens de Pointe-Claire", "designationCode": "A", "categoryCode": "03", "address": "15 AVENUE DONEGANI            C.P / P.O BOX 593", "city": "POINTE-CLAIRE", "province": "QC", "country": "CA", "postalCode": "H9R0B7", "twitter": "None", "instagram": "None", "facebook": "None", "youtube": "None", "website": "None", "summary": "None", "logo": "None", "latitude": 45.45131807357591, "longitude": -73.78323716711846}, "132058116RR0001": {"name": "Pointes West Ministry", "designationCode": "C", "categoryCode": "47", "address": "6483 DOVER STREET", "city": "CHILLIWACK", "province": "BC", "country": "CA", "postalCode": "V2R1W9", "twitter": "None", "instagram": "None", "facebook": "None", "youtube": "None", "website": "None", "summary": "None", "logo": "None", "latitude": 49.11932867638063, "longitude": -121.973300522217}, "852989045RR0001": {"name": "Pointsar Marine Rescue", "designationCode": "C", "categoryCode": "59", "address": "866 CONFEDERATION ST", "city": "SARNIA", "province": "ON", "country": "CA", "postalCode": "N7T2E5", "twitter": "None", "instagram": "None", "facebook": "None", "youtube": "None", "website": "None", "summary": "None", "logo": "None", "latitude": 42.96073972680198, "longitude": -82.37798790805165}, "891334245RR0001": {"name": "Pokeshaw & Black Rock Recreation Council Inc.", "designationCode": "C", "categoryCode": "56", "address": "8914 ROUTE 11", "city": "POKESHAW", "province": "NB", "country": "CA", "postalCode": "E2A5S1", "twitter": "None", "instagram": "None", "facebook": "None", "youtube": "None", "website": "None", "summary": "None", "logo": "None", "latitude": 47.78441433404873, "longitude": -65.26278315492696}, "889801908RR0001": {"name": "Policywise for Children & Families", "designationCode": "C", "categoryCode": "15", "address": "601, 9925-109 STREET", "city": "EDMONTON", "province": "AB", "country": "CA", "postalCode": "T5K2J8", "twitter": "None", "instagram": "None", "facebook": "None", "youtube": "None", "website": "None", "summary": "None", "logo": "None", "latitude": 53.53785802553523, "longitude": -113.508416260171}, "833416407RR0001": {"name": "Polish Exiles of WW2 Inc.", "designationCode": "C", "categoryCode": "50", "address": "362 WHITEGATES CRESCENT", "city": "WINNIPEG", "province": "MB", "country": "CA", "postalCode": "R3K1L8", "twitter": "None", "instagram": "None", "facebook": "None", "youtube": "None", "website": "None", "summary": "None", "logo": "None", "latitude": 49.87361954593456, "longitude": -97.30327232586973}, "832186696RR0001": {"name": "Polish Full Gospel Church", "designationCode": "C", "categoryCode": "36", "address": "380 HIGHWAY 8", "city": "STONEY CREEK", "province": "ON", "country": "CA", "postalCode": "L8G1E9", "twitter": "None", "instagram": "None", "facebook": "None", "youtube": "None", "website": "None", "summary": "None", "logo": "None", "latitude": 43.218618617379406, "longitude": -79.72510687839383}, "853753259RR0001": {"name": "Pollination Guelph", "designationCode": "C", "categoryCode": "52", "address": "18 KAREN AVENUE", "city": "GUELPH", "province": "ON", "country": "CA", "postalCode": "N1G2N9", "twitter": "None", "instagram": "None", "facebook": "None", "youtube": "None", "website": "None", "summary": "None", "logo": "None", "latitude": 43.52042372133425, "longitude": -80.21944624089684}, "890676174RR0001": {"name": "Pollock Family Foundation/Fondation de la famille pollock", "designationCode": "B", "categoryCode": "03", "address": "5 MILLBANK AVE", "city": "TORONTO", "province": "ON", "country": "CA", "postalCode": "M5P1S2", "twitter": "None", "instagram": "None", "facebook": "None", "youtube": "None", "website": "None", "summary": "None", "logo": "None", "latitude": 43.69033311795259, "longitude": -79.41481927280871}, "136347572RR0001": {"name": "Polycultural Immigrant and Community Services", "designationCode": "C", "categoryCode": "09", "address": "17 4 SEASONS PLACE            SUITE 102", "city": "ETOBICOKE", "province": "ON", "country": "CA", "postalCode": "M9B6E6", "twitter": "None", "instagram": "None", "facebook": "None", "youtube": "None", "website": "None", "summary": "None", "logo": "None", "latitude": 43.647630486899, "longitude": -79.56115485309482}, "851591842RR0001": {"name": "Pomeroy Ridge Cemetery Inc.", "designationCode": "C", "categoryCode": "59", "address": "478 ROUTE 750", "city": "VALLEY ROAD", "province": "NB", "country": "CA", "postalCode": "E3L4V1", "twitter": "None", "instagram": "None", "facebook": "None", "youtube": "None", "website": "None", "summary": "None", "logo": "None", "latitude": 45.24954711424795, "longitude": -67.26561738228281}, "886176593RR0001": {"name": "Pomquet Fire & Emergency Services", "designationCode": "C", "categoryCode": "59", "address": "1180 MONKHEAD ROAD", "city": "POMQUET ANTIGONISH", "province": "NS", "country": "CA", "postalCode": "B2G2L4", "twitter": "None", "instagram": "None", "facebook": "None", "youtube": "None", "website": "None", "summary": "None", "logo": "None", "latitude": 45.68927100000006, "longitude": -62.07345349999993}, "851146506RR0001": {"name": "Ponoka and District Health Foundation", "designationCode": "A", "categoryCode": "13", "address": "5800-57 AVENUE", "city": "PONOKA", "province": "AB", "country": "CA", "postalCode": "T4J1P1", "twitter": "None", "instagram": "None", "facebook": "None", "youtube": "None", "website": "None", "summary": "None", "logo": "None", "latitude": 52.683358207226796, "longitude": -113.58964770722679}, "812636025RR0001": {"name": "Ponoka Agriculture Events Centre Society", "designationCode": "C", "categoryCode": "56", "address": "PO BOX 4698", "city": "PONOKA", "province": "AB", "country": "CA", "postalCode": "T4J1S4", "twitter": "None", "instagram": "None", "facebook": "None", "youtube": "None", "website": "None", "summary": "None", "logo": "None", "latitude": 52.67526900000006, "longitude": -113.58076399999993}, "802033365RR0001": {"name": "Ponoka Stampede Youth Foundation", "designationCode": "C", "categoryCode": "21", "address": "PO BOX 4336 STN MAIN", "city": "PONOKA", "province": "AB", "country": "CA", "postalCode": "T4J1R7", "twitter": "None", "instagram": "None", "facebook": "None", "youtube": "None", "website": "None", "summary": "None", "logo": "None", "latitude": 52.67526900000006, "longitude": -113.58076399999993}, "802629188RR0001": {"name": "Ponteix Charitable Trust", "designationCode": "B", "categoryCode": "45", "address": "50 1ST AVE NE", "city": "SWIFT CURRENT", "province": "SK", "country": "CA", "postalCode": "S9H4W4", "twitter": "None", "instagram": "None", "facebook": "None", "youtube": "None", "website": "None", "summary": "None", "logo": "None", "latitude": 50.282664378132, "longitude": -107.79863205289816}, "854319456RR0001": {"name": "Pony Pals Therapeutic Riding Association", "designationCode": "C", "categoryCode": "56", "address": "3885 - 96 STREET", "city": "DELTA", "province": "BC", "country": "CA", "postalCode": "V4K3N3", "twitter": "None", "instagram": "None", "facebook": "None", "youtube": "None", "website": "None", "summary": "None", "logo": "None", "latitude": 49.07301695422197, "longitude": -122.95717523840925}, "848632576RR0001": {"name": "Pop Ministries", "designationCode": "C", "categoryCode": "49", "address": "148 ROCKY RIDGE ROAD          RURAL ROUTE 2", "city": "BARRY'S BAY", "province": "ON", "country": "CA", "postalCode": "K0J1B0", "twitter": "None", "instagram": "None", "facebook": "None", "youtube": "None", "website": "None", "summary": "None", "logo": "None", "latitude": 45.40592336335391, "longitude": -77.57748713624393}, "844090779RR0001": {"name": "Pope Cyril VI Coptic Orthodox Church", "designationCode": "C", "categoryCode": "39", "address": "388 OTTAWA STREET SOUTH,", "city": "KITCHENER", "province": "ON", "country": "CA", "postalCode": "N2M3P4", "twitter": "None", "instagram": "None", "facebook": "None", "youtube": "None", "website": "None", "summary": "None", "logo": "None", "latitude": 43.4329240752207, "longitude": -80.4790961367358}, "809549645RR0001": {"name": "Pope Road Gospel Hall Inc.", "designationCode": "C", "categoryCode": "39", "address": "1795 ROUTE 11 LINKLETTER ROAD", "city": "SUMMERSIDE", "province": "PE", "country": "CA", "postalCode": "C1N4J8", "twitter": "None", "instagram": "None", "facebook": "None", "youtube": "None", "website": "None", "summary": "None", "logo": "None", "latitude": 46.40516582041673, "longitude": -63.84348792117262}, "842149411RR0001": {"name": "Popescu Foundation", "designationCode": "A", "categoryCode": "03", "address": "3100 - 1021 HASTINGS ST W", "city": "VANCOUVER", "province": "BC", "country": "CA", "postalCode": "V6E0C3", "twitter": "None", "instagram": "None", "facebook": "None", "youtube": "None", "website": "None", "summary": "None", "logo": "None", "latitude": 49.28734898309179, "longitude": -123.1177059128341}, "847698370RR0001": {"name": "Popote roulante Rive-Nord", "designationCode": "C", "categoryCode": "09", "address": "103 - 301 BOUL J.-A.-PARE", "city": "REPENTIGNY", "province": "QC", "country": "CA", "postalCode": "J5Z5E3", "twitter": "None", "instagram": "None", "facebook": "None", "youtube": "None", "website": "None", "summary": "None", "logo": "None", "latitude": 45.76801629193865, "longitude": -73.477795517254}, "790988091RR0001": {"name": "Popping Bubbles", "designationCode": "C", "categoryCode": "09", "address": "1 GREEN VALLEY ROAD", "city": "TORONTO", "province": "ON", "country": "CA", "postalCode": "M2P1A4", "twitter": "None", "instagram": "None", "facebook": "None", "youtube": "None", "website": "None", "summary": "None", "logo": "None", "latitude": 43.74035648124546, "longitude": -79.39377242671256}, "119288918RR1284": {"name": "Porcupine Plain Congregation of Jehovah's Witnesses, Porcupine Plain, Saskatchewan", "designationCode": "C", "categoryCode": "61", "address": "PO BOX 711", "city": "PORCUPINE PLAIN", "province": "SK", "country": "CA", "postalCode": "S0E1H0", "twitter": "None", "instagram": "None", "facebook": "None", "youtube": "None", "website": "None", "summary": "None", "logo": "None", "latitude": 52.40432854035895, "longitude": -102.16241062311786}, "801028390RR0001": {"name": "Porcupine Plain Mennonite Church Inc", "designationCode": "C", "categoryCode": "34", "address": "SOUTH WEST 14 44 10 W2        BOX 256", "city": "PORCUPINE PLAIN", "province": "SK", "country": "CA", "postalCode": "S0E1H0", "twitter": "None", "instagram": "None", "facebook": "None", "youtube": "None", "website": "None", "summary": "None", "logo": "None", "latitude": 52.59805800000005, "longitude": -103.25433049999994}, "838893402RR0001": {"name": "Porcupine United Church", "designationCode": "C", "categoryCode": "44", "address": "122 QUEEN ST", "city": "PORCUPINE", "province": "ON", "country": "CA", "postalCode": "P0N1C0", "twitter": "None", "instagram": "None", "facebook": "None", "youtube": "None", "website": "None", "summary": "None", "logo": "None", "latitude": 48.49509220098325, "longitude": -81.17094926604317}, "803435395RR0001": {"name": "Porpoise.org Porpoise Conservation Society", "designationCode": "C", "categoryCode": "54", "address": "1206-5051 LOUGHEED HIGHWAY", "city": "BURNABY", "province": "BC", "country": "CA", "postalCode": "V5B4T5", "twitter": "None", "instagram": "None", "facebook": "None", "youtube": "None", "website": "None", "summary": "None", "logo": "None", "latitude": 49.26544647157924, "longitude": -122.99091338773155}, "818704918RR0001": {"name": "Port of Hope Congregation Church of God in Christ Mennonite", "designationCode": "C", "categoryCode": "34", "address": "9039 CULLODEN ROAD", "city": "EDEN", "province": "ON", "country": "CA", "postalCode": "N0J1H0", "twitter": "None", "instagram": "None", "facebook": "None", "youtube": "None", "website": "None", "summary": "None", "logo": "None", "latitude": 42.76799390552188, "longitude": -80.83176437586303}, "845484559RR0001": {"name": "Port Alberni ACL Foundation", "designationCode": "A", "categoryCode": "13", "address": "3008 2ND AVE", "city": "PORT ALBERNI", "province": "BC", "country": "CA", "postalCode": "V9Y1Y9", "twitter": "None", "instagram": "None", "facebook": "None", "youtube": "None", "website": "None", "summary": "None", "logo": "None", "latitude": 49.23353332078357, "longitude": -124.8091592858145}, "893651240RR0002": {"name": "Port Bickerton & Area Planning Association", "designationCode": "C", "categoryCode": "52", "address": "PO BOX 142", "city": "BICKERTON WEST", "province": "NS", "country": "CA", "postalCode": "B0J1A0", "twitter": "None", "instagram": "None", "facebook": "None", "youtube": "None", "website": "None", "summary": "None", "logo": "None", "latitude": 45.104910000000075, "longitude": -61.73281999999995}, "107852808RR0001": {"name": "Port Bolster Baptist Church", "designationCode": "C", "categoryCode": "31", "address": "2145C CONCESSION 14", "city": "CANNINGTON", "province": "ON", "country": "CA", "postalCode": "L0E1E0", "twitter": "None", "instagram": "None", "facebook": "None", "youtube": "None", "website": "None", "summary": "None", "logo": "None", "latitude": 44.37691025867772, "longitude": -79.0395131203252}, "858778012RR0001": {"name": "Port Carling Lions Foundation", "designationCode": "C", "categoryCode": "09", "address": "1095 SHENNAMERE ROAD UNIT #9  RR #1", "city": "PORT CARLING", "province": "ON", "country": "CA", "postalCode": "P0B1J0", "twitter": "None", "instagram": "None", "facebook": "None", "youtube": "None", "website": "None", "summary": "None", "logo": "None", "latitude": 45.11333839149015, "longitude": -79.54145028980236}, "840686604RR0001": {"name": "Port Colborne Feline Initiative", "designationCode": "C", "categoryCode": "54", "address": "P.O. BOX 132", "city": "PORT COLBORNE", "province": "ON", "country": "CA", "postalCode": "L3K5V8", "twitter": "None", "instagram": "None", "facebook": "None", "youtube": "None", "website": "None", "summary": "None", "logo": "None"}, "846775088RR0001": {"name": "Port Coquitlam Community Foundation", "designationCode": "A", "categoryCode": "03", "address": "2580 SHAUGHNESSY STREET", "city": "PORT COQUITLAM", "province": "BC", "country": "CA", "postalCode": "V3C2A8", "twitter": "None", "instagram": "None", "facebook": "None", "youtube": "None", "website": "None", "summary": "None", "logo": "None", "latitude": 49.26246495889109, "longitude": -122.78140767583766}, "802739052RR0001": {"name": "Port Dover and Area Life Line Food Bank", "designationCode": "C", "categoryCode": "09", "address": "P.O.BOX 784", "city": "PORT DOVER", "province": "ON", "country": "CA", "postalCode": "N0A1N0", "twitter": "None", "instagram": "None", "facebook": "None", "youtube": "None", "website": "None", "summary": "None", "logo": "None", "latitude": 42.78459300000006, "longitude": -80.20790899999993}, "803605351RR0001": {"name": "Port Dover Lions Club Charitable Foundation", "designationCode": "A", "categoryCode": "03", "address": "320 ST. PATRICK ST,           P O BOX 1328", "city": "PORT DOVER", "province": "ON", "country": "CA", "postalCode": "N0A1N0", "twitter": "None", "instagram": "None", "facebook": "None", "youtube": "None", "website": "None", "summary": "None", "logo": "None", "latitude": 42.79103348872444, "longitude": -80.2052875259516}, "814684437RR0001": {"name": "Port Dover St. George Street Community Health Centre Inc.", "designationCode": "C", "categoryCode": "11", "address": "18 EMILY STREET               PO BOX 1359", "city": "PORT DOVER", "province": "ON", "country": "CA", "postalCode": "N0A1N3", "twitter": "None", "instagram": "None", "facebook": "None", "youtube": "None", "website": "None", "summary": "None", "logo": "None", "latitude": 42.79658182070517, "longitude": -80.19402239491626}, "119096741RR0001": {"name": "Port Hardy Congregation of Jehovah's Witnesses", "designationCode": "C", "categoryCode": "61", "address": "PO BOX 621", "city": "PORT HARDY", "province": "BC", "country": "CA", "postalCode": "V0N2P0", "twitter": "None", "instagram": "None", "facebook": "None", "youtube": "None", "website": "None", "summary": "None", "logo": "None", "latitude": 50.72153001889881, "longitude": -127.5011199316182}, "119288918RR0363": {"name": "Port Hawkesbury Congregation of Jehovah's Witnesses, Port Hawkesbury, Nova Scotia", "designationCode": "C", "categoryCode": "61", "address": "PO BOX 6989 STN MAIN", "city": "PORT HAWKESBURY", "province": "NS", "country": "CA", "postalCode": "B9A3S4", "twitter": "None", "instagram": "None", "facebook": "None", "youtube": "None", "website": "None", "summary": "None", "logo": "None", "latitude": 45.61601100000006, "longitude": -61.355122999999935}, "119096840RR0001": {"name": "Port Hope & District Agricultural Society", "designationCode": "C", "categoryCode": "52", "address": "PO BOX 283", "city": "PORT HOPE", "province": "ON", "country": "CA", "postalCode": "L1A3W4", "twitter": "None", "instagram": "None", "facebook": "None", "youtube": "None", "website": "None", "summary": "None", "logo": "None", "latitude": 43.95010200000006, "longitude": -78.29160199999993}, "852859198RR0001": {"name": "Port Hope Community Health Centre", "designationCode": "C", "categoryCode": "11", "address": "99 TORONTO ROAD", "city": "PORT HOPE", "province": "ON", "country": "CA", "postalCode": "L1A3S4", "twitter": "None", "instagram": "None", "facebook": "None", "youtube": "None", "website": "None", "summary": "None", "logo": "None", "latitude": 43.956111288389295, "longitude": -78.3167154158925}, "823089024RR0001": {"name": "Port Joli Community Association", "designationCode": "C", "categoryCode": "56", "address": "10032 HIGHWAY 103             R.R.#1", "city": "PORT JOLI", "province": "NS", "country": "CA", "postalCode": "B0T1S0", "twitter": "None", "instagram": "None", "facebook": "None", "youtube": "None", "website": "None", "summary": "None", "logo": "None", "latitude": 43.89385398948336, "longitude": -64.89839984635242}, "851449082RR0001": {"name": "Port McNeill Marine Rescue Society", "designationCode": "C", "categoryCode": "59", "address": "POST OFFICE BOX 970", "city": "PORT MCNEILL", "province": "BC", "country": "CA", "postalCode": "V0N2R0", "twitter": "None", "instagram": "None", "facebook": "None", "youtube": "None", "website": "None", "summary": "None", "logo": "None", "latitude": 50.58438000000007, "longitude": -127.08205999999996}, "843989435RR0001": {"name": "Port Moody Fire Fighters' Charitable Society", "designationCode": "C", "categoryCode": "59", "address": "SUITE #402-130 BREW STREET", "city": "PORT MOODY", "province": "BC", "country": "CA", "postalCode": "V3H0E3", "twitter": "None", "instagram": "None", "facebook": "None", "youtube": "None", "website": "None", "summary": "None", "logo": "None", "latitude": 49.280036142623445, "longitude": -122.82847834252046}, "863278248RR0001": {"name": "Port Moody Korean Presbyterian Church", "designationCode": "C", "categoryCode": "39", "address": "2208 ST. JOHN'S STREET", "city": "PORT MOODY", "province": "BC", "country": "CA", "postalCode": "V3H2A7", "twitter": "None", "instagram": "None", "facebook": "None", "youtube": "None", "website": "None", "summary": "None", "logo": "None"}, "843927773RR0001": {"name": "Port Stanley Cat Rescue", "designationCode": "C", "categoryCode": "54", "address": "14-375 EDITH CAVELL BOULEVARD", "city": "PORT STANLEY", "province": "ON", "country": "CA", "postalCode": "N5L1J9", "twitter": "None", "instagram": "None", "facebook": "None", "youtube": "None", "website": "None", "summary": "None", "logo": "None", "latitude": 42.66258682546059, "longitude": -81.22785727356205}, "831346200RR0001": {"name": "Portage Breath of Life Church Inc.", "designationCode": "C", "categoryCode": "39", "address": "10 JACK CAVERS PLACE", "city": "PORTAGE LA PRAIRIE", "province": "MB", "country": "CA", "postalCode": "R1N3W9", "twitter": "None", "instagram": "None", "facebook": "None", "youtube": "None", "website": "None", "summary": "None", "logo": "None", "latitude": 49.953125430551076, "longitude": -98.28362926330976}, "119288918RR1496": {"name": "Portage Tagalog Congregation of Jehovah's Witnesses, Winnipeg, Manitoba", "designationCode": "C", "categoryCode": "61", "address": "1060 WOLEVER AVENUE", "city": "WINNIPEG", "province": "MB", "country": "CA", "postalCode": "R3G3N6", "twitter": "None", "instagram": "None", "facebook": "None", "youtube": "None", "website": "None", "summary": "None", "logo": "None", "latitude": 49.88683655727421, "longitude": -97.17702180544174}, "122482169RR0001": {"name": "Portage Ukrainian Nursery School Inc.", "designationCode": "C", "categoryCode": "20", "address": "15 TUPPERS ST S", "city": "PORTAGE LA PRAIRIE", "province": "MB", "country": "CA", "postalCode": "R1N1W7", "twitter": "None", "instagram": "None", "facebook": "None", "youtube": "None", "website": "None", "summary": "None", "logo": "None", "latitude": 49.97265344358996, "longitude": -98.29134242257821}, "831993860RR0001": {"name": "Portail VIH/SIDA du Qu\u00e9bec inc./Qu\u00e9bec HIV/AIDS Portal Inc.", "designationCode": "C", "categoryCode": "11", "address": "501 - 2000 RUE NOTRE-DAME E", "city": "MONTREAL", "province": "QC", "country": "CA", "postalCode": "H2K2N3", "twitter": "None", "instagram": "None", "facebook": "None", "youtube": "None", "website": "None", "summary": "None", "logo": "None", "latitude": 45.531120464521386, "longitude": -73.54344552812708}, "877234377RR0001": {"name": "Porte Ouverte au Passant", "designationCode": "C", "categoryCode": "09", "address": "437-B, RUE STE-ANNE", "city": "CHICOUTIMI", "province": "QC", "country": "CA", "postalCode": "G7H5B7", "twitter": "None", "instagram": "None", "facebook": "None", "youtube": "None", "website": "None", "summary": "None", "logo": "None", "latitude": 48.42479503995171, "longitude": -71.06883977041527}, "119212850RR0001": {"name": "Porticus North America Foundation Canada", "designationCode": "B", "categoryCode": "23", "address": "1267 CORNWALL ROAD SUITE 200", "city": "OAKVILLE", "province": "ON", "country": "CA", "postalCode": "L6J7T5", "twitter": "None", "instagram": "None", "facebook": "None", "youtube": "None", "website": "None", "summary": "None", "logo": "None", "latitude": 43.47179593340631, "longitude": -79.66655258064505}, "768446528RR0001": {"name": "Portraits of Honour Foundation / Fondation Portraits d'Honneur", "designationCode": "C", "categoryCode": "21", "address": "1920 ROGERS DRIVE", "city": "CAMBRIDGE", "province": "ON", "country": "CA", "postalCode": "N3H5C6", "twitter": "None", "instagram": "None", "facebook": "None", "youtube": "None", "website": "None", "summary": "None", "logo": "None", "latitude": 43.40931021178363, "longitude": -80.36057454322192}, "119288918RR1525": {"name": "Portuguese Circuit of Jehovah's Witnesses", "designationCode": "C", "categoryCode": "61", "address": "7076 4TH LINE", "city": "TOTTENHAM", "province": "ON", "country": "CA", "postalCode": "L0G1W0", "twitter": "None", "instagram": "None", "facebook": "None", "youtube": "None", "website": "None", "summary": "None", "logo": "None", "latitude": 44.016965375713006, "longitude": -79.83061294207131}, "756048492RR0001": {"name": "Posey Children's Foundation Corp.", "designationCode": "B", "categoryCode": "03", "address": "312 - 9768 170 ST NW", "city": "EDMONTON", "province": "AB", "country": "CA", "postalCode": "T5T5L4", "twitter": "None", "instagram": "None", "facebook": "None", "youtube": "None", "website": "None", "summary": "None", "logo": "None", "latitude": 53.51079052496976, "longitude": -113.61638027247278}, "743930893RR0001": {"name": "Positive and Progressive Educational Support Canada", "designationCode": "C", "categoryCode": "21", "address": "90 WINGES ROAD                SUITE 204 A", "city": "VAUGHAN", "province": "ON", "country": "CA", "postalCode": "L4L6A9", "twitter": "None", "instagram": "None", "facebook": "None", "youtube": "None", "website": "None", "summary": "None", "logo": "None", "latitude": 43.78708908580958, "longitude": -79.55249977159663}, "803139450RR0001": {"name": "Positive Action for the Keppoch Society", "designationCode": "C", "categoryCode": "56", "address": "PO BOX 1148", "city": "ANTIGONISH", "province": "NS", "country": "CA", "postalCode": "B2G2R6", "twitter": "None", "instagram": "None", "facebook": "None", "youtube": "None", "website": "None", "summary": "None", "logo": "None", "latitude": 45.62219400000005, "longitude": -61.99427149999994}, "840061527RR0001": {"name": "Positive Living Fraser Valley Society", "designationCode": "C", "categoryCode": "11", "address": "BOX 2183                      STN A", "city": "ABBOTSFORD", "province": "BC", "country": "CA", "postalCode": "V2T3X8", "twitter": "None", "instagram": "None", "facebook": "None", "youtube": "None", "website": "None", "summary": "None", "logo": "None", "latitude": 49.05161700000005, "longitude": -122.32930399999994}, "132660424RR0001": {"name": "Positive Living Niagara", "designationCode": "C", "categoryCode": "09", "address": "120 QUEENSTON STREET", "city": "ST CATHARINES", "province": "ON", "country": "CA", "postalCode": "L2R2Z3", "twitter": "None", "instagram": "None", "facebook": "None", "youtube": "None", "website": "None", "summary": "None", "logo": "None", "latitude": 43.16341654284747, "longitude": -79.23263385804138}, "119282085RR0001": {"name": "Positive Living Society of British Columbia", "designationCode": "C", "categoryCode": "11", "address": "1101 SEYMOUR ST", "city": "VANCOUVER", "province": "BC", "country": "CA", "postalCode": "V6B0R1", "twitter": "None", "instagram": "None", "facebook": "None", "youtube": "None", "website": "None", "summary": "None", "logo": "None", "latitude": 49.27759612210218, "longitude": -123.12373406611005}, "830759973RR0001": {"name": "Positive Movement Centre Canada", "designationCode": "C", "categoryCode": "11", "address": "PO BOX 67091 RPO MEADOWLARK", "city": "EDMONTON", "province": "AB", "country": "CA", "postalCode": "T5R5Y3", "twitter": "None", "instagram": "None", "facebook": "None", "youtube": "None", "website": "None", "summary": "None", "logo": "None", "latitude": 53.52145406559799, "longitude": -113.5958369896544}, "843650268RR0001": {"name": "Possess The Land", "designationCode": "C", "categoryCode": "43", "address": "255 TARTAN DR", "city": "NEPEAN", "province": "ON", "country": "CA", "postalCode": "K2J3T1", "twitter": "None", "instagram": "None", "facebook": "None", "youtube": "None", "website": "None", "summary": "None", "logo": "None", "latitude": 45.26178542431797, "longitude": -75.76587134952996}, "814686630RR0001": {"name": "Possibilities House for Children Inc.", "designationCode": "C", "categoryCode": "01", "address": "6550 BALDWIN STREET NORTH,", "city": "WHITBY", "province": "ON", "country": "CA", "postalCode": "L9L1J8", "twitter": "None", "instagram": "None", "facebook": "None", "youtube": "None", "website": "None", "summary": "None", "logo": "None", "latitude": 43.96528731391698, "longitude": -78.9580163676546}, "834427163RR0001": {"name": "Possibility Chapel Ministries", "designationCode": "C", "categoryCode": "39", "address": "182 WESTMORE DRIVE", "city": "ETOBICOKE", "province": "ON", "country": "CA", "postalCode": "M9V4R4", "twitter": "None", "instagram": "None", "facebook": "None", "youtube": "None", "website": "None", "summary": "None", "logo": "None", "latitude": 43.73261053926945, "longitude": -79.60016285472317}, "830301099RR0001": {"name": "Possible Worlds Foundation Inc.", "designationCode": "C", "categoryCode": "09", "address": "PO BOX 75375                  1015 LAKESHORE BLVD. EAST", "city": "TORONTO", "province": "ON", "country": "CA", "postalCode": "M4M1B3", "twitter": "None", "instagram": "None", "facebook": "None", "youtube": "None", "website": "None", "summary": "None", "logo": "None", "latitude": 43.658268676351966, "longitude": -79.33012883317}, "838548451RR0001": {"name": "PossAbility Community Homes", "designationCode": "C", "categoryCode": "09", "address": "539A GREY DUCK DRIVE", "city": "DESBARATS", "province": "ON", "country": "CA", "postalCode": "P0R1E0", "twitter": "None", "instagram": "None", "facebook": "None", "youtube": "None", "website": "None", "summary": "None", "logo": "None", "latitude": 46.41566972722315, "longitude": -83.91326141560224}, "806494142RR0001": {"name": "Post Traumatic Stress Disorder Association", "designationCode": "C", "categoryCode": "11", "address": "93 DUFFERIN AVENUE", "city": "LONDON", "province": "ON", "country": "CA", "postalCode": "N6A1K3", "twitter": "None", "instagram": "None", "facebook": "None", "youtube": "None", "website": "None", "summary": "None", "logo": "None", "latitude": 42.98579509740903, "longitude": -81.25406494517864}, "805497005RR0001": {"name": "Postmedia Network Foundation", "designationCode": "B", "categoryCode": "03", "address": "300 CARLTON ST 6TH FLOOR", "city": "WINNIPEG", "province": "MB", "country": "CA", "postalCode": "R3B2K6", "twitter": "None", "instagram": "None", "facebook": "None", "youtube": "None", "website": "None", "summary": "None", "logo": "None", "latitude": 49.8938380732588, "longitude": -97.146525855877}, "728263120RR0001": {"name": "Potter House Church", "designationCode": "C", "categoryCode": "39", "address": "POST OFFICE BOX 2231", "city": "HOPE", "province": "BC", "country": "CA", "postalCode": "V0X1L0", "twitter": "None", "instagram": "None", "facebook": "None", "youtube": "None", "website": "None", "summary": "None", "logo": "None", "latitude": 49.37911800000006, "longitude": -121.44296149999994}, "896431921RR0001": {"name": "Pouce Coupe Municipal Library", "designationCode": "C", "categoryCode": "50", "address": "5010 - 52 AVENUE              P.O. BOX 75", "city": "POUCE COUPE", "province": "BC", "country": "CA", "postalCode": "V0C2C0", "twitter": "None", "instagram": "None", "facebook": "None", "youtube": "None", "website": "None", "summary": "None", "logo": "None", "latitude": 55.71789493382601, "longitude": -120.13297819228804}, "844300483RR0001": {"name": "Poul & Susan Hansen Family Foundation", "designationCode": "B", "categoryCode": "03", "address": "36-111 ZENWAY BLVD", "city": "WOODBRIDGE", "province": "ON", "country": "CA", "postalCode": "L4H3H9", "twitter": "None", "instagram": "None", "facebook": "None", "youtube": "None", "website": "None", "summary": "None", "logo": "None", "latitude": 43.77677153952927, "longitude": -79.62732138328816}, "814872230RR0001": {"name": "Pound Dog Rescue - Ontario", "designationCode": "C", "categoryCode": "54", "address": "807257 CLARK ROAD             P O BOX 261", "city": "DRUMBO", "province": "ON", "country": "CA", "postalCode": "N0J1G0", "twitter": "None", "instagram": "None", "facebook": "None", "youtube": "None", "website": "None", "summary": "None", "logo": "None", "latitude": 43.240699318367916, "longitude": -80.52883739523338}, "755676327RR0001": {"name": "Pour un demain meilleur", "designationCode": "C", "categoryCode": "09", "address": "7584 RUE FRANCOIS-CHARTRAND", "city": "LAVAL", "province": "QC", "country": "CA", "postalCode": "H7A3Z9", "twitter": "None", "instagram": "None", "facebook": "None", "youtube": "None", "website": "None", "summary": "None", "logo": "None", "latitude": 45.65409874242607, "longitude": -73.59974226865377}, "838635688RR0001": {"name": "Pour 3 points / Aim for 3", "designationCode": "C", "categoryCode": "21", "address": "372 RUE SAINTE-CATHERINE O    BUREAU 527", "city": "MONTREAL", "province": "QC", "country": "CA", "postalCode": "H3B1A2", "twitter": "None", "instagram": "None", "facebook": "None", "youtube": "None", "website": "None", "summary": "None", "logo": "None", "latitude": 45.505710294189015, "longitude": -73.56737639950389}, "803982073RR0001": {"name": "Povnet Society", "designationCode": "C", "categoryCode": "59", "address": "300-1140 PENDER STREET WEST", "city": "VANCOUVER", "province": "BC", "country": "CA", "postalCode": "V6E4G1", "twitter": "None", "instagram": "None", "facebook": "None", "youtube": "None", "website": "None", "summary": "None", "logo": "None", "latitude": 49.28823328847204, "longitude": -123.12287800965208}, "107854614RR0001": {"name": "Powassan and District Union Public Library", "designationCode": "C", "categoryCode": "50", "address": "324 CLARK STREET              POST OFFICE BOX 160", "city": "POWASSAN", "province": "ON", "country": "CA", "postalCode": "P0H1Z0", "twitter": "None", "instagram": "None", "facebook": "None", "youtube": "None", "website": "None", "summary": "None", "logo": "None", "latitude": 46.081770044693805, "longitude": -79.36482986669705}, "119246635RR0084": {"name": "Powell River Branch, Vancouver Island Division, Navy League of Canada", "designationCode": "C", "categoryCode": "29", "address": "P.O. BOX 430", "city": "POWELL RIVER", "province": "BC", "country": "CA", "postalCode": "V8A5C2", "twitter": "None", "instagram": "None", "facebook": "None", "youtube": "None", "website": "None", "summary": "None", "logo": "None", "latitude": 49.835904000000056, "longitude": -124.52381449999993}, "848477089RR0001": {"name": "Powell River Diversity Initiative Society", "designationCode": "C", "categoryCode": "59", "address": "103-4511 MARINE AVENUE", "city": "POWELL RIVER", "province": "BC", "country": "CA", "postalCode": "V8A2K5", "twitter": "None", "instagram": "None", "facebook": "None", "youtube": "None", "website": "None", "summary": "None", "logo": "None", "latitude": 49.838004126002666, "longitude": -124.5277688704193}}