{"124415688RR0002": {"name": "THE CANADIAN TULIP FESTIVAL INC./LE FESTIVAL CANADIEN DES TULIPES INC.", "designationCode": "C", "categoryCode": "56", "address": "203-1525 PRINCESS PATRICIA WAYTHE HORTICULTURE BUILDING", "city": "LANSDWONE PARK OTTAWA", "province": "ON", "country": "CA", "postalCode": "K1S5J3", "twitter": "None", "instagram": "None", "facebook": "None", "youtube": "None", "website": "None", "summary": "None", "logo": "None", "latitude": 45.39986700000006, "longitude": -75.68506699999993}, "137768297RR0001": {"name": "THE CANADIAN TURKISH ISLAMIC TRUST INC.", "designationCode": "C", "categoryCode": "49", "address": "336 PAPE AVENUE", "city": "TORONTO", "province": "ON", "country": "CA", "postalCode": "M4M2W7", "twitter": "None", "instagram": "None", "facebook": "None", "youtube": "None", "website": "None", "summary": "None", "logo": "None", "latitude": 43.66768498972824, "longitude": -79.34022445158394}, "129804373RR0001": {"name": "THE CANADIAN VOICE CARE FOUNDATION", "designationCode": "C", "categoryCode": "11", "address": "2828 TORONTO CRESCENT NW", "city": "CALGARY", "province": "AB", "country": "CA", "postalCode": "T2N3W2", "twitter": "None", "instagram": "None", "facebook": "None", "youtube": "None", "website": "None", "summary": "None", "logo": "None", "latitude": 51.06124722344037, "longitude": -114.12795562877264}, "886386689RR0001": {"name": "THE CANADIAN WESLEYAN MISSIONS BOARD", "designationCode": "C", "categoryCode": "49", "address": "3545 COUNTY RD 27             RR#2", "city": "LYN", "province": "ON", "country": "CA", "postalCode": "K0E1M0", "twitter": "None", "instagram": "None", "facebook": "None", "youtube": "None", "website": "None", "summary": "None", "logo": "None", "latitude": 44.42297100000006, "longitude": -75.88780099999994}, "891704322RR0001": {"name": "THE CANADIAN WOMEN'S ARMY CORP VETERANS MEMORIAL FUND ASSOCIATION", "designationCode": "C", "categoryCode": "59", "address": "372 ERB STREET.W.", "city": "WATERLOO", "province": "ON", "country": "CA", "postalCode": "N2L1W6", "twitter": "None", "instagram": "None", "facebook": "None", "youtube": "None", "website": "None", "summary": "None", "logo": "None", "latitude": 43.45425664060229, "longitude": -80.54849195380564}, "890041171RR0001": {"name": "THE CANADIAN WORLD PARROT TRUST", "designationCode": "C", "categoryCode": "54", "address": "4377 GORDON DRIVE", "city": "KELOWNA", "province": "BC", "country": "CA", "postalCode": "V1W1S7", "twitter": "None", "instagram": "None", "facebook": "None", "youtube": "None", "website": "None", "summary": "None", "logo": "None", "latitude": 49.82501669608749, "longitude": -119.48317888487561}, "108075748RR0001": {"name": "THE CANADIAN ZIONIST CULTURAL ASSOCIATION", "designationCode": "C", "categoryCode": "22", "address": "201-788 MARLEE AVE", "city": "TORONTO", "province": "ON", "country": "CA", "postalCode": "M6B3K1", "twitter": "None", "instagram": "None", "facebook": "None", "youtube": "None", "website": "None", "summary": "None", "logo": "None", "latitude": 43.71502855231121, "longitude": -79.44629568959527}, "855617643RR0001": {"name": "THE CANADIAN-POLISH FOUNDATION FOR ENVIRONMENTAL PROTECTION AND DEVELOPMENT IN RURAL AREAS", "designationCode": "B", "categoryCode": "23", "address": "6 TERRACE LANE", "city": "GUELPH", "province": "ON", "country": "CA", "postalCode": "N1G2Y3", "twitter": "None", "instagram": "None", "facebook": "None", "youtube": "None", "website": "None", "summary": "None", "logo": "None", "latitude": 43.5360875229095, "longitude": -80.23784583484344}, "888302262RR0001": {"name": "THE CANADIANA COSTUME SOCIETY OF BRITISH COLUMBIA AND WESTERN CANADA, GREATER VANCOUVER THREAD", "designationCode": "C", "categoryCode": "21", "address": "6501 DEER LAKE AVENUE", "city": "BURNABY", "province": "BC", "country": "CA", "postalCode": "V5G3T6", "twitter": "None", "instagram": "None", "facebook": "None", "youtube": "None", "website": "None", "summary": "None", "logo": "None", "latitude": 49.24045040466602, "longitude": -122.96802652596055}, "867257008RR0001": {"name": "THE CANAVAN FAMILY FOUNDATION", "designationCode": "B", "categoryCode": "03", "address": "9 KINGSWAY CRESCENT", "city": "TORONTO", "province": "ON", "country": "CA", "postalCode": "M8X2P9", "twitter": "None", "instagram": "None", "facebook": "None", "youtube": "None", "website": "None", "summary": "None", "logo": "None", "latitude": 43.65347749930751, "longitude": -79.50476427266449}, "119220168RR0001": {"name": "THE CANDLELIGHTERS ASSOCIATION OF NEWFOUNDLAND AND LABRADOR", "designationCode": "C", "categoryCode": "11", "address": "44 PALM DR", "city": "ST. JOHN'S", "province": "NL", "country": "CA", "postalCode": "A1H1C6", "twitter": "None", "instagram": "None", "facebook": "None", "youtube": "None", "website": "None", "summary": "None", "logo": "None", "latitude": 47.488102461538595, "longitude": -52.815562376623056}, "133583120RR0001": {"name": "THE CANDORA SOCIETY OF EDMONTON", "designationCode": "C", "categoryCode": "09", "address": "262 - 3210 118 AVE NW", "city": "EDMONTON", "province": "AB", "country": "CA", "postalCode": "T5W4W1", "twitter": "None", "instagram": "None", "facebook": "None", "youtube": "None", "website": "None", "summary": "None", "logo": "None", "latitude": 53.57043899999999, "longitude": -113.39050007210844}, "134023852RR0001": {"name": "THE CANLEARN SOCIETY FOR PERSONS WITH LEARNING DIFFICULTIES", "designationCode": "C", "categoryCode": "20", "address": "100 - 1117 MACLEOD TRAIL SE", "city": "CALGARY", "province": "AB", "country": "CA", "postalCode": "T2G2M8", "twitter": "None", "instagram": "None", "facebook": "None", "youtube": "None", "website": "None", "summary": "None", "logo": "None", "latitude": 51.04165679156327, "longitude": -114.05844445158394}, "892255043RR0001": {"name": "THE CANNING DISTRICT VOLUNTEER FIRE DEPARTMENT", "designationCode": "C", "categoryCode": "59", "address": "P. O. BOX 357", "city": "CANNING", "province": "NS", "country": "CA", "postalCode": "B0P1H0", "twitter": "None", "instagram": "None", "facebook": "None", "youtube": "None", "website": "None", "summary": "None", "logo": "None", "latitude": 45.15015000000005, "longitude": -64.41545999999994}, "860241132RR0001": {"name": "THE CAPE BRETON CHAMBER ORCHESTRA SOCIETY", "designationCode": "C", "categoryCode": "22", "address": "MGM ASSOCIATES                15 DORCHESTER STREET", "city": "SYDNEY", "province": "NS", "country": "CA", "postalCode": "B1P5Y9", "twitter": "None", "instagram": "None", "facebook": "None", "youtube": "None", "website": "None", "summary": "None", "logo": "None", "latitude": 46.14072982988044, "longitude": -60.19616984875055}, "886426816RR0001": {"name": "THE CAPE BRETON KIWANIS FESTIVAL OF MUSIC, SPEECH AND DRAMA", "designationCode": "C", "categoryCode": "22", "address": "P.O.BOX 471", "city": "SYDNEY", "province": "NS", "country": "CA", "postalCode": "B1P6H4", "twitter": "None", "instagram": "None", "facebook": "None", "youtube": "None", "website": "None", "summary": "None", "logo": "None", "latitude": 46.137372000000056, "longitude": -60.19552249999994}, "866658230RR0001": {"name": "THE CAPITAL REGION PROSTATE CENTRE", "designationCode": "C", "categoryCode": "11", "address": "100-1900 RICHMOND AVE", "city": "VICTORIA", "province": "BC", "country": "CA", "postalCode": "V8R4R2", "twitter": "None", "instagram": "None", "facebook": "None", "youtube": "None", "website": "None", "summary": "None", "logo": "None", "latitude": 48.429480066829406, "longitude": -123.33025835589513}, "119220226RR0001": {"name": "THE CAPITOL THEATRE RESTORATION SOCIETY", "designationCode": "C", "categoryCode": "52", "address": "P.O. BOX 403", "city": "NELSON", "province": "BC", "country": "CA", "postalCode": "V1L5R2", "twitter": "None", "instagram": "None", "facebook": "None", "youtube": "None", "website": "None", "summary": "None", "logo": "None", "latitude": 49.49754900000005, "longitude": -117.28882249999992}, "872384870RR0001": {"name": "THE CAPTAIN POULSON CEMETERY COMPANY", "designationCode": "C", "categoryCode": "59", "address": "BOX 5", "city": "CHERHILL", "province": "AB", "country": "CA", "postalCode": "T0E0J0", "twitter": "None", "instagram": "None", "facebook": "None", "youtube": "None", "website": "None", "summary": "None", "logo": "None", "latitude": 53.81935000000004, "longitude": -114.67885999999999}, "890839343RR0001": {"name": "THE CAPUCHIN FOUNDATION", "designationCode": "A", "categoryCode": "43", "address": "2100 JANE ST.", "city": "TORONTO", "province": "ON", "country": "CA", "postalCode": "M3M1A1", "twitter": "None", "instagram": "None", "facebook": "None", "youtube": "None", "website": "None", "summary": "None", "logo": "None", "latitude": 43.719352827081806, "longitude": -79.50827734684597}, "119220242RR0001": {"name": "THE CARDIAC FITNESS ASSOCIATION", "designationCode": "C", "categoryCode": "11", "address": "1010 HOPEWELL ROAD            RR# 2", "city": "BRESLAU", "province": "ON", "country": "CA", "postalCode": "N0B1M0", "twitter": "None", "instagram": "None", "facebook": "None", "youtube": "None", "website": "None", "summary": "None", "logo": "None", "latitude": 43.5100812894285, "longitude": -80.39300386646684}, "118929207RR0001": {"name": "THE CARDUS INSTITUTE", "designationCode": "C", "categoryCode": "21", "address": "185 YOUNG ST", "city": "HAMILTON", "province": "ON", "country": "CA", "postalCode": "L8N1V9", "twitter": "None", "instagram": "None", "facebook": "None", "youtube": "None", "website": "None", "summary": "None", "logo": "None", "latitude": 43.249366004731876, "longitude": -79.86367433873858}, "122659048RR0001": {"name": "THE CAREER FOUNDATION", "designationCode": "C", "categoryCode": "20", "address": "430-700 LAWRENCE AVENUE WEST", "city": "TORONTO", "province": "ON", "country": "CA", "postalCode": "M6A3B4", "twitter": "None", "instagram": "None", "facebook": "None", "youtube": "None", "website": "None", "summary": "None", "logo": "None", "latitude": 43.71565433017757, "longitude": -79.44657382397304}, "126175413RR0001": {"name": "THE CARIBOO FAMILY ENRICHMENT CENTRE SOCIETY", "designationCode": "C", "categoryCode": "09", "address": "BOX 2427", "city": "100 MILE HOUSE", "province": "BC", "country": "CA", "postalCode": "V0K2E0", "twitter": "None", "instagram": "None", "facebook": "None", "youtube": "None", "website": "None", "summary": "None", "logo": "None", "latitude": 51.62931000000003, "longitude": -121.30063999999999}, "130979172RR0001": {"name": "THE CARING AND SHARING EXCHANGE", "designationCode": "C", "categoryCode": "09", "address": "PO BOX 5167, MERIVALE DEPOT", "city": "OTTAWA", "province": "ON", "country": "CA", "postalCode": "K2C3H4", "twitter": "None", "instagram": "None", "facebook": "None", "youtube": "None", "website": "None", "summary": "None", "logo": "None", "latitude": 45.32581000000005, "longitude": -75.72397999999998}, "119220341RR0001": {"name": "THE CARING CUPBOARD", "designationCode": "C", "categoryCode": "09", "address": "P.O. BOX 20025", "city": "ST. THOMAS", "province": "ON", "country": "CA", "postalCode": "N5P4H4", "twitter": "None", "instagram": "None", "facebook": "None", "youtube": "None", "website": "None", "summary": "None", "logo": "None", "latitude": 42.778932000000054, "longitude": -81.19315249999994}, "136554649RR0001": {"name": "THE CARING FOUNDATION", "designationCode": "B", "categoryCode": "05", "address": "33 BLOOR STREET EAST          SUITE 401", "city": "TORONTO", "province": "ON", "country": "CA", "postalCode": "M4W3H1", "twitter": "None", "instagram": "None", "facebook": "None", "youtube": "None", "website": "None", "summary": "None", "logo": "None", "latitude": 43.67044983484344, "longitude": -79.38560442838599}, "133513259RR0001": {"name": "THE CARING PLACE REGINA INC", "designationCode": "C", "categoryCode": "09", "address": "1A 2146 ROBINSON ST", "city": "REGINA", "province": "SK", "country": "CA", "postalCode": "S4T2P7", "twitter": "None", "instagram": "None", "facebook": "None", "youtube": "None", "website": "None", "summary": "None", "logo": "None", "latitude": 50.44466700000001, "longitude": -104.6239951823819}, "873024079RR0001": {"name": "THE CARITAS FOUNDATION", "designationCode": "A", "categoryCode": "13", "address": "1-241 HANLAN RD", "city": "VAUGHAN", "province": "ON", "country": "CA", "postalCode": "L4L3R7", "twitter": "None", "instagram": "None", "facebook": "None", "youtube": "None", "website": "None", "summary": "None", "logo": "None", "latitude": 43.769987804836155, "longitude": -79.55961485079936}, "832011522RR0001": {"name": "THE CARLO ROSSINI MEMORIAL DIABETES FOUNDATION", "designationCode": "C", "categoryCode": "11", "address": "P.O. BOX 20036                45 ST CLAIR ST", "city": "CHATHAM", "province": "ON", "country": "CA", "postalCode": "N7L5K6", "twitter": "None", "instagram": "None", "facebook": "None", "youtube": "None", "website": "None", "summary": "None", "logo": "None", "latitude": 42.4073708088985, "longitude": -82.19034917576674}, "119220374RR0001": {"name": "THE CARMEL CHURCH OF THE NEW JERUSALEM", "designationCode": "C", "categoryCode": "39", "address": "40 CHAPEL HILL DR", "city": "KITCHENER", "province": "ON", "country": "CA", "postalCode": "N2R1N2", "twitter": "None", "instagram": "None", "facebook": "None", "youtube": "None", "website": "None", "summary": "None", "logo": "None", "latitude": 43.38474082878393, "longitude": -80.45272087976838}, "890759574RR0001": {"name": "THE CARMELITE SISTERS AT MARKHAM INCORPORATED", "designationCode": "C", "categoryCode": "46", "address": "PO BOX 220", "city": "ZEPHYR", "province": "ON", "country": "CA", "postalCode": "L0E1T0", "twitter": "None", "instagram": "None", "facebook": "None", "youtube": "None", "website": "None", "summary": "None", "logo": "None", "latitude": 44.19800629731621, "longitude": -79.27837070297906}, "119109288RR0001": {"name": "THE CAROL AND MORTON RAPP FOUNDATION", "designationCode": "B", "categoryCode": "03", "address": "148 YORKVILLE AVENUE          BOX #3", "city": "TORONTO", "province": "ON", "country": "CA", "postalCode": "M5R1C2", "twitter": "None", "instagram": "None", "facebook": "None", "youtube": "None", "website": "None", "summary": "None", "logo": "None", "latitude": 43.670437186796654, "longitude": -79.3945663529055}, "863136321RR0001": {"name": "THE CAROL ANNIBALE OVARIAN CANCER FOUNDATION", "designationCode": "C", "categoryCode": "11", "address": "74 MUZICH PLACE", "city": "WOOBRIDGE", "province": "ON", "country": "CA", "postalCode": "L4L9C5", "twitter": "None", "instagram": "None", "facebook": "None", "youtube": "None", "website": "None", "summary": "None", "logo": "None", "latitude": 43.818673157943216, "longitude": -79.57802809423505}, "890787799RR0001": {"name": "THE CAROLD INSTITUTE L'INSTITUT CAROLD", "designationCode": "B", "categoryCode": "23", "address": "600 - 123 SLATER ST", "city": "OTTAWA", "province": "ON", "country": "CA", "postalCode": "K1P5H2", "twitter": "None", "instagram": "None", "facebook": "None", "youtube": "None", "website": "None", "summary": "None", "logo": "None", "latitude": 45.42071141078527, "longitude": -75.69659091147776}, "846333367RR0001": {"name": "THE CARSON FOUNDATION", "designationCode": "C", "categoryCode": "13", "address": "7 MEADOW BROOK CRT", "city": "BOLTON", "province": "ON", "country": "CA", "postalCode": "L7E2Y6", "twitter": "None", "instagram": "None", "facebook": "None", "youtube": "None", "website": "None", "summary": "None", "logo": "None", "latitude": 43.88994176992319, "longitude": -79.7346400928214}, "888696390RR0001": {"name": "THE CARSTAIRS AND DISTRICT COMMUNITY CHEST", "designationCode": "C", "categoryCode": "03", "address": "BOX 751", "city": "CARSTAIRS", "province": "AB", "country": "CA", "postalCode": "T0M0N0", "twitter": "None", "instagram": "None", "facebook": "None", "youtube": "None", "website": "None", "summary": "None", "logo": "None", "latitude": 51.562880000000064, "longitude": -114.09537999999998}, "119220424RR0001": {"name": "THE CARSTAIRS AND DISTRICT HISTORICAL SOCIETY", "designationCode": "C", "categoryCode": "50", "address": "BOX 1067", "city": "CARSTAIRS", "province": "AB", "country": "CA", "postalCode": "T0M0N0", "twitter": "None", "instagram": "None", "facebook": "None", "youtube": "None", "website": "None", "summary": "None", "logo": "None", "latitude": 51.562880000000064, "longitude": -114.09537999999998}, "890669187RR0001": {"name": "THE CARTWRIGHT AND AREA FOUNDATION INC", "designationCode": "A", "categoryCode": "53", "address": "BOX 9", "city": "CARTWRIGHT", "province": "MB", "country": "CA", "postalCode": "R0K0L0", "twitter": "None", "instagram": "None", "facebook": "None", "youtube": "None", "website": "None", "summary": "None", "logo": "None", "latitude": 49.09414000000004, "longitude": -99.34137999999996}, "837815166RR0001": {"name": "THE CARWELL CHARITABLE FOUNDATION", "designationCode": "B", "categoryCode": "03", "address": "85 ORTONA COURT", "city": "CONCORD", "province": "ON", "country": "CA", "postalCode": "L4K3M3", "twitter": "None", "instagram": "None", "facebook": "None", "youtube": "None", "website": "None", "summary": "None", "logo": "None", "latitude": 43.808791043308815, "longitude": -79.48785760133377}, "872413729RR0001": {"name": "THE CASCADIA SOCIETY FOR SOCIAL WORKING", "designationCode": "C", "categoryCode": "09", "address": "351 19TH ST W", "city": "NORTH VANCOUVER", "province": "BC", "country": "CA", "postalCode": "V7M1X7", "twitter": "None", "instagram": "None", "facebook": "None", "youtube": "None", "website": "None", "summary": "None", "logo": "None", "latitude": 49.32626850678067, "longitude": -123.08083161226844}, "106878804RR0001": {"name": "THE CASTLEGAR AND DISTRICT COMMUNITY SERVICES SOCIETY", "designationCode": "C", "categoryCode": "59", "address": "1007 2ND ST", "city": "CASTLEGAR", "province": "BC", "country": "CA", "postalCode": "V1N1Y4", "twitter": "None", "instagram": "None", "facebook": "None", "youtube": "None", "website": "None", "summary": "None", "logo": "None", "latitude": 49.32750051875457, "longitude": -117.66362007426841}, "119065019RR0001": {"name": "THE CATALINA PRESERVATION SOCIETY", "designationCode": "C", "categoryCode": "59", "address": "7-9800 MCDONALD PARK ROAD", "city": "N. SAANICH", "province": "BC", "country": "CA", "postalCode": "V8L5W5", "twitter": "None", "instagram": "None", "facebook": "None", "youtube": "None", "website": "None", "summary": "None", "logo": "None", "latitude": 48.667040788455274, "longitude": -123.41705619711382}, "106879158RR0001": {"name": "THE CATARAQUI REGION CONSERVATION AUTHORITY", "designationCode": "C", "categoryCode": "52", "address": "PO BOX 160", "city": "GLENBURNIE", "province": "ON", "country": "CA", "postalCode": "K0H1S0", "twitter": "None", "instagram": "None", "facebook": "None", "youtube": "None", "website": "None", "summary": "None", "logo": "None", "latitude": 44.30170000000004, "longitude": -76.46257999999995}, "827250945RR0001": {"name": "THE CATECHESIS OF THE GOOD SHEPHERD ASSOCIATION OF CANADA", "designationCode": "C", "categoryCode": "49", "address": "26 CHARLES STREET", "city": "GEORGETOWN", "province": "ON", "country": "CA", "postalCode": "L7G2Z3", "twitter": "None", "instagram": "None", "facebook": "None", "youtube": "None", "website": "None", "summary": "None", "logo": "None", "latitude": 43.64484934805807, "longitude": -79.92519576253694}, "119176923RR0001": {"name": "THE CATHEDRAL CHURCH OF ST. JAMES", "designationCode": "C", "categoryCode": "30", "address": "65 CHURCH ST", "city": "TORONTO", "province": "ON", "country": "CA", "postalCode": "M5C2E9", "twitter": "None", "instagram": "None", "facebook": "None", "youtube": "None", "website": "None", "summary": "None", "logo": "None", "latitude": 43.65024376464307, "longitude": -79.37446907686548}, "736738527RR0001": {"name": "THE CATHEDRAL OF ST PETER-IN-CHAINS PERPETUAL FUND", "designationCode": "A", "categoryCode": "52", "address": "PO BOX 252", "city": "PETERBOROUGH", "province": "ON", "country": "CA", "postalCode": "K9J6Y8", "twitter": "None", "instagram": "None", "facebook": "None", "youtube": "None", "website": "None", "summary": "None", "logo": "None", "latitude": 44.30591700000005, "longitude": -78.31950199999993}, "119220507RR0001": {"name": "THE CATHEDRAL OF THE HOLY TRINITY", "designationCode": "C", "categoryCode": "30", "address": "31 RUE DES JARDINS", "city": "QUEBEC", "province": "QC", "country": "CA", "postalCode": "G1R4L6", "twitter": "None", "instagram": "None", "facebook": "None", "youtube": "None", "website": "None", "summary": "None", "logo": "None", "latitude": 46.81278795253625, "longitude": -71.20739304893566}, "892896044RR0001": {"name": "THE CATHEDRAL TRUST", "designationCode": "A", "categoryCode": "45", "address": "P.O. BOX 475", "city": "KINGSTON", "province": "ON", "country": "CA", "postalCode": "K7L4W5", "twitter": "None", "instagram": "None", "facebook": "None", "youtube": "None", "website": "None", "summary": "None", "logo": "None", "latitude": 44.23153200000006, "longitude": -76.47933049999993}, "872045364RR0001": {"name": "THE CATHERINE AND FREDRIK EATON CHARITABLE FOUNDATION", "designationCode": "B", "categoryCode": "55", "address": "55 ST CLAIR AVENUE WEST       SUITE 260", "city": "TORONTO", "province": "ON", "country": "CA", "postalCode": "M4V2Y7", "twitter": "None", "instagram": "None", "facebook": "None", "youtube": "None", "website": "None", "summary": "None", "logo": "None", "latitude": 43.68740282763009, "longitude": -79.39690778919734}, "119220515RR0001": {"name": "THE CATHERINE AND MAXWELL MEIGHEN FOUNDATION", "designationCode": "B", "categoryCode": "03", "address": "10 TORONTO ST.", "city": "TORONTO", "province": "ON", "country": "CA", "postalCode": "M5C2B7", "twitter": "None", "instagram": "None", "facebook": "None", "youtube": "None", "website": "None", "summary": "None", "logo": "None", "latitude": 43.65000129946913, "longitude": -79.37616468861431}, "861653624RR0001": {"name": "THE CATHERINE DONNELLY FOUNDATION", "designationCode": "B", "categoryCode": "53", "address": "12 MONTCREST BLVD.", "city": "TORONTO", "province": "ON", "country": "CA", "postalCode": "M4K1J7", "twitter": "None", "instagram": "None", "facebook": "None", "youtube": "None", "website": "None", "summary": "None", "logo": "None", "latitude": 43.67307912129948, "longitude": -79.35693654607878}, "108075904RR0008": {"name": "THE CATHOLIC ARCHDIOCESE OF EDMONTON", "designationCode": "C", "categoryCode": "38", "address": "8421-101 AVE", "city": "EDMONTON", "province": "AB", "country": "CA", "postalCode": "T6A0L1", "twitter": "None", "instagram": "None", "facebook": "None", "youtube": "None", "website": "None", "summary": "None", "logo": "None", "latitude": 53.541179499424025, "longitude": -113.45818346044207}, "129863577RR0001": {"name": "THE CATHOLIC CHILDREN'S AID SOCIETY OF TORONTO", "designationCode": "C", "categoryCode": "01", "address": "DIRECTOR, FINANCE & ADMINISTRA26 MAITLAND STREET", "city": "TORONTO", "province": "ON", "country": "CA", "postalCode": "M4Y1C6", "twitter": "None", "instagram": "None", "facebook": "None", "youtube": "None", "website": "None", "summary": "None", "logo": "None", "latitude": 43.66451524537502, "longitude": -79.38102013917488}, "119220549RR0001": {"name": "THE CATHOLIC COLLEGE OF REGINA CAMPION COLLEGE", "designationCode": "C", "categoryCode": "20", "address": "UNIVERSITY OF REGINA", "city": "REGINA", "province": "SK", "country": "CA", "postalCode": "S4S0A2", "twitter": "None", "instagram": "None", "facebook": "None", "youtube": "None", "website": "None", "summary": "None", "logo": "None", "latitude": 50.419710000000066, "longitude": -104.59363999999994}, "897759825RR0001": {"name": "THE CATHOLIC DISTRICT SCHOOL BOARD OF EASTERN ONTARIO", "designationCode": "C", "categoryCode": "20", "address": "BOX 2222 2755 HWY 43", "city": "KEMPTVILLE", "province": "ON", "country": "CA", "postalCode": "K0G1J0", "twitter": "None", "instagram": "None", "facebook": "None", "youtube": "None", "website": "None", "summary": "None", "logo": "None", "latitude": 45.02255681822644, "longitude": -75.65089882530013}, "888846862RR0001": {"name": "THE CATHOLIC EDUCATION FOUNDATION OF THE HURON-SUPERIOR CATHOLIC DISTRICT SCHOOL BOARD", "designationCode": "C", "categoryCode": "23", "address": "90 ONTARIO AVE", "city": "SAULT STE MARIE", "province": "ON", "country": "CA", "postalCode": "P6B6G7", "twitter": "None", "instagram": "None", "facebook": "None", "youtube": "None", "website": "None", "summary": "None", "logo": "None", "latitude": 46.51229352712175, "longitude": -84.31362377699232}, "119220564RR0001": {"name": "THE CATHOLIC FOUNDATION OF MANITOBA, LA FONDATION CATHOLIQUE DU MANITOBA", "designationCode": "A", "categoryCode": "03", "address": "200-614 RUE DES MEURONS ST", "city": "WINNIPEG", "province": "MB", "country": "CA", "postalCode": "R2H2P9", "twitter": "None", "instagram": "None", "facebook": "None", "youtube": "None", "website": "None", "summary": "None", "logo": "None", "latitude": 49.892149686652424, "longitude": -97.11216197550397}, "129950804RR0031": {"name": "THE CATHOLIC FOUNDATION OF VANCOUVER ISLAND", "designationCode": "A", "categoryCode": "45", "address": "1-4044 NELTHORPE STREET", "city": "VICTORIA", "province": "BC", "country": "CA", "postalCode": "V8X2A1", "twitter": "None", "instagram": "None", "facebook": "None", "youtube": "None", "website": "None", "summary": "None", "logo": "None", "latitude": 48.47131038328815, "longitude": -123.37383839205938}, "891000747RR0001": {"name": "THE CATHOLIC IMMIGRATION CENTRE FOUNDATION/LA FONDATION DU CENTRE CATHOLIQUE POUR IMMIGRANTS", "designationCode": "A", "categoryCode": "03", "address": "219 ARGYLE AVE", "city": "OTTAWA", "province": "ON", "country": "CA", "postalCode": "K2P2H4", "twitter": "None", "instagram": "None", "facebook": "None", "youtube": "None", "website": "None", "summary": "None", "logo": "None", "latitude": 45.41124338914519, "longitude": -75.6907610064053}, "107807794RR0001": {"name": "THE CATHOLIC INDEPENDENT SCHOOLS OF KAMLOOPS DIOCESE, OUR LADY OF PERPETUAL HELP SCHOOL", "designationCode": "C", "categoryCode": "20", "address": "205 COLUMBIA ST", "city": "KAMLOOPS", "province": "BC", "country": "CA", "postalCode": "V2C2S7", "twitter": "None", "instagram": "None", "facebook": "None", "youtube": "None", "website": "None", "summary": "None", "logo": "None", "latitude": 50.67139253952924, "longitude": -120.33763119317328}, "140685835RR0001": {"name": "THE CATHOLIC INDEPENDENT SCHOOLS OF KAMLOOPS DIOCESE, SACREDHEART SCHOOL", "designationCode": "C", "categoryCode": "20", "address": "205 COLUMBIA ST", "city": "KAMLOOPS", "province": "BC", "country": "CA", "postalCode": "V2C2S7", "twitter": "None", "instagram": "None", "facebook": "None", "youtube": "None", "website": "None", "summary": "None", "logo": "None", "latitude": 50.67139253952924, "longitude": -120.33763119317328}, "119167617RR0001": {"name": "THE CATHOLIC INDEPENDENT SCHOOLS OF KAMLOOPS DIOCESE, ST. ANN'S SCHOOL", "designationCode": "C", "categoryCode": "20", "address": "205 COLUMBIA ST", "city": "KAMLOOPS", "province": "BC", "country": "CA", "postalCode": "V2C2S7", "twitter": "None", "instagram": "None", "facebook": "None", "youtube": "None", "website": "None", "summary": "None", "logo": "None", "latitude": 50.67139253952924, "longitude": -120.33763119317328}, "131132854RR0001": {"name": "THE CATHOLIC INDEPENDENT SCHOOLS OF KAMLOOPS DIOCESE, ST. JAMES SCHOOL", "designationCode": "C", "categoryCode": "20", "address": "205 COLUMBIA ST", "city": "KAMLOOPS", "province": "BC", "country": "CA", "postalCode": "V2C2S7", "twitter": "None", "instagram": "None", "facebook": "None", "youtube": "None", "website": "None", "summary": "None", "logo": "None", "latitude": 50.67139253952924, "longitude": -120.33763119317328}, "119221380RR0001": {"name": "THE CATHOLIC INDEPENDENT SCHOOLS OF NELSON DIOCESE", "designationCode": "C", "categoryCode": "20", "address": "3665 BENVOULIN  ROAD", "city": "KELOWNA", "province": "BC", "country": "CA", "postalCode": "V1W4M7", "twitter": "None", "instagram": "None", "facebook": "None", "youtube": "None", "website": "None", "summary": "None", "logo": "None", "latitude": 49.85056104631423, "longitude": -119.46776856721908}, "129848016RR0001": {"name": "THE CATHOLIC INDEPENDENT SCHOOLS OF THE DIOCESE OF VICTORIA", "designationCode": "C", "categoryCode": "20", "address": "#1-4044 NELTHORPE STREET", "city": "VICTORIA", "province": "BC", "country": "CA", "postalCode": "V8X2A1", "twitter": "None", "instagram": "None", "facebook": "None", "youtube": "None", "website": "None", "summary": "None", "logo": "None", "latitude": 48.47131038328815, "longitude": -123.37383839205938}, "119221398RR0001": {"name": "THE CATHOLIC INDEPENDENT SCHOOLS OF VANCOUVER ARCHDIOCESE", "designationCode": "C", "categoryCode": "20", "address": "4885 SAINT JOHN PAUL II WAY", "city": "VANCOUVER", "province": "BC", "country": "CA", "postalCode": "V5Z0G3", "twitter": "None", "instagram": "None", "facebook": "None", "youtube": "None", "website": "None", "summary": "None", "logo": "None", "latitude": 49.23885300000006, "longitude": -123.12055249999993}, "106920952RR0001": {"name": "THE CATHOLIC PARISH OF CHRIST THE KING", "designationCode": "C", "categoryCode": "38", "address": "BOX 368", "city": "STETTLER", "province": "AB", "country": "CA", "postalCode": "T0C2L0", "twitter": "None", "instagram": "None", "facebook": "None", "youtube": "None", "website": "None", "summary": "None", "logo": "None", "latitude": 52.32597900000006, "longitude": -112.70698099999993}, "119220598RR0001": {"name": "THE CATHOLIC PARISH OF HOLY CROSS", "designationCode": "C", "categoryCode": "38", "address": "BOX 1048", "city": "GRANDE CACHE", "province": "AB", "country": "CA", "postalCode": "T0E0Y0", "twitter": "None", "instagram": "None", "facebook": "None", "youtube": "None", "website": "None", "summary": "None", "logo": "None", "latitude": 53.888100000000065, "longitude": -119.11633999999998}, "119220606RR0001": {"name": "THE CATHOLIC PARISH OF HOLY FAMILY", "designationCode": "C", "categoryCode": "38", "address": "75 POIRIER AVENUE", "city": "ST. ALBERT", "province": "AB", "country": "CA", "postalCode": "T8N6A1", "twitter": "None", "instagram": "None", "facebook": "None", "youtube": "None", "website": "None", "summary": "None", "logo": "None", "latitude": 53.642338181572576, "longitude": -113.58038983749152}, "132004284RR0001": {"name": "THE CATHOLIC PARISH OF HOLY TRINITY", "designationCode": "C", "categoryCode": "38", "address": "PO BOX 3220", "city": "SPRUCE GROVE", "province": "AB", "country": "CA", "postalCode": "T7X3A5", "twitter": "None", "instagram": "None", "facebook": "None", "youtube": "None", "website": "None", "summary": "None", "logo": "None", "latitude": 53.544624000000056, "longitude": -113.90185249999993}, "890516248RR0001": {"name": "THE CATHOLIC PARISH OF LAC STE ANNE", "designationCode": "C", "categoryCode": "38", "address": "COMP 33 SITE 114 RR1", "city": "ALBERTA BEACH", "province": "AB", "country": "CA", "postalCode": "T0E0A1", "twitter": "None", "instagram": "None", "facebook": "None", "youtube": "None", "website": "None", "summary": "None", "logo": "None", "latitude": 53.67507000000006, "longitude": -114.41082949999993}, "119220622RR0001": {"name": "THE CATHOLIC PARISH OF OUR LADY OF FATIMA", "designationCode": "C", "categoryCode": "38", "address": "12311-55 STREET", "city": "EDMONTON", "province": "AB", "country": "CA", "postalCode": "T5W5G1", "twitter": "None", "instagram": "None", "facebook": "None", "youtube": "None", "website": "None", "summary": "None", "logo": "None", "latitude": 53.57876374854291, "longitude": -113.42604573348194}, "107807240RR0001": {"name": "THE CATHOLIC PARISH OF OUR LADY OF GRACE", "designationCode": "C", "categoryCode": "38", "address": "BOX 368", "city": "STETTLER", "province": "AB", "country": "CA", "postalCode": "T0C2L0", "twitter": "None", "instagram": "None", "facebook": "None", "youtube": "None", "website": "None", "summary": "None", "logo": "None", "latitude": 52.32597900000006, "longitude": -112.70698099999993}, "122577422RR0001": {"name": "THE CATHOLIC PARISH OF OUR LADY OF LOURDES", "designationCode": "C", "categoryCode": "38", "address": "P.O. BOX 639", "city": "JASPER", "province": "AB", "country": "CA", "postalCode": "T0E1E0", "twitter": "None", "instagram": "None", "facebook": "None", "youtube": "None", "website": "None", "summary": "None", "logo": "None", "latitude": 52.877214088900075, "longitude": -118.08111710055249}, "134629989RR0001": {"name": "THE CATHOLIC PARISH OF OUR LADY OF MERCY", "designationCode": "C", "categoryCode": "38", "address": "P.O. BOX 119", "city": "ENOCH", "province": "AB", "country": "CA", "postalCode": "T7X3Y3", "twitter": "None", "instagram": "None", "facebook": "None", "youtube": "None", "website": "None", "summary": "None", "logo": "None", "latitude": 53.503460000000075, "longitude": -113.74394999999998}, "131296667RR0001": {"name": "THE CATHOLIC PARISH OF OUR LADY OF PERPETUAL HELP", "designationCode": "C", "categoryCode": "38", "address": "13 BROWER DRIVE", "city": "SHERWOOD PARK", "province": "AB", "country": "CA", "postalCode": "T8H1Y7", "twitter": "None", "instagram": "None", "facebook": "None", "youtube": "None", "website": "None", "summary": "None", "logo": "None", "latitude": 53.54334832944775, "longitude": -113.28673380229732}, "119220689RR0001": {"name": "THE CATHOLIC PARISH OF OUR LADY OF SEVEN SORROWS", "designationCode": "C", "categoryCode": "38", "address": "P.O. BOX 128", "city": "MASKWACIS", "province": "AB", "country": "CA", "postalCode": "T0C1N0", "twitter": "None", "instagram": "None", "facebook": "None", "youtube": "None", "website": "None", "summary": "None", "logo": "None", "latitude": 52.83422000000007, "longitude": -113.44605999999999}, "107807919RR0001": {"name": "THE CATHOLIC PARISH OF OUR LADY OF THE ANGELS", "designationCode": "C", "categoryCode": "38", "address": "10004-101 ST", "city": "FORT SASKATCHEWAN", "province": "AB", "country": "CA", "postalCode": "T8L1V9", "twitter": "None", "instagram": "None", "facebook": "None", "youtube": "None", "website": "None", "summary": "None", "logo": "None", "latitude": 53.71223087979704, "longitude": -113.2153680152921}, "131805897RR0001": {"name": "THE CATHOLIC PARISH OF OUR LADY OF THE FOOTHILLS", "designationCode": "C", "categoryCode": "38", "address": "124 TAMARACK AVE", "city": "HINTON", "province": "AB", "country": "CA", "postalCode": "T7V1C8", "twitter": "None", "instagram": "None", "facebook": "None", "youtube": "None", "website": "None", "summary": "None", "logo": "None", "latitude": 53.420093539817714, "longitude": -117.5437848699293}, "119220721RR0001": {"name": "THE CATHOLIC PARISH OF OUR LADY OF VICTORY", "designationCode": "C", "categoryCode": "38", "address": "8 ST CLAIR STREET", "city": "DEVON", "province": "AB", "country": "CA", "postalCode": "T9G1J3", "twitter": "None", "instagram": "None", "facebook": "None", "youtube": "None", "website": "None", "summary": "None", "logo": "None", "latitude": 53.362746000000016, "longitude": -113.72487602501562}, "131688269RR0001": {"name": "THE CATHOLIC PARISH OF OUR LADY QUEEN OF POLAND", "designationCode": "C", "categoryCode": "38", "address": "9906 83 AVE NW", "city": "EDMONTON", "province": "AB", "country": "CA", "postalCode": "T6E2C1", "twitter": "None", "instagram": "None", "facebook": "None", "youtube": "None", "website": "None", "summary": "None", "logo": "None", "latitude": 53.51907350432784, "longitude": -113.486553}, "131866402RR0001": {"name": "THE CATHOLIC PARISH OF ST AGNES", "designationCode": "C", "categoryCode": "38", "address": "PO BOX 417", "city": "MAYERTHORPE", "province": "AB", "country": "CA", "postalCode": "T0E1N0", "twitter": "None", "instagram": "None", "facebook": "None", "youtube": "None", "website": "None", "summary": "None", "logo": "None", "latitude": 53.952450000000056, "longitude": -115.13884999999999}, "129379640RR0001": {"name": "THE CATHOLIC PARISH OF ST ALPHONSUS", "designationCode": "C", "categoryCode": "38", "address": "11828 85 ST NW", "city": "EDMONTON", "province": "AB", "country": "CA", "postalCode": "T5B3E9", "twitter": "None", "instagram": "None", "facebook": "None", "youtube": "None", "website": "None", "summary": "None", "logo": "None", "latitude": 53.57124000000002, "longitude": -113.470899262046}, "119220820RR0001": {"name": "THE CATHOLIC PARISH OF ST ANTHONY", "designationCode": "C", "categoryCode": "38", "address": "2704 - 56 AVENUE", "city": "LLOYDMINSTER", "province": "AB", "country": "CA", "postalCode": "T9V2C1", "twitter": "None", "instagram": "None", "facebook": "None", "youtube": "None", "website": "None", "summary": "None", "logo": "None", "latitude": 53.26162200000002, "longitude": -110.01991739849335}, "888752797RR0001": {"name": "THE CATHOLIC PARISH OF ST ANTHONY", "designationCode": "C", "categoryCode": "38", "address": "4708 50 AVE", "city": "DRAYTON VALLEY", "province": "AB", "country": "CA", "postalCode": "T7A1E1", "twitter": "None", "instagram": "None", "facebook": "None", "youtube": "None", "website": "None", "summary": "None", "logo": "None", "latitude": 53.22152249321932, "longitude": -114.97157116763806}, "119220846RR0001": {"name": "THE CATHOLIC PARISH OF ST BONIFACE", "designationCode": "C", "categoryCode": "38", "address": "9510 101 AVE NW", "city": "EDMONTON", "province": "AB", "country": "CA", "postalCode": "T5H0B3", "twitter": "None", "instagram": "None", "facebook": "None", "youtube": "None", "website": "None", "summary": "None", "logo": "None", "latitude": 53.543136432194224, "longitude": -113.47938445158394}, "132156746RR0001": {"name": "THE CATHOLIC PARISH OF ST CHARLES", "designationCode": "C", "categoryCode": "38", "address": "55 - 54200 RGE RD 265", "city": "STURGEON COUNTY", "province": "AB", "country": "CA", "postalCode": "T8T0E2", "twitter": "None", "instagram": "None", "facebook": "None", "youtube": "None", "website": "None", "summary": "None", "logo": "None", "latitude": 53.65697624092552, "longitude": -113.81197984759578}, "119220887RR0001": {"name": "THE CATHOLIC PARISH OF ST CLARE", "designationCode": "C", "categoryCode": "38", "address": "6310 118TH AVE NW", "city": "EDMONTON", "province": "AB", "country": "CA", "postalCode": "T5W1G1", "twitter": "None", "instagram": "None", "facebook": "None", "youtube": "None", "website": "None", "summary": "None", "logo": "None", "latitude": 53.570393453257395, "longitude": -113.43868191618097}, "119220929RR0001": {"name": "THE CATHOLIC PARISH OF ST ELIZABETH", "designationCode": "C", "categoryCode": "38", "address": "BOX 305", "city": "EVANSBURG", "province": "AB", "country": "CA", "postalCode": "T0E0T0", "twitter": "None", "instagram": "None", "facebook": "None", "youtube": "None", "website": "None", "summary": "None", "logo": "None", "latitude": 53.59391000000005, "longitude": -115.02120999999994}, "119220937RR0001": {"name": "THE CATHOLIC PARISH OF ST EMERENCE", "designationCode": "C", "categoryCode": "38", "address": "55 - 54200 RGE RD 265", "city": "STURGEON COUNTY", "province": "AB", "country": "CA", "postalCode": "T8T0E2", "twitter": "None", "instagram": "None", "facebook": "None", "youtube": "None", "website": "None", "summary": "None", "logo": "None", "latitude": 53.65697624092552, "longitude": -113.81197984759578}, "129985438RR0001": {"name": "THE CATHOLIC PARISH OF ST FRANCIS XAVIER", "designationCode": "C", "categoryCode": "38", "address": "5010 - 48A AVENUE", "city": "CAMROSE", "province": "AB", "country": "CA", "postalCode": "T4V0K8", "twitter": "None", "instagram": "None", "facebook": "None", "youtube": "None", "website": "None", "summary": "None", "logo": "None", "latitude": 53.01929342714524, "longitude": -112.82697804662705}, "130563430RR0001": {"name": "THE CATHOLIC PARISH OF ST JOHN THE EVANGELIST", "designationCode": "C", "categoryCode": "38", "address": "9830 - 148 STREET", "city": "EDMONTON", "province": "AB", "country": "CA", "postalCode": "T5N3E8", "twitter": "None", "instagram": "None", "facebook": "None", "youtube": "None", "website": "None", "summary": "None", "logo": "None", "latitude": 53.53700282653355, "longitude": -113.57628969654883}, "133012039RR0001": {"name": "THE CATHOLIC PARISH OF ST JOSEPH'S CATHEDRAL", "designationCode": "C", "categoryCode": "38", "address": "10044-113 STREET", "city": "EDMONTON", "province": "AB", "country": "CA", "postalCode": "T5K1N8", "twitter": "None", "instagram": "None", "facebook": "None", "youtube": "None", "website": "None", "summary": "None", "logo": "None", "latitude": 53.54019841326678, "longitude": -113.51584924372412}, "119221059RR0001": {"name": "THE CATHOLIC PARISH OF ST MARGARET", "designationCode": "C", "categoryCode": "38", "address": "BOX 8", "city": "RIMBEY", "province": "AB", "country": "CA", "postalCode": "T0C0J0", "twitter": "None", "instagram": "None", "facebook": "None", "youtube": "None", "website": "None", "summary": "None", "logo": "None", "latitude": 52.63970000000006, "longitude": -114.23827999999997}, "134542729RR0001": {"name": "THE CATHOLIC PARISH OF ST MARGARET MARY-CALMAR", "designationCode": "C", "categoryCode": "38", "address": "8 ST. CLAIR ST.", "city": "DEVON", "province": "AB", "country": "CA", "postalCode": "T9G1C8", "twitter": "None", "instagram": "None", "facebook": "None", "youtube": "None", "website": "None", "summary": "None", "logo": "None", "latitude": 53.362746000000016, "longitude": -113.72487602501562}, "119221075RR0001": {"name": "THE CATHOLIC PARISH OF ST MARIA GORETTI", "designationCode": "C", "categoryCode": "38", "address": "9110 110 AVE", "city": "EDMONTON", "province": "AB", "country": "CA", "postalCode": "T5H4A1", "twitter": "None", "instagram": "None", "facebook": "None", "youtube": "None", "website": "None", "summary": "None", "logo": "None", "latitude": 53.559541318367906, "longitude": -113.48028519054756}, "132701392RR0001": {"name": "THE CATHOLIC PARISH OF ST MARIA GORETTI", "designationCode": "C", "categoryCode": "38", "address": "8 ST. CLAIR STREET", "city": "DEVON", "province": "AB", "country": "CA", "postalCode": "T9G1J3", "twitter": "None", "instagram": "None", "facebook": "None", "youtube": "None", "website": "None", "summary": "None", "logo": "None", "latitude": 53.362746000000016, "longitude": -113.72487602501562}, "119221083RR0001": {"name": "THE CATHOLIC PARISH OF ST MARTIN OF TOURS", "designationCode": "C", "categoryCode": "38", "address": "5437-43 STREET", "city": "VEGREVILLE", "province": "AB", "country": "CA", "postalCode": "T9C1C8", "twitter": "None", "instagram": "None", "facebook": "None", "youtube": "None", "website": "None", "summary": "None", "logo": "None", "latitude": 53.49653941326679, "longitude": -112.03447685004956}, "129977484RR0001": {"name": "THE CATHOLIC PARISH OF ST MATTHEW", "designationCode": "C", "categoryCode": "38", "address": "13131 86 ST NW", "city": "EDMONTON", "province": "AB", "country": "CA", "postalCode": "T5E3B5", "twitter": "None", "instagram": "None", "facebook": "None", "youtube": "None", "website": "None", "summary": "None", "logo": "None", "latitude": 53.59163450291419, "longitude": -113.47258421241877}}