{"107599623RR0001": {"name": "HEBERGEMENT JEUNESSE LE TOURNANT", "designationCode": "C", "categoryCode": "09", "address": "1775 RUE WOLFE", "city": "MONTREAL", "province": "QC", "country": "CA", "postalCode": "H2L3J9", "twitter": "None", "instagram": "None", "facebook": "None", "youtube": "None", "website": "None", "summary": "None", "logo": "None", "latitude": 45.51984520650348, "longitude": -73.56075117762137}, "102313616RR0001": {"name": "HEBERGEMENT L'ENTRE-DEUX", "designationCode": "C", "categoryCode": "01", "address": "1625 BOURASSA", "city": "LONGUEUIL", "province": "QC", "country": "CA", "postalCode": "J4J3A5", "twitter": "None", "instagram": "None", "facebook": "None", "youtube": "None", "website": "None", "summary": "None", "logo": "None", "latitude": 45.52347274995656, "longitude": -73.49384443975428}, "118955350RR0001": {"name": "HEBERGEMENT LA C.A.S.A. BERNARD HUBERT", "designationCode": "C", "categoryCode": "01", "address": "1215 BOUL SAINTE-FOY", "city": "LONGUEUIL", "province": "QC", "country": "CA", "postalCode": "J4K1X4", "twitter": "None", "instagram": "None", "facebook": "None", "youtube": "None", "website": "None", "summary": "None", "logo": "None", "latitude": 45.515851344162925, "longitude": -73.49852444105237}, "132507161RR0001": {"name": "HEBERGEMENT MAGOG-ORFORD INC", "designationCode": "C", "categoryCode": "09", "address": "465, RUE MACDONALD", "city": "MAGOG", "province": "QC", "country": "CA", "postalCode": "J1X1M2", "twitter": "None", "instagram": "None", "facebook": "None", "youtube": "None", "website": "None", "summary": "None", "logo": "None", "latitude": 45.27030051601324, "longitude": -72.15302177699232}, "141150649RR0001": {"name": "HEBERGEMENT MAISON DE LA PAIX INC.", "designationCode": "C", "categoryCode": "01", "address": "1617 STE-HELENE", "city": "LONGUEUIL", "province": "QC", "country": "CA", "postalCode": "J4K3S8", "twitter": "None", "instagram": "None", "facebook": "None", "youtube": "None", "website": "None", "summary": "None", "logo": "None", "latitude": 45.516674786023344, "longitude": -73.49502269510651}, "865846984RR0001": {"name": "HEBERGEMENT PLUS", "designationCode": "C", "categoryCode": "09", "address": "3639, BOULEVARD HARVEY        BUREAU #201", "city": "JONQUIERE", "province": "QC", "country": "CA", "postalCode": "G7X3B2", "twitter": "None", "instagram": "None", "facebook": "None", "youtube": "None", "website": "None", "summary": "None", "logo": "None", "latitude": 48.41179851788917, "longitude": -71.23564311226845}, "889938999RR0001": {"name": "HEBERGEMENT POUR PERSONNES AGEES NOUVEAUX HORIZONS INC.", "designationCode": "C", "categoryCode": "09", "address": "1123, RTE 199", "city": "HAVRE AUX MAISONS", "province": "QC", "country": "CA", "postalCode": "G4T5B3", "twitter": "None", "instagram": "None", "facebook": "None", "youtube": "None", "website": "None", "summary": "None", "logo": "None", "latitude": 47.42329940971838, "longitude": -61.75972529161706}, "892300674RR0001": {"name": "HEBERJEUNE DE PARC EXTENSION", "designationCode": "C", "categoryCode": "09", "address": "2-7004 HUTCHISON", "city": "MONTREAL", "province": "QC", "country": "CA", "postalCode": "H3N1Y6", "twitter": "None", "instagram": "None", "facebook": "None", "youtube": "None", "website": "None", "summary": "None", "logo": "None", "latitude": 45.52900653814429, "longitude": -73.62011066002066}, "892727488RR0001": {"name": "HEBERN MEMORIAL FOUNDATION/FONDATION COMMEMORATIVE HEBERN", "designationCode": "C", "categoryCode": "21", "address": "1980 SHERBROOKE ST. WEST      SUITE 900 - BC15", "city": "MONTREAL", "province": "QC", "country": "CA", "postalCode": "H3H1E8", "twitter": "None", "instagram": "None", "facebook": "None", "youtube": "None", "website": "None", "summary": "None", "logo": "None", "latitude": 45.493851552859475, "longitude": -73.58409800204882}, "118955400RR0001": {"name": "HEBREW CENTRE OF BELLE EWART", "designationCode": "C", "categoryCode": "42", "address": "103 SULTANA AVE.", "city": "TORONTO", "province": "ON", "country": "CA", "postalCode": "M6A1T4", "twitter": "None", "instagram": "None", "facebook": "None", "youtube": "None", "website": "None", "summary": "None", "logo": "None", "latitude": 43.72711781652159, "longitude": -79.4393669866698}, "118955418RR0001": {"name": "HEBREW CENTRE OF JACKSON'S POINT", "designationCode": "C", "categoryCode": "42", "address": "37 ALMORE AVE", "city": "NORTH YORK", "province": "ON", "country": "CA", "postalCode": "M3H2G9", "twitter": "None", "instagram": "None", "facebook": "None", "youtube": "None", "website": "None", "summary": "None", "logo": "None", "latitude": 43.74762985316531, "longitude": -79.43959700499167}, "865872584RR0001": {"name": "HEBREW CHURCH OF GOD INC.", "designationCode": "B", "categoryCode": "39", "address": "2770 DUNDAS STREET W", "city": "TORONTO", "province": "ON", "country": "CA", "postalCode": "M6P1Y3", "twitter": "None", "instagram": "None", "facebook": "None", "youtube": "None", "website": "None", "summary": "None", "logo": "None", "latitude": 43.665292172369924, "longitude": -79.46142378628315}, "118955426RR0001": {"name": "HEBREW CULTURE ORGANIZATION OF CANADA", "designationCode": "C", "categoryCode": "21", "address": "1 CARRE CUMMINGS              2ND FLOOR, SUITE 206", "city": "MONTREAL", "province": "QC", "country": "CA", "postalCode": "H3W1M6", "twitter": "None", "instagram": "None", "facebook": "None", "youtube": "None", "website": "None", "summary": "None", "logo": "None", "latitude": 45.48925656614425, "longitude": -73.63588473115946}, "118955434RR0001": {"name": "HEBREW FOUNDATION SCHOOL OF CONGREGATION BETH TIKVAH", "designationCode": "C", "categoryCode": "20", "address": "2 HOPE DRIVE", "city": "DOLLARD DES ORMEAUX", "province": "QC", "country": "CA", "postalCode": "H9A2V5", "twitter": "None", "instagram": "None", "facebook": "None", "youtube": "None", "website": "None", "summary": "None", "logo": "None", "latitude": 45.491995928386004, "longitude": -73.82076050706912}, "118955442RR0001": {"name": "HEBREW FREE LOAN ASSOCIATION", "designationCode": "C", "categoryCode": "09", "address": "6525 BOUL. DECARIE, SUITE 202", "city": "MONTREAL", "province": "QC", "country": "CA", "postalCode": "H3W3E3", "twitter": "None", "instagram": "None", "facebook": "None", "youtube": "None", "website": "None", "summary": "None", "logo": "None", "latitude": 45.491328228720505, "longitude": -73.64576926475864}, "118955392RR0001": {"name": "HEBREW FREE LOAN ASSOCIATION OF VANCOUVER", "designationCode": "C", "categoryCode": "09", "address": "305A - 950 41ST AVE W", "city": "VANCOUVER", "province": "BC", "country": "CA", "postalCode": "V5Z2N7", "twitter": "None", "instagram": "None", "facebook": "None", "youtube": "None", "website": "None", "summary": "None", "logo": "None", "latitude": 49.2339015, "longitude": -123.1261695}, "118955491RR0001": {"name": "HEBRON BAPTIST CHURCH", "designationCode": "C", "categoryCode": "31", "address": "PO BOX 71", "city": "HEBRON", "province": "NS", "country": "CA", "postalCode": "B0W1X0", "twitter": "None", "instagram": "None", "facebook": "None", "youtube": "None", "website": "None", "summary": "None", "logo": "None", "latitude": 43.88721000000004, "longitude": -66.09039999999999}, "118955483RR0001": {"name": "HEBRON CHRISTIAN REFORMED CHURCH", "designationCode": "C", "categoryCode": "39", "address": "431 ALBERT STREET", "city": "RENFREW", "province": "ON", "country": "CA", "postalCode": "K7V1V8", "twitter": "None", "instagram": "None", "facebook": "None", "youtube": "None", "website": "None", "summary": "None", "logo": "None", "latitude": 45.4819621240801, "longitude": -76.69892386338908}, "107473829RR0001": {"name": "HEBRON CHRISTIAN REFORMED CHURCH OF WHITBY", "designationCode": "C", "categoryCode": "39", "address": "4240 ANDERSON STREET", "city": "WHITBY", "province": "ON", "country": "CA", "postalCode": "L1R2W1", "twitter": "None", "instagram": "None", "facebook": "None", "youtube": "None", "website": "None", "summary": "None", "logo": "None", "latitude": 43.923898961663525, "longitude": -78.93948903266102}, "833025471RR0001": {"name": "HEBRON PRESBYTERIAN CHURCH", "designationCode": "C", "categoryCode": "37", "address": "PO BOX 21", "city": "MILNER", "province": "BC", "country": "CA", "postalCode": "V0X1T0", "twitter": "None", "instagram": "None", "facebook": "None", "youtube": "None", "website": "None", "summary": "None", "logo": "None", "latitude": 49.127680000000055, "longitude": -122.62306999999998}, "118956853RR0001": {"name": "HEBRON UNITED CHURCH", "designationCode": "C", "categoryCode": "44", "address": "516327 11TH LINE RR#2", "city": "TAVISTOCK", "province": "ON", "country": "CA", "postalCode": "N0B2R0", "twitter": "None", "instagram": "None", "facebook": "None", "youtube": "None", "website": "None", "summary": "None", "logo": "None", "latitude": 43.29689815305538, "longitude": -80.86285361291479}, "895427227RR0001": {"name": "HEC GERVAIS ACADEMIC AND CURLING SCHOLARSHIP FOUNDATION", "designationCode": "C", "categoryCode": "21", "address": "1228-45 ST", "city": "EDMONTON", "province": "AB", "country": "CA", "postalCode": "T6L3N8", "twitter": "None", "instagram": "None", "facebook": "None", "youtube": "None", "website": "None", "summary": "None", "logo": "None", "latitude": 53.441982502914186, "longitude": -113.40818659772616}, "118955517RR0001": {"name": "HECKMAN'S ISLAND CEMETERY SOCIETY", "designationCode": "C", "categoryCode": "59", "address": "PO BOX 213", "city": "LUNENBURG", "province": "NS", "country": "CA", "postalCode": "B0J2C0", "twitter": "None", "instagram": "None", "facebook": "None", "youtube": "None", "website": "None", "summary": "None", "logo": "None", "latitude": 44.37886006217898, "longitude": -64.31792993782098}, "107464539RR0001": {"name": "HECTOR KING-HUNTER PIONEER PARK ASSOCIATION", "designationCode": "C", "categoryCode": "56", "address": "BOX 1952", "city": "HANNA", "province": "AB", "country": "CA", "postalCode": "T0J1P0", "twitter": "None", "instagram": "None", "facebook": "None", "youtube": "None", "website": "None", "summary": "None", "logo": "None", "latitude": 51.64780345530559, "longitude": -111.93814762829588}, "825507478RR0001": {"name": "HEDGE FUNDS CARE CANADA", "designationCode": "A", "categoryCode": "03", "address": "504 - 80 RICHMOND ST W", "city": "TORONTO", "province": "ON", "country": "CA", "postalCode": "M5H2A4", "twitter": "None", "instagram": "None", "facebook": "None", "youtube": "None", "website": "None", "summary": "None", "logo": "None", "latitude": 43.65076373122454, "longitude": -79.38307050453754}, "839651148RR0001": {"name": "HEDGEDALE COMMUNITY CENTRE INC.", "designationCode": "C", "categoryCode": "59", "address": "P.O. BOX 51060                RPO CITY CENTRE", "city": "BRAMPTON", "province": "ON", "country": "CA", "postalCode": "L6T5M2", "twitter": "None", "instagram": "None", "facebook": "None", "youtube": "None", "website": "None", "summary": "None", "logo": "None", "latitude": 43.68815049793295, "longitude": -79.75036075680674}, "118955533RR0001": {"name": "HEDLEY HERITAGE MUSEUM SOCIETY", "designationCode": "C", "categoryCode": "50", "address": "BOX 218", "city": "HEDLEY", "province": "BC", "country": "CA", "postalCode": "V0X1K0", "twitter": "None", "instagram": "None", "facebook": "None", "youtube": "None", "website": "None", "summary": "None", "logo": "None", "latitude": 49.356010000000026, "longitude": -120.07779999999997}, "892851247RR0001": {"name": "HEGGE COMMUNITY CEMETERY", "designationCode": "C", "categoryCode": "59", "address": "RR 2", "city": "WESTEROSE", "province": "AB", "country": "CA", "postalCode": "T0C2V0", "twitter": "None", "instagram": "None", "facebook": "None", "youtube": "None", "website": "None", "summary": "None", "logo": "None", "latitude": 52.95977000000005, "longitude": -114.02483999999998}, "140151093RR0001": {"name": "HEGRE NORWEIGIAN LUTHERAN CHURCH OF BAWLF", "designationCode": "C", "categoryCode": "52", "address": "RR #1", "city": "HOLDEN", "province": "AB", "country": "CA", "postalCode": "T0B2C0", "twitter": "None", "instagram": "None", "facebook": "None", "youtube": "None", "website": "None", "summary": "None", "logo": "None", "latitude": 53.23270200000006, "longitude": -112.23537199999993}, "890623929RR0001": {"name": "HEIDELBERG BIBLE FELLOWSHIP", "designationCode": "C", "categoryCode": "39", "address": "300 - 22 KING ST S", "city": "WATERLOO", "province": "ON", "country": "CA", "postalCode": "N2J1N8", "twitter": "None", "instagram": "None", "facebook": "None", "youtube": "None", "website": "None", "summary": "None", "logo": "None", "latitude": 43.46459551540769, "longitude": -80.52217845625849}, "887667806RR0001": {"name": "HEIGHTS BAPTIST FELLOWSHIP SOCIETY OF MEDICINE HAT", "designationCode": "C", "categoryCode": "31", "address": "1250 DIVISION AVE S", "city": "MEDICINE HAT", "province": "AB", "country": "CA", "postalCode": "T1A2K3", "twitter": "None", "instagram": "None", "facebook": "None", "youtube": "None", "website": "None", "summary": "None", "logo": "None", "latitude": 50.02690628864909, "longitude": -110.68710514224706}, "897183026RR0001": {"name": "HEIMA ER BEST INC.", "designationCode": "C", "categoryCode": "09", "address": "PO BOX 1949", "city": "GIMLI", "province": "MB", "country": "CA", "postalCode": "R0C1B0", "twitter": "None", "instagram": "None", "facebook": "None", "youtube": "None", "website": "None", "summary": "None", "logo": "None", "latitude": 50.30677349294383, "longitude": -96.92898988377391}, "118955541RR0001": {"name": "HEIMDAL COMMUNITY CHURCH", "designationCode": "C", "categoryCode": "36", "address": "R.R. #1", "city": "MILLET", "province": "AB", "country": "CA", "postalCode": "T0C1Z0", "twitter": "None", "instagram": "None", "facebook": "None", "youtube": "None", "website": "None", "summary": "None", "logo": "None", "latitude": 51.857088170679376, "longitude": -110.01095610855042}, "118955558RR0001": {"name": "HEIMTAL MORAVIAN CHURCH", "designationCode": "C", "categoryCode": "39", "address": "714 BUTTERWORTH DR", "city": "EDMONTON", "province": "AB", "country": "CA", "postalCode": "T6R2M7", "twitter": "None", "instagram": "None", "facebook": "None", "youtube": "None", "website": "None", "summary": "None", "logo": "None"}, "134088160RR0001": {"name": "HEISE HILL CHURCH", "designationCode": "C", "categoryCode": "39", "address": "11760 WOODBINE AVENUE", "city": "GORMLEY", "province": "ON", "country": "CA", "postalCode": "L0H1G0", "twitter": "None", "instagram": "None", "facebook": "None", "youtube": "None", "website": "None", "summary": "None", "logo": "None", "latitude": 43.94191919798831, "longitude": -79.37909938704944}, "118955574RR0001": {"name": "HEISLER AGRICULTURAL SOCIETY", "designationCode": "C", "categoryCode": "56", "address": "PO BOX 156", "city": "HEISLER", "province": "AB", "country": "CA", "postalCode": "T0B2A0", "twitter": "None", "instagram": "None", "facebook": "None", "youtube": "None", "website": "None", "summary": "None", "logo": "None", "latitude": 52.683440000000076, "longitude": -112.21851999999996}, "827278672RR0001": {"name": "HEITNER CHARITABLE FOUNDATION", "designationCode": "B", "categoryCode": "03", "address": "11 REDDICK COURT", "city": "TORONTO", "province": "ON", "country": "CA", "postalCode": "M6B2S1", "twitter": "None", "instagram": "None", "facebook": "None", "youtube": "None", "website": "None", "summary": "None", "logo": "None", "latitude": 43.715288809308205, "longitude": -79.43638398609288}, "892619107RR0001": {"name": "HELEN BETTY OSBORNE MEMORIAL FOUNDATION", "designationCode": "A", "categoryCode": "23", "address": "1801-155 CARLTON", "city": "WINNIPEG", "province": "MB", "country": "CA", "postalCode": "R3C3H8", "twitter": "None", "instagram": "None", "facebook": "None", "youtube": "None", "website": "None", "summary": "None", "logo": "None", "latitude": 49.88882214876795, "longitude": -97.14372200608818}, "891607665RR0001": {"name": "HELEN CREIGHTON FOLKLORE SOCIETY", "designationCode": "C", "categoryCode": "22", "address": "138 HAMPTON GREEN", "city": "DARTMOUTH", "province": "NS", "country": "CA", "postalCode": "B2V1L5", "twitter": "None", "instagram": "None", "facebook": "None", "youtube": "None", "website": "None", "summary": "None", "logo": "None", "latitude": 44.6690066344568, "longitude": -63.4992664612788}, "891532244RR0001": {"name": "HELEN G MULLIN EVENING AUXILIARY", "designationCode": "C", "categoryCode": "47", "address": "R.R. #2                       515 MIDDLETOWN RD.", "city": "DUNDAS", "province": "ON", "country": "CA", "postalCode": "L9H5E2", "twitter": "None", "instagram": "None", "facebook": "None", "youtube": "None", "website": "None", "summary": "None", "logo": "None", "latitude": 43.28914223452021, "longitude": -80.03939672055483}, "118955624RR0001": {"name": "HELEN MCCREA PEACOCK FOUNDATION", "designationCode": "B", "categoryCode": "03", "address": "33 BLOOR STREET EAST          SUITE #1603", "city": "TORONTO", "province": "ON", "country": "CA", "postalCode": "M4W3H1", "twitter": "None", "instagram": "None", "facebook": "None", "youtube": "None", "website": "None", "summary": "None", "logo": "None", "latitude": 43.67044983484344, "longitude": -79.38560442838599}, "118955657RR0001": {"name": "HELEN S. HENDERSON MEMORIAL TRUST", "designationCode": "C", "categoryCode": "21", "address": "HARBOUR VIEW HAVEN            PO BOX 1480", "city": "LUNENBURG", "province": "NS", "country": "CA", "postalCode": "B0J2C0", "twitter": "None", "instagram": "None", "facebook": "None", "youtube": "None", "website": "None", "summary": "None", "logo": "None", "latitude": 44.37996317184544, "longitude": -64.33087426579337}, "107475733RR0001": {"name": "HELEN TUFTS NURSERY SCHOOL KINGSTON", "designationCode": "C", "categoryCode": "20", "address": "211 JOHNSON STREET", "city": "KINGSTON", "province": "ON", "country": "CA", "postalCode": "K7L1Y2", "twitter": "None", "instagram": "None", "facebook": "None", "youtube": "None", "website": "None", "summary": "None", "logo": "None", "latitude": 44.23051430004604, "longitude": -76.48793740729417}, "889003596RR0001": {"name": "HELEN TULK ELEMENTARY SCHOOL", "designationCode": "C", "categoryCode": "20", "address": "P.O BOX 130, 1 FOREST RD", "city": "BISHOP'S FALLS", "province": "NL", "country": "CA", "postalCode": "A0H1C0", "twitter": "None", "instagram": "None", "facebook": "None", "youtube": "None", "website": "None", "summary": "None", "logo": "None", "latitude": 49.01503855265487, "longitude": -55.47879072995208}, "890148745RR0001": {"name": "HELENE MACKENZIE AND PAST GOVERNORS OF QUOTA DISTRICT 18 TRUST FUND", "designationCode": "C", "categoryCode": "25", "address": "2 - 2905 3RD AVE W", "city": "OWEN SOUND", "province": "ON", "country": "CA", "postalCode": "N4K4T3", "twitter": "None", "instagram": "None", "facebook": "None", "youtube": "None", "website": "None", "summary": "None", "logo": "None", "latitude": 44.577542870259215, "longitude": -80.94941225444359}, "893193573RR0001": {"name": "HELICONIAN HALL FOUNDATION", "designationCode": "C", "categoryCode": "52", "address": "35 HAZELTON AVENUE", "city": "TORONTO", "province": "ON", "country": "CA", "postalCode": "M5R2E3", "twitter": "None", "instagram": "None", "facebook": "None", "youtube": "None", "website": "None", "summary": "None", "logo": "None", "latitude": 43.67184139661835, "longitude": -79.39347931429988}, "848810677RR0001": {"name": "HELIOS LEARNING POINT SOCIETY", "designationCode": "C", "categoryCode": "20", "address": "229 WEST 22ND STREET", "city": "NORTH VANCOUVER", "province": "BC", "country": "CA", "postalCode": "V7M2A2", "twitter": "None", "instagram": "None", "facebook": "None", "youtube": "None", "website": "None", "summary": "None", "logo": "None", "latitude": 49.32928651399405, "longitude": -123.07671279280402}, "870745338RR0001": {"name": "HELLENIC APPEAL FOUNDATION / LA FONDATION D'APPEL HELLENIQUE", "designationCode": "C", "categoryCode": "09", "address": "3400, BOUL. DU SOUVENIR       SUITE 110", "city": "LAVAL", "province": "QC", "country": "CA", "postalCode": "H7V3Z2", "twitter": "None", "instagram": "None", "facebook": "None", "youtube": "None", "website": "None", "summary": "None", "logo": "None", "latitude": 45.5511582317216, "longitude": -73.7464245890705}, "889290045RR0001": {"name": "HELLENIC CANADIAN COMMUNITY OF GUELPH INC", "designationCode": "C", "categoryCode": "39", "address": "50 DOVERCLIFFE ROAD UNIT 11", "city": "GUELPH", "province": "ON", "country": "CA", "postalCode": "N1G3A6", "twitter": "None", "instagram": "None", "facebook": "None", "youtube": "None", "website": "None", "summary": "None", "logo": "None", "latitude": 43.51175264611354, "longitude": -80.25448250063516}, "118955699RR0001": {"name": "HELLENIC CANADIAN ORTHODOX MISSIONARY FRATERNITY, THE CROSS/FRATERNITE MISSIONNAIRE ORTHODOX HELLENIQUE CANADIENNE LA CROIX", "designationCode": "C", "categoryCode": "39", "address": "7731 BLOOMFIELD", "city": "MONTREAL", "province": "QC", "country": "CA", "postalCode": "H3N2G7", "twitter": "None", "instagram": "None", "facebook": "None", "youtube": "None", "website": "None", "summary": "None", "logo": "None", "latitude": 45.529248387366316, "longitude": -73.63020900489964}, "885340554RR0001": {"name": "HELLENIC CARE FOR SENIORS (TORONTO) INC", "designationCode": "C", "categoryCode": "10", "address": "33 WINONA DRIVE", "city": "TORONTO", "province": "ON", "country": "CA", "postalCode": "M6G3Z7", "twitter": "None", "instagram": "None", "facebook": "None", "youtube": "None", "website": "None", "summary": "None", "logo": "None", "latitude": 43.67634942215359, "longitude": -79.43082782151323}, "118955715RR0001": {"name": "HELLENIC COMMUNITY OF BROCKVILLE", "designationCode": "C", "categoryCode": "39", "address": "P-O BOX 1521", "city": "BROCKVILLE", "province": "ON", "country": "CA", "postalCode": "K6V6E6", "twitter": "None", "instagram": "None", "facebook": "None", "youtube": "None", "website": "None", "summary": "None", "logo": "None", "latitude": 44.59037100000006, "longitude": -75.68301049999994}, "118955723RR0001": {"name": "HELLENIC COMMUNITY OF HAMILTON AND DISTRICT", "designationCode": "C", "categoryCode": "39", "address": "22 HEAD ST", "city": "HAMILTON", "province": "ON", "country": "CA", "postalCode": "L8R1P9", "twitter": "None", "instagram": "None", "facebook": "None", "youtube": "None", "website": "None", "summary": "None", "logo": "None", "latitude": 43.262900757169916, "longitude": -79.88588298652556}, "118955731RR0001": {"name": "HELLENIC COMMUNITY OF OTTAWA", "designationCode": "C", "categoryCode": "39", "address": "1315 PRINCE OF WALES DR", "city": "OTTAWA", "province": "ON", "country": "CA", "postalCode": "K2C1N2", "twitter": "None", "instagram": "None", "facebook": "None", "youtube": "None", "website": "None", "summary": "None", "logo": "None", "latitude": 45.3709066961448, "longitude": -75.70553444347654}, "118955749RR0001": {"name": "HELLENIC COMMUNITY OF VANCOUVER ST. GEORGES GREEK ORTHODOX CHURCH", "designationCode": "C", "categoryCode": "39", "address": "2440 ALMA STREET", "city": "VANCOUVER", "province": "BC", "country": "CA", "postalCode": "V6R3R7", "twitter": "None", "instagram": "None", "facebook": "None", "youtube": "None", "website": "None", "summary": "None", "logo": "None", "latitude": 49.26496792198551, "longitude": -123.18579202733228}, "887769297RR0001": {"name": "HELLENIC HERITAGE FUND", "designationCode": "A", "categoryCode": "03", "address": "44 UPJOHN ROAD", "city": "TORONTO", "province": "ON", "country": "CA", "postalCode": "M3B2W1", "twitter": "None", "instagram": "None", "facebook": "None", "youtube": "None", "website": "None", "summary": "None", "logo": "None", "latitude": 43.75138386926548, "longitude": -79.34943594884264}, "107476053RR0001": {"name": "HELLENIC HOME FOR THE AGED INC.", "designationCode": "C", "categoryCode": "01", "address": "33 WINONA DR", "city": "TORONTO", "province": "ON", "country": "CA", "postalCode": "M6G3Z7", "twitter": "None", "instagram": "None", "facebook": "None", "youtube": "None", "website": "None", "summary": "None", "logo": "None", "latitude": 43.67634942215359, "longitude": -79.43082782151323}, "895014413RR0001": {"name": "HELLENIC HOPE CENTER FOR PERSONS WITH SPECIAL NEEDS INC.", "designationCode": "C", "categoryCode": "09", "address": "3615 DANFORTH AVENUE", "city": "TORONTO", "province": "ON", "country": "CA", "postalCode": "M1N2G1", "twitter": "None", "instagram": "None", "facebook": "None", "youtube": "None", "website": "None", "summary": "None", "logo": "None", "latitude": 43.695401900340606, "longitude": -79.26866431845481}, "133990648RR0001": {"name": "HELLENIC HOUSING SOCIETY OF B.C.", "designationCode": "C", "categoryCode": "09", "address": "410 - 1669 BROADWAY E", "city": "VANCOUVER", "province": "BC", "country": "CA", "postalCode": "V5N1V9", "twitter": "None", "instagram": "None", "facebook": "None", "youtube": "None", "website": "None", "summary": "None", "logo": "None", "latitude": 49.26235347879261, "longitude": -123.07054402553523}, "118955772RR0001": {"name": "HELLENIC LADIES BENEVOLENT SOCIETY", "designationCode": "C", "categoryCode": "09", "address": "C.P. 94", "city": "MOUNT-ROYAL", "province": "QC", "country": "CA", "postalCode": "H3P3B8", "twitter": "None", "instagram": "None", "facebook": "None", "youtube": "None", "website": "None", "summary": "None", "logo": "None", "latitude": 45.52210500000005, "longitude": -73.63759399999994}, "871852299RR0001": {"name": "HELLENIC MINISTRIES - CANADA", "designationCode": "C", "categoryCode": "47", "address": "17 ROMAN RD", "city": "THORNHILL", "province": "ON", "country": "CA", "postalCode": "L3T4J8", "twitter": "None", "instagram": "None", "facebook": "None", "youtube": "None", "website": "None", "summary": "None", "logo": "None", "latitude": 43.82169875434262, "longitude": -79.36567696696297}, "887206399RR0001": {"name": "HELLENIC ORTHODOX COMMUNITY OF EVANGELISMOS TIS THEOTOKOU OSHAWA AND DISTRICT", "designationCode": "C", "categoryCode": "39", "address": "399 FAREWELL ST", "city": "OSHAWA", "province": "ON", "country": "CA", "postalCode": "L1H6M1", "twitter": "None", "instagram": "None", "facebook": "None", "youtube": "None", "website": "None", "summary": "None", "logo": "None", "latitude": 43.89285577135605, "longitude": -78.83412091629576}, "107476061RR0001": {"name": "HELLENIC ORTHODOX COMMUNITY OF KINGSTON", "designationCode": "C", "categoryCode": "39", "address": "121 JOHNSON STREET", "city": "KINGSTON", "province": "ON", "country": "CA", "postalCode": "K7L1X9", "twitter": "None", "instagram": "None", "facebook": "None", "youtube": "None", "website": "None", "summary": "None", "logo": "None", "latitude": 44.22987315211481, "longitude": -76.48474948055295}, "118955798RR0001": {"name": "HELLENIC ORTHODOX COMMUNITY OF KOIMISIS TIS THEOTOKOU OF SASKATOON", "designationCode": "C", "categoryCode": "39", "address": "1020 DUFFERIN AVE", "city": "SASKATOON", "province": "SK", "country": "CA", "postalCode": "S7H2C1", "twitter": "None", "instagram": "None", "facebook": "None", "youtube": "None", "website": "None", "summary": "None", "logo": "None", "latitude": 52.114869, "longitude": -106.65414626773016}, "888013067RR0001": {"name": "HELLENIC-CANADIAN COMMUNITY OF EDMONTON AND REGION", "designationCode": "C", "categoryCode": "29", "address": "10450 - 116 STREET N.W.", "city": "EDMONTON", "province": "AB", "country": "CA", "postalCode": "T5K2S4", "twitter": "None", "instagram": "None", "facebook": "None", "youtube": "None", "website": "None", "summary": "None", "logo": "None", "latitude": 53.54737512828169, "longitude": -113.52134765774072}, "138359575RR0001": {"name": "HELLENIC-CANADIAN FEDERATION OF ONTARIO CHARITABLE AND EDUCATIONAL FOUNDATION", "designationCode": "A", "categoryCode": "23", "address": "1127-B BROADVIEW AVENUE", "city": "TORONTO", "province": "ON", "country": "CA", "postalCode": "M4K2S6", "twitter": "None", "instagram": "None", "facebook": "None", "youtube": "None", "website": "None", "summary": "None", "logo": "None", "latitude": 43.687301668878824, "longitude": -79.3557072265857}, "885386516RR0001": {"name": "HELLER FAMILY CHARITY", "designationCode": "B", "categoryCode": "05", "address": "333 WILSON AVENUE             SUITE 400", "city": "TORONTO", "province": "ON", "country": "CA", "postalCode": "M3H1T2", "twitter": "None", "instagram": "None", "facebook": "None", "youtube": "None", "website": "None", "summary": "None", "logo": "None", "latitude": 43.737049856483516, "longitude": -79.43551650109652}, "130523822RR0001": {"name": "HELP A CHILD SMILE (ONTARIO)", "designationCode": "C", "categoryCode": "09", "address": "BOX 871", "city": "WELLAND", "province": "ON", "country": "CA", "postalCode": "L3B5Y5", "twitter": "None", "instagram": "None", "facebook": "None", "youtube": "None", "website": "None", "summary": "None", "logo": "None", "latitude": 42.99349200000006, "longitude": -79.23902299999993}, "853355071RR0001": {"name": "HELP A VILLAGE EFFORT INC.", "designationCode": "A", "categoryCode": "05", "address": "P.O. BOX 553", "city": "MINDEN", "province": "ON", "country": "CA", "postalCode": "K0M2K0", "twitter": "None", "instagram": "None", "facebook": "None", "youtube": "None", "website": "None", "summary": "None", "logo": "None", "latitude": 45.00243600000006, "longitude": -78.58882699999994}, "130310469RR0001": {"name": "HELP AND HOPE FOR FAMILIES SOCIETY", "designationCode": "C", "categoryCode": "09", "address": "BOX 864", "city": "WATSON LAKE", "province": "YT", "country": "CA", "postalCode": "Y0A1C0", "twitter": "None", "instagram": "None", "facebook": "None", "youtube": "None", "website": "None", "summary": "None", "logo": "None", "latitude": 60.062928000000056, "longitude": -128.71524049999994}, "118955830RR0001": {"name": "HELP FILL A DREAM FOUNDATION OF CANADA", "designationCode": "C", "categoryCode": "09", "address": "UNIT D, 4085 QUADRA STREET", "city": "VICTORIA", "province": "BC", "country": "CA", "postalCode": "V8X1K5", "twitter": "None", "instagram": "None", "facebook": "None", "youtube": "None", "website": "None", "summary": "None", "logo": "None", "latitude": 48.474207948332555, "longitude": -123.37131021841341}, "890017353RR0001": {"name": "HELP FOR HEADACHES OF WINDSOR", "designationCode": "C", "categoryCode": "09", "address": "515 RICHMOND ST               BOX 1568 STN B", "city": "LONDON", "province": "ON", "country": "CA", "postalCode": "N6A5M3", "twitter": "None", "instagram": "None", "facebook": "None", "youtube": "None", "website": "None", "summary": "None", "logo": "None", "latitude": 42.98709600000001, "longitude": -81.25073856261164}, "890074644RR0001": {"name": "HELP FOR MISSIONS SOCIETY", "designationCode": "C", "categoryCode": "47", "address": "3744 DUNDAS STREET", "city": "BURNABY", "province": "BC", "country": "CA", "postalCode": "V5C1A2", "twitter": "None", "instagram": "None", "facebook": "None", "youtube": "None", "website": "None", "summary": "None", "logo": "None", "latitude": 49.284698481245464, "longitude": -123.02227333236193}, "822468476RR0001": {"name": "HELP LESOTHO", "designationCode": "C", "categoryCode": "09", "address": "610, BRONSON AVENUE", "city": "OTTAWA", "province": "ON", "country": "CA", "postalCode": "K1S4E6", "twitter": "None", "instagram": "None", "facebook": "None", "youtube": "None", "website": "None", "summary": "None", "logo": "None", "latitude": 45.404193752409405, "longitude": -75.70158286392709}, "107843401RR0001": {"name": "HELP LINE SOCIETY - PICTOU COUNTY", "designationCode": "C", "categoryCode": "09", "address": "75 LAVINIA STREET, SUITE 119", "city": "NEW GLASGOW", "province": "NS", "country": "CA", "postalCode": "B2H1N5", "twitter": "None", "instagram": "None", "facebook": "None", "youtube": "None", "website": "None", "summary": "None", "logo": "None", "latitude": 45.591291183302275, "longitude": -62.64838275911471}, "835804055RR0001": {"name": "HELP ONE ANOTHER CANADA FOUNDATION", "designationCode": "C", "categoryCode": "09", "address": "16204-53 STREET", "city": "EDMONTON", "province": "AB", "country": "CA", "postalCode": "T5Y3C6", "twitter": "None", "instagram": "None", "facebook": "None", "youtube": "None", "website": "None", "summary": "None", "logo": "None", "latitude": 53.62353992200934, "longitude": -113.4174767981128}, "827531922RR0001": {"name": "HELP ORPHANS AND PROMOTE EDUCATION FOUNDATION", "designationCode": "C", "categoryCode": "21", "address": "84 STRICKLAND DR", "city": "AJAX", "province": "ON", "country": "CA", "postalCode": "L1T4A3", "twitter": "None", "instagram": "None", "facebook": "None", "youtube": "None", "website": "None", "summary": "None", "logo": "None", "latitude": 43.868581081337524, "longitude": -79.06218043242536}, "861304459RR0001": {"name": "HELPING ACQUIRED BRAIN INJURY TREATMENT (H.A.B.I.T.)", "designationCode": "C", "categoryCode": "11", "address": "P.O. BOX 24136", "city": "LONDON", "province": "ON", "country": "CA", "postalCode": "N6H5C4", "twitter": "None", "instagram": "None", "facebook": "None", "youtube": "None", "website": "None", "summary": "None", "logo": "None", "latitude": 42.98689500000006, "longitude": -81.24624349999993}, "835054149RR0001": {"name": "HELPING COPE THROUGH HOPE", "designationCode": "C", "categoryCode": "47", "address": "11 MAPLE STREET", "city": "NAPANEE", "province": "ON", "country": "CA", "postalCode": "K7R3L1", "twitter": "None", "instagram": "None", "facebook": "None", "youtube": "None", "website": "None", "summary": "None", "logo": "None", "latitude": 44.2719094009729, "longitude": -76.97140988411931}, "863505657RR0001": {"name": "HELPING FAMILIES IN NEED SOCIETY", "designationCode": "C", "categoryCode": "09", "address": "4610 FAIRLAWN DRIVE", "city": "BURNABY", "province": "BC", "country": "CA", "postalCode": "V5C3R6", "twitter": "None", "instagram": "None", "facebook": "None", "youtube": "None", "website": "None", "summary": "None", "logo": "None", "latitude": 49.271329001845736, "longitude": -122.99957884783674}, "894153386RR0001": {"name": "HELPING HAND FOOD BANK", "designationCode": "C", "categoryCode": "01", "address": "PO BOX 144", "city": "TILLSONBURG", "province": "ON", "country": "CA", "postalCode": "N4G4H3", "twitter": "None", "instagram": "None", "facebook": "None", "youtube": "None", "website": "None", "summary": "None", "logo": "None", "latitude": 42.86066100000005, "longitude": -80.72789299999994}, "890798994RR0001": {"name": "HELPING HAND FOOD BANK INCORPORATED", "designationCode": "C", "categoryCode": "09", "address": "POST OFFICE BOX 1268", "city": "BRADFORD", "province": "ON", "country": "CA", "postalCode": "L3Z2B6", "twitter": "None", "instagram": "None", "facebook": "None", "youtube": "None", "website": "None", "summary": "None", "logo": "None", "latitude": 44.11482000000005, "longitude": -79.56249199999993}, "890560642RR0001": {"name": "HELPING HANDS AUXILIARY", "designationCode": "C", "categoryCode": "09", "address": "750 TUNGSTEN STREET", "city": "THUNDER BAY", "province": "ON", "country": "CA", "postalCode": "P7B6R1", "twitter": "None", "instagram": "None", "facebook": "None", "youtube": "None", "website": "None", "summary": "None", "logo": "None", "latitude": 48.416813751408284, "longitude": -89.25443810339634}, "128215274RR0001": {"name": "HELPING HANDS CENTRE OF BRANDON, INC", "designationCode": "C", "categoryCode": "09", "address": "111-7TH STREET", "city": "BRANDON", "province": "MB", "country": "CA", "postalCode": "R7A3A5", "twitter": "None", "instagram": "None", "facebook": "None", "youtube": "None", "website": "None", "summary": "None", "logo": "None", "latitude": 49.847838188988135, "longitude": -99.94727179960428}, "830039947RR0001": {"name": "HELPING HANDS FOR MANITOBANS WITH BREAST CANCER INC.", "designationCode": "C", "categoryCode": "09", "address": "PO BOX 35008                  963 HENDERSON HIGHWAY", "city": "WINNIPEG", "province": "MB", "country": "CA", "postalCode": "R2K2M3", "twitter": "None", "instagram": "None", "facebook": "None", "youtube": "None", "website": "None", "summary": "None", "logo": "None", "latitude": 49.934176613914744, "longitude": -97.09702149851454}, "848327128RR0001": {"name": "HELPING HANDS OUTREACH INTERNATIONAL", "designationCode": "C", "categoryCode": "09", "address": "3-C-3180 KIRWIN AVENUE", "city": "MISSISSAUGA", "province": "ON", "country": "CA", "postalCode": "L5A2K7", "twitter": "None", "instagram": "None", "facebook": "None", "youtube": "None", "website": "None", "summary": "None", "logo": "None", "latitude": 43.585043581770215, "longitude": -79.61800009302294}, "891022741RR0001": {"name": "HELPING HANDS OUTREACH SOCIETY", "designationCode": "C", "categoryCode": "57", "address": "12370 244 ST", "city": "MAPLE RIDGE", "province": "BC", "country": "CA", "postalCode": "V4R1L1", "twitter": "None", "instagram": "None", "facebook": "None", "youtube": "None", "website": "None", "summary": "None", "logo": "None", "latitude": 49.22720061226846, "longitude": -122.54604893828333}, "854078201RR0001": {"name": "HELPING HANDS RESOURCE CENTRE FOR IMMIGRANTS INC.", "designationCode": "C", "categoryCode": "09", "address": "331 HATCHER ROAD", "city": "WINNIPEG", "province": "MB", "country": "CA", "postalCode": "R2C3W8", "twitter": "None", "instagram": "None", "facebook": "None", "youtube": "None", "website": "None", "summary": "None", "logo": "None", "latitude": 49.89247252510254, "longitude": -97.04094208826244}, "874272511RR0001": {"name": "HELPING HANDS SOUTH OF SMOKEY SOCIETY", "designationCode": "C", "categoryCode": "09", "address": "P.O. BOX 402", "city": "BADDECK", "province": "NS", "country": "CA", "postalCode": "B0E1B0", "twitter": "None", "instagram": "None", "facebook": "None", "youtube": "None", "website": "None", "summary": "None", "logo": "None", "latitude": 46.087500000000034, "longitude": -60.780119999999954}, "835844275RR0001": {"name": "HELPING HANDS, WHERE COMMUNITY CONCERNS MATTER", "designationCode": "C", "categoryCode": "09", "address": "48 TOURMALINE DR", "city": "SCARBOROUGH", "province": "ON", "country": "CA", "postalCode": "M1T1X2", "twitter": "None", "instagram": "None", "facebook": "None", "youtube": "None", "website": "None", "summary": "None", "logo": "None", "latitude": 43.77280907412416, "longitude": -79.29780731585774}, "137146627RR0001": {"name": "HELPING OURSELVES THROUGH PEER SUPPORT & EMPLOYMENT", "designationCode": "C", "categoryCode": "59", "address": "44 KING ST                    SUITE 203", "city": "BRANTFORD", "province": "ON", "country": "CA", "postalCode": "N3T3C7", "twitter": "None", "instagram": "None", "facebook": "None", "youtube": "None", "website": "None", "summary": "None", "logo": "None", "latitude": 43.140111003780234, "longitude": -80.26747683436446}, "860479625RR0001": {"name": "HELPING SPIRIT LODGE FOUNDATION", "designationCode": "A", "categoryCode": "03", "address": "3965 DUMFRIES STREET", "city": "VANCOUVER", "province": "BC", "country": "CA", "postalCode": "V5N5R3", "twitter": "None", "instagram": "None", "facebook": "None", "youtube": "None", "website": "None", "summary": "None", "logo": "None", "latitude": 49.24982990088597, "longitude": -123.07337887255122}, "133811406RR0001": {"name": "HELPING SPIRIT LODGE SOCIETY", "designationCode": "C", "categoryCode": "59", "address": "3965 DUMFRIES ST", "city": "VANCOUVER", "province": "BC", "country": "CA", "postalCode": "V5N5R3", "twitter": "None", "instagram": "None", "facebook": "None", "youtube": "None", "website": "None", "summary": "None", "logo": "None", "latitude": 49.24982990088597, "longitude": -123.07337887255122}, "828039545RR0001": {"name": "HELPING YOUTH THROUGH EDUCATIONAL SCHOLARSHIPS", "designationCode": "C", "categoryCode": "21", "address": "4676 QUENTIN ST SW", "city": "CALGARY", "province": "AB", "country": "CA", "postalCode": "T2T6E1", "twitter": "None", "instagram": "None", "facebook": "None", "youtube": "None", "website": "None", "summary": "None", "logo": "None", "latitude": 51.01288199999999, "longitude": -114.11061930806747}, "107476475RR0001": {"name": "HELPLINE INC.", "designationCode": "C", "categoryCode": "59", "address": "101 D'AMOURS STREET", "city": "OROMOCTO", "province": "NB", "country": "CA", "postalCode": "E2V0G5", "twitter": "None", "instagram": "None", "facebook": "None", "youtube": "None", "website": "None", "summary": "None", "logo": "None", "latitude": 45.83895617128843, "longitude": -66.49451287196554}, "892699158RR0001": {"name": "HELSAM FOUNDATION/FONDATION HELSAM", "designationCode": "B", "categoryCode": "03", "address": "4150 SAINTE-CATHERINE WEST    SUITE 300", "city": "WESTMOUNT", "province": "QC", "country": "CA", "postalCode": "H3Z2Y5", "twitter": "None", "instagram": "None", "facebook": "None", "youtube": "None", "website": "None", "summary": "None", "logo": "None", "latitude": 45.48667562946514, "longitude": -73.58731726170022}, "897134623RR0001": {"name": "HEMA-QUEBEC", "designationCode": "C", "categoryCode": "19", "address": "4045 BOUL DE LA COTE-VERTU", "city": "SAINT-LAURENT", "province": "QC", "country": "CA", "postalCode": "H4R2W7", "twitter": "None", "instagram": "None", "facebook": "None", "youtube": "None", "website": "None", "summary": "None", "logo": "None", "latitude": 45.491099853501055, "longitude": -73.71213253923236}, "128286432RR0001": {"name": "HEMFORD & DISTRICT FIRE DEPARTMENT", "designationCode": "C", "categoryCode": "59", "address": "RR#4 1614 HWY 208", "city": "NEW GERMANY", "province": "NS", "country": "CA", "postalCode": "B0R1E0", "twitter": "None", "instagram": "None", "facebook": "None", "youtube": "None", "website": "None", "summary": "None", "logo": "None", "latitude": 44.52783895735428, "longitude": -64.79086722244315}, "118955947RR0001": {"name": "HEMMINGFORD PASTORAL CHARGE", "designationCode": "C", "categoryCode": "44", "address": "2 - 476 RUE FRONTIERE", "city": "HEMMINGFORD", "province": "QC", "country": "CA", "postalCode": "J0L1H0", "twitter": "None", "instagram": "None", "facebook": "None", "youtube": "None", "website": "None", "summary": "None", "logo": "None", "latitude": 45.05184183714809, "longitude": -73.58535707203374}, "862093234RR0001": {"name": "HEMOGLOBAL", "designationCode": "C", "categoryCode": "11", "address": "75 INDIAN GROVE", "city": "TORONTO", "province": "ON", "country": "CA", "postalCode": "M6R2Y5", "twitter": "None", "instagram": "None", "facebook": "None", "youtube": "None", "website": "None", "summary": "None", "logo": "None", "latitude": 43.65341647905241, "longitude": -79.45796967413027}}