{"897872578RR0001": {"name": "SCARBOROUGH FULL GOSPEL ASSEMBLY", "designationCode": "C", "categoryCode": "39", "address": "515 - 2 GLAMORGAN AVE", "city": "SCARBOROUGH", "province": "ON", "country": "CA", "postalCode": "M1P2M8", "twitter": "None", "instagram": "None", "facebook": "None", "youtube": "None", "website": "None", "summary": "None", "logo": "None", "latitude": 43.76922292480796, "longitude": -79.28328962421367}, "891098980RR0001": {"name": "SCARBOROUGH HISTORICAL SOCIETY", "designationCode": "C", "categoryCode": "50", "address": "6282 KINGSTON RD.", "city": "HIGHLAND CREEK", "province": "ON", "country": "CA", "postalCode": "M1C1K9", "twitter": "None", "instagram": "None", "facebook": "None", "youtube": "None", "website": "None", "summary": "None", "logo": "None", "latitude": 43.78869500750182, "longitude": -79.16229644783303}, "894945633RR0060": {"name": "SCARBOROUGH MANDARIN ALLIANCE CHURCH OF THE CHRISTIAN & MISSIONARY ALLIANCE IN CANADA", "designationCode": "C", "categoryCode": "39", "address": "3838 MIDLAND AVE, UNIT 114", "city": "SCARBOROUGH", "province": "ON", "country": "CA", "postalCode": "M1V5K5", "twitter": "None", "instagram": "None", "facebook": "None", "youtube": "None", "website": "None", "summary": "None", "logo": "None", "latitude": 43.819471823475126, "longitude": -79.29443466114586}, "889756441RR0001": {"name": "SCARBOROUGH MUSLIM ASSOCIATION", "designationCode": "C", "categoryCode": "60", "address": "2665 LAWRENCE AVE E", "city": "SCARBOROUGH", "province": "ON", "country": "CA", "postalCode": "M1P2S2", "twitter": "None", "instagram": "None", "facebook": "None", "youtube": "None", "website": "None", "summary": "None", "logo": "None", "latitude": 43.752060800941024, "longitude": -79.26234679972893}, "119142370RR0001": {"name": "SCARBOROUGH PHILHARMONIC ORCHESTRA", "designationCode": "C", "categoryCode": "22", "address": "302 - 1210 SHEPPARD AVE E", "city": "NORTH YORK", "province": "ON", "country": "CA", "postalCode": "M2K1E3", "twitter": "None", "instagram": "None", "facebook": "None", "youtube": "None", "website": "None", "summary": "None", "logo": "None", "latitude": 43.771483590214814, "longitude": -79.36754364661893}, "866258320RR0001": {"name": "SCARBOROUGH PLAYERS", "designationCode": "C", "categoryCode": "22", "address": "3600 KINGSTON ROAD", "city": "SCARBOROUGH", "province": "ON", "country": "CA", "postalCode": "M1M1R9", "twitter": "None", "instagram": "None", "facebook": "None", "youtube": "None", "website": "None", "summary": "None", "logo": "None", "latitude": 43.739715287841015, "longitude": -79.2162222709328}, "107797383RR0073": {"name": "SCARBOROUGH SEVENTH-DAY ADVENTIST CHURCH", "designationCode": "C", "categoryCode": "41", "address": "4350 LAWRENCE AVE E", "city": "SCARBOROUGH", "province": "ON", "country": "CA", "postalCode": "M1E2T1", "twitter": "None", "instagram": "None", "facebook": "None", "youtube": "None", "website": "None", "summary": "None", "logo": "None", "latitude": 43.77152613962135, "longitude": -79.17240759714923}, "892291766RR0001": {"name": "SCARBOROUGH SPOKEN WORD CHRISTIAN FELLOWSHIP", "designationCode": "C", "categoryCode": "49", "address": "25 SEWELLS ROAD", "city": "SCARBOROUGH", "province": "ON", "country": "CA", "postalCode": "M1B3H2", "twitter": "None", "instagram": "None", "facebook": "None", "youtube": "None", "website": "None", "summary": "None", "logo": "None", "latitude": 43.80761368024712, "longitude": -79.21593158852224}, "119142420RR0001": {"name": "SCARBOROUGH THEATRE GUILD", "designationCode": "C", "categoryCode": "22", "address": "CEDAR HEIGHTS, P.O. BOX 55530 629 MARKHAM ROAD", "city": "SCARBOROUGH", "province": "ON", "country": "CA", "postalCode": "M1H2A4", "twitter": "None", "instagram": "None", "facebook": "None", "youtube": "None", "website": "None", "summary": "None", "logo": "None", "latitude": 43.7604403748056, "longitude": -79.22549703623059}, "107959660RR0001": {"name": "SCARBOROUGH WOMEN'S CENTRE", "designationCode": "C", "categoryCode": "09", "address": "2100 ELLESMERE SUITE 245", "city": "SCARBOROUGH", "province": "ON", "country": "CA", "postalCode": "M1H3B7", "twitter": "None", "instagram": "None", "facebook": "None", "youtube": "None", "website": "None", "summary": "None", "logo": "None", "latitude": 43.776242177418915, "longitude": -79.23288887901764}, "884271180RR0001": {"name": "SCAT STREET CAT RESCUE PROGRAM INC.", "designationCode": "C", "categoryCode": "54", "address": "PO BOX 31041 RPO BROADWAY", "city": "SASKATOON", "province": "SK", "country": "CA", "postalCode": "S7H5S8", "twitter": "None", "instagram": "None", "facebook": "None", "youtube": "None", "website": "None", "summary": "None", "logo": "None", "latitude": 52.111957113179834, "longitude": -106.65675099066506}, "119203818RR0001": {"name": "SCE LIFEWORKS INC.", "designationCode": "C", "categoryCode": "01", "address": "227-530 CENTURY STREET", "city": "WINNIPEG", "province": "MB", "country": "CA", "postalCode": "R3H0Y4", "twitter": "None", "instagram": "None", "facebook": "None", "youtube": "None", "website": "None", "summary": "None", "logo": "None", "latitude": 49.89972725797844, "longitude": -97.20268499212953}, "129986717RR0001": {"name": "SCEP CENTRE SOCIETY (REGINA)", "designationCode": "C", "categoryCode": "11", "address": "4210 4TH AVE", "city": "REGINA", "province": "SK", "country": "CA", "postalCode": "S4T0H6", "twitter": "None", "instagram": "None", "facebook": "None", "youtube": "None", "website": "None", "summary": "None", "logo": "None", "latitude": 50.46296649826831, "longitude": -104.64222222300768}, "120779236RR0001": {"name": "SCEPTIQUES DU QUEBEC", "designationCode": "C", "categoryCode": "21", "address": "C.P. 49067", "city": "MONTREAL", "province": "QC", "country": "CA", "postalCode": "H1N3T6", "twitter": "None", "instagram": "None", "facebook": "None", "youtube": "None", "website": "None", "summary": "None", "logo": "None", "latitude": 45.57543900000006, "longitude": -73.52860849999993}, "889553970RR0001": {"name": "SCEPTRE MEMORIAL GARDENS ASSOCIATION", "designationCode": "C", "categoryCode": "59", "address": "P.O. BOX 128", "city": "SCEPTRE", "province": "SK", "country": "CA", "postalCode": "S0N2H0", "twitter": "None", "instagram": "None", "facebook": "None", "youtube": "None", "website": "None", "summary": "None", "logo": "None", "latitude": 50.850100000000054, "longitude": -109.25148999999999}, "119142529RR0001": {"name": "SCEPTRE UNITED CHURCH", "designationCode": "C", "categoryCode": "44", "address": "BOX 178", "city": "SCEPTRE", "province": "SK", "country": "CA", "postalCode": "S0N2H0", "twitter": "None", "instagram": "None", "facebook": "None", "youtube": "None", "website": "None", "summary": "None", "logo": "None", "latitude": 50.850100000000054, "longitude": -109.25148999999999}, "119142537RR0001": {"name": "SCHARA TZEDECK CEMETERY BOARD", "designationCode": "C", "categoryCode": "59", "address": "2345 MARINE DR", "city": "NEW WESTMINSTER", "province": "BC", "country": "CA", "postalCode": "V3M6R8", "twitter": "None", "instagram": "None", "facebook": "None", "youtube": "None", "website": "None", "summary": "None", "logo": "None", "latitude": 49.19825809232505, "longitude": -122.95484766021326}, "837985340RR0001": {"name": "SCHEIN FOUNDATION", "designationCode": "B", "categoryCode": "03", "address": "4653 DRUMMOND DR", "city": "VANCOUVER", "province": "BC", "country": "CA", "postalCode": "V6R1E8", "twitter": "None", "instagram": "None", "facebook": "None", "youtube": "None", "website": "None", "summary": "None", "logo": "None", "latitude": 49.271879775751565, "longitude": -123.21390928599469}, "891024549RR0001": {"name": "SCHELL SCHOOL FUNDRAISING COMMITTEE", "designationCode": "C", "categoryCode": "21", "address": "BOX 28", "city": "HOLDFAST", "province": "SK", "country": "CA", "postalCode": "S0G2H0", "twitter": "None", "instagram": "None", "facebook": "None", "youtube": "None", "website": "None", "summary": "None", "logo": "None", "latitude": 50.966770000000054, "longitude": -105.41784999999999}, "130485816RR0001": {"name": "SCHIZOPHRENIA SOCIETY OF ALBERTA", "designationCode": "C", "categoryCode": "11", "address": "4809 48 AVE", "city": "RED DEER", "province": "AB", "country": "CA", "postalCode": "T4N3T2", "twitter": "None", "instagram": "None", "facebook": "None", "youtube": "None", "website": "None", "summary": "None", "logo": "None", "latitude": 52.26750807799064, "longitude": -113.80897558684879}, "870700846RR0001": {"name": "SCHIZOPHRENIA SOCIETY OF CANADA FOUNDATION/FONDATION DE SOCI\u00c9T\u00c9 CANADIENNE DE SCHIZOPHR\u00c9NIE", "designationCode": "C", "categoryCode": "11", "address": "100-4 FORT STREET", "city": "WINNIPEG", "province": "MB", "country": "CA", "postalCode": "R3C1C4", "twitter": "None", "instagram": "None", "facebook": "None", "youtube": "None", "website": "None", "summary": "None", "logo": "None", "latitude": 49.886708437965275, "longitude": -97.1353738065669}, "106846553RR0001": {"name": "SCHIZOPHRENIA SOCIETY OF CANADA/SOCIETE CANADIENNE DE SCHIZOPHRENIE", "designationCode": "C", "categoryCode": "09", "address": "100-4 FORT ST", "city": "WINNIPEG", "province": "MB", "country": "CA", "postalCode": "R3C1C4", "twitter": "None", "instagram": "None", "facebook": "None", "youtube": "None", "website": "None", "summary": "None", "logo": "None", "latitude": 49.886708437965275, "longitude": -97.1353738065669}, "886091495RR0001": {"name": "SCHIZOPHRENIA SOCIETY OF NEW BRUNSWICK INC/LA SOCIETE DE SCHIZOPHRENTENIE DU NOUVEAU-BRUNSWICK", "designationCode": "C", "categoryCode": "11", "address": "PO BOX 562", "city": "MIRAMICHI", "province": "NB", "country": "CA", "postalCode": "E1V3T7", "twitter": "None", "instagram": "None", "facebook": "None", "youtube": "None", "website": "None", "summary": "None", "logo": "None", "latitude": 47.00187600000005, "longitude": -65.56824349999994}, "874282148RR0001": {"name": "SCHIZOPHRENIA SOCIETY OF NEWFOUNDLAND AND LABRADOR INC.", "designationCode": "C", "categoryCode": "11", "address": "48 KENMOUNT RD.               P.O. BOX 28029", "city": "ST JOHNS", "province": "NL", "country": "CA", "postalCode": "A1B1W2", "twitter": "None", "instagram": "None", "facebook": "None", "youtube": "None", "website": "None", "summary": "None", "logo": "None", "latitude": 47.55923313642354, "longitude": -52.75201821935239}, "130336316RR0001": {"name": "SCHIZOPHRENIA SOCIETY OF NOVA SCOTIA", "designationCode": "C", "categoryCode": "11", "address": "101 - 5571 CUNARD ST", "city": "HALIFAX", "province": "NS", "country": "CA", "postalCode": "B3K1C5", "twitter": "None", "instagram": "None", "facebook": "None", "youtube": "None", "website": "None", "summary": "None", "logo": "None", "latitude": 44.652427207888465, "longitude": -63.58680886831316}, "129904058RR0001": {"name": "SCHIZOPHRENIA SOCIETY OF ONTARIO", "designationCode": "C", "categoryCode": "11", "address": "130 SPADINA AVE.,             SUITE 302", "city": "TORONTO", "province": "ON", "country": "CA", "postalCode": "M5V2L4", "twitter": "None", "instagram": "None", "facebook": "None", "youtube": "None", "website": "None", "summary": "None", "logo": "None", "latitude": 43.647685177073136, "longitude": -79.39608485374221}, "136805157RR0001": {"name": "SCHIZOPHRENIA SOCIETY OF PRINCE EDWARD ISLAND INC", "designationCode": "C", "categoryCode": "11", "address": "P.O. BOX 25020", "city": "CHARLOTTETOWN", "province": "PE", "country": "CA", "postalCode": "C1A9N4", "twitter": "None", "instagram": "None", "facebook": "None", "youtube": "None", "website": "None", "summary": "None", "logo": "None", "latitude": 46.23659700000006, "longitude": -63.12815449999994}, "894249861RR0001": {"name": "SCHIZOPHRENIA SOCIETY OF SASKATCHEWAN INC.", "designationCode": "C", "categoryCode": "11", "address": "BOX 305", "city": "REGINA", "province": "SK", "country": "CA", "postalCode": "S4P3A1", "twitter": "None", "instagram": "None", "facebook": "None", "youtube": "None", "website": "None", "summary": "None", "logo": "None", "latitude": 50.448246000000054, "longitude": -104.59517299999993}, "841471212RR0001": {"name": "SCHLEGEL-UW RESEARCH INSTITUTE FOR AGING FOUNDATION", "designationCode": "A", "categoryCode": "11", "address": "250 LAURELWOOD DR", "city": "WATERLOO", "province": "ON", "country": "CA", "postalCode": "N2J0E2", "twitter": "None", "instagram": "None", "facebook": "None", "youtube": "None", "website": "None", "summary": "None", "logo": "None", "latitude": 43.4748011198422, "longitude": -80.57343177500277}, "887910065RR0001": {"name": "SCHMIDT FAMILY FOUNDATION", "designationCode": "B", "categoryCode": "53", "address": "31192 FRASER WY S RR7", "city": "ABBOTSFORD", "province": "BC", "country": "CA", "postalCode": "V2T6L5", "twitter": "None", "instagram": "None", "facebook": "None", "youtube": "None", "website": "None", "summary": "None", "logo": "None", "latitude": 49.04811812887173, "longitude": -122.36041626556327}, "119142560RR0001": {"name": "SCHOENFELDER MENNONITE CHURCH INC.", "designationCode": "C", "categoryCode": "34", "address": "2256 HWY #26", "city": "ST FRANCIS XAVIER", "province": "MB", "country": "CA", "postalCode": "R4L1B4", "twitter": "None", "instagram": "None", "facebook": "None", "youtube": "None", "website": "None", "summary": "None", "logo": "None", "latitude": 49.96589526824395, "longitude": -97.63279899422265}, "865986582RR0001": {"name": "SCHOFAM CHARITABLE FOUNDATION", "designationCode": "B", "categoryCode": "03", "address": "201 BRIDGELAND AVENUE", "city": "TORONTO", "province": "ON", "country": "CA", "postalCode": "M6A1Y7", "twitter": "None", "instagram": "None", "facebook": "None", "youtube": "None", "website": "None", "summary": "None", "logo": "None", "latitude": 43.724679896445465, "longitude": -79.46720435899367}, "119142602RR0001": {"name": "SCHOLARSHIP BURSARY & EDUCATION COMMITTEE MEDICAL ALUMNI ASSOCIATION OF UNIVERSITY OF TORONTO", "designationCode": "C", "categoryCode": "21", "address": "1 KING'S COLLEGE CIR          MEDICAL SCIENCE BLDG RM 3249", "city": "TORONTO", "province": "ON", "country": "CA", "postalCode": "M5S1A8", "twitter": "None", "instagram": "None", "facebook": "None", "youtube": "None", "website": "None", "summary": "None", "logo": "None", "latitude": 43.661013000000054, "longitude": -79.39485349999994}, "119142628RR0001": {"name": "SCHOLARSHIP FUND OF THE CANADIAN FIRE SAFETY ASSOCIATION-ASSOCIATION CANADIENNE DE SECURITE INCENDIE", "designationCode": "C", "categoryCode": "21", "address": "210 - 2800 14TH AVE", "city": "MARKHAM", "province": "ON", "country": "CA", "postalCode": "L3R0E4", "twitter": "None", "instagram": "None", "facebook": "None", "youtube": "None", "website": "None", "summary": "None", "logo": "None", "latitude": 43.83064087099621, "longitude": -79.35710040899627}, "119142669RR0001": {"name": "SCHOLARSHIP TRUST FUND OF HOUR A DAY STUDY CLUB", "designationCode": "C", "categoryCode": "21", "address": "1165 KENNEDY DRIVE WEST", "city": "WINDSOR", "province": "ON", "country": "CA", "postalCode": "N9G1T3", "twitter": "None", "instagram": "None", "facebook": "None", "youtube": "None", "website": "None", "summary": "None", "logo": "None", "latitude": 42.254095904235754, "longitude": -83.01395575353456}, "887399798RR0001": {"name": "SCHOLARSHIP TRUST FUND OF THE CANADIAN FEDERATION OF UNIVERSITY WOMEN, BELLEVILLE & DISTRICT", "designationCode": "C", "categoryCode": "21", "address": "P. O. BOX 20033", "city": "BELLEVILLE", "province": "ON", "country": "CA", "postalCode": "K8N5V1", "twitter": "None", "instagram": "None", "facebook": "None", "youtube": "None", "website": "None", "summary": "None", "logo": "None", "latitude": 44.16104400000006, "longitude": -77.38183249999993}, "889440996RR0001": {"name": "SCHOLARSHIP/BURSARY COMMITTEE, C.F.U.W. CAPE BRETON BRANCH", "designationCode": "C", "categoryCode": "21", "address": "149 DUFFELL DR", "city": "SYDNEY", "province": "NS", "country": "CA", "postalCode": "B1P3G7", "twitter": "None", "instagram": "None", "facebook": "None", "youtube": "None", "website": "None", "summary": "None", "logo": "None", "latitude": 46.11997582125345, "longitude": -60.15986791369946}, "119142685RR0001": {"name": "SCHOMBERG AGRICULTURAL SOCIETY", "designationCode": "C", "categoryCode": "56", "address": "P.O. BOX 324", "city": "SCHOMBERG", "province": "ON", "country": "CA", "postalCode": "L0G1T0", "twitter": "None", "instagram": "None", "facebook": "None", "youtube": "None", "website": "None", "summary": "None", "logo": "None", "latitude": 44.00246003664379, "longitude": -79.68402999884614}, "119142693RR0001": {"name": "SCHOMBERG PASTORAL CHARGE", "designationCode": "C", "categoryCode": "44", "address": "BOX 248", "city": "SCHOMBERG", "province": "ON", "country": "CA", "postalCode": "L0G1T0", "twitter": "None", "instagram": "None", "facebook": "None", "youtube": "None", "website": "None", "summary": "None", "logo": "None", "latitude": 44.00246003664379, "longitude": -79.68402999884614}, "131909335RR0001": {"name": "SCHOMBERG PRESBYTERIAN CHURCH,", "designationCode": "C", "categoryCode": "37", "address": "P.O.BOX 121", "city": "SCHOMBERG", "province": "ON", "country": "CA", "postalCode": "L0G1T0", "twitter": "None", "instagram": "None", "facebook": "None", "youtube": "None", "website": "None", "summary": "None", "logo": "None", "latitude": 44.00246003664379, "longitude": -79.68402999884614}, "889403176RR0001": {"name": "SCHOOL DISTRICT NO 19 (REVELSTOKE) BURSARY, SCHOLARSHIP AND TEACHING AIDS TRUST FUND", "designationCode": "C", "categoryCode": "21", "address": "PO BOX 5800", "city": "REVELSTOKE", "province": "BC", "country": "CA", "postalCode": "V0E2S0", "twitter": "None", "instagram": "None", "facebook": "None", "youtube": "None", "website": "None", "summary": "None", "logo": "None", "latitude": 52.00738183978388, "longitude": -118.56208529545198}, "119142743RR0001": {"name": "SCHOOL DISTRICT NO. 12 SCHOLARSHIP TRUST COMMITTEE", "designationCode": "C", "categoryCode": "21", "address": "144 CONNELL PARK RD", "city": "WOODSTOCK", "province": "NB", "country": "CA", "postalCode": "E7M1M4", "twitter": "None", "instagram": "None", "facebook": "None", "youtube": "None", "website": "None", "summary": "None", "logo": "None", "latitude": 46.16041040395249, "longitude": -67.59036586949517}, "107962185RR0001": {"name": "SCHOOL DISTRICT OF MYSTERY LAKE 2355", "designationCode": "C", "categoryCode": "20", "address": "408 THOMPSON DR N", "city": "THOMPSON", "province": "MB", "country": "CA", "postalCode": "R8N0C5", "twitter": "None", "instagram": "None", "facebook": "None", "youtube": "None", "website": "None", "summary": "None", "logo": "None", "latitude": 55.745985222561984, "longitude": -97.873221222562}, "135912319RR0001": {"name": "SCHOOL LUNCH ASSOCIATION, INC", "designationCode": "C", "categoryCode": "09", "address": "40 NEWTOWN ROAD               MACPHERSON SCHOOL", "city": "ST JOHNS", "province": "NL", "country": "CA", "postalCode": "A1C4E1", "twitter": "None", "instagram": "None", "facebook": "None", "youtube": "None", "website": "None", "summary": "None", "logo": "None", "latitude": 47.56715004890614, "longitude": -52.71847993666718}, "119142875RR0001": {"name": "SCHOOL OF CELTIC STUDIES INC.", "designationCode": "C", "categoryCode": "22", "address": "500-5 DONALD STREET", "city": "WINNIPEG", "province": "MB", "country": "CA", "postalCode": "R3L2T4", "twitter": "None", "instagram": "None", "facebook": "None", "youtube": "None", "website": "None", "summary": "None", "logo": "None", "latitude": 49.88072169885744, "longitude": -97.13747212124215}, "888570249RR0001": {"name": "SCHOOL OF EAST INDIAN LANGUAGES AND PERFORMING ARTS OF CALGARY", "designationCode": "C", "categoryCode": "20", "address": "SUITE 350, 2949 17 AVE SE", "city": "CALGARY", "province": "AB", "country": "CA", "postalCode": "T2A0P7", "twitter": "None", "instagram": "None", "facebook": "None", "youtube": "None", "website": "None", "summary": "None", "logo": "None", "latitude": 51.037676168252325, "longitude": -113.99166939664279}, "888707262RR0001": {"name": "SCHOOL OF ECONOMIC SCIENCE", "designationCode": "C", "categoryCode": "20", "address": "168 HENDERSON AVE", "city": "OTTAWA", "province": "ON", "country": "CA", "postalCode": "K1N7P6", "twitter": "None", "instagram": "None", "facebook": "None", "youtube": "None", "website": "None", "summary": "None", "logo": "None", "latitude": 45.42161694503443, "longitude": -75.6786703121355}, "119142909RR0001": {"name": "SCHOOL OF ISLAMIC STUDIES ONTARIO", "designationCode": "C", "categoryCode": "49", "address": "411-12 DEERFORD ROAD", "city": "NORTH YORK", "province": "ON", "country": "CA", "postalCode": "M2J3J3", "twitter": "None", "instagram": "None", "facebook": "None", "youtube": "None", "website": "None", "summary": "None", "logo": "None", "latitude": 43.785501250129435, "longitude": -79.35042794160061}, "840493142RR0001": {"name": "SCHOOL OF PRAYER MINISTRIES", "designationCode": "C", "categoryCode": "47", "address": "209-940 GLENWOOD ROAD", "city": "KELOWNA", "province": "BC", "country": "CA", "postalCode": "V1Y9P2", "twitter": "None", "instagram": "None", "facebook": "None", "youtube": "None", "website": "None", "summary": "None", "logo": "None", "latitude": 49.875502336062425, "longitude": -119.48158082852125}, "119142917RR0001": {"name": "SCHOOL SISTERS OF NOTRE DAME OF ONTARIO", "designationCode": "C", "categoryCode": "46", "address": "1921 SNAKE RD", "city": "WATERDOWN", "province": "ON", "country": "CA", "postalCode": "L0R2H0", "twitter": "None", "instagram": "None", "facebook": "None", "youtube": "None", "website": "None", "summary": "None", "logo": "None", "latitude": 43.33574400000006, "longitude": -79.89364249999993}, "125440586RR0001": {"name": "SCHOOL SPORTS NEWFOUNDLAND AND LABRADOR INC.", "designationCode": "C", "categoryCode": "21", "address": "PO BOX 8700", "city": "ST JOHN", "province": "NL", "country": "CA", "postalCode": "A1B4J6", "twitter": "None", "instagram": "None", "facebook": "None", "youtube": "None", "website": "None", "summary": "None", "logo": "None", "latitude": 47.56938900000006, "longitude": -52.78609699999993}, "838701324RR0001": {"name": "SCHOOLBOX INC.", "designationCode": "C", "categoryCode": "09", "address": "MILL ST. PO BOX 201", "city": "ALMONTE", "province": "ON", "country": "CA", "postalCode": "K0A1A0", "twitter": "None", "instagram": "None", "facebook": "None", "youtube": "None", "website": "None", "summary": "None", "logo": "None", "latitude": 45.22540832595073, "longitude": -76.19604719005166}, "107962730RR0001": {"name": "SCHOOLHOUSE PLAYCARE CENTRE OF DURHAM", "designationCode": "C", "categoryCode": "01", "address": "1000 SIMCOE STREET NORTH", "city": "OSHAWA", "province": "ON", "country": "CA", "postalCode": "L1G4W4", "twitter": "None", "instagram": "None", "facebook": "None", "youtube": "None", "website": "None", "summary": "None", "logo": "None", "latitude": 43.92421253537432, "longitude": -78.87520497244464}, "104745666RR0001": {"name": "SCHOOLHOUSE PLAYCARE CENTRE OF LAKEHEAD INC.", "designationCode": "C", "categoryCode": "01", "address": "627 GREY STREET", "city": "THUNDER BAY", "province": "ON", "country": "CA", "postalCode": "P7E2E4", "twitter": "None", "instagram": "None", "facebook": "None", "youtube": "None", "website": "None", "summary": "None", "logo": "None", "latitude": 48.37545827699233, "longitude": -89.27578483836321}, "812543676RR0001": {"name": "SCHOOLS FOR THE CHILDREN OF THE WORLD.CANADA (SCW.CA)", "designationCode": "C", "categoryCode": "20", "address": "2401 - 1048 BROADVIEW AVE", "city": "TORONTO", "province": "ON", "country": "CA", "postalCode": "M4K2B8", "twitter": "None", "instagram": "None", "facebook": "None", "youtube": "None", "website": "None", "summary": "None", "logo": "None", "latitude": 43.68466349431584, "longitude": -79.35679449795119}, "887719201RR0001": {"name": "SCHOOLS WITHOUT BORDERS/ECOLES SANS FRONTIERES", "designationCode": "C", "categoryCode": "21", "address": "7 CORAL COVE CRES", "city": "NORTH YORK", "province": "ON", "country": "CA", "postalCode": "M3A1G7", "twitter": "None", "instagram": "None", "facebook": "None", "youtube": "None", "website": "None", "summary": "None", "logo": "None", "latitude": 43.74521942463508, "longitude": -79.31466438187451}, "890168982RR0001": {"name": "SCHREIBER-TERRACE BAY ADULT LEARNING ASSOCIATION", "designationCode": "C", "categoryCode": "21", "address": "P. O. BOX 847", "city": "SCHREIBER", "province": "ON", "country": "CA", "postalCode": "P0T2S0", "twitter": "None", "instagram": "None", "facebook": "None", "youtube": "None", "website": "None", "summary": "None", "logo": "None", "latitude": 48.813860000000034, "longitude": -87.26646999999997}, "123248957RR0001": {"name": "SCHUBERT CENTRE SOCIETY", "designationCode": "C", "categoryCode": "59", "address": "3505 30 TH AVENUE", "city": "VERNON", "province": "BC", "country": "CA", "postalCode": "V1T2E6", "twitter": "None", "instagram": "None", "facebook": "None", "youtube": "None", "website": "None", "summary": "None", "logo": "None", "latitude": 50.263847515436346, "longitude": -119.280924}, "119142933RR0001": {"name": "SCHULER SKATING CLUB", "designationCode": "C", "categoryCode": "56", "address": "BOX 46", "city": "SCHULER", "province": "AB", "country": "CA", "postalCode": "T0J3B0", "twitter": "None", "instagram": "None", "facebook": "None", "youtube": "None", "website": "None", "summary": "None", "logo": "None", "latitude": 50.339000000000055, "longitude": -110.09596999999997}, "829646884RR0001": {"name": "SCI Canada Foundation", "designationCode": "C", "categoryCode": "29", "address": "132 JEROME STREET", "city": "LANARK", "province": "ON", "country": "CA", "postalCode": "K0G1K0", "twitter": "None", "instagram": "None", "facebook": "None", "youtube": "None", "website": "None", "summary": "None", "logo": "None", "latitude": 45.052183763270364, "longitude": -76.28361390380839}, "891390361RR0001": {"name": "SCIC FOUNDATION INC.", "designationCode": "B", "categoryCode": "03", "address": "PO BOX 2266", "city": "SAINT JOHN", "province": "NB", "country": "CA", "postalCode": "E2L3V1", "twitter": "None", "instagram": "None", "facebook": "None", "youtube": "None", "website": "None", "summary": "None", "logo": "None", "latitude": 45.27342600000006, "longitude": -66.06407149999993}, "132657065RR0001": {"name": "SCIENCE ALBERTA FOUNDATION", "designationCode": "C", "categoryCode": "23", "address": "260, 3512-33 STREET NW", "city": "CALGARY", "province": "AB", "country": "CA", "postalCode": "T2L2A6", "twitter": "None", "instagram": "None", "facebook": "None", "youtube": "None", "website": "None", "summary": "None", "logo": "None", "latitude": 51.083864580904844, "longitude": -114.13414678195532}, "819080565RR0001": {"name": "SCIENCE ATLANTIC", "designationCode": "C", "categoryCode": "21", "address": "LSC ROOM 1376 PO BOX 15000    DALHOUSIE UNIVERSITY", "city": "HALIFAX", "province": "NS", "country": "CA", "postalCode": "B3H4R2", "twitter": "None", "instagram": "None", "facebook": "None", "youtube": "None", "website": "None", "summary": "None", "logo": "None", "latitude": 44.63448000000005, "longitude": -63.59397999999999}, "865814024RR0001": {"name": "SCIENCE FAIR FOUNDATION OF BRITISH COLUMBIA", "designationCode": "C", "categoryCode": "21", "address": "1188 WEST GEORGIA ST          9TH FLOOR", "city": "VANCOUVER", "province": "BC", "country": "CA", "postalCode": "V6E4A2", "twitter": "None", "instagram": "None", "facebook": "None", "youtube": "None", "website": "None", "summary": "None", "logo": "None", "latitude": 49.28682173714596, "longitude": -123.1249372099946}, "893240861RR0001": {"name": "SCIENCE FOR PEACE", "designationCode": "C", "categoryCode": "21", "address": "15 KINGS COLLEGE CIRCLE, 045", "city": "TORONTO", "province": "ON", "country": "CA", "postalCode": "M5S3H7", "twitter": "None", "instagram": "None", "facebook": "None", "youtube": "None", "website": "None", "summary": "None", "logo": "None", "latitude": 43.66242426340233, "longitude": -79.39525473772285}, "107962979RR0001": {"name": "SCIENCE NORTH-SCIENCE NORD", "designationCode": "C", "categoryCode": "21", "address": "100 RAMSEY LAKE RD", "city": "SUDBURY", "province": "ON", "country": "CA", "postalCode": "P3E5S9", "twitter": "None", "instagram": "None", "facebook": "None", "youtube": "None", "website": "None", "summary": "None", "logo": "None", "latitude": 46.46956644887969, "longitude": -80.99619362295537}, "890733645RR0001": {"name": "SCIENCE TIMMINS INC.", "designationCode": "C", "categoryCode": "21", "address": "362 SEVENTH AVENUE", "city": "TIMMINS", "province": "ON", "country": "CA", "postalCode": "P4N5R1", "twitter": "None", "instagram": "None", "facebook": "None", "youtube": "None", "website": "None", "summary": "None", "logo": "None", "latitude": 48.4801954782157, "longitude": -81.32430077699232}, "804838621RR0001": {"name": "SCIENCES@CECC", "designationCode": "C", "categoryCode": "50", "address": "855 RUE RICHELIEU", "city": "LA MALBAIE", "province": "QC", "country": "CA", "postalCode": "G5A2X7", "twitter": "None", "instagram": "None", "facebook": "None", "youtube": "None", "website": "None", "summary": "None", "logo": "None", "latitude": 47.63361338106647, "longitude": -70.14296271111978}, "867139537RR0001": {"name": "SCIENTISTS IN SCHOOL", "designationCode": "C", "categoryCode": "20", "address": "2-975 DILLINGHAM ROAD", "city": "PICKERING", "province": "ON", "country": "CA", "postalCode": "L1W1Z7", "twitter": "None", "instagram": "None", "facebook": "None", "youtube": "None", "website": "None", "summary": "None", "logo": "None", "latitude": 43.831066906977036, "longitude": -79.06830434788517}, "895953602RR0001": {"name": "SCJ CANADA FOUNDATION", "designationCode": "A", "categoryCode": "03", "address": "2830 BOUL. GOUIN EST", "city": "MONTR\u00c9AL", "province": "QC", "country": "CA", "postalCode": "H2B1Y7", "twitter": "None", "instagram": "None", "facebook": "None", "youtube": "None", "website": "None", "summary": "None", "logo": "None", "latitude": 45.58162239243477, "longitude": -73.65334929346784}, "107588410RR0001": {"name": "SCL\u00c9ROSE EN PLAQUES ST-HYACINTHE - ACTON", "designationCode": "C", "categoryCode": "11", "address": "16675, RUE DESROCHERS", "city": "ST-HYACINTHE", "province": "QC", "country": "CA", "postalCode": "J2T3K3", "twitter": "None", "instagram": "None", "facebook": "None", "youtube": "None", "website": "None", "summary": "None", "logo": "None", "latitude": 45.61994963030186, "longitude": -72.93371918541166}, "134221894RR0001": {"name": "SCLERODERMA ASSOCIATION OF B.C.", "designationCode": "C", "categoryCode": "11", "address": "PO BOX 16155, LYNN VALLEY", "city": "NORTH VANCOUVER", "province": "BC", "country": "CA", "postalCode": "V7J3H2", "twitter": "None", "instagram": "None", "facebook": "None", "youtube": "None", "website": "None", "summary": "None", "logo": "None", "latitude": 49.335991494945745, "longitude": -123.04008085417442}, "861033819RR0001": {"name": "SCLERODERMA ASSOCIATION OF MANITOBA INC.", "designationCode": "C", "categoryCode": "11", "address": "22 SILVERDALE CRES.", "city": "WINNIPEG", "province": "MB", "country": "CA", "postalCode": "R2N1B1", "twitter": "None", "instagram": "None", "facebook": "None", "youtube": "None", "website": "None", "summary": "None", "logo": "None", "latitude": 49.820791410496824, "longitude": -97.0880832100815}, "138203666RR0001": {"name": "SCLERODERMA ASSOCIATION OF SASKATCHEWAN", "designationCode": "C", "categoryCode": "09", "address": "54 - 4901 CHILD AVE", "city": "REGINA", "province": "SK", "country": "CA", "postalCode": "S4X4T7", "twitter": "None", "instagram": "None", "facebook": "None", "youtube": "None", "website": "None", "summary": "None", "logo": "None", "latitude": 50.49804072433535, "longitude": -104.65098958759859}, "864845847RR0001": {"name": "SCLERODERMA SOCIETY OF SOUTHERN ALBERTA (SSSA)", "designationCode": "C", "categoryCode": "11", "address": "8028 HUNTINGTON RD NE", "city": "CALGARY", "province": "AB", "country": "CA", "postalCode": "T2K5A4", "twitter": "None", "instagram": "None", "facebook": "None", "youtube": "None", "website": "None", "summary": "None", "logo": "None", "latitude": 51.12383416763808, "longitude": -114.05923973867516}, "853521037RR0001": {"name": "SCLEROSE EN PLAQUES DU GRAND CHARLEVOIX", "designationCode": "C", "categoryCode": "11", "address": "65, CLAIRVAL", "city": "CLERMONT", "province": "QC", "country": "CA", "postalCode": "G4A1B3", "twitter": "None", "instagram": "None", "facebook": "None", "youtube": "None", "website": "None", "summary": "None", "logo": "None", "latitude": 47.69987322563341, "longitude": -70.2111733391426}, "853397842RR0001": {"name": "SCOPA SAFE COMMUNITIES OF PICKERING / AJAX", "designationCode": "C", "categoryCode": "59", "address": "524 BRADLEY DRIVE", "city": "WHITBY", "province": "ON", "country": "CA", "postalCode": "L1N6B9", "twitter": "None", "instagram": "None", "facebook": "None", "youtube": "None", "website": "None", "summary": "None", "logo": "None", "latitude": 43.8911299911132, "longitude": -78.94494278492684}, "119143055RR0001": {"name": "SCOTCH SETTLEMENT UNION CHURCH", "designationCode": "C", "categoryCode": "39", "address": "131 SCOTCH LAKE RD", "city": "SCOTCH LAKE", "province": "NB", "country": "CA", "postalCode": "E6L1K5", "twitter": "None", "instagram": "None", "facebook": "None", "youtube": "None", "website": "None", "summary": "None", "logo": "None", "latitude": 45.9534921097249, "longitude": -66.95722666795145}, "891028144RR0001": {"name": "SCOTDANCE CANADA ASSOCIATION", "designationCode": "C", "categoryCode": "22", "address": "50 EGLINTON AVE WEST #1009", "city": "MISSISAUGA", "province": "ON", "country": "CA", "postalCode": "L5R3P5", "twitter": "None", "instagram": "None", "facebook": "None", "youtube": "None", "website": "None", "summary": "None", "logo": "None", "latitude": 43.60534681226151, "longitude": -79.6544959572494}, "890100373RR0001": {"name": "SCOTDANCE NEW BRUNSWICK ASSOCIATION INC.", "designationCode": "C", "categoryCode": "22", "address": "206 SYNTON ROAD", "city": "COLPITTS SETTLEMENT", "province": "NB", "country": "CA", "postalCode": "E4J2X9", "twitter": "None", "instagram": "None", "facebook": "None", "youtube": "None", "website": "None", "summary": "None", "logo": "None", "latitude": 46.00977364726738, "longitude": -64.96074351341711}, "119143071RR0001": {"name": "SCOTIA CHAMBER PLAYERS", "designationCode": "C", "categoryCode": "22", "address": "6181 LADY HAMMOND ROAD", "city": "HALIFAX", "province": "NS", "country": "CA", "postalCode": "B3K2R9", "twitter": "None", "instagram": "None", "facebook": "None", "youtube": "None", "website": "None", "summary": "None", "logo": "None", "latitude": 44.66521647879261, "longitude": -63.61513385942637}, "868925520RR0001": {"name": "SCOTIA POOL SOCIETY", "designationCode": "C", "categoryCode": "56", "address": "80 RESEARCH DRIVE", "city": "TRURO", "province": "NS", "country": "CA", "postalCode": "B6L2R2", "twitter": "None", "instagram": "None", "facebook": "None", "youtube": "None", "website": "None", "summary": "None", "logo": "None", "latitude": 45.389021991690115, "longitude": -63.24246108485823}, "107963308RR0001": {"name": "SCOTLAND BAPTIST CHURCH", "designationCode": "C", "categoryCode": "31", "address": "P.O. BOX 61", "city": "SCOTLAND", "province": "ON", "country": "CA", "postalCode": "N0E1R0", "twitter": "None", "instagram": "None", "facebook": "None", "youtube": "None", "website": "None", "summary": "None", "logo": "None", "latitude": 43.02577000000008, "longitude": -80.37538999999998}, "107963316RR0001": {"name": "SCOTLAND UNITED CHURCH", "designationCode": "C", "categoryCode": "44", "address": "BOX 171", "city": "SCOTLAND", "province": "ON", "country": "CA", "postalCode": "N0E1R0", "twitter": "None", "instagram": "None", "facebook": "None", "youtube": "None", "website": "None", "summary": "None", "logo": "None", "latitude": 43.02577000000008, "longitude": -80.37538999999998}, "892213364RR0001": {"name": "SCOTSBURN FIRE DEPARTMENT", "designationCode": "C", "categoryCode": "59", "address": "P O BOX 399                   4157 SCOTSBURN ROAD", "city": "SCOTSBURN", "province": "NS", "country": "CA", "postalCode": "B0K1R0", "twitter": "None", "instagram": "None", "facebook": "None", "youtube": "None", "website": "None", "summary": "None", "logo": "None", "latitude": 45.652092017610116, "longitude": -62.85458346827834}, "889407193RR0001": {"name": "SCOTSBURN RECREATION CLUB", "designationCode": "C", "categoryCode": "56", "address": "PO BOX 324                    4136 SCOTSBURN ROAD", "city": "SCOTSBURN", "province": "NS", "country": "CA", "postalCode": "B0K1R0", "twitter": "None", "instagram": "None", "facebook": "None", "youtube": "None", "website": "None", "summary": "None", "logo": "None", "latitude": 45.65261548153392, "longitude": -62.855273015147866}, "132029364RR0001": {"name": "SCOTSBURN UNITED CHURCH", "designationCode": "C", "categoryCode": "44", "address": "RR 2 SCOTSBURN", "city": "PICTOU CO", "province": "NS", "country": "CA", "postalCode": "B0K1R0", "twitter": "None", "instagram": "None", "facebook": "None", "youtube": "None", "website": "None", "summary": "None", "logo": "None", "latitude": 45.658211365424286, "longitude": -62.81245543993171}, "868518895RR0001": {"name": "SCOTT CHARITABLE TRUST", "designationCode": "B", "categoryCode": "39", "address": "3425 2 AVENUE SOUTH", "city": "LETHBRIDGE", "province": "AB", "country": "CA", "postalCode": "T1J4V1", "twitter": "None", "instagram": "None", "facebook": "None", "youtube": "None", "website": "None", "summary": "None", "logo": "None", "latitude": 49.696839530439966, "longitude": -112.78914308381903}, "821345873RR0001": {"name": "SCOTT F. CLARKSON EDUCATION FUND", "designationCode": "B", "categoryCode": "25", "address": "56 SPRUCEWOOD DRIVE", "city": "NEW MARYLAND", "province": "NB", "country": "CA", "postalCode": "E3C1C7", "twitter": "None", "instagram": "None", "facebook": "None", "youtube": "None", "website": "None", "summary": "None", "logo": "None", "latitude": 45.89723122621033, "longitude": -66.6894872525536}, "131570194RR0001": {"name": "SCOTT INFANT AND TODDLER CENTRE INC.", "designationCode": "C", "categoryCode": "01", "address": "3355 6TH AVE", "city": "REGINA", "province": "SK", "country": "CA", "postalCode": "S4T4L8", "twitter": "None", "instagram": "None", "facebook": "None", "youtube": "None", "website": "None", "summary": "None", "logo": "None", "latitude": 50.45981247345519, "longitude": -104.62971094463039}, "820173540RR0001": {"name": "SCOTT STREET MENNONITE BRETHREN CHURCH", "designationCode": "C", "categoryCode": "34", "address": "339 SCOTT STREET", "city": "ST CATHARINES", "province": "ON", "country": "CA", "postalCode": "L2N1J7", "twitter": "None", "instagram": "None", "facebook": "None", "youtube": "None", "website": "None", "summary": "None", "logo": "None", "latitude": 43.18791059732212, "longitude": -79.2320319249522}, "132076324RR0001": {"name": "SCOTT YOUNG MINISTRIES", "designationCode": "C", "categoryCode": "47", "address": "14 MUSSELMAN CRS.", "city": "CONESTOGO", "province": "ON", "country": "CA", "postalCode": "N0B1N0", "twitter": "None", "instagram": "None", "facebook": "None", "youtube": "None", "website": "None", "summary": "None", "logo": "None", "latitude": 43.54288291136033, "longitude": -80.51176308861284}, "894458660RR0001": {"name": "SCOTT-BATHGATE LTD. EMPLOYEES CHARITY TRUST", "designationCode": "C", "categoryCode": "75", "address": "PO BOX 765", "city": "WINNIPEG", "province": "MB", "country": "CA", "postalCode": "R3C2M8", "twitter": "None", "instagram": "None", "facebook": "None", "youtube": "None", "website": "None", "summary": "None", "logo": "None", "latitude": 49.899525000000054, "longitude": -97.14112999999993}, "862205952RR0001": {"name": "SCOTTISH HERITAGE ASSOCIATION (MIRAMICHI) INC.", "designationCode": "C", "categoryCode": "52", "address": "P.O. BOX 303", "city": "MIRAMICHI", "province": "NB", "country": "CA", "postalCode": "E1N3A7", "twitter": "None", "instagram": "None", "facebook": "None", "youtube": "None", "website": "None", "summary": "None", "logo": "None", "latitude": 47.00187600000005, "longitude": -65.56824349999994}, "119143188RR0001": {"name": "SCOTTLEA GOSPEL CHAPEL", "designationCode": "C", "categoryCode": "39", "address": "500 SCOTT STREET", "city": "ST CATHARINES", "province": "ON", "country": "CA", "postalCode": "L2M3X2", "twitter": "None", "instagram": "None", "facebook": "None", "youtube": "None", "website": "None", "summary": "None", "logo": "None", "latitude": 43.193173351607435, "longitude": -79.2171308265049}, "131819435RR0001": {"name": "SCOTTLEA PRESBYTERIAN CHURCH,", "designationCode": "C", "categoryCode": "37", "address": "515 SCOTT STREET", "city": "ST CATHARINES", "province": "ON", "country": "CA", "postalCode": "L2M3X3", "twitter": "None", "instagram": "None", "facebook": "None", "youtube": "None", "website": "None", "summary": "None", "logo": "None", "latitude": 43.19395868114115, "longitude": -79.21495956414084}, "119143204RR0001": {"name": "SCOTTLEA WOMEN'S MISSIONARY SOCIETY", "designationCode": "C", "categoryCode": "47", "address": "515 SCOTT STREET", "city": "ST CATHARINES", "province": "ON", "country": "CA", "postalCode": "L2M3X3", "twitter": "None", "instagram": "None", "facebook": "None", "youtube": "None", "website": "None", "summary": "None", "logo": "None", "latitude": 43.19395868114115, "longitude": -79.21495956414084}, "890969942RR0001": {"name": "SCOUDOUC RIVER TRUST", "designationCode": "B", "categoryCode": "25", "address": "THE ROYAL TRUST COMPANY       1 P.V.M. 5TH FLOOR SOUTH WING", "city": "MONTREAL", "province": "QC", "country": "CA", "postalCode": "H3B2B2", "twitter": "None", "instagram": "None", "facebook": "None", "youtube": "None", "website": "None", "summary": "None", "logo": "None", "latitude": 45.49987500000006, "longitude": -73.56867649999994}, "892435975RR0001": {"name": "SCOUT MUSULMAN", "designationCode": "C", "categoryCode": "29", "address": "2456 ST-ZOTIQUE", "city": "MONTREAL", "province": "QC", "country": "CA", "postalCode": "H2G1K4", "twitter": "None", "instagram": "None", "facebook": "None", "youtube": "None", "website": "None", "summary": "None", "logo": "None", "latitude": 45.55003562946513, "longitude": -73.59541734551925}, "107761694RR0059": {"name": "SCOUTS CANADA CENTRAL ONTARIO", "designationCode": "C", "categoryCode": "29", "address": "10 KODIAK CRESCENT            UNIT 120", "city": "TORONTO", "province": "ON", "country": "CA", "postalCode": "M3J3G5", "twitter": "None", "instagram": "None", "facebook": "None", "youtube": "None", "website": "None", "summary": "None", "logo": "None", "latitude": 43.75254960202533, "longitude": -79.46610633461229}}