{"757299326RR0001": {"name": "Albatros Drummondville", "designationCode": "C", "categoryCode": "11", "address": "155 RUE SAINT-MARCEL", "city": "DRUMMONDVILLE", "province": "QC", "country": "CA", "postalCode": "J2B2E1", "twitter": "None", "instagram": "None", "facebook": "None", "youtube": "None", "website": "None", "summary": "None", "logo": "None", "latitude": 45.874928412401395, "longitude": -72.4883753158864}, "815037379RR0001": {"name": "Albatros Gatineau - La li\u00e8vre", "designationCode": "C", "categoryCode": "11", "address": "502, RUE NADON", "city": "GATINEAU", "province": "QC", "country": "CA", "postalCode": "J8L3Y3", "twitter": "None", "instagram": "None", "facebook": "None", "youtube": "None", "website": "None", "summary": "None", "logo": "None", "latitude": 45.59032942382702, "longitude": -75.40354267208147}, "847639804RR0001": {"name": "Albatros L\u00e9vis", "designationCode": "C", "categoryCode": "09", "address": "9248, DU CENTRE-HOSPITALIER", "city": "LEVIS", "province": "QC", "country": "CA", "postalCode": "G6X3M5", "twitter": "None", "instagram": "None", "facebook": "None", "youtube": "None", "website": "None", "summary": "None", "logo": "None", "latitude": 46.7240221357262, "longitude": -71.26015738856826}, "831223409RR0001": {"name": "Albatros Qu\u00e9bec", "designationCode": "C", "categoryCode": "01", "address": "2975 CHEMIN ST-LOUIS          LOCAL A-027.1", "city": "QUEBEC", "province": "QC", "country": "CA", "postalCode": "G1W1P7", "twitter": "None", "instagram": "None", "facebook": "None", "youtube": "None", "website": "None", "summary": "None", "logo": "None", "latitude": 46.76024191509626, "longitude": -71.28569290567381}, "829112341RR0001": {"name": "Alberni Valley Assisted Living Society", "designationCode": "C", "categoryCode": "09", "address": "4200 10TH AVE", "city": "PORT ALBERNI", "province": "BC", "country": "CA", "postalCode": "V9Y4X3", "twitter": "None", "instagram": "None", "facebook": "None", "youtube": "None", "website": "None", "summary": "None", "logo": "None", "latitude": 49.252381904788145, "longitude": -124.79801728563557}, "819770843RR0001": {"name": "Alberni Valley Crime Stoppers Society", "designationCode": "C", "categoryCode": "59", "address": "4444 MORTON STREET", "city": "PORT ALBERNI", "province": "BC", "country": "CA", "postalCode": "V9Y4M8", "twitter": "None", "instagram": "None", "facebook": "None", "youtube": "None", "website": "None", "summary": "None", "logo": "None", "latitude": 49.24697048398675, "longitude": -124.79951071870852}, "835717497RR0002": {"name": "Alberni Valley Hospice Society", "designationCode": "C", "categoryCode": "11", "address": "3088 3RD AVE", "city": "PORT ALBERNI", "province": "BC", "country": "CA", "postalCode": "V9Y2A5", "twitter": "None", "instagram": "None", "facebook": "None", "youtube": "None", "website": "None", "summary": "None", "logo": "None", "latitude": 49.23450453682802, "longitude": -124.80763239062446}, "835807132RR0001": {"name": "Albert & Florence Aziz Family Foundation", "designationCode": "B", "categoryCode": "03", "address": "3425 DOUGLAS B. FLOREANI", "city": "VILLE ST. LAURENT", "province": "QC", "country": "CA", "postalCode": "H4S1Y6", "twitter": "None", "instagram": "None", "facebook": "None", "youtube": "None", "website": "None", "summary": "None", "logo": "None", "latitude": 45.49629591035578, "longitude": -73.76274405098253}, "844248617RR0001": {"name": "Alberta Abilities Lodges Society", "designationCode": "C", "categoryCode": "59", "address": "PO BOX 4455 STN SOUTH CRO", "city": "EDMONTON", "province": "AB", "country": "CA", "postalCode": "T6E4T5", "twitter": "None", "instagram": "None", "facebook": "None", "youtube": "None", "website": "None", "summary": "None", "logo": "None", "latitude": 53.499354000000054, "longitude": -113.46577549999994}, "807188479RR0001": {"name": "Alberta Animal Rescue Crew Society", "designationCode": "C", "categoryCode": "54", "address": "5060 74 AVE SE", "city": "CALGARY", "province": "AB", "country": "CA", "postalCode": "T2C3C9", "twitter": "None", "instagram": "None", "facebook": "None", "youtube": "None", "website": "None", "summary": "None", "logo": "None", "latitude": 50.98749727630238, "longitude": -113.96201876569533}, "810483081RR0001": {"name": "Alberta Arts Academy Institute", "designationCode": "C", "categoryCode": "22", "address": "18246 91 AVENUE", "city": "EDMONTON", "province": "AB", "country": "CA", "postalCode": "T5R1T6", "twitter": "None", "instagram": "None", "facebook": "None", "youtube": "None", "website": "None", "summary": "None", "logo": "None", "latitude": 53.52613923849132, "longitude": -113.6403311106183}, "119288918RR1634": {"name": "Alberta Circuit 9A of Jehovah's Witnesses", "designationCode": "C", "categoryCode": "61", "address": "101 - 62 VALLEYVIEW DR SW", "city": "MEDICINE HAT", "province": "AB", "country": "CA", "postalCode": "T1A8E4", "twitter": "None", "instagram": "None", "facebook": "None", "youtube": "None", "website": "None", "summary": "None", "logo": "None", "latitude": 50.03665369747245, "longitude": -110.70907246531817}, "119288918RR1633": {"name": "Alberta Circuit 9B of Jehovah's Witnesses", "designationCode": "C", "categoryCode": "61", "address": "813 15 ST N", "city": "LETHBRIDGE", "province": "AB", "country": "CA", "postalCode": "T1H2Y4", "twitter": "None", "instagram": "None", "facebook": "None", "youtube": "None", "website": "None", "summary": "None", "logo": "None", "latitude": 49.711642871666655, "longitude": -112.82119317421233}, "816598064RR0001": {"name": "Alberta Dachshund Rescue", "designationCode": "C", "categoryCode": "54", "address": "PO BOX 31056 BRIDGELAND", "city": "CALGARY", "province": "AB", "country": "CA", "postalCode": "T2E9A3", "twitter": "None", "instagram": "None", "facebook": "None", "youtube": "None", "website": "None", "summary": "None", "logo": "None", "latitude": 51.05858000000006, "longitude": -114.04836999999998}, "825034150RR0001": {"name": "Alberta Enviro Protection Society", "designationCode": "C", "categoryCode": "59", "address": "11237 77 AVE NW", "city": "EDMONTON", "province": "AB", "country": "CA", "postalCode": "T6G0L7", "twitter": "None", "instagram": "None", "facebook": "None", "youtube": "None", "website": "None", "summary": "None", "logo": "None", "latitude": 53.51317650678069, "longitude": -113.5217925}, "782397921RR0001": {"name": "Alberta First Nations & Metis Music Awards Foundation", "designationCode": "C", "categoryCode": "22", "address": "3700 ANDERSON RD SW", "city": "CALGARY", "province": "AB", "country": "CA", "postalCode": "T2W3C4", "twitter": "None", "instagram": "None", "facebook": "None", "youtube": "None", "website": "None", "summary": "None", "logo": "None", "latitude": 50.950643615497334, "longitude": -114.1360705431618}, "118780832RR0001": {"name": "Alberta Handicrafts Guild, Calgary Branch", "designationCode": "C", "categoryCode": "22", "address": "PO BOX 34085", "city": "CALGARY", "province": "AB", "country": "CA", "postalCode": "T3C3P1", "twitter": "None", "instagram": "None", "facebook": "None", "youtube": "None", "website": "None", "summary": "None", "logo": "None", "latitude": 51.03958200000005, "longitude": -114.14116249999994}, "820515245RR0001": {"name": "Alberta Hands and Voices Society", "designationCode": "C", "categoryCode": "11", "address": "156 EDGERIDGE CIR NW", "city": "CALGARY", "province": "AB", "country": "CA", "postalCode": "T3A6H9", "twitter": "None", "instagram": "None", "facebook": "None", "youtube": "None", "website": "None", "summary": "None", "logo": "None", "latitude": 51.13752654737687, "longitude": -114.14309676363345}, "828910653RR0001": {"name": "Alberta Head & Neck Centre for Oncology & Reconstruction", "designationCode": "C", "categoryCode": "21", "address": "8440 112 ST NW", "city": "EDMONTON", "province": "AB", "country": "CA", "postalCode": "T6G2B7", "twitter": "None", "instagram": "None", "facebook": "None", "youtube": "None", "website": "None", "summary": "None", "logo": "None", "latitude": 53.52044477343915, "longitude": -113.52090546919865}, "124072513RR0010": {"name": "Alberta Health Services", "designationCode": "C", "categoryCode": "19", "address": "10101 SOUTHPORT ROAD SW", "city": "CALGARY", "province": "AB", "country": "CA", "postalCode": "T2W3N2", "twitter": "None", "instagram": "None", "facebook": "None", "youtube": "None", "website": "None", "summary": "None", "logo": "None", "latitude": 50.964718358589664, "longitude": -114.0745036572507}, "840715577RR0001": {"name": "Alberta Helping Animals Society", "designationCode": "C", "categoryCode": "54", "address": "11686 72 AVE", "city": "EDMONTON", "province": "AB", "country": "CA", "postalCode": "T6G0C1", "twitter": "None", "instagram": "None", "facebook": "None", "youtube": "None", "website": "None", "summary": "None", "logo": "None", "latitude": 53.5075891906918, "longitude": -113.53693424672522}, "827649922RR0001": {"name": "Alberta Historical and Educational Foundation for Land Surveying", "designationCode": "C", "categoryCode": "22", "address": "1000 PHIPPS-MCKINNON BUILDING 10020 101A AVE", "city": "EDMONTON", "province": "AB", "country": "CA", "postalCode": "T5J3G2", "twitter": "None", "instagram": "None", "facebook": "None", "youtube": "None", "website": "None", "summary": "None", "logo": "None", "latitude": 53.542202467684106, "longitude": -113.49189605551385}, "883290520RR0001": {"name": "Alberta Labour History Institute", "designationCode": "C", "categoryCode": "50", "address": "603 - 12323 STONY PLAIN RD NW", "city": "EDMONTON", "province": "AB", "country": "CA", "postalCode": "T5N3Y5", "twitter": "None", "instagram": "None", "facebook": "None", "youtube": "None", "website": "None", "summary": "None", "logo": "None", "latitude": 53.54771619514249, "longitude": -113.5465007925734}, "128679644RR0001": {"name": "Alberta Law Review Society", "designationCode": "C", "categoryCode": "21", "address": "UNIVERSITY OF ALBERTA", "city": "EDMONTON", "province": "AB", "country": "CA", "postalCode": "T6G2H5", "twitter": "None", "instagram": "None", "facebook": "None", "youtube": "None", "website": "None", "summary": "None", "logo": "None", "latitude": 53.52503000000007, "longitude": -113.52540999999997}, "856467881RR0001": {"name": "Alberta People to People HIV/Aids Support Society (APPHASS)", "designationCode": "C", "categoryCode": "11", "address": "4020 VINCENT PLACE N W", "city": "CALGARY", "province": "AB", "country": "CA", "postalCode": "T3A0H3", "twitter": "None", "instagram": "None", "facebook": "None", "youtube": "None", "website": "None", "summary": "None", "logo": "None", "latitude": 51.09007634110452, "longitude": -114.1460357102544}, "846199842RR0001": {"name": "Alberta Pianofest Society", "designationCode": "C", "categoryCode": "22", "address": "21-2031 BRENNAN CRES", "city": "EDMONTON", "province": "AB", "country": "CA", "postalCode": "T5T0W3", "twitter": "None", "instagram": "None", "facebook": "None", "youtube": "None", "website": "None", "summary": "None", "logo": "None", "latitude": 53.51823592472199, "longitude": -113.68396495553733}, "824479588RR0001": {"name": "Alberta Retired Teachers Charitable Foundation", "designationCode": "A", "categoryCode": "03", "address": "409 - 11010 142 ST NW", "city": "EDMONTON", "province": "AB", "country": "CA", "postalCode": "T5N2R1", "twitter": "None", "instagram": "None", "facebook": "None", "youtube": "None", "website": "None", "summary": "None", "logo": "None", "latitude": 53.55785701345558, "longitude": -113.565924}, "830137287RR0001": {"name": "Alberta Society of the Deaf Blind", "designationCode": "C", "categoryCode": "11", "address": "6240 113 ST NW", "city": "EDMONTON", "province": "AB", "country": "CA", "postalCode": "T6H3L2", "twitter": "None", "instagram": "None", "facebook": "None", "youtube": "None", "website": "None", "summary": "None", "logo": "None", "latitude": 53.49892280066808, "longitude": -113.52285148480861}, "890805195RR0001": {"name": "Alberta Society For The Visually Impaired Calgary District", "designationCode": "C", "categoryCode": "19", "address": "#5-15 COLONEL BAKER PLACE NE", "city": "CALGARY", "province": "AB", "country": "CA", "postalCode": "T2E4Z3", "twitter": "None", "instagram": "None", "facebook": "None", "youtube": "None", "website": "None", "summary": "None", "logo": "None", "latitude": 51.049487110396846, "longitude": -114.0335966797092}, "825596018RR0001": {"name": "Alberta Spay Neuter Task Force Society", "designationCode": "C", "categoryCode": "54", "address": "101, 114-13 AVE. NW", "city": "CALGARY", "province": "AB", "country": "CA", "postalCode": "T2M0E2", "twitter": "None", "instagram": "None", "facebook": "None", "youtube": "None", "website": "None", "summary": "None", "logo": "None", "latitude": 51.06439650043269, "longitude": -114.06329099999999}, "857927313RR0001": {"name": "Alberta Spine Foundation", "designationCode": "C", "categoryCode": "20", "address": "C1219-1403 29 STREET NW", "city": "CALGARY", "province": "AB", "country": "CA", "postalCode": "T2N2T9", "twitter": "None", "instagram": "None", "facebook": "None", "youtube": "None", "website": "None", "summary": "None", "logo": "None", "latitude": 51.06459220705175, "longitude": -114.1308253065669}, "800592271RR0001": {"name": "Alberta Symphony Orchestra Society", "designationCode": "C", "categoryCode": "22", "address": "419 - 279 SUDER GREENS DR NW", "city": "EDMONTON", "province": "AB", "country": "CA", "postalCode": "T5T6X6", "twitter": "None", "instagram": "None", "facebook": "None", "youtube": "None", "website": "None", "summary": "None", "logo": "None", "latitude": 53.520489582276085, "longitude": -113.68273639976134}, "826079089RR0001": {"name": "Alberta Tomorrow Foundation", "designationCode": "C", "categoryCode": "29", "address": "40 RIVERVIEW CIR", "city": "COCHRANE", "province": "AB", "country": "CA", "postalCode": "T4C1K3", "twitter": "None", "instagram": "None", "facebook": "None", "youtube": "None", "website": "None", "summary": "None", "logo": "None", "latitude": 51.17611179378496, "longitude": -114.47628355317657}, "834608523RR0001": {"name": "Alberta Vehicle Extrication Association", "designationCode": "C", "categoryCode": "59", "address": "440 HIGHLAND CLOSE", "city": "STRATHMORE", "province": "AB", "country": "CA", "postalCode": "T1P1Z5", "twitter": "None", "instagram": "None", "facebook": "None", "youtube": "None", "website": "None", "summary": "None", "logo": "None", "latitude": 51.06581453231588, "longitude": -113.40613619761668}, "807121876RR0001": {"name": "Alberta Waterportal Society", "designationCode": "C", "categoryCode": "29", "address": "3512 33RD STREET NORTHWEST    SUITE 200", "city": "CALGARY", "province": "AB", "country": "CA", "postalCode": "T2L2A6", "twitter": "None", "instagram": "None", "facebook": "None", "youtube": "None", "website": "None", "summary": "None", "logo": "None", "latitude": 51.083864580904844, "longitude": -114.13414678195532}, "888828993RR0001": {"name": "Alberta's Caribbean Heritage Association", "designationCode": "C", "categoryCode": "48", "address": "106 - 3907 98 ST NW", "city": "EDMONTON", "province": "AB", "country": "CA", "postalCode": "T6E6M3", "twitter": "None", "instagram": "None", "facebook": "None", "youtube": "None", "website": "None", "summary": "None", "logo": "None", "latitude": 53.51603981803046, "longitude": -113.48281349999999}, "737007120RR0001": {"name": "Alberton United Pentecostal Church Inc.", "designationCode": "C", "categoryCode": "39", "address": "14439 CASCUMPEC RD", "city": "ALBERTON", "province": "PE", "country": "CA", "postalCode": "C0B1B0", "twitter": "None", "instagram": "None", "facebook": "None", "youtube": "None", "website": "None", "summary": "None", "logo": "None", "latitude": 46.7905718551272, "longitude": -64.09626545019896}, "809972516RR0001": {"name": "Albion Ridge Charitable Trust", "designationCode": "B", "categoryCode": "05", "address": "3425 2 AVE S", "city": "LETHBRIDGE", "province": "AB", "country": "CA", "postalCode": "T1J4V1", "twitter": "None", "instagram": "None", "facebook": "None", "youtube": "None", "website": "None", "summary": "None", "logo": "None", "latitude": 49.696839530439966, "longitude": -112.78914308381903}, "849428446RR0001": {"name": "Albright-Knox Contemporary and Modern Art Foundation Canada", "designationCode": "C", "categoryCode": "22", "address": "120 BALMORAL AVENUE", "city": "TORONTO", "province": "ON", "country": "CA", "postalCode": "M4V1J4", "twitter": "None", "instagram": "None", "facebook": "None", "youtube": "None", "website": "None", "summary": "None", "logo": "None", "latitude": 43.68479021622703, "longitude": -79.39840961977026}, "813369014RR0001": {"name": "Alcohol Babies", "designationCode": "C", "categoryCode": "57", "address": "3225 TALLMAN DRIVE", "city": "VINELAND", "province": "ON", "country": "CA", "postalCode": "L0R2C0", "twitter": "None", "instagram": "None", "facebook": "None", "youtube": "None", "website": "None", "summary": "None", "logo": "None", "latitude": 43.15241325786241, "longitude": -79.38218641586292}, "808903280RR0001": {"name": "Aldea Maya Assistance for Mayan Families Society", "designationCode": "C", "categoryCode": "21", "address": "850 FLAMINGO DR", "city": "QUALICUM BEACH", "province": "BC", "country": "CA", "postalCode": "V9K2B5", "twitter": "None", "instagram": "None", "facebook": "None", "youtube": "None", "website": "None", "summary": "None", "logo": "None", "latitude": 49.362910075858636, "longitude": -124.47730356236848}, "752814699RR0001": {"name": "Aleph to Taf Jewish Learning and Living", "designationCode": "C", "categoryCode": "49", "address": "3895 BATHURST ST.", "city": "TORONTO", "province": "ON", "country": "CA", "postalCode": "M3H5V1", "twitter": "None", "instagram": "None", "facebook": "None", "youtube": "None", "website": "None", "summary": "None", "logo": "None", "latitude": 43.74240620566677, "longitude": -79.43522713540908}, "824326789RR0001": {"name": "Alex Gurn Cat Welfare Foundation", "designationCode": "A", "categoryCode": "03", "address": "141 ADELAIDE ST. WEST, SUITE 1", "city": "TORONTO", "province": "ON", "country": "CA", "postalCode": "M5H3L5", "twitter": "None", "instagram": "None", "facebook": "None", "youtube": "None", "website": "None", "summary": "None", "logo": "None", "latitude": 43.649088853165296, "longitude": -79.38442797945643}, "817544513RR0001": {"name": "Alex Schaap Charity to Educate and Nurture Development, Society", "designationCode": "C", "categoryCode": "21", "address": "4812 GRAHAM DR SW", "city": "CALGARY", "province": "AB", "country": "CA", "postalCode": "T3E4L2", "twitter": "None", "instagram": "None", "facebook": "None", "youtube": "None", "website": "None", "summary": "None", "logo": "None", "latitude": 51.02962748932419, "longitude": -114.15592358381903}, "810922690RR0001": {"name": "Alex's Safe Harbour Society", "designationCode": "C", "categoryCode": "09", "address": "3 DAUN AVENUE", "city": "ENFIELD", "province": "NS", "country": "CA", "postalCode": "B2T1J7", "twitter": "None", "instagram": "None", "facebook": "None", "youtube": "None", "website": "None", "summary": "None", "logo": "None", "latitude": 44.94934608133754, "longitude": -63.53253031877194}, "877229500RR0001": {"name": "Alexander Forbes Playground & Recreational Society", "designationCode": "C", "categoryCode": "56", "address": "7240 POPLAR DRIVE", "city": "GRANDE PRAIRIE", "province": "AB", "country": "CA", "postalCode": "T8V5A6", "twitter": "None", "instagram": "None", "facebook": "None", "youtube": "None", "website": "None", "summary": "None", "logo": "None", "latitude": 55.1462190377116, "longitude": -118.7791849977487}, "801189564RR0001": {"name": "Alexander Graham Bell Foundation", "designationCode": "C", "categoryCode": "23", "address": "PO BOX 280", "city": "BADDECK", "province": "NS", "country": "CA", "postalCode": "B0E1B0", "twitter": "None", "instagram": "None", "facebook": "None", "youtube": "None", "website": "None", "summary": "None", "logo": "None", "latitude": 46.087500000000034, "longitude": -60.780119999999954}, "890253412RR0001": {"name": "Alexander Society for Inclusive Arts", "designationCode": "C", "categoryCode": "09", "address": "P.O. BOX 2398", "city": "WOLFVILLE", "province": "NS", "country": "CA", "postalCode": "B4P2S3", "twitter": "None", "instagram": "None", "facebook": "None", "youtube": "None", "website": "None", "summary": "None", "logo": "None", "latitude": 45.09137400000006, "longitude": -64.36303099999994}, "783053093RR0001": {"name": "Alexander's House Inc.", "designationCode": "C", "categoryCode": "09", "address": "211 COCHIN CRES.", "city": "SASKATOON", "province": "SK", "country": "CA", "postalCode": "S7K4T1", "twitter": "None", "instagram": "None", "facebook": "None", "youtube": "None", "website": "None", "summary": "None", "logo": "None", "latitude": 52.17157774963943, "longitude": -106.6291793398351}, "823535059RR0001": {"name": "Alfred Smithers Charitable Foundation", "designationCode": "B", "categoryCode": "05", "address": "1 CANAL STREET", "city": "DARTMOUTH", "province": "NS", "country": "CA", "postalCode": "B2Y2W1", "twitter": "None", "instagram": "None", "facebook": "None", "youtube": "None", "website": "None", "summary": "None", "logo": "None", "latitude": 44.66533365944376, "longitude": -63.562478902186925}, "899192736RR0001": {"name": "Algoma Music Camp", "designationCode": "C", "categoryCode": "22", "address": "6 MASSEY CRESCENT", "city": "SARNIA", "province": "ON", "country": "CA", "postalCode": "N7S2P5", "twitter": "None", "instagram": "None", "facebook": "None", "youtube": "None", "website": "None", "summary": "None", "logo": "None", "latitude": 42.97059419659754, "longitude": -82.3694429126264}, "863071668RR0001": {"name": "Algonquin to Adirondacks Collaborative (A2A) La Collective d'Algonquin \u00e0 Adirondacks (A2A)", "designationCode": "C", "categoryCode": "59", "address": "1 JESSIE STREET               PO BOX 88", "city": "LANSDOWNE", "province": "ON", "country": "CA", "postalCode": "K0E1L0", "twitter": "None", "instagram": "None", "facebook": "None", "youtube": "None", "website": "None", "summary": "None", "logo": "None", "latitude": 44.40731941892133, "longitude": -76.02217527811749}, "883459679RR0001": {"name": "Algonquin Nursing Home of Mattawa", "designationCode": "C", "categoryCode": "10", "address": "P.O. BOX 270", "city": "MATTAWA", "province": "ON", "country": "CA", "postalCode": "P0H1V0", "twitter": "None", "instagram": "None", "facebook": "None", "youtube": "None", "website": "None", "summary": "None", "logo": "None", "latitude": 46.352402765527096, "longitude": -78.81283329813716}, "818933756RR0001": {"name": "Ali et les Princes de la Rue", "designationCode": "C", "categoryCode": "09", "address": "3700 BOUL CREMAZIE E", "city": "MONTREAL", "province": "QC", "country": "CA", "postalCode": "H2A1B2", "twitter": "None", "instagram": "None", "facebook": "None", "youtube": "None", "website": "None", "summary": "None", "logo": "None", "latitude": 45.566074520110874, "longitude": -73.60319643655164}, "803733427RR0001": {"name": "Alianait Entertainment Group", "designationCode": "C", "categoryCode": "22", "address": "PO BOX 568", "city": "IQALUIT", "province": "NU", "country": "CA", "postalCode": "X0A0H0", "twitter": "None", "instagram": "None", "facebook": "None", "youtube": "None", "website": "None", "summary": "None", "logo": "None", "latitude": 62.81090700000006, "longitude": -92.08155949999994}, "119192565RR0001": {"name": "Alive Family Church", "designationCode": "C", "categoryCode": "36", "address": "BOX 373", "city": "STONEWALL", "province": "MB", "country": "CA", "postalCode": "R0C2Z0", "twitter": "None", "instagram": "None", "facebook": "None", "youtube": "None", "website": "None", "summary": "None", "logo": "None", "latitude": 50.36947800000006, "longitude": -96.84479599999993}, "842849606RR0001": {"name": "All the Way Home Chaplaincy Society", "designationCode": "C", "categoryCode": "49", "address": "3365 LABURNUM DR", "city": "TRAIL", "province": "BC", "country": "CA", "postalCode": "V1R2S8", "twitter": "None", "instagram": "None", "facebook": "None", "youtube": "None", "website": "None", "summary": "None", "logo": "None", "latitude": 49.10041528368609, "longitude": -117.67241052813229}, "808586895RR0001": {"name": "All Access Ministries Society", "designationCode": "C", "categoryCode": "39", "address": "PO BOX 96086", "city": "CALGARY", "province": "AB", "country": "CA", "postalCode": "T3H0L3", "twitter": "None", "instagram": "None", "facebook": "None", "youtube": "None", "website": "None", "summary": "None", "logo": "None", "latitude": 51.04672800000006, "longitude": -114.19906399999994}, "781083092RR0001": {"name": "All Boys Program Parent Society", "designationCode": "C", "categoryCode": "21", "address": "3519 36 AVE SW", "city": "CALGARY", "province": "AB", "country": "CA", "postalCode": "T3E1C2", "twitter": "None", "instagram": "None", "facebook": "None", "youtube": "None", "website": "None", "summary": "None", "logo": "None", "latitude": 51.02143254674263, "longitude": -114.13674072300768}, "802802413RR0001": {"name": "All For Humanity Association of Alberta", "designationCode": "C", "categoryCode": "01", "address": "1217 10 AVE SE", "city": "CALGARY", "province": "AB", "country": "CA", "postalCode": "T2G0W6", "twitter": "None", "instagram": "None", "facebook": "None", "youtube": "None", "website": "None", "summary": "None", "logo": "None", "latitude": 51.040580261151966, "longitude": -114.03541044950647}, "806251468RR0001": {"name": "All Join Hands Canada Society Foundation", "designationCode": "C", "categoryCode": "22", "address": "165 KINGSLAKE ROAD", "city": "TORONTO", "province": "ON", "country": "CA", "postalCode": "M2J3G4", "twitter": "None", "instagram": "None", "facebook": "None", "youtube": "None", "website": "None", "summary": "None", "logo": "None", "latitude": 43.78882951540768, "longitude": -79.34349629583377}, "118818491RR0113": {"name": "All Nations Center Seventh-day Adventist Church", "designationCode": "C", "categoryCode": "41", "address": "PO BOX 1000", "city": "ABBOTSFORD", "province": "BC", "country": "CA", "postalCode": "V2S4P5", "twitter": "None", "instagram": "None", "facebook": "None", "youtube": "None", "website": "None", "summary": "None", "logo": "None", "latitude": 49.03851300000005, "longitude": -122.29441549999993}, "872480801RR0001": {"name": "All Nations Charitable Properties", "designationCode": "C", "categoryCode": "49", "address": "4401 STEELES AVE. WEST", "city": "NORTH YORK", "province": "ON", "country": "CA", "postalCode": "M3N2S4", "twitter": "None", "instagram": "None", "facebook": "None", "youtube": "None", "website": "None", "summary": "None", "logo": "None", "latitude": 43.77300881926288, "longitude": -79.53317610946982}, "118860634RR0001": {"name": "All Nations Church of God in Christ of Canada", "designationCode": "C", "categoryCode": "39", "address": "220 ALLARD ST", "city": "COQUITLAM", "province": "BC", "country": "CA", "postalCode": "V3K4K8", "twitter": "None", "instagram": "None", "facebook": "None", "youtube": "None", "website": "None", "summary": "None", "logo": "None", "latitude": 49.23858507799065, "longitude": -122.86928405551384}, "711868893RR0001": {"name": "All Nations Church of The Word Incorporated", "designationCode": "C", "categoryCode": "39", "address": "2307-133 WYNFORD DRIVE", "city": "TORONTO", "province": "ON", "country": "CA", "postalCode": "M3C0J5", "twitter": "None", "instagram": "None", "facebook": "None", "youtube": "None", "website": "None", "summary": "None", "logo": "None", "latitude": 43.72681448681403, "longitude": -79.32761072361325}, "838338408RR0001": {"name": "All Nations College Foundation", "designationCode": "C", "categoryCode": "49", "address": "9830 WHALLEY BOULEVARD        SUITE 1201", "city": "SURREY", "province": "BC", "country": "CA", "postalCode": "V3T5S7", "twitter": "None", "instagram": "None", "facebook": "None", "youtube": "None", "website": "None", "summary": "None", "logo": "None", "latitude": 49.181853457123864, "longitude": -122.84186130916399}, "829262294RR0001": {"name": "All Nations Healin' Thru Artz Inc.", "designationCode": "C", "categoryCode": "22", "address": "A - 54 NOLLET AVE", "city": "REGINA", "province": "SK", "country": "CA", "postalCode": "S4T7P9", "twitter": "None", "instagram": "None", "facebook": "None", "youtube": "None", "website": "None", "summary": "None", "logo": "None", "latitude": 50.48260024642714, "longitude": -104.66943939624478}, "830613519RR0001": {"name": "All Nations Help Line Corp.", "designationCode": "C", "categoryCode": "09", "address": "101B AVENUE T N", "city": "SASKATOON", "province": "SK", "country": "CA", "postalCode": "S7L3A8", "twitter": "None", "instagram": "None", "facebook": "None", "youtube": "None", "website": "None", "summary": "None", "logo": "None", "latitude": 52.12941521265834, "longitude": -106.70102079460865}, "140602848RR0001": {"name": "All Nations Pentecostal Church of Prince George", "designationCode": "C", "categoryCode": "36", "address": "1919 - 17TH AVENUE", "city": "PRINCE GEORGE", "province": "BC", "country": "CA", "postalCode": "V2L5R2", "twitter": "None", "instagram": "None", "facebook": "None", "youtube": "None", "website": "None", "summary": "None", "logo": "None", "latitude": 53.90833231591439, "longitude": -122.76166099269062}, "803332485RR0001": {"name": "All Nations Seniors Society", "designationCode": "C", "categoryCode": "09", "address": "4130 LAKE AVENUE", "city": "PEACHLAND", "province": "BC", "country": "CA", "postalCode": "V0H1X6", "twitter": "None", "instagram": "None", "facebook": "None", "youtube": "None", "website": "None", "summary": "None", "logo": "None", "latitude": 49.78219246378897, "longitude": -119.71974979808414}, "805531522RR0001": {"name": "All Paws Matter", "designationCode": "C", "categoryCode": "54", "address": "54 IRONWOOD CRES", "city": "STOUFFVILLE", "province": "ON", "country": "CA", "postalCode": "L4A5S6", "twitter": "None", "instagram": "None", "facebook": "None", "youtube": "None", "website": "None", "summary": "None", "logo": "None", "latitude": 43.97847666584905, "longitude": -79.24686757594183}, "802762658RR0001": {"name": "All Points-Festival City Realty, Brokerage Charitable Fund", "designationCode": "C", "categoryCode": "09", "address": "138 COURTHOUSE SQUARE", "city": "GODERICH", "province": "ON", "country": "CA", "postalCode": "N7A1M9", "twitter": "None", "instagram": "None", "facebook": "None", "youtube": "None", "website": "None", "summary": "None", "logo": "None", "latitude": 43.7432101917883, "longitude": -81.71012678723544}, "132960550RR0002": {"name": "All Saints Anglican Church", "designationCode": "C", "categoryCode": "30", "address": "248 N. VIDAL STREET", "city": "SARNIA", "province": "ON", "country": "CA", "postalCode": "N7T5Y4", "twitter": "None", "instagram": "None", "facebook": "None", "youtube": "None", "website": "None", "summary": "None", "logo": "None", "latitude": 42.975662659983044, "longitude": -82.40434043148774}, "851852517RR0001": {"name": "All Saints Orthodox Church", "designationCode": "C", "categoryCode": "39", "address": "302-2ND STREET EAST", "city": "MEADOW LAKE", "province": "SK", "country": "CA", "postalCode": "S9X1E7", "twitter": "None", "instagram": "None", "facebook": "None", "youtube": "None", "website": "None", "summary": "None", "logo": "None", "latitude": 54.13034852265184, "longitude": -108.42978276213789}, "107910259RR0026": {"name": "All Saints Parish", "designationCode": "C", "categoryCode": "38", "address": "1415 ROYAL YORK RD", "city": "ETOBICOKE", "province": "ON", "country": "CA", "postalCode": "M9P3A7", "twitter": "None", "instagram": "None", "facebook": "None", "youtube": "None", "website": "None", "summary": "None", "logo": "None", "latitude": 43.68451137359329, "longitude": -79.52750110416105}, "107909939RR0041": {"name": "All Saints Roman Catholic Parish", "designationCode": "C", "categoryCode": "38", "address": "2405-12 AVE S", "city": "LETHBRIDGE", "province": "AB", "country": "CA", "postalCode": "T1K0P4", "twitter": "None", "instagram": "None", "facebook": "None", "youtube": "None", "website": "None", "summary": "None", "logo": "None", "latitude": 49.68001251875456, "longitude": -112.80706191618097}, "813521960RR0001": {"name": "All Seasons Mushrooms Foundation", "designationCode": "B", "categoryCode": "21", "address": "PO BOX 12020 RPO MURRAYVILLE", "city": "LANGLEY", "province": "BC", "country": "CA", "postalCode": "V2Y0M6", "twitter": "None", "instagram": "None", "facebook": "None", "youtube": "None", "website": "None", "summary": "None", "logo": "None", "latitude": 49.08941000000004, "longitude": -122.62216999999998}, "119132694RR0001": {"name": "All Serbian Saints Serbian Orthodox Church", "designationCode": "C", "categoryCode": "39", "address": "2520 DIXIE ROAD", "city": "MISSISSAUGA", "province": "ON", "country": "CA", "postalCode": "L4Y2A5", "twitter": "None", "instagram": "None", "facebook": "None", "youtube": "None", "website": "None", "summary": "None", "logo": "None", "latitude": 43.607984826793356, "longitude": -79.58204809106105}, "834626061RR0001": {"name": "All World Gayatri Pariwar, Edmonton", "designationCode": "C", "categoryCode": "48", "address": "237 FERGUSON PLACE", "city": "EDMONTON", "province": "AB", "country": "CA", "postalCode": "T6R2C7", "twitter": "None", "instagram": "None", "facebook": "None", "youtube": "None", "website": "None", "summary": "None", "logo": "None", "latitude": 53.466585601159935, "longitude": -113.58495976224847}, "811037027RR0001": {"name": "All-Nation Evangelical Seventh Day Adventist Church", "designationCode": "C", "categoryCode": "41", "address": "719 MIDLAND AVENUE", "city": "SCARBOROUGH", "province": "ON", "country": "CA", "postalCode": "M1K4E3", "twitter": "None", "instagram": "None", "facebook": "None", "youtube": "None", "website": "None", "summary": "None", "logo": "None", "latitude": 43.72824367361066, "longitude": -79.2553909891513}, "840564611RR0001": {"name": "All-Together Affordable Housing Corporation", "designationCode": "C", "categoryCode": "09", "address": "PO BOX 1709 STN CSC", "city": "BELLEVILLE", "province": "ON", "country": "CA", "postalCode": "K8N0A5", "twitter": "None", "instagram": "None", "facebook": "None", "youtube": "None", "website": "None", "summary": "None", "logo": "None", "latitude": 44.17979889300782, "longitude": -77.37150667947562}, "817874050RR0001": {"name": "Allan & Alice Shen Charity Foundation", "designationCode": "B", "categoryCode": "21", "address": "260 8291 ALEXANDRA ROAD", "city": "RICHMOND", "province": "BC", "country": "CA", "postalCode": "V6X1C3", "twitter": "None", "instagram": "None", "facebook": "None", "youtube": "None", "website": "None", "summary": "None", "logo": "None", "latitude": 49.178430526963375, "longitude": -123.13156404812031}, "779552892RR0001": {"name": "Allan Kardec Vancouver Society", "designationCode": "C", "categoryCode": "39", "address": "804 - 3033 E KENT AVE NORTH", "city": "VANCOUVER", "province": "BC", "country": "CA", "postalCode": "V5S4P7", "twitter": "None", "instagram": "None", "facebook": "None", "youtube": "None", "website": "None", "summary": "None", "logo": "None", "latitude": 49.20681910914126, "longitude": -123.04415664022466}, "824551030RR0001": {"name": "Allardyce Bower Foundation", "designationCode": "B", "categoryCode": "05", "address": "200 - 1204 KENSINGTON RD NW", "city": "CALGARY", "province": "AB", "country": "CA", "postalCode": "T2N3P5", "twitter": "None", "instagram": "None", "facebook": "None", "youtube": "None", "website": "None", "summary": "None", "logo": "None", "latitude": 51.05253951875455, "longitude": -114.0890805}, "842107682RR0001": {"name": "Allen \"General\" Neacappo Foundation / Fondation Allen \"G\u00e9n\u00e9ral\" Neacappo", "designationCode": "C", "categoryCode": "21", "address": "305A BEAVER ROAD              PO BOX 1314", "city": "CHISASIBI", "province": "QC", "country": "CA", "postalCode": "J0M1E0", "twitter": "None", "instagram": "None", "facebook": "None", "youtube": "None", "website": "None", "summary": "None", "logo": "None", "latitude": 53.793159486772, "longitude": -78.90475304527101}, "849078738RR0001": {"name": "Allen Family Foundation", "designationCode": "B", "categoryCode": "03", "address": "181 BAY ST PO BOX 30030       BROOKFIELD PO", "city": "TORONTO", "province": "ON", "country": "CA", "postalCode": "M5J0A5", "twitter": "None", "instagram": "None", "facebook": "None", "youtube": "None", "website": "None", "summary": "None", "logo": "None", "latitude": 43.64715434416293, "longitude": -79.37959157588452}, "806893434RR0001": {"name": "Allenville Church & Cemetery", "designationCode": "C", "categoryCode": "59", "address": "12 BLUEBERRY LANE, RR3", "city": "PARRSBORO", "province": "NS", "country": "CA", "postalCode": "B0M1S0", "twitter": "None", "instagram": "None", "facebook": "None", "youtube": "None", "website": "None", "summary": "None", "logo": "None", "latitude": 45.379326678313866, "longitude": -64.69373704218364}, "875944738RR0001": {"name": "Allergies Qu\u00e9bec / Allergy Qu\u00e9bec", "designationCode": "C", "categoryCode": "11", "address": "500 RUE BEAUDOIN", "city": "MONTREAL", "province": "QC", "country": "CA", "postalCode": "H4C2Y4", "twitter": "None", "instagram": "None", "facebook": "None", "youtube": "None", "website": "None", "summary": "None", "logo": "None", "latitude": 45.474923735212705, "longitude": -73.58721448710249}, "801304262RR0001": {"name": "Alley Cats Rescue Society", "designationCode": "C", "categoryCode": "54", "address": "108 - 106 CLEARSKYE WAY", "city": "RED DEER COUNTY", "province": "AB", "country": "CA", "postalCode": "T4E0A1", "twitter": "None", "instagram": "None", "facebook": "None", "youtube": "None", "website": "None", "summary": "None", "logo": "None", "latitude": 52.211593202857635, "longitude": -113.78663771638054}, "801502501RR0001": {"name": "Alleycats Alliance Society", "designationCode": "C", "categoryCode": "54", "address": "332 113 - 437 MARTIN STREET", "city": "PENTICTON", "province": "BC", "country": "CA", "postalCode": "V2A5L1", "twitter": "None", "instagram": "None", "facebook": "None", "youtube": "None", "website": "None", "summary": "None", "logo": "None", "latitude": 49.496193, "longitude": -119.59238475}, "828683755RR0001": {"name": "Alliance alimentaire Papineau", "designationCode": "C", "categoryCode": "09", "address": "101 - 4 RUE DU MARCHE", "city": "RIPON", "province": "QC", "country": "CA", "postalCode": "J0V1V0", "twitter": "None", "instagram": "None", "facebook": "None", "youtube": "None", "website": "None", "summary": "None", "logo": "None", "latitude": 45.784110699745824, "longitude": -75.1063871146098}, "118782630RR0007": {"name": "Alliance chr\u00e9tienne et missionnaire au Qu\u00e9bec/Christian and Missionary Alliance in Qu\u00e9bec", "designationCode": "C", "categoryCode": "47", "address": "4824, CHEMIN C\u00d4TE-DES-NEIGES  BUREAU 300", "city": "MONTR\u00c9AL", "province": "QC", "country": "CA", "postalCode": "H3V1G4", "twitter": "None", "instagram": "None", "facebook": "None", "youtube": "None", "website": "None", "summary": "None", "logo": "None", "latitude": 45.49532050288555, "longitude": -73.61328180391251}, "118966035RR0001": {"name": "Alliance Community Fellowship", "designationCode": "C", "categoryCode": "39", "address": "BOX 64", "city": "HYTHE", "province": "AB", "country": "CA", "postalCode": "T0H2C0", "twitter": "None", "instagram": "None", "facebook": "None", "youtube": "None", "website": "None", "summary": "None", "logo": "None", "latitude": 55.32677000000007, "longitude": -119.55663999999996}, "834864035RR0001": {"name": "Alliance Global Serve Canada", "designationCode": "C", "categoryCode": "47", "address": "5230 RIVER FOREST COURT", "city": "MISSISSAUGA", "province": "ON", "country": "CA", "postalCode": "L5V2C7", "twitter": "None", "instagram": "None", "facebook": "None", "youtube": "None", "website": "None", "summary": "None", "logo": "None", "latitude": 43.58696542602008, "longitude": -79.68526709351389}, "136765476RR0001": {"name": "Alliance Isra\u00e9lite Universelle (Canada)", "designationCode": "C", "categoryCode": "21", "address": "1 CARR\u00c9 CUMMINGS              LA COMMUNAUT\u00c9 S\u00c9PHARADE UNIFIE", "city": "MONTR\u00c9AL", "province": "QC", "country": "CA", "postalCode": "H3W1M6", "twitter": "None", "instagram": "None", "facebook": "None", "youtube": "None", "website": "None", "summary": "None", "logo": "None", "latitude": 45.48894900000006, "longitude": -73.63611799999994}, "835893801RR0001": {"name": "Alliance Missionnaire Acadienne Inc.", "designationCode": "C", "categoryCode": "39", "address": "266 RUE LAFAYETTE", "city": "DIEPPE", "province": "NB", "country": "CA", "postalCode": "E1A4T6", "twitter": "None", "instagram": "None", "facebook": "None", "youtube": "None", "website": "None", "summary": "None", "logo": "None", "latitude": 46.064850106872754, "longitude": -64.71801015113387}, "886691997RR0001": {"name": "Allied Youth International", "designationCode": "C", "categoryCode": "29", "address": "357 LANARK DRIVE", "city": "PARADISE", "province": "NL", "country": "CA", "postalCode": "A1L0M2", "twitter": "None", "instagram": "None", "facebook": "None", "youtube": "None", "website": "None", "summary": "None", "logo": "None", "latitude": 47.53126253231589, "longitude": -52.88759308006812}, "829070614RR0001": {"name": "Allied Youth Newfoundland and Labrador Inc.", "designationCode": "C", "categoryCode": "29", "address": "PO BOX 21145", "city": "ST. JOHN'S", "province": "NL", "country": "CA", "postalCode": "A1A5B2", "twitter": "None", "instagram": "None", "facebook": "None", "youtube": "None", "website": "None", "summary": "None", "logo": "None", "latitude": 47.600088000000056, "longitude": -52.692861499999935}, "803110493RR0001": {"name": "Allstar Foundation - Wings of Hope", "designationCode": "B", "categoryCode": "03", "address": "70 REGATTA AVENUE", "city": "RICHMOND HILL", "province": "ON", "country": "CA", "postalCode": "L4E4R1", "twitter": "None", "instagram": "None", "facebook": "None", "youtube": "None", "website": "None", "summary": "None", "logo": "None", "latitude": 43.95050920180029, "longitude": -79.46105781294355}, "848597258RR0001": {"name": "Alm Charitable Properties", "designationCode": "C", "categoryCode": "43", "address": "3500 FALLOWFIELD RD           UNIT 5", "city": "NEPEAN", "province": "ON", "country": "CA", "postalCode": "K2J4A7", "twitter": "None", "instagram": "None", "facebook": "None", "youtube": "None", "website": "None", "summary": "None", "logo": "None", "latitude": 45.294010464279914, "longitude": -75.74254274738907}}