{"829183045RR0001": {"name": "Church of God For All Nations", "designationCode": "C", "categoryCode": "39", "address": "3-15 QUEEN ST", "city": "FORT ERIE", "province": "ON", "country": "CA", "postalCode": "L2A1T5", "twitter": "None", "instagram": "None", "facebook": "None", "youtube": "None", "website": "None", "summary": "None", "logo": "None", "latitude": 42.90953345325738, "longitude": -78.91026214071786}, "819386269RR0001": {"name": "Church of God International Kitchener-Waterloo", "designationCode": "C", "categoryCode": "39", "address": "124 MUNICIPAL ST", "city": "GUELPH", "province": "ON", "country": "CA", "postalCode": "N1G4R1", "twitter": "None", "instagram": "None", "facebook": "None", "youtube": "None", "website": "None", "summary": "None", "logo": "None", "latitude": 43.52503286343707, "longitude": -80.25357241283409}, "854081965RR0001": {"name": "Church of God Ministry of Jesus Christ International", "designationCode": "C", "categoryCode": "39", "address": "108-25 RUE DE PORT-ROYAL E", "city": "MONTREAL", "province": "QC", "country": "CA", "postalCode": "H3L3T1", "twitter": "None", "instagram": "None", "facebook": "None", "youtube": "None", "website": "None", "summary": "None", "logo": "None", "latitude": 45.547073999999995, "longitude": -73.65670424999999}, "821591898RR0001": {"name": "Church of God Sabbath-Keeping Ministries", "designationCode": "C", "categoryCode": "39", "address": "6 WESTWYN COURT", "city": "BRAMPTON", "province": "ON", "country": "CA", "postalCode": "L6T4T5", "twitter": "None", "instagram": "None", "facebook": "None", "youtube": "None", "website": "None", "summary": "None", "logo": "None", "latitude": 43.68626441274719, "longitude": -79.69472610029457}, "850004755RR0001": {"name": "Church of God Worship Centre", "designationCode": "C", "categoryCode": "39", "address": "25 MORROW ROAD                UNIT 301", "city": "BARRIE", "province": "ON", "country": "CA", "postalCode": "L4N3Z7", "twitter": "None", "instagram": "None", "facebook": "None", "youtube": "None", "website": "None", "summary": "None", "logo": "None"}, "835324419RR0001": {"name": "Church of God 7th Day Pillar and Ground of Truth", "designationCode": "C", "categoryCode": "39", "address": "12 DOVASTON GATE", "city": "BOLTON", "province": "ON", "country": "CA", "postalCode": "L7E2K3", "twitter": "None", "instagram": "None", "facebook": "None", "youtube": "None", "website": "None", "summary": "None", "logo": "None", "latitude": 43.870676110767896, "longitude": -79.71042803165206}, "805577939RR0001": {"name": "Church of God, An International Community (Canada)", "designationCode": "C", "categoryCode": "39", "address": "21906 HIGHVIEW PLACE", "city": "MAPLE RIDGE", "province": "BC", "country": "CA", "postalCode": "V2X0V3", "twitter": "None", "instagram": "None", "facebook": "None", "youtube": "None", "website": "None", "summary": "None", "logo": "None", "latitude": 49.22943848124546, "longitude": -122.61363172162271}, "857687495RR0001": {"name": "Church of Grace", "designationCode": "C", "categoryCode": "39", "address": "2967-J RICHMOND ROAD", "city": "OTTAWA", "province": "ON", "country": "CA", "postalCode": "K2B6S6", "twitter": "None", "instagram": "None", "facebook": "None", "youtube": "None", "website": "None", "summary": "None", "logo": "None", "latitude": 45.352830476570915, "longitude": -75.79909735642526}, "820673762RR0001": {"name": "Church of Hope", "designationCode": "C", "categoryCode": "39", "address": "9050 DIXIE RD", "city": "BRAMPTON", "province": "ON", "country": "CA", "postalCode": "L6S1J3", "twitter": "None", "instagram": "None", "facebook": "None", "youtube": "None", "website": "None", "summary": "None", "logo": "None", "latitude": 43.7153059938545, "longitude": -79.72875151462827}, "828321844RR0001": {"name": "Church of Hope", "designationCode": "C", "categoryCode": "36", "address": "170 TUSCARORA CLOSE NW", "city": "CALGARY", "province": "AB", "country": "CA", "postalCode": "T3L2E3", "twitter": "None", "instagram": "None", "facebook": "None", "youtube": "None", "website": "None", "summary": "None", "logo": "None", "latitude": 51.12590458728148, "longitude": -114.23601473036527}, "850214446RR0001": {"name": "Church of Hope", "designationCode": "C", "categoryCode": "31", "address": "710 LAWSON AVENUE", "city": "KELOWNA", "province": "BC", "country": "CA", "postalCode": "V1Y6S8", "twitter": "None", "instagram": "None", "facebook": "None", "youtube": "None", "website": "None", "summary": "None", "logo": "None", "latitude": 49.88738046047076, "longitude": -119.488284}, "851914887RR0001": {"name": "Church of Jesus Covenant in Canada", "designationCode": "C", "categoryCode": "39", "address": "14 CARLUKE CRESCENT           APT.109", "city": "TORONTO", "province": "ON", "country": "CA", "postalCode": "M2L2H8", "twitter": "None", "instagram": "None", "facebook": "None", "youtube": "None", "website": "None", "summary": "None", "logo": "None", "latitude": 43.76042157646143, "longitude": -79.39161042847196}, "856723853RR0001": {"name": "Church of Redemption Anglican Missions, Calgary", "designationCode": "C", "categoryCode": "39", "address": "3 PACIFIC AVENUE              PO BOX 386", "city": "ACME", "province": "AB", "country": "CA", "postalCode": "T0M0A0", "twitter": "None", "instagram": "None", "facebook": "None", "youtube": "None", "website": "None", "summary": "None", "logo": "None", "latitude": 51.48891481330282, "longitude": -113.50462352188049}, "107020323RR0012": {"name": "Church of St John the Evangelist, Mistissini, Quebec", "designationCode": "C", "categoryCode": "30", "address": "112 ST JOHN STREET            PO BOX 1014", "city": "MISTISSINI", "province": "QC", "country": "CA", "postalCode": "G0W1C0", "twitter": "None", "instagram": "None", "facebook": "None", "youtube": "None", "website": "None", "summary": "None", "logo": "None", "latitude": 50.41845941979674, "longitude": -73.86862701993356}, "118861988RR0001": {"name": "Church of St. Laurence", "designationCode": "C", "categoryCode": "30", "address": "22 WENDERLY DRIVE", "city": "TORONTO", "province": "ON", "country": "CA", "postalCode": "M6B2N9", "twitter": "None", "instagram": "None", "facebook": "None", "youtube": "None", "website": "None", "summary": "None", "logo": "None", "latitude": 43.71088422344038, "longitude": -79.45295670788846}, "872538475RR0001": {"name": "Church on the Hill", "designationCode": "C", "categoryCode": "36", "address": "BOX 879", "city": "LOGAN LAKE", "province": "BC", "country": "CA", "postalCode": "V0K1W0", "twitter": "None", "instagram": "None", "facebook": "None", "youtube": "None", "website": "None", "summary": "None", "logo": "None", "latitude": 50.49127000000004, "longitude": -120.81466999999998}, "842142085RR0001": {"name": "Church on the Rock International Ministries", "designationCode": "C", "categoryCode": "39", "address": "136 LAWSON ROAD", "city": "SCARBOROUGH", "province": "ON", "country": "CA", "postalCode": "M1C2J4", "twitter": "None", "instagram": "None", "facebook": "None", "youtube": "None", "website": "None", "summary": "None", "logo": "None"}, "107894917RR0001": {"name": "Church on Five", "designationCode": "C", "categoryCode": "34", "address": "10200 NO 5 RD", "city": "RICHMOND", "province": "BC", "country": "CA", "postalCode": "V7A4E5", "twitter": "None", "instagram": "None", "facebook": "None", "youtube": "None", "website": "None", "summary": "None", "logo": "None", "latitude": 49.13862943632371, "longitude": -123.09178202423824}, "843148479RR0001": {"name": "Church House of God and Door to Heaven Inc.", "designationCode": "C", "categoryCode": "39", "address": "1014 WYANDOTTE STREET EAST", "city": "WINDSOR", "province": "ON", "country": "CA", "postalCode": "N9A3K2", "twitter": "None", "instagram": "None", "facebook": "None", "youtube": "None", "website": "None", "summary": "None", "logo": "None", "latitude": 42.31931257452821, "longitude": -83.02230248265909}, "824953129RR0001": {"name": "Church Of Promise", "designationCode": "C", "categoryCode": "39", "address": "29 BEGONIA CRES", "city": "BRAMPTON", "province": "ON", "country": "CA", "postalCode": "L7A0M6", "twitter": "None", "instagram": "None", "facebook": "None", "youtube": "None", "website": "None", "summary": "None", "logo": "None", "latitude": 43.72401300305843, "longitude": -79.82598380933688}, "808239693RR0001": {"name": "Church Street School Cultural Centre", "designationCode": "C", "categoryCode": "56", "address": "22 CHURCH STREET", "city": "AURORA", "province": "ON", "country": "CA", "postalCode": "L4G1G4", "twitter": "None", "instagram": "None", "facebook": "None", "youtube": "None", "website": "None", "summary": "None", "logo": "None", "latitude": 43.997026241762235, "longitude": -79.46550581432854}, "847469665RR0001": {"name": "Church Without Borders", "designationCode": "C", "categoryCode": "49", "address": "540 FOREST HILL DR EAST", "city": "KINGSTON", "province": "ON", "country": "CA", "postalCode": "K7M8M5", "twitter": "None", "instagram": "None", "facebook": "None", "youtube": "None", "website": "None", "summary": "None", "logo": "None", "latitude": 44.24159118347843, "longitude": -76.59464838022974}, "843585373RR0001": {"name": "Church 180", "designationCode": "C", "categoryCode": "39", "address": "6 CATALINA CRT", "city": "BRAMPTON", "province": "ON", "country": "CA", "postalCode": "L6Y2T4", "twitter": "None", "instagram": "None", "facebook": "None", "youtube": "None", "website": "None", "summary": "None", "logo": "None", "latitude": 43.6583173827399, "longitude": -79.75579597261844}, "848539250RR0001": {"name": "Chyzowski Charitable Foundation Inc.", "designationCode": "B", "categoryCode": "03", "address": "23 - 602 CARTWRIGHT STREET", "city": "SASKATOON", "province": "SK", "country": "CA", "postalCode": "S7T0M1", "twitter": "None", "instagram": "None", "facebook": "None", "youtube": "None", "website": "None", "summary": "None", "logo": "None", "latitude": 52.07445014709451, "longitude": -106.6507877993249}, "836725820RR0001": {"name": "Cidel Foundation", "designationCode": "A", "categoryCode": "05", "address": "SUITE 403 322-11 AVE SW", "city": "CALGARY", "province": "AB", "country": "CA", "postalCode": "T2R0C5", "twitter": "None", "instagram": "None", "facebook": "None", "youtube": "None", "website": "None", "summary": "None", "logo": "None", "latitude": 51.042551467684106, "longitude": -114.0685795269202}, "137468195RR0001": {"name": "Cimeti\u00e8re catholique de Port Cartier", "designationCode": "C", "categoryCode": "59", "address": "38, AV. PARENT", "city": "PORT-CARTIER", "province": "QC", "country": "CA", "postalCode": "G5B2G5", "twitter": "None", "instagram": "None", "facebook": "None", "youtube": "None", "website": "None", "summary": "None", "logo": "None"}, "820341048RR0001": {"name": "Cimeti\u00e8re Sand Hill Inc./ Sand Hill cemetary Inc.", "designationCode": "C", "categoryCode": "59", "address": "338 WARNER AVENUE", "city": "EAST ANGUS", "province": "QC", "country": "CA", "postalCode": "J0B1R0", "twitter": "None", "instagram": "None", "facebook": "None", "youtube": "None", "website": "None", "summary": "None", "logo": "None", "latitude": 45.48166609676857, "longitude": -71.67010994041816}, "776786097RR0001": {"name": "Cimeti\u00e8re St. Thomas de Westbury/St. Thomas Westbury Cemetery", "designationCode": "C", "categoryCode": "59", "address": "338 WARNER AVENUE", "city": "EAST ANGUS", "province": "QC", "country": "CA", "postalCode": "J0B1R0", "twitter": "None", "instagram": "None", "facebook": "None", "youtube": "None", "website": "None", "summary": "None", "logo": "None", "latitude": 45.48166609676857, "longitude": -71.67010994041816}, "724590492RR0001": {"name": "Cimeti\u00e8res Sainte-Anne-de-Bellechasse", "designationCode": "C", "categoryCode": "59", "address": "225 RUE PRINCIPALE", "city": "SAINT-GERVAIS", "province": "QC", "country": "CA", "postalCode": "G0R3C0", "twitter": "None", "instagram": "None", "facebook": "None", "youtube": "None", "website": "None", "summary": "None", "logo": "None", "latitude": 46.714156741618005, "longitude": -70.88796309781307}, "845708221RR0001": {"name": "Cimeti\u00e8res Sainte-Marie-Madeleine", "designationCode": "C", "categoryCode": "59", "address": "17737, RUE DU SACR\u00c9-COEUR", "city": "MIRABEL", "province": "QC", "country": "CA", "postalCode": "J7J1L4", "twitter": "None", "instagram": "None", "facebook": "None", "youtube": "None", "website": "None", "summary": "None", "logo": "None", "latitude": 45.70497039581029, "longitude": -73.93067864992177}, "816213623RR0001": {"name": "Cinefic Foundation", "designationCode": "A", "categoryCode": "03", "address": "1500 WEST GEORGIA STREET      SUITE 1250   BOX 62", "city": "VANCOUVER", "province": "BC", "country": "CA", "postalCode": "V6G2Z6", "twitter": "None", "instagram": "None", "facebook": "None", "youtube": "None", "website": "None", "summary": "None", "logo": "None", "latitude": 49.2900638104334, "longitude": -123.12989899362336}, "119288918RR0678": {"name": "Cinnabar Valley Congregation of Jehovah's Witnesses, Nanaimo, British Columbia", "designationCode": "C", "categoryCode": "61", "address": "1064 OLD VICTORIA RD", "city": "NANAIMO", "province": "BC", "country": "CA", "postalCode": "V9R6R4", "twitter": "None", "instagram": "None", "facebook": "None", "youtube": "None", "website": "None", "summary": "None", "logo": "None", "latitude": 49.13695052568162, "longitude": -123.92480130991237}, "788776094RR0001": {"name": "Circle of Life Charitable Foundation", "designationCode": "A", "categoryCode": "03", "address": "2300 YONGE STREET             SUITE 1500", "city": "TORONTO", "province": "ON", "country": "CA", "postalCode": "M4P1E4", "twitter": "None", "instagram": "None", "facebook": "None", "youtube": "None", "website": "None", "summary": "None", "logo": "None", "latitude": 43.70721096779967, "longitude": -79.39846036808203}, "855494977RR0001": {"name": "Circle of Love Community Outreach", "designationCode": "C", "categoryCode": "09", "address": "59 INTREPID DRIVE", "city": "WHITBY", "province": "ON", "country": "CA", "postalCode": "L1S5Z8", "twitter": "None", "instagram": "None", "facebook": "None", "youtube": "None", "website": "None", "summary": "None", "logo": "None", "latitude": 43.90210598724672, "longitude": -78.92822531499236}, "826848574RR0001": {"name": "Circle Foundation", "designationCode": "B", "categoryCode": "03", "address": "34 BURGUNDY TRAIL", "city": "THORNHILL", "province": "ON", "country": "CA", "postalCode": "L4J8X5", "twitter": "None", "instagram": "None", "facebook": "None", "youtube": "None", "website": "None", "summary": "None", "logo": "None", "latitude": 43.83450312129949, "longitude": -79.46031962989781}, "816422539RR0001": {"name": "Circles of Support and Accountability - Ottawa", "designationCode": "C", "categoryCode": "59", "address": "207A - 211 BRONSON AVE", "city": "OTTAWA", "province": "ON", "country": "CA", "postalCode": "K1R6H5", "twitter": "None", "instagram": "None", "facebook": "None", "youtube": "None", "website": "None", "summary": "None", "logo": "None", "latitude": 45.41349725618897, "longitude": -75.7068905103587}, "815114665RR0001": {"name": "Circles of Support and Accountability South Saskatchewan Inc.", "designationCode": "C", "categoryCode": "59", "address": "2731 13TH AVE", "city": "REGINA", "province": "SK", "country": "CA", "postalCode": "S4T1N4", "twitter": "None", "instagram": "None", "facebook": "None", "youtube": "None", "website": "None", "summary": "None", "logo": "None", "latitude": 50.44542330681353, "longitude": -104.62054276023053}, "119288918RR1561": {"name": "Circonscription des t\u00e9moins de J\u00e9hovah du Qu\u00e9bec No. 1-C", "designationCode": "C", "categoryCode": "61", "address": "1896B ST JOSEPH RD", "city": "EMBRUN", "province": "ON", "country": "CA", "postalCode": "K0A1W0", "twitter": "None", "instagram": "None", "facebook": "None", "youtube": "None", "website": "None", "summary": "None", "logo": "None", "latitude": 45.23280232165219, "longitude": -75.23475247719523}, "119288918RR1264": {"name": "Circonscription des t\u00e9moins de J\u00e9hovah du Qu\u00e9bec 10", "designationCode": "C", "categoryCode": "61", "address": "21 DES PRUCHES", "city": "ST.BRIGITTE DE LAVAL", "province": "QC", "country": "CA", "postalCode": "G0A3K0", "twitter": "None", "instagram": "None", "facebook": "None", "youtube": "None", "website": "None", "summary": "None", "logo": "None", "latitude": 46.96074953592258, "longitude": -71.2125252045989}, "119288918RR1684": {"name": "Circonscription des T\u00e9moins de J\u00e9hovah de Qu\u00e9bec 8B", "designationCode": "C", "categoryCode": "61", "address": "318 RLE BAYVIEW", "city": "DIEPPE", "province": "NB", "country": "CA", "postalCode": "E1A7L2", "twitter": "None", "instagram": "None", "facebook": "None", "youtube": "None", "website": "None", "summary": "None", "logo": "None", "latitude": 46.04018322344037, "longitude": -64.69161795504638}, "119288918RR1580": {"name": "Circonscription des T\u00e9moins de J\u00e9hovah du Qu\u00e9bec 13C", "designationCode": "C", "categoryCode": "61", "address": "POST OFFICE BOX 4100", "city": "GEORGETOWN", "province": "ON", "country": "CA", "postalCode": "L7G4Y4", "twitter": "None", "instagram": "None", "facebook": "None", "youtube": "None", "website": "None", "summary": "None", "logo": "None", "latitude": 43.65006000000005, "longitude": -79.89909199999994}, "119288918RR0954": {"name": "Circonscription des T\u00e9moins de J\u00e9hovah du Qu\u00e9bec 2", "designationCode": "C", "categoryCode": "61", "address": "7351 9E AVE", "city": "MONTREAL", "province": "QC", "country": "CA", "postalCode": "H2A3B9", "twitter": "None", "instagram": "None", "facebook": "None", "youtube": "None", "website": "None", "summary": "None", "logo": "None", "latitude": 45.558525425212, "longitude": -73.60227015791455}, "119288918RR1456": {"name": "Circonscription des T\u00e9moins de J\u00e9hovah du Qu\u00e9bec 3B", "designationCode": "C", "categoryCode": "61", "address": "12700, BOULEVARD M\u00c9TROPOLITAIN", "city": "MONTR\u00c9AL", "province": "QC", "country": "CA", "postalCode": "H1A4A7", "twitter": "None", "instagram": "None", "facebook": "None", "youtube": "None", "website": "None", "summary": "None", "logo": "None", "latitude": 45.65575326121796, "longitude": -73.52099767361118}, "119288918RR1047": {"name": "Circonscription des T\u00e9moins de J\u00e9hovah du Qu\u00e9bec 8A", "designationCode": "C", "categoryCode": "61", "address": "164 RTE HAMILTON", "city": "PABOS", "province": "QC", "country": "CA", "postalCode": "G0C2H0", "twitter": "None", "instagram": "None", "facebook": "None", "youtube": "None", "website": "None", "summary": "None", "logo": "None", "latitude": 48.38334221316859, "longitude": -64.60524234912593}, "119288918RR1173": {"name": "Circonscription des T\u00e9moins de J\u00e9ohvah du Qu\u00e9bec 6", "designationCode": "C", "categoryCode": "61", "address": "2065, RUE B\u00c9DARD", "city": "LONGUEUIL", "province": "QC", "country": "CA", "postalCode": "J4N1B4", "twitter": "None", "instagram": "None", "facebook": "None", "youtube": "None", "website": "None", "summary": "None", "logo": "None", "latitude": 45.55003412934957, "longitude": -73.45597128224378}, "119288918RR1624": {"name": "Circonscription fran\u00e7aise ouest des T\u00e9moins de J\u00e9hovah", "designationCode": "C", "categoryCode": "61", "address": "849 WEST 67TH AVENUE", "city": "VANCOUVER", "province": "BC", "country": "CA", "postalCode": "V6P2S4", "twitter": "None", "instagram": "None", "facebook": "None", "youtube": "None", "website": "None", "summary": "None", "logo": "None", "latitude": 49.21070453318128, "longitude": -123.12569152553522}, "850574047RR0001": {"name": "Cirque Hors Piste", "designationCode": "C", "categoryCode": "09", "address": "6 - 1153 RUE ALEXANDRE-DESEVE", "city": "MONTREAL", "province": "QC", "country": "CA", "postalCode": "H2L2T7", "twitter": "None", "instagram": "None", "facebook": "None", "youtube": "None", "website": "None", "summary": "None", "logo": "None", "latitude": 45.52025814821969, "longitude": -73.55168087509384}, "742878093RR0001": {"name": "Cit\u00e9 \u00e9vang\u00e9lique internationale", "designationCode": "C", "categoryCode": "39", "address": "547 RUE SAINT-REMI", "city": "MONTREAL", "province": "QC", "country": "CA", "postalCode": "H4C3G4", "twitter": "None", "instagram": "None", "facebook": "None", "youtube": "None", "website": "None", "summary": "None", "logo": "None", "latitude": 45.47093611547109, "longitude": -73.59158054703107}, "812472660RR0001": {"name": "Cit\u00e9 de R\u00eaves pour filles / City of Dreams for Girls", "designationCode": "C", "categoryCode": "09", "address": "4825, RUE CAZELAIS", "city": "MONTREAL", "province": "QC", "country": "CA", "postalCode": "H4C1E6", "twitter": "None", "instagram": "None", "facebook": "None", "youtube": "None", "website": "None", "summary": "None", "logo": "None", "latitude": 45.47353682237861, "longitude": -73.5954244400714}, "839141686RR0001": {"name": "Cit\u00e9 des ambassadeurs pour christ (C.I.A.C.)", "designationCode": "C", "categoryCode": "49", "address": "8350 BOULEVARD SAINT-LAURENT", "city": "MONTR\u00c9AL", "province": "QC", "country": "CA", "postalCode": "H2P2M3", "twitter": "None", "instagram": "None", "facebook": "None", "youtube": "None", "website": "None", "summary": "None", "logo": "None", "latitude": 45.540010133475846, "longitude": -73.63533075480397}, "822095790RR0001": {"name": "Cit\u00e9 du Souffle", "designationCode": "C", "categoryCode": "49", "address": "3205 RUE GALT O", "city": "SHERBROOKE", "province": "QC", "country": "CA", "postalCode": "J1K1M6", "twitter": "None", "instagram": "None", "facebook": "None", "youtube": "None", "website": "None", "summary": "None", "logo": "None", "latitude": 45.38454832113787, "longitude": -71.95155689053017}, "832214787RR0001": {"name": "Cit\u00e9 Les Trois R", "designationCode": "C", "categoryCode": "09", "address": "500 - 850 AV DU BOURG", "city": "SAINT-JEROME", "province": "QC", "country": "CA", "postalCode": "J7Z0H5", "twitter": "None", "instagram": "None", "facebook": "None", "youtube": "None", "website": "None", "summary": "None", "logo": "None", "latitude": 45.757845178458105, "longitude": -73.98861093533955}, "822475729RR0001": {"name": "Citadel + Compagnie", "designationCode": "C", "categoryCode": "22", "address": "304 PARLIAMENT ST", "city": "TORONTO", "province": "ON", "country": "CA", "postalCode": "M5A3A4", "twitter": "None", "instagram": "None", "facebook": "None", "youtube": "None", "website": "None", "summary": "None", "logo": "None", "latitude": 43.65905398972823, "longitude": -79.36589703540297}, "813395480RR0001": {"name": "Citadel Therapy Canine Society", "designationCode": "C", "categoryCode": "09", "address": "202 - 2476 YORK AVENUE", "city": "VANCOUVER", "province": "BC", "country": "CA", "postalCode": "V6K1E2", "twitter": "None", "instagram": "None", "facebook": "None", "youtube": "None", "website": "None", "summary": "None", "logo": "None", "latitude": 49.271787546742615, "longitude": -123.16166380252754}, "130362817RR0001": {"name": "Citizen Advocacy of Ottawa-Carleton", "designationCode": "C", "categoryCode": "09", "address": "312 PARKDALE AVE", "city": "OTTAWA", "province": "ON", "country": "CA", "postalCode": "K1Y4X5", "twitter": "None", "instagram": "None", "facebook": "None", "youtube": "None", "website": "None", "summary": "None", "logo": "None", "latitude": 45.40315226643207, "longitude": -75.7305909284433}, "852167956RR0001": {"name": "Citizens for the Advancement of Community Development", "designationCode": "C", "categoryCode": "59", "address": "1275 MISSISSAUGA VALLEY BLVD", "city": "MISSISSAUGA", "province": "ON", "country": "CA", "postalCode": "L5A3R8", "twitter": "None", "instagram": "None", "facebook": "None", "youtube": "None", "website": "None", "summary": "None", "logo": "None", "latitude": 43.59846475934242, "longitude": -79.6246572709577}, "890622541RR0001": {"name": "Citizens on Patrol Society, Port Alberni", "designationCode": "C", "categoryCode": "59", "address": "5155 ARGYLE STREET", "city": "PORT ALBERNI", "province": "BC", "country": "CA", "postalCode": "V9Y1V3", "twitter": "None", "instagram": "None", "facebook": "None", "youtube": "None", "website": "None", "summary": "None", "logo": "None", "latitude": 49.23482700688655, "longitude": -124.80997700298829}, "818275034RR0001": {"name": "City of Liberation Christian Ministry", "designationCode": "C", "categoryCode": "39", "address": "503-2 ARMEL COURT", "city": "ETOBICOKE", "province": "ON", "country": "CA", "postalCode": "M9W6L4", "twitter": "None", "instagram": "None", "facebook": "None", "youtube": "None", "website": "None", "summary": "None", "logo": "None", "latitude": 43.72218683097696, "longitude": -79.54527895311315}, "802005330RR0001": {"name": "City of Revival Ministry (Ministerio Ciudad de Avivamiento)", "designationCode": "C", "categoryCode": "39", "address": "3324 SCOTCH PINE GATE,", "city": "MISSISSAUGA", "province": "ON", "country": "CA", "postalCode": "L5N7M9", "twitter": "None", "instagram": "None", "facebook": "None", "youtube": "None", "website": "None", "summary": "None", "logo": "None", "latitude": 43.58347520731156, "longitude": -79.78257648707383}, "107396905RR0068": {"name": "City on a Hill Church", "designationCode": "C", "categoryCode": "39", "address": "2201 EIGHTH AVE", "city": "NEW WESTMINSTER", "province": "BC", "country": "CA", "postalCode": "V3M2T9", "twitter": "None", "instagram": "None", "facebook": "None", "youtube": "None", "website": "None", "summary": "None", "logo": "None", "latitude": 49.20083537998921, "longitude": -122.95222693487753}, "803352285RR0001": {"name": "City on a Hill Church", "designationCode": "C", "categoryCode": "39", "address": "2201 EIGHTH AVE", "city": "NEW WESTMINSTER", "province": "BC", "country": "CA", "postalCode": "V3M2T9", "twitter": "None", "instagram": "None", "facebook": "None", "youtube": "None", "website": "None", "summary": "None", "logo": "None", "latitude": 49.20083537998921, "longitude": -122.95222693487753}, "892924366RR0001": {"name": "City Axis Leadership Society", "designationCode": "C", "categoryCode": "49", "address": "PO BOX 3003                   STN LCD1", "city": "LANGLEY", "province": "BC", "country": "CA", "postalCode": "V3A4R3", "twitter": "None", "instagram": "None", "facebook": "None", "youtube": "None", "website": "None", "summary": "None", "logo": "None", "latitude": 49.10435700000005, "longitude": -122.65652149999994}, "108205519RR0001": {"name": "City Centre Church", "designationCode": "C", "categoryCode": "37", "address": "13062 104TH AVE", "city": "SURREY", "province": "BC", "country": "CA", "postalCode": "V3T1T7", "twitter": "None", "instagram": "None", "facebook": "None", "youtube": "None", "website": "None", "summary": "None", "logo": "None", "latitude": 49.19164754342441, "longitude": -122.8602520771826}, "825679830RR0001": {"name": "City Chapel Fellowship", "designationCode": "C", "categoryCode": "39", "address": "5850 KERRY WOOD DR", "city": "RED DEER", "province": "AB", "country": "CA", "postalCode": "T4N4X6", "twitter": "None", "instagram": "None", "facebook": "None", "youtube": "None", "website": "None", "summary": "None", "logo": "None", "latitude": 52.27762551263772, "longitude": -113.82050851113716}, "818572893RR0001": {"name": "City Church of Winnipeg Inc.", "designationCode": "C", "categoryCode": "39", "address": "360 HILLARY CR", "city": "WINNIPEG", "province": "MB", "country": "CA", "postalCode": "R2Y0Y7", "twitter": "None", "instagram": "None", "facebook": "None", "youtube": "None", "website": "None", "summary": "None", "logo": "None", "latitude": 49.89129956116933, "longitude": -97.2953901150384}, "763334695RR0001": {"name": "City Dream Centre Society", "designationCode": "C", "categoryCode": "09", "address": "6788 152 ST", "city": "SURREY", "province": "BC", "country": "CA", "postalCode": "V3S3L4", "twitter": "None", "instagram": "None", "facebook": "None", "youtube": "None", "website": "None", "summary": "None", "logo": "None", "latitude": 49.125788360811356, "longitude": -122.80094805326348}, "804514909RR0001": {"name": "City Kidz Ministries Ottawa", "designationCode": "C", "categoryCode": "09", "address": "220 - 532 MONTREAL ROAD", "city": "OTTAWA", "province": "ON", "country": "CA", "postalCode": "K1K4R4", "twitter": "None", "instagram": "None", "facebook": "None", "youtube": "None", "website": "None", "summary": "None", "logo": "None", "latitude": 45.44131219507788, "longitude": -75.64615307074862}, "849053442RR0001": {"name": "City Kidz-Regina Ministry Incorporated", "designationCode": "C", "categoryCode": "09", "address": "PO BOX 3112 STN MAIN", "city": "REGINA", "province": "SK", "country": "CA", "postalCode": "S4P3G7", "twitter": "None", "instagram": "None", "facebook": "None", "youtube": "None", "website": "None", "summary": "None", "logo": "None", "latitude": 50.448246000000054, "longitude": -104.59517299999993}, "130650732RR0001": {"name": "City Life Church", "designationCode": "C", "categoryCode": "39", "address": "46641 CHILLIWACK CENTRAL RD", "city": "CHILLIWACK", "province": "BC", "country": "CA", "postalCode": "V2P1K3", "twitter": "None", "instagram": "None", "facebook": "None", "youtube": "None", "website": "None", "summary": "None", "logo": "None", "latitude": 49.16198545441123, "longitude": -121.93298197446478}, "739141299RR0001": {"name": "City Life Church Vancouver", "designationCode": "C", "categoryCode": "39", "address": "2715 12TH AVE W", "city": "VANCOUVER", "province": "BC", "country": "CA", "postalCode": "V6K2P7", "twitter": "None", "instagram": "None", "facebook": "None", "youtube": "None", "website": "None", "summary": "None", "logo": "None", "latitude": 49.261425504327825, "longitude": -123.1668635029142}, "119107308RR0001": {"name": "City Light Church of Victoria", "designationCode": "C", "categoryCode": "39", "address": "550 OBED AVE", "city": "VICTORIA", "province": "BC", "country": "CA", "postalCode": "V9A1K5", "twitter": "None", "instagram": "None", "facebook": "None", "youtube": "None", "website": "None", "summary": "None", "logo": "None", "latitude": 48.45333927647271, "longitude": -123.40487167023514}, "866909427RR0001": {"name": "City Lights Church of Camrose", "designationCode": "C", "categoryCode": "36", "address": "4920 48 STREET", "city": "CAMROSE", "province": "AB", "country": "CA", "postalCode": "T4V4L5", "twitter": "None", "instagram": "None", "facebook": "None", "youtube": "None", "website": "None", "summary": "None", "logo": "None", "latitude": 53.02077803150514, "longitude": -112.82221186306654}, "763999497RR0001": {"name": "City Mosaic Church", "designationCode": "C", "categoryCode": "36", "address": "156 DOUGLAS RIDGE CLOSE SE", "city": "CALGARY", "province": "AB", "country": "CA", "postalCode": "T2Z2P6", "twitter": "None", "instagram": "None", "facebook": "None", "youtube": "None", "website": "None", "summary": "None", "logo": "None", "latitude": 50.93926205355195, "longitude": -113.97753551206078}, "888442662RR0001": {"name": "City Movement Inc.", "designationCode": "C", "categoryCode": "49", "address": "3217 EPWORTH CRES", "city": "OAKVILLE", "province": "ON", "country": "CA", "postalCode": "L6M0B3", "twitter": "None", "instagram": "None", "facebook": "None", "youtube": "None", "website": "None", "summary": "None", "logo": "None", "latitude": 43.42156098335157, "longitude": -79.77279102790115}, "858678758RR0001": {"name": "City On The Mount Ministries", "designationCode": "B", "categoryCode": "39", "address": "1 BOYD CREST", "city": "AJAX", "province": "ON", "country": "CA", "postalCode": "L1Z1Y2", "twitter": "None", "instagram": "None", "facebook": "None", "youtube": "None", "website": "None", "summary": "None", "logo": "None", "latitude": 43.900414626469505, "longitude": -79.01303193001907}, "848807186RR0001": {"name": "City Opera of Vancouver Society", "designationCode": "C", "categoryCode": "22", "address": "PO BOX 88393                  CHINATOWN STATION", "city": "VANCOUVER", "province": "BC", "country": "CA", "postalCode": "V6A4A6", "twitter": "None", "instagram": "None", "facebook": "None", "youtube": "None", "website": "None", "summary": "None", "logo": "None", "latitude": 49.26037200000006, "longitude": -123.11336149999994}, "119288918RR0125": {"name": "City Park Congregation of Jehovah's Witnesses, Saskatoon, Saskatchewan", "designationCode": "C", "categoryCode": "61", "address": "203-520 3RD AVE N", "city": "SASKATOON", "province": "SK", "country": "CA", "postalCode": "S7K2J7", "twitter": "None", "instagram": "None", "facebook": "None", "youtube": "None", "website": "None", "summary": "None", "logo": "None", "latitude": 52.13630591298114, "longitude": -106.65847894598102}, "706262698RR0001": {"name": "City South Church", "designationCode": "C", "categoryCode": "39", "address": "2101 MILLBOURNE ROAD WEST NW", "city": "EDMONTON", "province": "AB", "country": "CA", "postalCode": "T6K0Y3", "twitter": "None", "instagram": "None", "facebook": "None", "youtube": "None", "website": "None", "summary": "None", "logo": "None", "latitude": 53.48107332524698, "longitude": -113.454918526671}, "817409071RR0001": {"name": "City Stage New West", "designationCode": "C", "categoryCode": "22", "address": "1250 QUAYSIDE DRIVE           APT. 801", "city": "NEW WESTMINSTER", "province": "BC", "country": "CA", "postalCode": "V3M6E2", "twitter": "None", "instagram": "None", "facebook": "None", "youtube": "None", "website": "None", "summary": "None", "logo": "None", "latitude": 49.199185483954004, "longitude": -122.92094502756349}, "824333132RR0001": {"name": "City Street Outreach", "designationCode": "C", "categoryCode": "47", "address": "202 - 35 BRIAN PECK CRESCENT", "city": "TORONTO", "province": "ON", "country": "CA", "postalCode": "M4G0A2", "twitter": "None", "instagram": "None", "facebook": "None", "youtube": "None", "website": "None", "summary": "None", "logo": "None", "latitude": 43.714338158779924, "longitude": -79.35471184676}, "780756920RR0001": {"name": "City Transformation Centre", "designationCode": "C", "categoryCode": "39", "address": "229 FOXTAIL WAY", "city": "SHERWOOD PARK", "province": "AB", "country": "CA", "postalCode": "T8A3C2", "twitter": "None", "instagram": "None", "facebook": "None", "youtube": "None", "website": "None", "summary": "None", "logo": "None", "latitude": 53.52172848707382, "longitude": -113.25263047665781}, "851030452RR0001": {"name": "City View Christian Centre", "designationCode": "C", "categoryCode": "39", "address": "238 DECHENE ROAD", "city": "EDMONTON", "province": "AB", "country": "CA", "postalCode": "T6M1W6", "twitter": "None", "instagram": "None", "facebook": "None", "youtube": "None", "website": "None", "summary": "None", "logo": "None", "latitude": 53.49108781210684, "longitude": -113.63324415976086}, "819707068RR0001": {"name": "City View International Church", "designationCode": "C", "categoryCode": "39", "address": "3458 MARCH RD", "city": "CARP", "province": "ON", "country": "CA", "postalCode": "K0A1L0", "twitter": "None", "instagram": "None", "facebook": "None", "youtube": "None", "website": "None", "summary": "None", "logo": "None", "latitude": 45.28716250271359, "longitude": -76.09827723429095}, "119288918RR0062": {"name": "Cityview Congregation of Jehovah's Witnesses, Regina, Saskatchewan", "designationCode": "C", "categoryCode": "61", "address": "16 - 2020 9TH AVE N", "city": "REGINA", "province": "SK", "country": "CA", "postalCode": "S4R6Z6", "twitter": "None", "instagram": "None", "facebook": "None", "youtube": "None", "website": "None", "summary": "None", "logo": "None", "latitude": 50.48436150000002, "longitude": -104.60918699999999}, "853449502RR0001": {"name": "Citywide Christ Chapel (C.C.C.)-A Ministry of Citywide Chapel International", "designationCode": "C", "categoryCode": "39", "address": "7895 CANADA WAY", "city": "BURNABY", "province": "BC", "country": "CA", "postalCode": "V3N3K8", "twitter": "None", "instagram": "None", "facebook": "None", "youtube": "None", "website": "None", "summary": "None", "logo": "None", "latitude": 49.217180963067804, "longitude": -122.93190934390313}, "824967988RR0001": {"name": "CityGate Church Stratford", "designationCode": "C", "categoryCode": "39", "address": "77 PERTH ST", "city": "STRATFORD", "province": "ON", "country": "CA", "postalCode": "N5A3X8", "twitter": "None", "instagram": "None", "facebook": "None", "youtube": "None", "website": "None", "summary": "None", "logo": "None", "latitude": 43.36116651067581, "longitude": -80.97403469608747}, "823712245RR0001": {"name": "CityGate Leadership Forum Society", "designationCode": "C", "categoryCode": "59", "address": "301-291 EAST 2ND AVENUE", "city": "VANCOUVER", "province": "BC", "country": "CA", "postalCode": "V5T1B8", "twitter": "None", "instagram": "None", "facebook": "None", "youtube": "None", "website": "None", "summary": "None", "logo": "None", "latitude": 49.26805774023303, "longitude": -123.09864657963544}, "802253831RR0001": {"name": "CityLight Church Toronto", "designationCode": "C", "categoryCode": "39", "address": "115 TWENTY FOURTH ST", "city": "ETOBICOKE", "province": "ON", "country": "CA", "postalCode": "M8V3N7", "twitter": "None", "instagram": "None", "facebook": "None", "youtube": "None", "website": "None", "summary": "None", "logo": "None", "latitude": 43.60128271623554, "longitude": -79.52415595050853}, "130994353RR0002": {"name": "CityLights Church", "designationCode": "C", "categoryCode": "36", "address": "3410 BOUNDARY ROAD", "city": "BURNABY", "province": "BC", "country": "CA", "postalCode": "V5M4A5", "twitter": "None", "instagram": "None", "facebook": "None", "youtube": "None", "website": "None", "summary": "None", "logo": "None", "latitude": 49.253985, "longitude": -123.02346838562542}, "787689694RR0001": {"name": "CivicAction Leadership Foundation", "designationCode": "C", "categoryCode": "21", "address": "110 YONGE ST", "city": "TORONTO", "province": "ON", "country": "CA", "postalCode": "M5C1T4", "twitter": "None", "instagram": "None", "facebook": "None", "youtube": "None", "website": "None", "summary": "None", "logo": "None", "latitude": 43.650145351924564, "longitude": -79.37834446367339}, "842875171RR0001": {"name": "Civil K9 Youth Services", "designationCode": "C", "categoryCode": "09", "address": "134 BROCK ROAD", "city": "GUELPH", "province": "ON", "country": "CA", "postalCode": "N1H6H9", "twitter": "None", "instagram": "None", "facebook": "None", "youtube": "None", "website": "None", "summary": "None", "logo": "None", "latitude": 43.481772660227385, "longitude": -80.16375832481626}, "830989174RR0001": {"name": "Civilian Peace Service Canada (CPSC) Le Service Civil de la Paix Canada (SCPC)", "designationCode": "C", "categoryCode": "03", "address": "2106-1025 RICHMOND ROAD", "city": "OTTAWA", "province": "ON", "country": "CA", "postalCode": "K2B8G8", "twitter": "None", "instagram": "None", "facebook": "None", "youtube": "None", "website": "None", "summary": "None", "logo": "None", "latitude": 45.375355360003304, "longitude": -75.77722520280989}, "843312034RR0001": {"name": "Claim Life Deliverance Ministries Inc.", "designationCode": "C", "categoryCode": "39", "address": "602-22 WILLOWRIDGE ROAD", "city": "ETOBICOKE", "province": "ON", "country": "CA", "postalCode": "M9R3Y9", "twitter": "None", "instagram": "None", "facebook": "None", "youtube": "None", "website": "None", "summary": "None", "logo": "None", "latitude": 43.67561288392333, "longitude": -79.56835925321651}, "866806755RR0001": {"name": "Clan Mothers Turtle Lodge Inc.", "designationCode": "C", "categoryCode": "09", "address": "38 MAPLE ST", "city": "WINNIPEG", "province": "MB", "country": "CA", "postalCode": "R3B0Y8", "twitter": "None", "instagram": "None", "facebook": "None", "youtube": "None", "website": "None", "summary": "None", "logo": "None", "latitude": 49.903098747157934, "longitude": -97.13160930117121}, "118864883RR0001": {"name": "Clans and Scottish Societies of Canada (CASSOC)", "designationCode": "C", "categoryCode": "22", "address": "78-24 FUNDY BAY BLVD", "city": "TORONTO", "province": "ON", "country": "CA", "postalCode": "M1W3A4", "twitter": "None", "instagram": "None", "facebook": "None", "youtube": "None", "website": "None", "summary": "None", "logo": "None", "latitude": 43.809919260343904, "longitude": -79.31380904330882}, "860706035RR0001": {"name": "ClanMac Foundation", "designationCode": "B", "categoryCode": "03", "address": "7 PLANK ROAD                  SUITE 301", "city": "ST. JOHN'S", "province": "NL", "country": "CA", "postalCode": "A1E1H3", "twitter": "None", "instagram": "None", "facebook": "None", "youtube": "None", "website": "None", "summary": "None", "logo": "None", "latitude": 47.55435351208946, "longitude": -52.714679291620584}, "809835663RR0001": {"name": "Clare Search and Rescue Association", "designationCode": "C", "categoryCode": "59", "address": "P.O. BOX 182", "city": "SAULNIERVILLE", "province": "NS", "country": "CA", "postalCode": "B0W2Z0", "twitter": "None", "instagram": "None", "facebook": "None", "youtube": "None", "website": "None", "summary": "None", "logo": "None", "latitude": 44.23431485860516, "longitude": -66.06328380838774}, "824413249RR0001": {"name": "Clarence Heppell Foundation", "designationCode": "B", "categoryCode": "21", "address": "6352 172 ST", "city": "SURREY", "province": "BC", "country": "CA", "postalCode": "V3S6V8", "twitter": "None", "instagram": "None", "facebook": "None", "youtube": "None", "website": "None", "summary": "None", "logo": "None", "latitude": 49.11808416180969, "longitude": -122.74595000608818}, "818859803RR0001": {"name": "Clarendon Miller Volunteer Firefighters Association (CMVFA)", "designationCode": "C", "categoryCode": "09", "address": "6648 ROAD 506                 CLARENDON MILLER FIRE STATION", "city": "PLEVNA", "province": "ON", "country": "CA", "postalCode": "K0H2M0", "twitter": "None", "instagram": "None", "facebook": "None", "youtube": "None", "website": "None", "summary": "None", "logo": "None", "latitude": 44.96325900000005, "longitude": -77.00621299999993}, "815173695RR0001": {"name": "Claresholm Animal Rescue Society", "designationCode": "C", "categoryCode": "54", "address": "4110-3RD STREET EAST          BOX 2579", "city": "CLARESHOLM", "province": "AB", "country": "CA", "postalCode": "T0L0T0", "twitter": "None", "instagram": "None", "facebook": "None", "youtube": "None", "website": "None", "summary": "None", "logo": "None", "latitude": 50.01468796423405, "longitude": -113.57381603887197}}