{"132932708RR0001": {"name": "GIRLS INCORPORATED OF LIMESTONE, ALGONQUIN AND LAKESHORE", "designationCode": "C", "categoryCode": "09", "address": "31 WELLER AVE", "city": "KINGSTON", "province": "ON", "country": "CA", "postalCode": "K7K2T1", "twitter": "None", "instagram": "None", "facebook": "None", "youtube": "None", "website": "None", "summary": "None", "logo": "None", "latitude": 44.26266043493553, "longitude": -76.48101286525474}, "118809292RR0001": {"name": "GIRLS INCORPORATED OF UPPER CANADA", "designationCode": "C", "categoryCode": "09", "address": "BOX 791", "city": "BROCKVILLE", "province": "ON", "country": "CA", "postalCode": "K6V5W1", "twitter": "None", "instagram": "None", "facebook": "None", "youtube": "None", "website": "None", "summary": "None", "logo": "None", "latitude": 44.59037100000006, "longitude": -75.68301049999994}, "118809508RR0001": {"name": "GIRLS INCORPORATED OF YORK REGION", "designationCode": "C", "categoryCode": "09", "address": "460 DAVIS DR", "city": "NEWMARKET", "province": "ON", "country": "CA", "postalCode": "L3Y0C4", "twitter": "None", "instagram": "None", "facebook": "None", "youtube": "None", "website": "None", "summary": "None", "logo": "None", "latitude": 44.059412366046914, "longitude": -79.45961968446309}, "887848265RR0001": {"name": "GIRLS' AND BOYS' ACADEMY OF INDIA", "designationCode": "C", "categoryCode": "20", "address": "202 - 1437 KINGSWAY", "city": "VANCOUVER", "province": "BC", "country": "CA", "postalCode": "V5N2R6", "twitter": "None", "instagram": "None", "facebook": "None", "youtube": "None", "website": "None", "summary": "None", "logo": "None", "latitude": 49.24975639158134, "longitude": -123.07503480673063}, "119233443RR0001": {"name": "GIRLSINCORPORATED OF NORTHERN ALBERTA SOCIETY", "designationCode": "C", "categoryCode": "09", "address": "21B - 10019 MACDONALD AVE", "city": "FORT MCMURRAY", "province": "AB", "country": "CA", "postalCode": "T9H1S9", "twitter": "None", "instagram": "None", "facebook": "None", "youtube": "None", "website": "None", "summary": "None", "logo": "None", "latitude": 56.727039048518535, "longitude": -111.38321964261219}, "886134394RR0001": {"name": "GIRVIN CEMETARY COMMITTEE", "designationCode": "C", "categoryCode": "59", "address": "BOX 987", "city": "DAVIDSON", "province": "SK", "country": "CA", "postalCode": "S0G1A0", "twitter": "None", "instagram": "None", "facebook": "None", "youtube": "None", "website": "None", "summary": "None", "logo": "None", "latitude": 51.26742000000007, "longitude": -105.99597999999997}, "118938794RR0001": {"name": "GISLA CEMETERY INC.", "designationCode": "C", "categoryCode": "59", "address": "444, RTE 161 NORD", "city": "STORNOWAY", "province": "QC", "country": "CA", "postalCode": "G0Y1N0", "twitter": "None", "instagram": "None", "facebook": "None", "youtube": "None", "website": "None", "summary": "None", "logo": "None", "latitude": 45.711594574933955, "longitude": -71.15994841783962}, "119012607RR0001": {"name": "GITE JEUNESSE INC.", "designationCode": "C", "categoryCode": "59", "address": "2706 AV PIERRE-ROY", "city": "BEAUPORT", "province": "QC", "country": "CA", "postalCode": "G1E4G3", "twitter": "None", "instagram": "None", "facebook": "None", "youtube": "None", "website": "None", "summary": "None", "logo": "None", "latitude": 46.858319998903475, "longitude": -71.21287846751122}, "890398373RR0001": {"name": "GITWANGAK EDUCATION SOCIETY", "designationCode": "C", "categoryCode": "20", "address": "PO BOX 280", "city": "KITWANGA", "province": "BC", "country": "CA", "postalCode": "V0J2A0", "twitter": "None", "instagram": "None", "facebook": "None", "youtube": "None", "website": "None", "summary": "None", "logo": "None", "latitude": 55.11752352966084, "longitude": -128.0200937838986}, "899319412RR0001": {"name": "GITXSAN HEALTH SOCIETY", "designationCode": "C", "categoryCode": "11", "address": "4240 GOVERNMENT ST            PO BOX 223", "city": "HAZELTON", "province": "BC", "country": "CA", "postalCode": "V0J1Y0", "twitter": "None", "instagram": "None", "facebook": "None", "youtube": "None", "website": "None", "summary": "None", "logo": "None", "latitude": 55.25734408694985, "longitude": -127.67508415034976}, "706727724RR0001": {"name": "GIVE & RESTORE HOPE CHILDREN'S CHARITY", "designationCode": "B", "categoryCode": "21", "address": "23 GREAT PLAINS ST", "city": "BRAMPTON", "province": "ON", "country": "CA", "postalCode": "L6R1Z5", "twitter": "None", "instagram": "None", "facebook": "None", "youtube": "None", "website": "None", "summary": "None", "logo": "None", "latitude": 43.7540883624848, "longitude": -79.74223227364544}, "859141970RR0001": {"name": "GIVE INTERNATIONAL", "designationCode": "C", "categoryCode": "01", "address": "272 DEWDROP CRES", "city": "WATERLOO", "province": "ON", "country": "CA", "postalCode": "N2V0A9", "twitter": "None", "instagram": "None", "facebook": "None", "youtube": "None", "website": "None", "summary": "None", "logo": "None", "latitude": 43.45307218318997, "longitude": -80.58859156145779}, "828476143RR0001": {"name": "GIVE KIDS A CHANCE FOUNDATION", "designationCode": "C", "categoryCode": "09", "address": "1063 EGLINGTON AVE W", "city": "TORONTO", "province": "ON", "country": "CA", "postalCode": "M6C2C9", "twitter": "None", "instagram": "None", "facebook": "None", "youtube": "None", "website": "None", "summary": "None", "logo": "None", "latitude": 43.69922283484344, "longitude": -79.43363742838598}, "897459111RR0001": {"name": "GIVING BAACK (BANCROFT AREA ATHLETIC CHARITY FOR KIDS) INC.", "designationCode": "C", "categoryCode": "09", "address": "277 OLD HERMON RD, GEN DEL", "city": "MCARTHURS MILLS", "province": "ON", "country": "CA", "postalCode": "K0L2M0", "twitter": "None", "instagram": "None", "facebook": "None", "youtube": "None", "website": "None", "summary": "None", "logo": "None", "latitude": 45.11482563082284, "longitude": -77.6192356865468}, "852701721RR0001": {"name": "GIVING IN ACTION SOCIETY", "designationCode": "C", "categoryCode": "09", "address": "200-475 WEST GEORGIA ST", "city": "VANCOUVER", "province": "BC", "country": "CA", "postalCode": "V6B4M9", "twitter": "None", "instagram": "None", "facebook": "None", "youtube": "None", "website": "None", "summary": "None", "logo": "None", "latitude": 49.28107337552653, "longitude": -123.11582762585846}, "132348574RR0001": {"name": "GIVINS/SHAW SCHOOL COMMUNITY DAYCARE", "designationCode": "C", "categoryCode": "01", "address": "49 GIVINS STREET", "city": "TORONTO", "province": "ON", "country": "CA", "postalCode": "M6J2X3", "twitter": "None", "instagram": "None", "facebook": "None", "youtube": "None", "website": "None", "summary": "None", "logo": "None", "latitude": 43.64628209798596, "longitude": -79.41817004726221}, "118938828RR0001": {"name": "GJ BRYSON EST.-RESIDUAL TRUST FOR MAINTENANCE, UPKEEP & GENERAL ASSISTANCE OF ST. ANDREWS PRESBYTERIAN CHURCH", "designationCode": "B", "categoryCode": "45", "address": "380 WELLINGTON STREET         12TH FLOOR", "city": "LONDON", "province": "ON", "country": "CA", "postalCode": "N6A5B5", "twitter": "None", "instagram": "None", "facebook": "None", "youtube": "None", "website": "None", "summary": "None", "logo": "None", "latitude": 42.98403487844074, "longitude": -81.24475227780037}, "882660103RR0001": {"name": "GLACE BAY (HEALTH CARE CORP) HOSPITAL GIFT CORNER", "designationCode": "C", "categoryCode": "19", "address": "300 SOUTH STREET", "city": "GLACE BAY", "province": "NS", "country": "CA", "postalCode": "B1A1W9", "twitter": "None", "instagram": "None", "facebook": "None", "youtube": "None", "website": "None", "summary": "None", "logo": "None", "latitude": 46.18334440256436, "longitude": -59.93731320897434}, "118938927RR0001": {"name": "GLACE BAY BAPTIST CHURCH", "designationCode": "C", "categoryCode": "31", "address": "PO BOX 363", "city": "GLACE BAY", "province": "NS", "country": "CA", "postalCode": "B1A3X2", "twitter": "None", "instagram": "None", "facebook": "None", "youtube": "None", "website": "None", "summary": "None", "logo": "None", "latitude": 46.20160500000006, "longitude": -59.95775149999993}, "118938836RR0001": {"name": "GLACE BAY CEMETERY CO.", "designationCode": "C", "categoryCode": "59", "address": "77 CONNAUGHT AVE", "city": "GLACE BAY", "province": "NS", "country": "CA", "postalCode": "B1A5S3", "twitter": "None", "instagram": "None", "facebook": "None", "youtube": "None", "website": "None", "summary": "None", "logo": "None", "latitude": 46.21517258338635, "longitude": -59.97417578143571}, "106929680RR0001": {"name": "GLACE BAY CITIZENS SERVICE LEAGUE", "designationCode": "C", "categoryCode": "09", "address": "150 COMMERCIAL STREET", "city": "GLACE BAY", "province": "NS", "country": "CA", "postalCode": "B1A3C1", "twitter": "None", "instagram": "None", "facebook": "None", "youtube": "None", "website": "None", "summary": "None", "logo": "None", "latitude": 46.196064639736925, "longitude": -59.9564410853769}, "118938869RR0001": {"name": "GLACE BAY FOOD BANK SOCIETY", "designationCode": "C", "categoryCode": "09", "address": "PO BOX 552  STN MAIN", "city": "GLACE BAY", "province": "NS", "country": "CA", "postalCode": "B1A6G4", "twitter": "None", "instagram": "None", "facebook": "None", "youtube": "None", "website": "None", "summary": "None", "logo": "None", "latitude": 46.19891859291689, "longitude": -59.97679128316325}, "893024364RR0001": {"name": "GLACE BAY GENERAL HOSPITAL CHARITABLE FOUNDATION", "designationCode": "A", "categoryCode": "13", "address": "22 SCHOOL ST.", "city": "GLACE BAY", "province": "NS", "country": "CA", "postalCode": "B1A1H6", "twitter": "None", "instagram": "None", "facebook": "None", "youtube": "None", "website": "None", "summary": "None", "logo": "None", "latitude": 46.18219819484674, "longitude": -59.96113986707242}, "890209596RR0001": {"name": "GLACE BAY HERITAGE MUSEUM SOCIETY", "designationCode": "C", "categoryCode": "50", "address": "14 MCKEEN STREET              PO BOX 580", "city": "GLACE BAY", "province": "NS", "country": "CA", "postalCode": "B1A6G4", "twitter": "None", "instagram": "None", "facebook": "None", "youtube": "None", "website": "None", "summary": "None", "logo": "None", "latitude": 46.19746041465175, "longitude": -59.95820552994997}, "892547787RR0001": {"name": "GLACE BAY HIGH SCHOOL ACADEMIC TRUST", "designationCode": "C", "categoryCode": "21", "address": "201 RESERVE STREET", "city": "GLACE BAY", "province": "NS", "country": "CA", "postalCode": "B1A4W3", "twitter": "None", "instagram": "None", "facebook": "None", "youtube": "None", "website": "None", "summary": "None", "logo": "None", "latitude": 46.19086351966215, "longitude": -59.981200279012384}, "118938919RR0001": {"name": "GLACE BAY SENIOR CITIZENS & PENSIONERS CLUB", "designationCode": "C", "categoryCode": "09", "address": "PO BOX 280                    445 UPPER NORTH STREET", "city": "GLACE BAY", "province": "NS", "country": "CA", "postalCode": "B1A5V4", "twitter": "None", "instagram": "None", "facebook": "None", "youtube": "None", "website": "None", "summary": "None", "logo": "None", "latitude": 46.20762751399403, "longitude": -59.95402330405675}, "119288918RR0025": {"name": "GLACE BAY, NOVA SCOTIA, CONGREGATION OF JEHOVAH'S WITNESSES,", "designationCode": "C", "categoryCode": "61", "address": "6 BIRKLEY ST", "city": "GLACE BAY", "province": "NS", "country": "CA", "postalCode": "B1A1E2", "twitter": "None", "instagram": "None", "facebook": "None", "youtube": "None", "website": "None", "summary": "None", "logo": "None", "latitude": 46.19080976129619, "longitude": -59.9449537056381}, "806529145RR0001": {"name": "GLACIER PARK BIBLE FELLOWSHIP", "designationCode": "C", "categoryCode": "39", "address": "4620 MICHIGAN AVE", "city": "POWELL RIVER", "province": "BC", "country": "CA", "postalCode": "V8A2S9", "twitter": "None", "instagram": "None", "facebook": "None", "youtube": "None", "website": "None", "summary": "None", "logo": "None", "latitude": 49.840991245628715, "longitude": -124.5236709370999}, "107434235RR0001": {"name": "GLACIER VIEW LODGE SOCIETY", "designationCode": "C", "categoryCode": "01", "address": "2137 COMOX AVE", "city": "COMOX", "province": "BC", "country": "CA", "postalCode": "V9M1P2", "twitter": "None", "instagram": "None", "facebook": "None", "youtube": "None", "website": "None", "summary": "None", "logo": "None", "latitude": 49.67551634655669, "longitude": -124.94082592151634}, "892098963RR0001": {"name": "GLAD TIDINGS ARCTIC MISSIONS SOCIETY", "designationCode": "C", "categoryCode": "39", "address": "P O BOX 3474", "city": "LANGLEY", "province": "BC", "country": "CA", "postalCode": "V3A4R8", "twitter": "None", "instagram": "None", "facebook": "None", "youtube": "None", "website": "None", "summary": "None", "logo": "None", "latitude": 49.10435700000005, "longitude": -122.65652149999994}, "107434490RR0001": {"name": "GLAD TIDINGS CHURCH", "designationCode": "C", "categoryCode": "36", "address": "BOX 316", "city": "ALERT BAY", "province": "BC", "country": "CA", "postalCode": "V0N1A0", "twitter": "None", "instagram": "None", "facebook": "None", "youtube": "None", "website": "None", "summary": "None", "logo": "None", "latitude": 50.6420595, "longitude": -127.02791249999999}, "107434672RR0001": {"name": "GLAD TIDINGS CHURCH", "designationCode": "C", "categoryCode": "36", "address": "262 HOWEY ST.                 BOX 350", "city": "RED LAKE", "province": "ON", "country": "CA", "postalCode": "P0V2M0", "twitter": "None", "instagram": "None", "facebook": "None", "youtube": "None", "website": "None", "summary": "None", "logo": "None", "latitude": 51.01544695080881, "longitude": -93.83310710142737}, "833414600RR0001": {"name": "GLAD TIDINGS CHURCH (SUDBURY)", "designationCode": "C", "categoryCode": "36", "address": "1101 REGENT STREET SOUTH", "city": "SUDBURY", "province": "ON", "country": "CA", "postalCode": "P3E5P8", "twitter": "None", "instagram": "None", "facebook": "None", "youtube": "None", "website": "None", "summary": "None", "logo": "None", "latitude": 46.468411472823824, "longitude": -81.00634020592115}, "118939347RR0001": {"name": "GLAD TIDINGS CHURCH (VICTORIA)", "designationCode": "C", "categoryCode": "36", "address": "1800 QUADRA ST", "city": "VICTORIA", "province": "BC", "country": "CA", "postalCode": "V8T4B9", "twitter": "None", "instagram": "None", "facebook": "None", "youtube": "None", "website": "None", "summary": "None", "logo": "None", "latitude": 48.43032115543305, "longitude": -123.35872134537408}, "131936189RR0001": {"name": "GLAD TIDINGS COMMUNITY CHURCH", "designationCode": "C", "categoryCode": "36", "address": "HIGHWAY #3 EAST, BOX 511", "city": "BLENHEIM", "province": "ON", "country": "CA", "postalCode": "N0P1A0", "twitter": "None", "instagram": "None", "facebook": "None", "youtube": "None", "website": "None", "summary": "None", "logo": "None", "latitude": 42.32666013719797, "longitude": -81.97883432956837}, "891405136RR0001": {"name": "GLAD TIDINGS EVANGELISTIC ASSOCIATION INC.", "designationCode": "C", "categoryCode": "39", "address": "4863 WEBSTER CREST", "city": "REGINA", "province": "SK", "country": "CA", "postalCode": "S4X4T3", "twitter": "None", "instagram": "None", "facebook": "None", "youtube": "None", "website": "None", "summary": "None", "logo": "None", "latitude": 50.50534148124546, "longitude": -104.65080202553523}, "891530990RR0001": {"name": "GLAD TIDINGS MENNONITE FELLOWSHIP", "designationCode": "C", "categoryCode": "34", "address": "3501 BRUCE RD 10              RR 2", "city": "TARA", "province": "ON", "country": "CA", "postalCode": "N0H2N0", "twitter": "None", "instagram": "None", "facebook": "None", "youtube": "None", "website": "None", "summary": "None", "logo": "None", "latitude": 44.45098521332249, "longitude": -81.13817037998918}, "118939164RR0001": {"name": "GLAD TIDINGS MISSIONARY SOCIETY", "designationCode": "C", "categoryCode": "39", "address": "3456 FRASER STREET", "city": "VANCOUVER", "province": "BC", "country": "CA", "postalCode": "V5V4C4", "twitter": "None", "instagram": "None", "facebook": "None", "youtube": "None", "website": "None", "summary": "None", "logo": "None", "latitude": 49.25417165306712, "longitude": -123.08993959207159}, "107434557RR0001": {"name": "GLAD TIDINGS PENTECOSTAL ASSEMBLY", "designationCode": "C", "categoryCode": "36", "address": "4811-50 AVE.", "city": "BARRHEAD", "province": "AB", "country": "CA", "postalCode": "T7N1G9", "twitter": "None", "instagram": "None", "facebook": "None", "youtube": "None", "website": "None", "summary": "None", "logo": "None", "latitude": 54.11762053173898, "longitude": -114.39955269317329}, "868053539RR0001": {"name": "GLAD TIDINGS PENTECOSTAL ASSEMBLY", "designationCode": "C", "categoryCode": "36", "address": "4709 43 ST", "city": "VERMILION", "province": "AB", "country": "CA", "postalCode": "T9X1P1", "twitter": "None", "instagram": "None", "facebook": "None", "youtube": "None", "website": "None", "summary": "None", "logo": "None", "latitude": 53.349703958258786, "longitude": -110.83353133695809}, "107434573RR0001": {"name": "GLAD TIDINGS PENTECOSTAL CHURCH", "designationCode": "C", "categoryCode": "36", "address": "1401 GUELPH LINE AT PALMER DR.", "city": "BURLINGTON", "province": "ON", "country": "CA", "postalCode": "L7P4P5", "twitter": "None", "instagram": "None", "facebook": "None", "youtube": "None", "website": "None", "summary": "None", "logo": "None", "latitude": 43.361882272606245, "longitude": -79.81754618203612}, "107434607RR0001": {"name": "GLAD TIDINGS PENTECOSTAL CHURCH", "designationCode": "C", "categoryCode": "36", "address": "2570 PLEASANT VALLEY RD", "city": "ARMSTRONG", "province": "BC", "country": "CA", "postalCode": "V0E1B2", "twitter": "None", "instagram": "None", "facebook": "None", "youtube": "None", "website": "None", "summary": "None", "logo": "None", "latitude": 50.43983002549837, "longitude": -119.20566272616284}, "107434649RR0001": {"name": "GLAD TIDINGS PENTECOSTAL CHURCH", "designationCode": "C", "categoryCode": "36", "address": "BOX 453", "city": "CAMPBELLFORD", "province": "ON", "country": "CA", "postalCode": "K0L1L0", "twitter": "None", "instagram": "None", "facebook": "None", "youtube": "None", "website": "None", "summary": "None", "logo": "None", "latitude": 44.287060000000054, "longitude": -77.80936999999994}, "107833394RR0019": {"name": "GLAD TIDINGS PENTECOSTAL CHURCH", "designationCode": "C", "categoryCode": "36", "address": "610 HUDSON DRIVE", "city": "LABRADOR CITY", "province": "NL", "country": "CA", "postalCode": "A2V1M1", "twitter": "None", "instagram": "None", "facebook": "None", "youtube": "None", "website": "None", "summary": "None", "logo": "None", "latitude": 52.94308323901224, "longitude": -66.91597420204158}, "107834426RR0001": {"name": "GLAD TIDINGS PENTECOSTAL CHURCH", "designationCode": "C", "categoryCode": "36", "address": "116 BASKIN DR WEST", "city": "ARNPRIOR", "province": "ON", "country": "CA", "postalCode": "K7S0E5", "twitter": "None", "instagram": "None", "facebook": "None", "youtube": "None", "website": "None", "summary": "None", "logo": "None", "latitude": 45.42872354596936, "longitude": -76.37384834335201}, "888876794RR0001": {"name": "GLAD TIDINGS PENTECOSTAL CHURCH", "designationCode": "C", "categoryCode": "36", "address": "160 WAYSIDE DRIVE             RR 6", "city": "PERTH", "province": "ON", "country": "CA", "postalCode": "K7H3C8", "twitter": "None", "instagram": "None", "facebook": "None", "youtube": "None", "website": "None", "summary": "None", "logo": "None", "latitude": 44.9364655047396, "longitude": -76.2435948703477}, "893764928RR0001": {"name": "GLAD TIDINGS PENTECOSTAL CHURCH", "designationCode": "C", "categoryCode": "36", "address": "2460 MOUNTAIN ROAD", "city": "MONCTON", "province": "NB", "country": "CA", "postalCode": "E1G1B4", "twitter": "None", "instagram": "None", "facebook": "None", "youtube": "None", "website": "None", "summary": "None", "logo": "None", "latitude": 46.12950954603164, "longitude": -64.87425710324352}, "893871129RR0001": {"name": "GLAD TIDINGS PENTECOSTAL CHURCH", "designationCode": "C", "categoryCode": "36", "address": "357 FIFTH ST", "city": "COCHRANE", "province": "ON", "country": "CA", "postalCode": "P0L1C0", "twitter": "None", "instagram": "None", "facebook": "None", "youtube": "None", "website": "None", "summary": "None", "logo": "None", "latitude": 49.064250478215705, "longitude": -81.01537154385709}, "107833394RR0113": {"name": "GLAD TIDINGS TABERNACLE", "designationCode": "C", "categoryCode": "36", "address": "PO BOX 84", "city": "EMBREE", "province": "NL", "country": "CA", "postalCode": "A0G2A0", "twitter": "None", "instagram": "None", "facebook": "None", "youtube": "None", "website": "None", "summary": "None", "logo": "None", "latitude": 49.30601000000007, "longitude": -55.02473999999995}, "118939255RR0001": {"name": "GLAD TIDINGS TABERNACLE", "designationCode": "C", "categoryCode": "36", "address": "PO BOX 18", "city": "MURRAY RIVER", "province": "PE", "country": "CA", "postalCode": "C0A1W0", "twitter": "None", "instagram": "None", "facebook": "None", "youtube": "None", "website": "None", "summary": "None", "logo": "None", "latitude": 45.98806724330268, "longitude": -62.720381883269674}, "893726729RR0001": {"name": "GLAD TIDINGS TABERNACLE", "designationCode": "C", "categoryCode": "36", "address": "BOX 614", "city": "BIRCH HILLS", "province": "SK", "country": "CA", "postalCode": "S0J0G0", "twitter": "None", "instagram": "None", "facebook": "None", "youtube": "None", "website": "None", "summary": "None", "logo": "None", "latitude": 56.325968466910076, "longitude": -103.2432009425047}, "132293614RR0001": {"name": "GLAD TIDINGS TABERNACLE (ASSEMBLY)", "designationCode": "C", "categoryCode": "36", "address": "65 BRYDON DRIVE", "city": "ETOBICOKE", "province": "ON", "country": "CA", "postalCode": "M9W4N3", "twitter": "None", "instagram": "None", "facebook": "None", "youtube": "None", "website": "None", "summary": "None", "logo": "None", "latitude": 43.71762628227243, "longitude": -79.57258623697305}, "118939248RR0001": {"name": "GLAD TIDINGS WORSHIP CENTER", "designationCode": "C", "categoryCode": "36", "address": "5398 HWY 14", "city": "WINDSOR", "province": "NS", "country": "CA", "postalCode": "B0N2T0", "twitter": "None", "instagram": "None", "facebook": "None", "youtube": "None", "website": "None", "summary": "None", "logo": "None", "latitude": 44.97464689122157, "longitude": -64.13636736688582}, "118938968RR0001": {"name": "GLADMAR LUTHERAN CHURCH", "designationCode": "C", "categoryCode": "32", "address": "BOX 52", "city": "GLADMAR", "province": "SK", "country": "CA", "postalCode": "S0C1A0", "twitter": "None", "instagram": "None", "facebook": "None", "youtube": "None", "website": "None", "summary": "None", "logo": "None", "latitude": 49.16676000000007, "longitude": -104.45103999999998}, "118938976RR0001": {"name": "GLADSTONE AGRICULTURAL SOCIETY", "designationCode": "C", "categoryCode": "56", "address": "BOX 248", "city": "GLADSTONE", "province": "MB", "country": "CA", "postalCode": "R0J0T0", "twitter": "None", "instagram": "None", "facebook": "None", "youtube": "None", "website": "None", "summary": "None", "logo": "None", "latitude": 50.22542000000004, "longitude": -98.95074999999997}, "120657325RR0001": {"name": "GLADSTONE AREA SENIORS SUPPORT PROGRAM INC", "designationCode": "C", "categoryCode": "09", "address": "BOX 757", "city": "GLADSTONE", "province": "MB", "country": "CA", "postalCode": "R0J0T0", "twitter": "None", "instagram": "None", "facebook": "None", "youtube": "None", "website": "None", "summary": "None", "logo": "None", "latitude": 50.22542000000004, "longitude": -98.95074999999997}, "107434326RR0001": {"name": "GLADSTONE BAPTIST CHURCH", "designationCode": "C", "categoryCode": "31", "address": "1464 CROMARTY DRIVE R.R. #2", "city": "DORCHESTER", "province": "ON", "country": "CA", "postalCode": "N0L1G5", "twitter": "None", "instagram": "None", "facebook": "None", "youtube": "None", "website": "None", "summary": "None", "logo": "None", "latitude": 42.95369632889948, "longitude": -81.04951459991919}, "118939016RR0001": {"name": "GLADSTONE CEMETERY COMPANY", "designationCode": "C", "categoryCode": "59", "address": "640 ROD MACKAY ROAD", "city": "SCOTSBURN", "province": "NS", "country": "CA", "postalCode": "B0K1R0", "twitter": "None", "instagram": "None", "facebook": "None", "youtube": "None", "website": "None", "summary": "None", "logo": "None", "latitude": 45.60480212245333, "longitude": -62.87242408531959}, "118939024RR0001": {"name": "GLADSTONE CEMETERY COMPANY", "designationCode": "C", "categoryCode": "59", "address": "122 GORE RD", "city": "FREDERICTON JUNCTION", "province": "NB", "country": "CA", "postalCode": "E5L1T8", "twitter": "None", "instagram": "None", "facebook": "None", "youtube": "None", "website": "None", "summary": "None", "logo": "None", "latitude": 45.65300335108784, "longitude": -66.60886970433911}, "119288918RR0145": {"name": "GLADSTONE CONGREGATION OF JEHOVAH'S WITNESSES", "designationCode": "C", "categoryCode": "61", "address": "330 METCALFE AVE. APT 712", "city": "OTTAWA", "province": "ON", "country": "CA", "postalCode": "K2P1S4", "twitter": "None", "instagram": "None", "facebook": "None", "youtube": "None", "website": "None", "summary": "None", "logo": "None", "latitude": 45.414502931992665, "longitude": -75.69019624842733}, "118939040RR0001": {"name": "GLADSTONE DISTRICT MUSEUM INC", "designationCode": "C", "categoryCode": "50", "address": "PO BOX 651", "city": "GLADSTONE", "province": "MB", "country": "CA", "postalCode": "R0J0T0", "twitter": "None", "instagram": "None", "facebook": "None", "youtube": "None", "website": "None", "summary": "None", "logo": "None", "latitude": 50.22542000000004, "longitude": -98.95074999999997}, "852849231RR0001": {"name": "GLADSTONE MISSION CHURCH INC.", "designationCode": "C", "categoryCode": "39", "address": "516 WHITALL DR", "city": "TRACY", "province": "NB", "country": "CA", "postalCode": "E5L1E8", "twitter": "None", "instagram": "None", "facebook": "None", "youtube": "None", "website": "None", "summary": "None", "logo": "None", "latitude": 45.667761000000056, "longitude": -66.67101799999993}, "118939073RR0001": {"name": "GLADSTONE SENIORS INC.", "designationCode": "C", "categoryCode": "56", "address": "BOX 642", "city": "GLADSTONE", "province": "MB", "country": "CA", "postalCode": "R0J0T0", "twitter": "None", "instagram": "None", "facebook": "None", "youtube": "None", "website": "None", "summary": "None", "logo": "None", "latitude": 50.22542000000004, "longitude": -98.95074999999997}, "130982333RR0001": {"name": "GLADWIN CHILD CARE SOCIETY", "designationCode": "C", "categoryCode": "20", "address": "3145 GLADWIN RD", "city": "ABBOTSFORD", "province": "BC", "country": "CA", "postalCode": "V2T5T4", "twitter": "None", "instagram": "None", "facebook": "None", "youtube": "None", "website": "None", "summary": "None", "logo": "None", "latitude": 49.05921166250218, "longitude": -122.31598486098423}, "107434771RR0001": {"name": "GLADWIN HEIGHTS UNITED CHURCH", "designationCode": "C", "categoryCode": "44", "address": "3474 GLADWIN ROAD", "city": "ABBOTSFORD", "province": "BC", "country": "CA", "postalCode": "V2S7B4", "twitter": "None", "instagram": "None", "facebook": "None", "youtube": "None", "website": "None", "summary": "None", "logo": "None", "latitude": 49.06484222631201, "longitude": -122.31595268285007}, "132527557RR0001": {"name": "GLADYS M MANNING MEMORIAL HOME, INCORPORATED", "designationCode": "C", "categoryCode": "09", "address": "35 ATLANTIC BAPTIST AVE", "city": "MONCTON", "province": "NB", "country": "CA", "postalCode": "E1E4N3", "twitter": "None", "instagram": "None", "facebook": "None", "youtube": "None", "website": "None", "summary": "None", "logo": "None", "latitude": 46.05999327145241, "longitude": -64.85879860263182}, "118939388RR0001": {"name": "GLADYS UNITED CHURCH", "designationCode": "C", "categoryCode": "44", "address": "PO BOX 154", "city": "BLACKIE", "province": "AB", "country": "CA", "postalCode": "T0L0J0", "twitter": "None", "instagram": "None", "facebook": "None", "youtube": "None", "website": "None", "summary": "None", "logo": "None", "latitude": 50.51606892521704, "longitude": -113.51446758222522}, "118939396RR0001": {"name": "GLAMMIS BAPTIST CHURCH", "designationCode": "C", "categoryCode": "31", "address": "RR #1", "city": "TIVERTON", "province": "ON", "country": "CA", "postalCode": "N0G2T0", "twitter": "None", "instagram": "None", "facebook": "None", "youtube": "None", "website": "None", "summary": "None", "logo": "None", "latitude": 44.226921328464684, "longitude": -81.37183747854345}, "131789448RR0001": {"name": "GLAMORGAN CHURCH OF GOD", "designationCode": "C", "categoryCode": "39", "address": "4715 45 ST S W", "city": "CALGARY", "province": "AB", "country": "CA", "postalCode": "T3E3W5", "twitter": "None", "instagram": "None", "facebook": "None", "youtube": "None", "website": "None", "summary": "None", "logo": "None", "latitude": 51.011945077990646, "longitude": -114.1528661081135}, "107435125RR0001": {"name": "GLAMORGAN COMMUNITY KINDERGARTEN SOCIETY", "designationCode": "C", "categoryCode": "21", "address": "4715-45 STREET SW", "city": "CALGARY", "province": "AB", "country": "CA", "postalCode": "T3E3W5", "twitter": "None", "instagram": "None", "facebook": "None", "youtube": "None", "website": "None", "summary": "None", "logo": "None", "latitude": 51.011945077990646, "longitude": -114.1528661081135}, "879979714RR0001": {"name": "GLANBROOK CANADIAN REFORMED CHURCH", "designationCode": "C", "categoryCode": "39", "address": "9135 AIRPORT RD               BOX 322", "city": "MOUNT HOPE", "province": "ON", "country": "CA", "postalCode": "L0R1W0", "twitter": "None", "instagram": "None", "facebook": "None", "youtube": "None", "website": "None", "summary": "None", "logo": "None", "latitude": 43.746890446471525, "longitude": -79.70007097097829}, "890134976RR0001": {"name": "GLANBROOK HERITAGE SOCIETY", "designationCode": "C", "categoryCode": "50", "address": "9346 DICKENSON RD", "city": "MOUNT", "province": "ON", "country": "CA", "postalCode": "L0R1W0", "twitter": "None", "instagram": "None", "facebook": "None", "youtube": "None", "website": "None", "summary": "None", "logo": "None", "latitude": 43.18232610355453, "longitude": -79.91625460753659}, "141128025RR0001": {"name": "GLANBROOK HOME SUPPORT PROGRAMME INC", "designationCode": "C", "categoryCode": "09", "address": "4280 BINBROOK ROAD", "city": "BINBROOK", "province": "ON", "country": "CA", "postalCode": "L0R1C0", "twitter": "None", "instagram": "None", "facebook": "None", "youtube": "None", "website": "None", "summary": "None", "logo": "None", "latitude": 43.128627147411635, "longitude": -79.83848780792324}, "118939420RR0001": {"name": "GLASGOW ROAD PRESBYTERIAN CHURCH", "designationCode": "C", "categoryCode": "37", "address": "1186 NEW GLASGOW ROAD", "city": "EBENEZER", "province": "PE", "country": "CA", "postalCode": "C1E0T1", "twitter": "None", "instagram": "None", "facebook": "None", "youtube": "None", "website": "None", "summary": "None", "logo": "None", "latitude": 46.35907319346174, "longitude": -63.27189636620704}, "118939438RR0001": {"name": "GLASGOW UNITED CHURCH", "designationCode": "C", "categoryCode": "44", "address": "RR 1                          88 MCCALLUM DR.", "city": "RENFREW", "province": "ON", "country": "CA", "postalCode": "K7V3Z4", "twitter": "None", "instagram": "None", "facebook": "None", "youtube": "None", "website": "None", "summary": "None", "logo": "None", "latitude": 45.45208895911348, "longitude": -76.56841471628712}, "893667923RR0001": {"name": "GLASLYN PENTECOSTAL ASSEMBLY", "designationCode": "C", "categoryCode": "36", "address": "BOX 189", "city": "GLASLYN", "province": "SK", "country": "CA", "postalCode": "S0M0Y0", "twitter": "None", "instagram": "None", "facebook": "None", "youtube": "None", "website": "None", "summary": "None", "logo": "None", "latitude": 53.36687000000006, "longitude": -108.35134999999997}, "857804504RR0001": {"name": "GLASSHOUSE CAPACITY SERVICES SOCIETY", "designationCode": "C", "categoryCode": "59", "address": "107-131 WATER STREET", "city": "VANCOUVER", "province": "BC", "country": "CA", "postalCode": "V6B4M3", "twitter": "None", "instagram": "None", "facebook": "None", "youtube": "None", "website": "None", "summary": "None", "logo": "None", "latitude": 49.28412026729746, "longitude": -123.10753546696296}, "858057987RR0001": {"name": "GLASSWATERS FOUNDATION", "designationCode": "B", "categoryCode": "23", "address": "PO BOX 595", "city": "CAMPBELL RIVER", "province": "BC", "country": "CA", "postalCode": "V9W5T9", "twitter": "None", "instagram": "None", "facebook": "None", "youtube": "None", "website": "None", "summary": "None", "logo": "None", "latitude": 50.024643000000054, "longitude": -125.24819299999993}, "889178695RR0001": {"name": "GLAUCOMA RESEARCH SOCIETY OF CANADA-SOCI\u00c9T\u00c9 CANADIENNE DE RECHERCHE SUR LE GLAUCOME", "designationCode": "A", "categoryCode": "13", "address": "1929 BAYVIEW AVENUE           SUITE 215E", "city": "TORONTO", "province": "ON", "country": "CA", "postalCode": "M4G3E8", "twitter": "None", "instagram": "None", "facebook": "None", "youtube": "None", "website": "None", "summary": "None", "logo": "None", "latitude": 43.71691521680394, "longitude": -79.37736929560263}, "118939487RR0001": {"name": "GLEANERS FOODBANK (QUINTE) INC.", "designationCode": "C", "categoryCode": "09", "address": "P.O. BOX 20029", "city": "BELLEVILLE", "province": "ON", "country": "CA", "postalCode": "K8N5V1", "twitter": "None", "instagram": "None", "facebook": "None", "youtube": "None", "website": "None", "summary": "None", "logo": "None", "latitude": 44.16104400000006, "longitude": -77.38183249999993}, "896750031RR0001": {"name": "GLEBE CO-OPERATIVE PLAY GROUP INC.", "designationCode": "C", "categoryCode": "20", "address": "175 THIRD AVENUE", "city": "OTTAWA", "province": "ON", "country": "CA", "postalCode": "K1S2K2", "twitter": "None", "instagram": "None", "facebook": "None", "youtube": "None", "website": "None", "summary": "None", "logo": "None", "latitude": 45.40182849849946, "longitude": -75.69140408731013}, "832180145RR0001": {"name": "GLEBE COLLEGIATE INSTITUTE SCHOOL COUNCIL", "designationCode": "C", "categoryCode": "21", "address": "212 GLEBE AVENUE", "city": "OTTAWA", "province": "ON", "country": "CA", "postalCode": "K1S2C9", "twitter": "None", "instagram": "None", "facebook": "None", "youtube": "None", "website": "None", "summary": "None", "logo": "None", "latitude": 45.40172061806818, "longitude": -75.69771983317}, "130488216RR0001": {"name": "GLEBE PARENTS DAY CARE CENTRE", "designationCode": "C", "categoryCode": "01", "address": "10 FIFTH AVE", "city": "OTTAWA", "province": "ON", "country": "CA", "postalCode": "K1S5N5", "twitter": "None", "instagram": "None", "facebook": "None", "youtube": "None", "website": "None", "summary": "None", "logo": "None", "latitude": 45.40364299484877, "longitude": -75.68253183954864}, "118939511RR0001": {"name": "GLEBE ROAD UNITED CHURCH", "designationCode": "C", "categoryCode": "44", "address": "20 GLEBE ROAD EAST", "city": "TORONTO", "province": "ON", "country": "CA", "postalCode": "M4S1N6", "twitter": "None", "instagram": "None", "facebook": "None", "youtube": "None", "website": "None", "summary": "None", "logo": "None", "latitude": 43.701367241762235, "longitude": -79.39615609423504}, "118939529RR0001": {"name": "GLEBE ST. JAMES UNITED CHURCH", "designationCode": "C", "categoryCode": "44", "address": "650 LYON ST S", "city": "OTTAWA", "province": "ON", "country": "CA", "postalCode": "K1S3Z7", "twitter": "None", "instagram": "None", "facebook": "None", "youtube": "None", "website": "None", "summary": "None", "logo": "None", "latitude": 45.403542629465136, "longitude": -75.69224809619693}, "891723777RR0001": {"name": "GLEICHEN & DISTRICT LIBRARY SOCIETY", "designationCode": "C", "categoryCode": "50", "address": "PO BOX 160", "city": "GLEICHEN", "province": "AB", "country": "CA", "postalCode": "T0J1N0", "twitter": "None", "instagram": "None", "facebook": "None", "youtube": "None", "website": "None", "summary": "None", "logo": "None", "latitude": 50.86703498834985, "longitude": -113.05614014000167}, "134112747RR0001": {"name": "GLEN ABBEY UNITED CHURCH", "designationCode": "C", "categoryCode": "44", "address": "1469 NOTTINGHILL GATE", "city": "OAKVILLE", "province": "ON", "country": "CA", "postalCode": "L6M1X7", "twitter": "None", "instagram": "None", "facebook": "None", "youtube": "None", "website": "None", "summary": "None", "logo": "None", "latitude": 43.44521510964273, "longitude": -79.7321770367593}, "107435497RR0001": {"name": "GLEN ACRES BAPTIST CHURCH", "designationCode": "C", "categoryCode": "39", "address": "223 HARTWOOD AVE", "city": "WATERLOO", "province": "ON", "country": "CA", "postalCode": "N2J1B2", "twitter": "None", "instagram": "None", "facebook": "None", "youtube": "None", "website": "None", "summary": "None", "logo": "None", "latitude": 43.46422033718071, "longitude": -80.50126131929153}, "118939552RR0001": {"name": "GLEN ALLAN COMMUNITY CEMETERY", "designationCode": "C", "categoryCode": "59", "address": "8TH LINE #7563                RR#2", "city": "DRAYTON", "province": "ON", "country": "CA", "postalCode": "N0G1P0", "twitter": "None", "instagram": "None", "facebook": "None", "youtube": "None", "website": "None", "summary": "None", "logo": "None", "latitude": 43.70412998170203, "longitude": -80.61523349310957}, "130362510RR0001": {"name": "GLEN CAIRN COMMUNITY RESOURCE CENTRE", "designationCode": "C", "categoryCode": "09", "address": "244 ADELAIDE ST S", "city": "LONDON", "province": "ON", "country": "CA", "postalCode": "N5Z3L1", "twitter": "None", "instagram": "None", "facebook": "None", "youtube": "None", "website": "None", "summary": "None", "logo": "None", "latitude": 42.96234116876325, "longitude": -81.21966082344647}, "119288918RR1126": {"name": "GLEN CAIRN CONGREGATION OF JEHOVAH'S WITNESSES, LONDON, ONTARIO", "designationCode": "C", "categoryCode": "61", "address": "1128 PONDVIEW RD.", "city": "LONDON", "province": "ON", "country": "CA", "postalCode": "N5Z4K4", "twitter": "None", "instagram": "None", "facebook": "None", "youtube": "None", "website": "None", "summary": "None", "logo": "None", "latitude": 42.948701978359914, "longitude": -81.18963469037466}, "107435885RR0001": {"name": "GLEN CAIRN UNITED CHURCH", "designationCode": "C", "categoryCode": "44", "address": "140 ABBEYHILL DR", "city": "KANATA", "province": "ON", "country": "CA", "postalCode": "K2L1H5", "twitter": "None", "instagram": "None", "facebook": "None", "youtube": "None", "website": "None", "summary": "None", "logo": "None", "latitude": 45.297027704108906, "longitude": -75.87977709137911}, "107435901RR0001": {"name": "GLEN CAMERON FOR KIDS CO-OPERATIVE DAY CARE INC.", "designationCode": "C", "categoryCode": "20", "address": "211 CAMERON AVENUE", "city": "WILLOWDALE", "province": "ON", "country": "CA", "postalCode": "M2N1E8", "twitter": "None", "instagram": "None", "facebook": "None", "youtube": "None", "website": "None", "summary": "None", "logo": "None", "latitude": 43.75475783426652, "longitude": -79.42138500830988}, "118817360RR0001": {"name": "GLEN EDEN SCHOOL SOCIETY", "designationCode": "C", "categoryCode": "20", "address": "190-13151 VANIER PLACE", "city": "RICHMOND", "province": "BC", "country": "CA", "postalCode": "V6V2J1", "twitter": "None", "instagram": "None", "facebook": "None", "youtube": "None", "website": "None", "summary": "None", "logo": "None", "latitude": 49.1828134899011, "longitude": -123.07880414775832}, "863663654RR0001": {"name": "GLEN HILL TERRACE CHRISTIAN HOMES INC.", "designationCode": "C", "categoryCode": "01", "address": "200 GLEN HILL DRIVE SOUTH", "city": "WHITBY", "province": "ON", "country": "CA", "postalCode": "L1N9W2", "twitter": "None", "instagram": "None", "facebook": "None", "youtube": "None", "website": "None", "summary": "None", "logo": "None", "latitude": 43.883155426020075, "longitude": -78.91416537030372}, "118940113RR0001": {"name": "GLEN MAJOR UNITED CHURCH", "designationCode": "C", "categoryCode": "44", "address": "733 CHALK LAKE RD", "city": "UXBRIDGE", "province": "ON", "country": "CA", "postalCode": "L9P1R4", "twitter": "None", "instagram": "None", "facebook": "None", "youtube": "None", "website": "None", "summary": "None", "logo": "None", "latitude": 44.02367533416932, "longitude": -79.07438509255832}, "119288918RR0664": {"name": "GLEN MEADOW CONGREGATION OF JEHOVAH'S WITNESSES", "designationCode": "C", "categoryCode": "61", "address": "4351 DIXIE RD.", "city": "MISSISSAUGA", "province": "ON", "country": "CA", "postalCode": "L4W1M9", "twitter": "None", "instagram": "None", "facebook": "None", "youtube": "None", "website": "None", "summary": "None", "logo": "None", "latitude": 43.62960737027508, "longitude": -79.61219583856568}, "891071441RR0001": {"name": "GLEN MORRIS CEMETERY", "designationCode": "C", "categoryCode": "59", "address": "13 CENTRE ST", "city": "GLEN MORRIS", "province": "ON", "country": "CA", "postalCode": "N0B1W0", "twitter": "None", "instagram": "None", "facebook": "None", "youtube": "None", "website": "None", "summary": "None", "logo": "None", "latitude": 43.28212919848206, "longitude": -80.3503787729816}, "129863338RR0001": {"name": "GLEN MORRIS PASTORAL CHARGE,", "designationCode": "C", "categoryCode": "44", "address": "453 EAST RIVER RD.", "city": "GLEN MORRIS", "province": "ON", "country": "CA", "postalCode": "N0B1W0", "twitter": "None", "instagram": "None", "facebook": "None", "youtube": "None", "website": "None", "summary": "None", "logo": "None", "latitude": 43.27411278990598, "longitude": -80.34609557509238}, "119288918RR1016": {"name": "GLEN OAKS CONGREGATION OF JEHOVAH'S WITNESSES", "designationCode": "C", "categoryCode": "61", "address": "432 SANDMERE PL", "city": "OAKVILLE", "province": "ON", "country": "CA", "postalCode": "L6L4G4", "twitter": "None", "instagram": "None", "facebook": "None", "youtube": "None", "website": "None", "summary": "None", "logo": "None", "latitude": 43.41640804939702, "longitude": -79.70800063004205}}