{"118845346RR0001": {"name": "CENTRE DE B\u00c9N\u00c9VOLAT D'ACTON VALE", "designationCode": "C", "categoryCode": "09", "address": "1176 BELAIR", "city": "ACTON VALE", "province": "QC", "country": "CA", "postalCode": "J0H1A0", "twitter": "None", "instagram": "None", "facebook": "None", "youtube": "None", "website": "None", "summary": "None", "logo": "None", "latitude": 45.65271355897631, "longitude": -72.56837245651829}, "136843539RR0001": {"name": "CENTRE DE BENEVOLAT COTE-DES-NEIGES", "designationCode": "C", "categoryCode": "09", "address": "4945 COTE DES NEIGES SUITE 6", "city": "MONTREAL", "province": "QC", "country": "CA", "postalCode": "H3V1H5", "twitter": "None", "instagram": "None", "facebook": "None", "youtube": "None", "website": "None", "summary": "None", "logo": "None", "latitude": 45.495292095764256, "longitude": -73.61693938135491}, "118845379RR0001": {"name": "CENTRE DE BENEVOLAT DE LA PENINSULE ACADIENNE (CBPA) INC.", "designationCode": "C", "categoryCode": "09", "address": "220 BOUL ST PIERRE O          SUITE 100", "city": "CARAQUET", "province": "NB", "country": "CA", "postalCode": "E1W1A5", "twitter": "None", "instagram": "None", "facebook": "None", "youtube": "None", "website": "None", "summary": "None", "logo": "None", "latitude": 47.78958328273473, "longitude": -64.96443380890418}, "118845387RR0001": {"name": "CENTRE DE BENEVOLAT DE LA RIVE-SUD", "designationCode": "C", "categoryCode": "56", "address": "18 RUE MONTCALM", "city": "LONGUEUIL", "province": "QC", "country": "CA", "postalCode": "J4J2K6", "twitter": "None", "instagram": "None", "facebook": "None", "youtube": "None", "website": "None", "summary": "None", "logo": "None", "latitude": 45.529106773241416, "longitude": -73.47993139826313}, "106893209RR0001": {"name": "CENTRE DE BENEVOLAT DE RICHMOND", "designationCode": "C", "categoryCode": "09", "address": "1010 RUE PRINCIPALE N", "city": "RICHMOND", "province": "QC", "country": "CA", "postalCode": "J0B2H0", "twitter": "None", "instagram": "None", "facebook": "None", "youtube": "None", "website": "None", "summary": "None", "logo": "None", "latitude": 45.668141066622354, "longitude": -72.14996711552935}, "100878826RR0001": {"name": "CENTRE DE BENEVOLAT DE ROUYN-NORANDA INC.", "designationCode": "C", "categoryCode": "59", "address": "102 - 210 9E RUE", "city": "ROUYN-NORANDA", "province": "QC", "country": "CA", "postalCode": "J9X2C2", "twitter": "None", "instagram": "None", "facebook": "None", "youtube": "None", "website": "None", "summary": "None", "logo": "None", "latitude": 48.24940901304175, "longitude": -79.01879449024783}, "100878800RR0001": {"name": "CENTRE DE BENEVOLAT DE ST-BASILE-LE-GRAND INC.", "designationCode": "C", "categoryCode": "09", "address": "50 RUE ROBERT", "city": "SAINT-BASILE-LE-GRAND", "province": "QC", "country": "CA", "postalCode": "J3N1L7", "twitter": "None", "instagram": "None", "facebook": "None", "youtube": "None", "website": "None", "summary": "None", "logo": "None", "latitude": 45.52606042602006, "longitude": -73.28647965364402}, "897490215RR0001": {"name": "CENTRE DE BENEVOLAT DE VILLE MONT-ROYAL", "designationCode": "C", "categoryCode": "09", "address": "60 AVENUE ROOSEVELT", "city": "MONT-ROYAL", "province": "QC", "country": "CA", "postalCode": "H3R1Z4", "twitter": "None", "instagram": "None", "facebook": "None", "youtube": "None", "website": "None", "summary": "None", "logo": "None", "latitude": 45.51430763030184, "longitude": -73.64164755894762}, "106893175RR0001": {"name": "CENTRE DE BENEVOLAT DU SECTEUR LA SARRE", "designationCode": "C", "categoryCode": "09", "address": "CASE POSTALE 366", "city": "LA SARRE", "province": "QC", "country": "CA", "postalCode": "J9Z3H8", "twitter": "None", "instagram": "None", "facebook": "None", "youtube": "None", "website": "None", "summary": "None", "logo": "None", "latitude": 48.797934000000055, "longitude": -79.20033199999993}, "106889363RR0001": {"name": "CENTRE DE BENEVOLAT MANICOUAGAN INC.", "designationCode": "C", "categoryCode": "01", "address": "217A BOUL. LASALLE", "city": "BAIE-COMEAU", "province": "QC", "country": "CA", "postalCode": "G4Z1S7", "twitter": "None", "instagram": "None", "facebook": "None", "youtube": "None", "website": "None", "summary": "None", "logo": "None", "latitude": 49.216238121035914, "longitude": -68.17019576887236}, "100878818RR0001": {"name": "CENTRE DE BENEVOLAT NOTRE-DAME-DE-GRACE", "designationCode": "C", "categoryCode": "09", "address": "5319 AVE NOTRE-DAME-DE-GRACE", "city": "MONTREAL", "province": "QC", "country": "CA", "postalCode": "H4A1L2", "twitter": "None", "instagram": "None", "facebook": "None", "youtube": "None", "website": "None", "summary": "None", "logo": "None", "latitude": 45.47690794615959, "longitude": -73.61568515918395}, "106889348RR0001": {"name": "CENTRE DE BENEVOLAT SOIF DE VIVRE DE LA BAIE", "designationCode": "C", "categoryCode": "09", "address": "1331 2E AVENUE", "city": "LA BAIE", "province": "QC", "country": "CA", "postalCode": "G7B1M6", "twitter": "None", "instagram": "None", "facebook": "None", "youtube": "None", "website": "None", "summary": "None", "logo": "None", "latitude": 48.32695796973292, "longitude": -70.88013448514059}, "118845478RR0001": {"name": "CENTRE DE BENEVOLAT ST-ALPHONSE-NOUVELLE INC.", "designationCode": "C", "categoryCode": "09", "address": "549 BOUL PERRON EST", "city": "MARIA", "province": "QC", "country": "CA", "postalCode": "G0C1Y0", "twitter": "None", "instagram": "None", "facebook": "None", "youtube": "None", "website": "None", "summary": "None", "logo": "None", "latitude": 48.177857650297156, "longitude": -65.97982182711047}, "118845494RR0001": {"name": "CENTRE DE BENEVOLES AHUNTSIC-SUD", "designationCode": "C", "categoryCode": "09", "address": "9286 RUE BERRI", "city": "MONTREAL", "province": "QC", "country": "CA", "postalCode": "H2M1P9", "twitter": "None", "instagram": "None", "facebook": "None", "youtube": "None", "website": "None", "summary": "None", "logo": "None", "latitude": 45.54862902080336, "longitude": -73.64819929906508}, "106893340RR0001": {"name": "CENTRE DE CERAMIQUE-POTERIE BONSECOURS INC.", "designationCode": "C", "categoryCode": "22", "address": "444 RUE SAINT-GABRIEL", "city": "MONTREAL", "province": "QC", "country": "CA", "postalCode": "H2Y2Z9", "twitter": "None", "instagram": "None", "facebook": "None", "youtube": "None", "website": "None", "summary": "None", "logo": "None", "latitude": 45.50675770967748, "longitude": -73.55464340328346}, "119154540RR0001": {"name": "CENTRE DE CONSERVATION DE LA BIODIVERSIT\u00c9 BOR\u00c9ALE (CCBB) INC.", "designationCode": "C", "categoryCode": "50", "address": "2230, BOUL. DU JARDIN", "city": "ST-FELICIEN", "province": "QC", "country": "CA", "postalCode": "G8K2P8", "twitter": "None", "instagram": "None", "facebook": "None", "youtube": "None", "website": "None", "summary": "None", "logo": "None", "latitude": 48.68520152468169, "longitude": -72.50381107404507}, "860255652RR0001": {"name": "CENTRE DE CONSULTATION DE LA SOCIETE PSYCHANALYTIQUE DE MONTREAL INC.", "designationCode": "C", "categoryCode": "11", "address": "7000, CHEM. LA COTE DES NEIGES", "city": "MONTREAL", "province": "QC", "country": "CA", "postalCode": "H3S2C1", "twitter": "None", "instagram": "None", "facebook": "None", "youtube": "None", "website": "None", "summary": "None", "logo": "None", "latitude": 45.504021815136596, "longitude": -73.63975238455755}, "121698435RR0001": {"name": "CENTRE DE COUNSELLING DE SUDBURY / SUDBURY COUNSELLING CENTRE", "designationCode": "C", "categoryCode": "09", "address": "260 CEDAR STREET", "city": "SUDBURY", "province": "ON", "country": "CA", "postalCode": "P3B1M7", "twitter": "None", "instagram": "None", "facebook": "None", "youtube": "None", "website": "None", "summary": "None", "logo": "None", "latitude": 46.49226450764606, "longitude": -80.987841}, "106893449RR0001": {"name": "CENTRE DE COUNSELLING FAMILIAL DE TIMMINS INC.", "designationCode": "C", "categoryCode": "09", "address": "60 WILSON AVENUE SUITE 310", "city": "TIMMINS", "province": "ON", "country": "CA", "postalCode": "P4N2S7", "twitter": "None", "instagram": "None", "facebook": "None", "youtube": "None", "website": "None", "summary": "None", "logo": "None", "latitude": 48.475481167756556, "longitude": -81.33688003133084}, "129698825RR0001": {"name": "CENTRE DE CRISE DE L'OUEST DE L'ILE/WEST ISLAND CRISIS CENTRE", "designationCode": "C", "categoryCode": "01", "address": "170 RUE DU BUISSON", "city": "PIERREFONDS", "province": "QC", "country": "CA", "postalCode": "H8Y2Z6", "twitter": "None", "instagram": "None", "facebook": "None", "youtube": "None", "website": "None", "summary": "None", "logo": "None"}, "129849949RR0001": {"name": "CENTRE DE CRISE DE QU\u00c9BEC", "designationCode": "C", "categoryCode": "01", "address": "1380A RENE-LEVESQUE OUEST", "city": "QUEBEC", "province": "QC", "country": "CA", "postalCode": "G1S1W6", "twitter": "None", "instagram": "None", "facebook": "None", "youtube": "None", "website": "None", "summary": "None", "logo": "None", "latitude": 46.790490103170406, "longitude": -71.25115111126044}, "100879923RR0001": {"name": "CENTRE DE CROISSANCE D'ABITIBI-OUEST INC.", "designationCode": "C", "categoryCode": "21", "address": "302, PRINCIPALE               C.P. 533", "city": "LA SARRE", "province": "QC", "country": "CA", "postalCode": "J9Z3J3", "twitter": "None", "instagram": "None", "facebook": "None", "youtube": "None", "website": "None", "summary": "None", "logo": "None", "latitude": 48.80332799999999, "longitude": -79.20535167695755}, "131455644RR0001": {"name": "CENTRE DE CROISSANCE RENAISSANCE INC", "designationCode": "C", "categoryCode": "01", "address": "1620 RUE DE L'ECLAIR", "city": "QU\u00c9BEC", "province": "QC", "country": "CA", "postalCode": "G3K1P6", "twitter": "None", "instagram": "None", "facebook": "None", "youtube": "None", "website": "None", "summary": "None", "logo": "None", "latitude": 46.85418274219492, "longitude": -71.41471993219422}, "888984523RR0001": {"name": "CENTRE DE DEPANNAGE DES NORD-COTIERS", "designationCode": "C", "categoryCode": "09", "address": "9A ROUSSEL", "city": "LES ESCOUMINS", "province": "QC", "country": "CA", "postalCode": "G0T1K0", "twitter": "None", "instagram": "None", "facebook": "None", "youtube": "None", "website": "None", "summary": "None", "logo": "None", "latitude": 48.344182370777176, "longitude": -69.40337129596813}, "889881777RR0001": {"name": "CENTRE DE DEPANNAGE DU PARC FERLAND", "designationCode": "C", "categoryCode": "09", "address": "140 DES EPINETTES", "city": "SEPT-ILES", "province": "QC", "country": "CA", "postalCode": "G4S1L5", "twitter": "None", "instagram": "None", "facebook": "None", "youtube": "None", "website": "None", "summary": "None", "logo": "None", "latitude": 50.267899530930926, "longitude": -66.41016458064504}, "131487688RR0001": {"name": "CENTRE DE DEPANNAGE RAPIDE-DANSEUR", "designationCode": "C", "categoryCode": "09", "address": "531 VILLAGE", "city": "RAPIDE-DANSEUR", "province": "QC", "country": "CA", "postalCode": "J0Z3G0", "twitter": "None", "instagram": "None", "facebook": "None", "youtube": "None", "website": "None", "summary": "None", "logo": "None", "latitude": 48.55040798834324, "longitude": -79.30123437774823}, "869789040RR0002": {"name": "CENTRE DE DEVELOPPEMENT YALDEI SHASHUIM/YALDEI SHASHUIM DEVELPMENTAL CENTER", "designationCode": "C", "categoryCode": "09", "address": "2100 MARLOWE                  5TH FLOOR", "city": "MONTREAL", "province": "QC", "country": "CA", "postalCode": "H4A3L5", "twitter": "None", "instagram": "None", "facebook": "None", "youtube": "None", "website": "None", "summary": "None", "logo": "None", "latitude": 45.47475877127951, "longitude": -73.60659329352518}, "118845627RR0001": {"name": "CENTRE DE DIFFUSION 3D", "designationCode": "C", "categoryCode": "22", "address": "319 - 5445 AV DE GASPE", "city": "MONTREAL", "province": "QC", "country": "CA", "postalCode": "H2T3B2", "twitter": "None", "instagram": "None", "facebook": "None", "youtube": "None", "website": "None", "summary": "None", "logo": "None", "latitude": 45.52683526146908, "longitude": -73.59551934136431}, "100880608RR0001": {"name": "CENTRE DE DOCUMENTATION MARIUS BARBEAU INC.", "designationCode": "B", "categoryCode": "22", "address": "4839 RUE DE BORDEAUX", "city": "MONTREAL", "province": "QC", "country": "CA", "postalCode": "H2H2A2", "twitter": "None", "instagram": "None", "facebook": "None", "youtube": "None", "website": "None", "summary": "None", "logo": "None", "latitude": 45.536445104362585, "longitude": -73.57685864195861}, "893327890RR0001": {"name": "CENTRE DE F.A.M. DES MOULINS", "designationCode": "C", "categoryCode": "09", "address": "502 LANGLOIS", "city": "TERREBONNE", "province": "QC", "country": "CA", "postalCode": "J6W4C3", "twitter": "None", "instagram": "None", "facebook": "None", "youtube": "None", "website": "None", "summary": "None", "logo": "None", "latitude": 45.697121780454765, "longitude": -73.63103720107914}, "119004091RR0001": {"name": "CENTRE DE FEMMES \"L'ETINCELLE\"", "designationCode": "C", "categoryCode": "09", "address": "C.P.6116", "city": "BAIE-COMEAU", "province": "QC", "country": "CA", "postalCode": "G5C0B7", "twitter": "None", "instagram": "None", "facebook": "None", "youtube": "None", "website": "None", "summary": "None", "logo": "None", "latitude": 49.22134800000006, "longitude": -68.15048299999994}, "106893605RR0001": {"name": "CENTRE DE FEMMES \"LA MOISSON\"", "designationCode": "C", "categoryCode": "09", "address": "321 GRAND BOULEVARD", "city": "VILLE ILE-PERROT", "province": "QC", "country": "CA", "postalCode": "J7V4X3", "twitter": "None", "instagram": "None", "facebook": "None", "youtube": "None", "website": "None", "summary": "None", "logo": "None", "latitude": 45.390147000000056, "longitude": -73.96290349999994}, "134740612RR0001": {"name": "CENTRE DE FEMMES DE LA VALLEE DE LA MATAPEDIA INC.", "designationCode": "C", "categoryCode": "09", "address": "17 RUE BROCHU", "city": "AMQUI", "province": "QC", "country": "CA", "postalCode": "G5J2Z6", "twitter": "None", "instagram": "None", "facebook": "None", "youtube": "None", "website": "None", "summary": "None", "logo": "None", "latitude": 48.46410979655494, "longitude": -67.42822814917197}, "141440685RR0001": {"name": "CENTRE DE FEMMES DE SHAWINIGAN INC.", "designationCode": "C", "categoryCode": "09", "address": "465 5E RUE DE LA POINTE       BUREAU 203", "city": "SHAWINIGAN", "province": "QC", "country": "CA", "postalCode": "G9N1E5", "twitter": "None", "instagram": "None", "facebook": "None", "youtube": "None", "website": "None", "summary": "None", "logo": "None", "latitude": 46.54050641107898, "longitude": -72.74779301921652}, "894309764RR0001": {"name": "CENTRE DE FEMMES DU HAUT-RICHELIEU", "designationCode": "C", "categoryCode": "09", "address": "CP 555 SUCC BUREAU-CHEF", "city": "SAINT-JEAN-SUR-RICHELIEU", "province": "QC", "country": "CA", "postalCode": "J3B6Z8", "twitter": "None", "instagram": "None", "facebook": "None", "youtube": "None", "website": "None", "summary": "None", "logo": "None", "latitude": 45.30610500000006, "longitude": -73.25031049999993}, "890225170RR0001": {"name": "CENTRE DE FEMMES DU TEMISCAMINGUE", "designationCode": "C", "categoryCode": "09", "address": "28 RUE NOTRE DAME DE LOURDES", "city": "VILLE MARIE", "province": "QC", "country": "CA", "postalCode": "J9V1X9", "twitter": "None", "instagram": "None", "facebook": "None", "youtube": "None", "website": "None", "summary": "None", "logo": "None", "latitude": 47.332994900340616, "longitude": -79.4387843233309}, "100880699RR0001": {"name": "CENTRE DE FEMMES L'ECLAIRCIE", "designationCode": "C", "categoryCode": "09", "address": "1025, RUE CENTRALE", "city": "STE-CATHERINE", "province": "QC", "country": "CA", "postalCode": "J5R2L2", "twitter": "None", "instagram": "None", "facebook": "None", "youtube": "None", "website": "None", "summary": "None", "logo": "None", "latitude": 45.40017750929083, "longitude": -73.57640114721006}, "120381843RR0001": {"name": "CENTRE DE FEMMES LA MARG'ELLE INC.", "designationCode": "C", "categoryCode": "09", "address": "87 RUE PERRAS", "city": "ST-REMI", "province": "QC", "country": "CA", "postalCode": "J0L2L0", "twitter": "None", "instagram": "None", "facebook": "None", "youtube": "None", "website": "None", "summary": "None", "logo": "None", "latitude": 45.25916678602334, "longitude": -73.61544286274459}, "859044778RR0001": {"name": "CENTRE DE FEMMES LIBER'ELLES", "designationCode": "C", "categoryCode": "09", "address": "9381 C\u00d4TE DES SAINTS          C.P. 3177", "city": "MIRABEL", "province": "QC", "country": "CA", "postalCode": "J7N2X4", "twitter": "None", "instagram": "None", "facebook": "None", "youtube": "None", "website": "None", "summary": "None", "logo": "None", "latitude": 45.65278944491885, "longitude": -74.09331770731156}, "138586920RR0001": {"name": "CENTRE DE FEMMES MARIE-DUPUIS", "designationCode": "C", "categoryCode": "09", "address": "241 BOUL. ANTONIO-BARRETTE", "city": "NOTRE-DAME-DES-PRAIRIES", "province": "QC", "country": "CA", "postalCode": "J6E1E9", "twitter": "None", "instagram": "None", "facebook": "None", "youtube": "None", "website": "None", "summary": "None", "logo": "None", "latitude": 46.04486578512931, "longitude": -73.42910961097037}, "118844240RR0001": {"name": "CENTRE DE FEMMES MIEUX-ETRE DE JONQUIERE INC.", "designationCode": "C", "categoryCode": "09", "address": "2185 SAINT-DOMINIQUE          C.P. 783", "city": "JONQUIERE", "province": "QC", "country": "CA", "postalCode": "G7X6M3", "twitter": "None", "instagram": "None", "facebook": "None", "youtube": "None", "website": "None", "summary": "None", "logo": "None", "latitude": 48.41818033498768, "longitude": -71.25009420133894}, "134068782RR0001": {"name": "CENTRE DE FEMMES MONTCALM", "designationCode": "C", "categoryCode": "09", "address": "605 ST-ISIDORE", "city": "ST-LIN-LAURENTIDES", "province": "QC", "country": "CA", "postalCode": "J5M2V1", "twitter": "None", "instagram": "None", "facebook": "None", "youtube": "None", "website": "None", "summary": "None", "logo": "None", "latitude": 45.84758400000001, "longitude": -73.75726300955063}, "129849485RR0001": {"name": "CENTRE DE FORMATION A L'AUTOGESTION DU HAUT-RICHELIEU", "designationCode": "C", "categoryCode": "59", "address": "CP 552 ST-JEAN SUR RICHELIEU", "city": "ST-JEAN-SUR-RICHELIEU", "province": "QC", "country": "CA", "postalCode": "J3B6Z8", "twitter": "None", "instagram": "None", "facebook": "None", "youtube": "None", "website": "None", "summary": "None", "logo": "None", "latitude": 45.30610500000006, "longitude": -73.25031049999993}, "136619533RR0001": {"name": "CENTRE DE FORMATION DE HUNTINGDON", "designationCode": "C", "categoryCode": "21", "address": "163 CH\u00c2TEAUGUAY", "city": "HUNTINGDON", "province": "QC", "country": "CA", "postalCode": "J0S1H0", "twitter": "None", "instagram": "None", "facebook": "None", "youtube": "None", "website": "None", "summary": "None", "logo": "None", "latitude": 45.08398130639402, "longitude": -74.17515270976438}, "874324825RR0001": {"name": "CENTRE DE FORMATION DU JARDIN DU CITOYEN", "designationCode": "C", "categoryCode": "59", "address": "5260 RUE DE VERDUN", "city": "VERDUN", "province": "QC", "country": "CA", "postalCode": "H4H1K1", "twitter": "None", "instagram": "None", "facebook": "None", "youtube": "None", "website": "None", "summary": "None", "logo": "None", "latitude": 45.454047925616045, "longitude": -73.57210272006483}, "887373439RR0001": {"name": "CENTRE DE FORMATION ET D'AIDE \u00c0 LA RECHERCHE D'EMPLOI (CFARE)", "designationCode": "C", "categoryCode": "59", "address": "1450 DUPONT", "city": "MARIEVILLE", "province": "QC", "country": "CA", "postalCode": "J3M1G2", "twitter": "None", "instagram": "None", "facebook": "None", "youtube": "None", "website": "None", "summary": "None", "logo": "None", "latitude": 45.43198800000006, "longitude": -73.16173249999993}, "100890227RR0001": {"name": "CENTRE DE FORMATION ET DE CONSULTATION EN METIERS D'ART - CEGEP DE LIMOILOU", "designationCode": "C", "categoryCode": "22", "address": "299 3E AV", "city": "QUEBEC", "province": "QC", "country": "CA", "postalCode": "G1L2V7", "twitter": "None", "instagram": "None", "facebook": "None", "youtube": "None", "website": "None", "summary": "None", "logo": "None", "latitude": 46.821706178169656, "longitude": -71.22549130743228}, "135424166RR0001": {"name": "CENTRE DE FORMATION ET DE PERFECTIONNEMENT DU GRAND SUDBURY", "designationCode": "C", "categoryCode": "21", "address": "30 CHEMIN STE-ANNE            2 ETAGE", "city": "SUDBURY", "province": "ON", "country": "CA", "postalCode": "P3C5E1", "twitter": "None", "instagram": "None", "facebook": "None", "youtube": "None", "website": "None", "summary": "None", "logo": "None", "latitude": 46.49512132849767, "longitude": -80.99615523166241}, "137930814RR0001": {"name": "CENTRE DE FORMATION ET DE SOUTIEN A L'EMPLOI - ST LEONARD INC", "designationCode": "C", "categoryCode": "20", "address": "706-A RUE PRINCIPALE", "city": "ST-LEONARD", "province": "NB", "country": "CA", "postalCode": "E7E2H6", "twitter": "None", "instagram": "None", "facebook": "None", "youtube": "None", "website": "None", "summary": "None", "logo": "None", "latitude": 47.16410550929082, "longitude": -67.92506589526204}, "118892439RR0001": {"name": "CENTRE DE FORMATION LE MANOIR DE BEAUJEU", "designationCode": "C", "categoryCode": "20", "address": "630, RUE SHERBROOKE OUEST,    STE 400", "city": "MONTREAL", "province": "QC", "country": "CA", "postalCode": "H3A1E3", "twitter": "None", "instagram": "None", "facebook": "None", "youtube": "None", "website": "None", "summary": "None", "logo": "None", "latitude": 45.505404, "longitude": -73.5724035}, "137963286RR0001": {"name": "CENTRE DE FORMATION MANITOUWADGE LEARNING CENTRE", "designationCode": "C", "categoryCode": "21", "address": "BOX 467", "city": "MANITOUWADGE", "province": "ON", "country": "CA", "postalCode": "P0T2C0", "twitter": "None", "instagram": "None", "facebook": "None", "youtube": "None", "website": "None", "summary": "None", "logo": "None", "latitude": 49.12397000000004, "longitude": -85.83204999999998}, "128812070RR0001": {"name": "CENTRE DE FORMATION OPTION-TRAVAIL STE-FOY", "designationCode": "C", "categoryCode": "09", "address": "295 - 2750 CH SAINTE-FOY", "city": "QUEBEC", "province": "QC", "country": "CA", "postalCode": "G1V1V6", "twitter": "None", "instagram": "None", "facebook": "None", "youtube": "None", "website": "None", "summary": "None", "logo": "None", "latitude": 46.78050131311645, "longitude": -71.300324542645}, "100880822RR0001": {"name": "CENTRE DE FORMATION POPULAIRE C.F.P.", "designationCode": "C", "categoryCode": "29", "address": "100-1855 RUE RACHEL E", "city": "MONTR\u00c9AL", "province": "QC", "country": "CA", "postalCode": "H2H1P5", "twitter": "None", "instagram": "None", "facebook": "None", "youtube": "None", "website": "None", "summary": "None", "logo": "None", "latitude": 45.53101923354636, "longitude": -73.5690310678514}, "890975287RR0001": {"name": "CENTRE DE FORMATION POUR LES INTERVENANTES AUPRES DES FEMMES EN DIFFICULTE ATHENA", "designationCode": "C", "categoryCode": "59", "address": "110 RUE SAINTE-TH\u00c9R\u00c8SE        BUREAU 507", "city": "MONTREAL", "province": "QC", "country": "CA", "postalCode": "H2Y1E6", "twitter": "None", "instagram": "None", "facebook": "None", "youtube": "None", "website": "None", "summary": "None", "logo": "None", "latitude": 45.5070284007733, "longitude": -73.55364246681872}, "852558873RR0001": {"name": "CENTRE DE FORMATION PROFESSIONNELLE POUR PERSONNES SOURDES OU MALENTENDANTES", "designationCode": "C", "categoryCode": "20", "address": "1500, RUE GAUTHIER", "city": "ST-BRUNO", "province": "QC", "country": "CA", "postalCode": "J3V3H7", "twitter": "None", "instagram": "None", "facebook": "None", "youtube": "None", "website": "None", "summary": "None", "logo": "None", "latitude": 45.52305027451082, "longitude": -73.34551896364472}, "864164025RR0001": {"name": "CENTRE DE FORMATION SOCIALE MARIE-GERIN-LAJOIE", "designationCode": "C", "categoryCode": "21", "address": "5070, RUE BERRI", "city": "MONTR\u00c9AL", "province": "QC", "country": "CA", "postalCode": "H2J2R9", "twitter": "None", "instagram": "None", "facebook": "None", "youtube": "None", "website": "None", "summary": "None", "logo": "None", "latitude": 45.5279227190921, "longitude": -73.58808406460142}, "891044182RR0001": {"name": "CENTRE DE GENEALOGIE DES ARCHIVES ET DES BIENS CULTURELS DE CHATEAU-RICHER", "designationCode": "C", "categoryCode": "50", "address": "277, RUE DU COUVENT           C.P. 407", "city": "CHATEAU-RICHER", "province": "QC", "country": "CA", "postalCode": "G0A1N0", "twitter": "None", "instagram": "None", "facebook": "None", "youtube": "None", "website": "None", "summary": "None", "logo": "None", "latitude": 46.970764741069736, "longitude": -71.01843273443329}, "100876622RR0001": {"name": "CENTRE DE GESTION COMMUNAUTAIRE DU SUD-OUEST (CEGECOM)", "designationCode": "C", "categoryCode": "09", "address": "709A RUE CHATHAM", "city": "MONTREAL", "province": "QC", "country": "CA", "postalCode": "H3J1Z3", "twitter": "None", "instagram": "None", "facebook": "None", "youtube": "None", "website": "None", "summary": "None", "logo": "None", "latitude": 45.48859413892428, "longitude": -73.57286653820313}, "890206774RR0001": {"name": "CENTRE DE JOUR DE FERME-NEUVE", "designationCode": "C", "categoryCode": "09", "address": "211, 12E RUE", "city": "FERME-NEUVE", "province": "QC", "country": "CA", "postalCode": "J0W1C0", "twitter": "None", "instagram": "None", "facebook": "None", "youtube": "None", "website": "None", "summary": "None", "logo": "None", "latitude": 46.70088919107159, "longitude": -75.44916133506497}, "874803794RR0001": {"name": "CENTRE DE JOUR DE ST. JAMES", "designationCode": "C", "categoryCode": "09", "address": "1439 SAINTE-CATHERINE ST WEST", "city": "MONTREAL", "province": "QC", "country": "CA", "postalCode": "H3G1S6", "twitter": "None", "instagram": "None", "facebook": "None", "youtube": "None", "website": "None", "summary": "None", "logo": "None", "latitude": 45.49625542022033, "longitude": -73.57665523775151}, "118845734RR0001": {"name": "CENTRE DE JOUR FEU VERT INC.", "designationCode": "C", "categoryCode": "09", "address": "1410 RUE DE LA TRINITE", "city": "QUEBEC", "province": "QC", "country": "CA", "postalCode": "G1J2L4", "twitter": "None", "instagram": "None", "facebook": "None", "youtube": "None", "website": "None", "summary": "None", "logo": "None", "latitude": 46.83423499581641, "longitude": -71.22094668065114}, "866789357RR0001": {"name": "CENTRE DE JOUR L'ENVOL INC.", "designationCode": "C", "categoryCode": "09", "address": "761 BOUL LOUIS-XIV", "city": "QUEBEC", "province": "QC", "country": "CA", "postalCode": "G1H1A1", "twitter": "None", "instagram": "None", "facebook": "None", "youtube": "None", "website": "None", "summary": "None", "logo": "None", "latitude": 46.86175083265039, "longitude": -71.26937082558126}, "118845783RR0001": {"name": "CENTRE DE L'AMITIE NAZARETH INC.", "designationCode": "C", "categoryCode": "99", "address": "390, RUE PIE-XII", "city": "BAIE-COMEAU", "province": "QC", "country": "CA", "postalCode": "G5C1S2", "twitter": "None", "instagram": "None", "facebook": "None", "youtube": "None", "website": "None", "summary": "None", "logo": "None", "latitude": 49.19054339107844, "longitude": -68.24779456134222}, "128792413RR0001": {"name": "CENTRE DE L'ENFANT AUX 4 VENTS", "designationCode": "C", "categoryCode": "20", "address": "2093 BEL-AIR DR", "city": "OTTAWA", "province": "ON", "country": "CA", "postalCode": "K2C0X2", "twitter": "None", "instagram": "None", "facebook": "None", "youtube": "None", "website": "None", "summary": "None", "logo": "None", "latitude": 45.36238401776899, "longitude": -75.76263946590423}, "118845825RR0001": {"name": "CENTRE DE L'ENFANT PONT MAGIQUE LTEE.", "designationCode": "C", "categoryCode": "09", "address": "1259 BOUL. MALONEY E", "city": "GATINEAU", "province": "QC", "country": "CA", "postalCode": "J8P1J2", "twitter": "None", "instagram": "None", "facebook": "None", "youtube": "None", "website": "None", "summary": "None", "logo": "None", "latitude": 45.4940995375539, "longitude": -75.58124029265333}, "888329646RR0001": {"name": "CENTRE DE LA CAUSE D'ELISABETH-BRUYERE", "designationCode": "C", "categoryCode": "49", "address": "27 RUE BRUY\u00c8RE", "city": "OTTAWA", "province": "ON", "country": "CA", "postalCode": "K1N5C9", "twitter": "None", "instagram": "None", "facebook": "None", "youtube": "None", "website": "None", "summary": "None", "logo": "None", "latitude": 45.431560924964096, "longitude": -75.69739439912266}, "118791979RR0001": {"name": "CENTRE DE LA COMMUNAUTE SOURDE DU MONTREAL METROPOLITAIN", "designationCode": "C", "categoryCode": "09", "address": "2200 CR\u00c9MAZIE EST             BUREAU 207", "city": "MONTR\u00c9AL", "province": "QC", "country": "CA", "postalCode": "H2E2Z8", "twitter": "None", "instagram": "None", "facebook": "None", "youtube": "None", "website": "None", "summary": "None", "logo": "None", "latitude": 45.55576849428721, "longitude": -73.61802237994127}, "106893985RR0001": {"name": "CENTRE DE LA FAMILLE DU GRAND ST-JEROME", "designationCode": "C", "categoryCode": "09", "address": "200, RUE LABELLE", "city": "ST-JEROME", "province": "QC", "country": "CA", "postalCode": "J7Z5K8", "twitter": "None", "instagram": "None", "facebook": "None", "youtube": "None", "website": "None", "summary": "None", "logo": "None", "latitude": 45.77378345599868, "longitude": -74.00289509175354}, "844767947RR0001": {"name": "CENTRE DE LA FAMILLE ST-PIE", "designationCode": "C", "categoryCode": "09", "address": "70 AV SAINT-FRANCOIS", "city": "SAINT-PIE", "province": "QC", "country": "CA", "postalCode": "J0H1W0", "twitter": "None", "instagram": "None", "facebook": "None", "youtube": "None", "website": "None", "summary": "None", "logo": "None", "latitude": 45.50438291505578, "longitude": -72.90700059890958}, "134592070RR0001": {"name": "CENTRE DE LA FAMILLE VALCARTIER", "designationCode": "C", "categoryCode": "09", "address": "EDIFICE 93                    C.P. 1000 SUCC FORCES", "city": "COURCELETTE", "province": "QC", "country": "CA", "postalCode": "G0A4Z0", "twitter": "None", "instagram": "None", "facebook": "None", "youtube": "None", "website": "None", "summary": "None", "logo": "None", "latitude": 46.88734200000006, "longitude": -71.50947199999993}, "875549313RR0001": {"name": "CENTRE DE LA FOI TRIOMPHANTE", "designationCode": "C", "categoryCode": "36", "address": "2522 RUE CLEMENT", "city": "QUEBEC", "province": "QC", "country": "CA", "postalCode": "G2N0A1", "twitter": "None", "instagram": "None", "facebook": "None", "youtube": "None", "website": "None", "summary": "None", "logo": "None", "latitude": 46.94189163087878, "longitude": -71.3551492472735}, "106894033RR0001": {"name": "CENTRE DE LA NOUVELLE VIE", "designationCode": "C", "categoryCode": "36", "address": "26 RUE DUFFIE", "city": "GRAND FALLS", "province": "NB", "country": "CA", "postalCode": "E3Z1A7", "twitter": "None", "instagram": "None", "facebook": "None", "youtube": "None", "website": "None", "summary": "None", "logo": "None", "latitude": 47.04062790391541, "longitude": -67.77626730777968}, "107414237RR0001": {"name": "CENTRE DE LA PETITE ENFANCE (CPE) LE PETIT SENTIER", "designationCode": "C", "categoryCode": "01", "address": "10 - 775 AVENUE GRANDE-ALLEE", "city": "MONTREAL", "province": "QC", "country": "CA", "postalCode": "H3L2M8", "twitter": "None", "instagram": "None", "facebook": "None", "youtube": "None", "website": "None", "summary": "None", "logo": "None", "latitude": 45.547872163854656, "longitude": -73.6592165734913}, "100075423RR0001": {"name": "CENTRE DE LA PETITE ENFANCE \"CHEZ MA TANTE\"", "designationCode": "C", "categoryCode": "01", "address": "568 CH. DES CAPS", "city": "FATIMA", "province": "QC", "country": "CA", "postalCode": "G4T2S8", "twitter": "None", "instagram": "None", "facebook": "None", "youtube": "None", "website": "None", "summary": "None", "logo": "None", "latitude": 47.40923096283667, "longitude": -61.88911729894952}, "118935865RR0001": {"name": "CENTRE DE LA PETITE ENFANCE \"LES COPAINS D'ABORD DE MONTREAL\"", "designationCode": "C", "categoryCode": "20", "address": "5355 AV WEST HILL", "city": "MONTREAL", "province": "QC", "country": "CA", "postalCode": "H4V2W8", "twitter": "None", "instagram": "None", "facebook": "None", "youtube": "None", "website": "None", "summary": "None", "logo": "None", "latitude": 45.47076998779498, "longitude": -73.63815057548048}, "140792722RR0001": {"name": "CENTRE DE LA PETITE ENFANCE \"LES JARDINS D'HONORINE\" INC.", "designationCode": "C", "categoryCode": "01", "address": "1025 RUE GAUTHIER", "city": "SAINT-HYACINTHE", "province": "QC", "country": "CA", "postalCode": "J2S1G5", "twitter": "None", "instagram": "None", "facebook": "None", "youtube": "None", "website": "None", "summary": "None", "logo": "None", "latitude": 45.636261370246416, "longitude": -72.96059454521341}, "130387145RR0001": {"name": "CENTRE DE LA PETITE ENFANCE \"LES TROIS COINS\"", "designationCode": "C", "categoryCode": "20", "address": "11 CHEMIN ST-JOSEPH", "city": "RIMOUSKI", "province": "QC", "country": "CA", "postalCode": "G5N5E2", "twitter": "None", "instagram": "None", "facebook": "None", "youtube": "None", "website": "None", "summary": "None", "logo": "None", "latitude": 48.361954275318865, "longitude": -68.46186167955462}, "107412884RR0001": {"name": "CENTRE DE LA PETITE ENFANCE ALAKAZOU INC.", "designationCode": "C", "categoryCode": "20", "address": "425, RUE NOBERT", "city": "GATINEAU", "province": "QC", "country": "CA", "postalCode": "J8R3P2", "twitter": "None", "instagram": "None", "facebook": "None", "youtube": "None", "website": "None", "summary": "None", "logo": "None", "latitude": 45.502847453257374, "longitude": -75.66965683542035}, "101946739RR0001": {"name": "CENTRE DE LA PETITE ENFANCE AM STRAM GRAM INC.", "designationCode": "C", "categoryCode": "01", "address": "3557 RUE SAINT-URBAIN", "city": "MONTREAL", "province": "QC", "country": "CA", "postalCode": "H2X2N6", "twitter": "None", "instagram": "None", "facebook": "None", "youtube": "None", "website": "None", "summary": "None", "logo": "None", "latitude": 45.51220223593385, "longitude": -73.57247925754527}, "101944197RR0001": {"name": "CENTRE DE LA PETITE ENFANCE AU CARRE DE SABLE INC.", "designationCode": "C", "categoryCode": "20", "address": "1472 RUE COTE", "city": "BAIE COMEAU", "province": "QC", "country": "CA", "postalCode": "G5C2E7", "twitter": "None", "instagram": "None", "facebook": "None", "youtube": "None", "website": "None", "summary": "None", "logo": "None", "latitude": 49.19512548990111, "longitude": -68.27211152415023}, "107418477RR0001": {"name": "CENTRE DE LA PETITE ENFANCE AU GALOP INC.", "designationCode": "C", "categoryCode": "01", "address": "4300, RUE JEAN-RIVARD", "city": "MONTREAL", "province": "QC", "country": "CA", "postalCode": "H1Z2A8", "twitter": "None", "instagram": "None", "facebook": "None", "youtube": "None", "website": "None", "summary": "None", "logo": "None", "latitude": 45.57611536635127, "longitude": -73.6058909666745}, "107413049RR0001": {"name": "CENTRE DE LA PETITE ENFANCE AU JARDIN DES ABEILLES (C.P.E)", "designationCode": "C", "categoryCode": "01", "address": "30 RUE DERY", "city": "CAP SANTE", "province": "QC", "country": "CA", "postalCode": "G0A1L0", "twitter": "None", "instagram": "None", "facebook": "None", "youtube": "None", "website": "None", "summary": "None", "logo": "None", "latitude": 46.670948240972706, "longitude": -71.77172070222477}, "131156077RR0001": {"name": "CENTRE DE LA PETITE ENFANCE AU PETIT CARROUSEL INC.", "designationCode": "C", "categoryCode": "01", "address": "4250 RUE HAROLD", "city": "PIERREFONDS", "province": "QC", "country": "CA", "postalCode": "H9H4K7", "twitter": "None", "instagram": "None", "facebook": "None", "youtube": "None", "website": "None", "summary": "None", "logo": "None", "latitude": 45.47329260892156, "longitude": -73.86541003107514}, "106688138RR0001": {"name": "CENTRE DE LA PETITE ENFANCE AUX MILLE COULEURS INC.", "designationCode": "C", "categoryCode": "09", "address": "C.P. 5010", "city": "SAINT-ANDRE-AVELLIN", "province": "QC", "country": "CA", "postalCode": "J0V1W0", "twitter": "None", "instagram": "None", "facebook": "None", "youtube": "None", "website": "None", "summary": "None", "logo": "None", "latitude": 45.72472000000005, "longitude": -75.05404999999996}, "132824749RR0001": {"name": "CENTRE DE LA PETITE ENFANCE AUX MILLE JEUX", "designationCode": "C", "categoryCode": "01", "address": "3380 RIDEAU", "city": "SAINT-HUBERT", "province": "QC", "country": "CA", "postalCode": "J3Y5M4", "twitter": "None", "instagram": "None", "facebook": "None", "youtube": "None", "website": "None", "summary": "None", "logo": "None", "latitude": 45.47044853372953, "longitude": -73.37757103707641}, "101944296RR0001": {"name": "CENTRE DE LA PETITE ENFANCE AUX PETITS LURONS", "designationCode": "C", "categoryCode": "20", "address": "115, RUE FRONT", "city": "AYLMER", "province": "QC", "country": "CA", "postalCode": "J9H6K6", "twitter": "None", "instagram": "None", "facebook": "None", "youtube": "None", "website": "None", "summary": "None", "logo": "None", "latitude": 45.40324953649951, "longitude": -75.8549496719659}, "107413148RR0001": {"name": "CENTRE DE LA PETITE ENFANCE AUX QUATRE SOLEILS INC.", "designationCode": "C", "categoryCode": "01", "address": "485 BOUL. STE-FOY", "city": "LONGUEUIL", "province": "QC", "country": "CA", "postalCode": "J4J1Y5", "twitter": "None", "instagram": "None", "facebook": "None", "youtube": "None", "website": "None", "summary": "None", "logo": "None", "latitude": 45.52600752429448, "longitude": -73.49236140135021}, "132846023RR0001": {"name": "CENTRE DE LA PETITE ENFANCE AUX TROIS POMMES", "designationCode": "C", "categoryCode": "01", "address": "30 RUE LABELLE", "city": "GATINEAU", "province": "QC", "country": "CA", "postalCode": "J8Y5A8", "twitter": "None", "instagram": "None", "facebook": "None", "youtube": "None", "website": "None", "summary": "None", "logo": "None", "latitude": 45.43297007216228, "longitude": -75.74142495418101}, "891142671RR0001": {"name": "CENTRE DE LA PETITE ENFANCE AWASH AWASH CHILDCARE CENTER", "designationCode": "C", "categoryCode": "01", "address": "104 ST. JOHN STREET", "city": "MISTISSINI", "province": "QC", "country": "CA", "postalCode": "G0W1C0", "twitter": "None", "instagram": "None", "facebook": "None", "youtube": "None", "website": "None", "summary": "None", "logo": "None", "latitude": 50.418508616883734, "longitude": -73.86878125944953}, "107413205RR0001": {"name": "CENTRE DE LA PETITE ENFANCE BAMBOULI INC.", "designationCode": "C", "categoryCode": "01", "address": "2337 RUE FAUBERT", "city": "VAL DAVID", "province": "QC", "country": "CA", "postalCode": "J0T2N0", "twitter": "None", "instagram": "None", "facebook": "None", "youtube": "None", "website": "None", "summary": "None", "logo": "None", "latitude": 46.022928451324134, "longitude": -74.2070542660567}, "118877059RR0001": {"name": "CENTRE DE LA PETITE ENFANCE BISCUIT", "designationCode": "C", "categoryCode": "59", "address": "3773 RUE WORKMAN", "city": "MONTREAL", "province": "QC", "country": "CA", "postalCode": "H4C3M2", "twitter": "None", "instagram": "None", "facebook": "None", "youtube": "None", "website": "None", "summary": "None", "logo": "None", "latitude": 45.48007751762937, "longitude": -73.58171506287144}, "130273303RR0001": {"name": "CENTRE DE LA PETITE ENFANCE BOBINO INC.", "designationCode": "C", "categoryCode": "01", "address": "868 BOUL CADIEUX", "city": "BEAUHARNOIS", "province": "QC", "country": "CA", "postalCode": "J6N2G2", "twitter": "None", "instagram": "None", "facebook": "None", "youtube": "None", "website": "None", "summary": "None", "logo": "None", "latitude": 45.30128096306781, "longitude": -73.87445633677667}, "107413338RR0001": {"name": "CENTRE DE LA PETITE ENFANCE BOBINO-BOBINETTE INC.", "designationCode": "C", "categoryCode": "01", "address": "12505 28E AVENUE", "city": "MONTREAL", "province": "QC", "country": "CA", "postalCode": "H1E3V3", "twitter": "None", "instagram": "None", "facebook": "None", "youtube": "None", "website": "None", "summary": "None", "logo": "None", "latitude": 45.6412877699232, "longitude": -73.59211198776632}, "107413403RR0001": {"name": "CENTRE DE LA PETITE ENFANCE BOUT-EN-TRAIN DE STE-FOY", "designationCode": "C", "categoryCode": "01", "address": "1199, AVENUE BEAUPRE", "city": "SAINTE-FOY", "province": "QC", "country": "CA", "postalCode": "G1W4B6", "twitter": "None", "instagram": "None", "facebook": "None", "youtube": "None", "website": "None", "summary": "None", "logo": "None", "latitude": 46.75780122038197, "longitude": -71.29843499803809}, "130947039RR0001": {"name": "CENTRE DE LA PETITE ENFANCE CACHALOT INC.", "designationCode": "C", "categoryCode": "01", "address": "202 BOUL BRISEBOIS", "city": "CHATEAUGUAY", "province": "QC", "country": "CA", "postalCode": "J6K5G7", "twitter": "None", "instagram": "None", "facebook": "None", "youtube": "None", "website": "None", "summary": "None", "logo": "None", "latitude": 45.34589567877568, "longitude": -73.76560403222956}, "107413460RR0001": {"name": "CENTRE DE LA PETITE ENFANCE CADET-ROUSSELLE", "designationCode": "C", "categoryCode": "01", "address": "21 BOUL. QUEVILLON SUITE 195", "city": "SALABERRY-DE-VALLEYFIELD", "province": "QC", "country": "CA", "postalCode": "J6T6L2", "twitter": "None", "instagram": "None", "facebook": "None", "youtube": "None", "website": "None", "summary": "None", "logo": "None", "latitude": 45.25120286649552, "longitude": -74.14447857689413}, "107413502RR0001": {"name": "CENTRE DE LA PETITE ENFANCE CAROLINE", "designationCode": "C", "categoryCode": "20", "address": "2375 BLVD LEVESQUE", "city": "DUVERWAY LAVAL", "province": "QC", "country": "CA", "postalCode": "H7E2N3", "twitter": "None", "instagram": "None", "facebook": "None", "youtube": "None", "website": "None", "summary": "None", "logo": "None", "latitude": 45.580770397455076, "longitude": -73.6680303891452}, "898701057RR0001": {"name": "CENTRE DE LA PETITE ENFANCE CHATONS D'OR", "designationCode": "C", "categoryCode": "01", "address": "31 RUE PROVENCHER", "city": "ST-ANSELME", "province": "QC", "country": "CA", "postalCode": "G0R1N0", "twitter": "None", "instagram": "None", "facebook": "None", "youtube": "None", "website": "None", "summary": "None", "logo": "None", "latitude": 46.62795262505039, "longitude": -70.96804883960397}, "131034720RR0001": {"name": "CENTRE DE LA PETITE ENFANCE CHATOUILLE INC.", "designationCode": "C", "categoryCode": "01", "address": "2335 AV LAURIER EST", "city": "MONTREAL", "province": "QC", "country": "CA", "postalCode": "H2J1C5", "twitter": "None", "instagram": "None", "facebook": "None", "youtube": "None", "website": "None", "summary": "None", "logo": "None", "latitude": 45.540827976166895, "longitude": -73.57577712095276}, "133152215RR0001": {"name": "CENTRE DE LA PETITE ENFANCE CHEZ LES AMIS INC.", "designationCode": "C", "categoryCode": "01", "address": "838 RUE DE L'ONTARIO", "city": "SHERBROOKE", "province": "QC", "country": "CA", "postalCode": "J1J3S2", "twitter": "None", "instagram": "None", "facebook": "None", "youtube": "None", "website": "None", "summary": "None", "logo": "None", "latitude": 45.41109393228114, "longitude": -71.90791621313993}}