{"873517874RR0001": {"name": "Walkerton & District Food Bank", "designationCode": "C", "categoryCode": "09", "address": "6 MAY STREET                  BOX 162", "city": "WALKERTON", "province": "ON", "country": "CA", "postalCode": "N0G2V0", "twitter": "None", "instagram": "None", "facebook": "None", "youtube": "None", "website": "None", "summary": "None", "logo": "None", "latitude": 44.132819238415344, "longitude": -81.15763388063377}, "119288918RR1621": {"name": "Walkerville Arabic Congregation of Jehovah's Witnesses, Windsor, Ontario", "designationCode": "C", "categoryCode": "61", "address": "900 NORTH SERVICES ROAD EAST", "city": "WINDSOR", "province": "ON", "country": "CA", "postalCode": "N8X5B1", "twitter": "None", "instagram": "None", "facebook": "None", "youtube": "None", "website": "None", "summary": "None", "logo": "None", "latitude": 42.28063611192175, "longitude": -82.99924832073383}, "119288918RR0695": {"name": "Walkerville Congregation of Jehovah's Witnesses, Windsor, Ontario", "designationCode": "C", "categoryCode": "61", "address": "2093 LORAINE AVE", "city": "WINDSOR", "province": "ON", "country": "CA", "postalCode": "N8W1P5", "twitter": "None", "instagram": "None", "facebook": "None", "youtube": "None", "website": "None", "summary": "None", "logo": "None", "latitude": 42.29801534886612, "longitude": -82.9943530202551}, "802844274RR0001": {"name": "Wall Street Village Inc.", "designationCode": "C", "categoryCode": "01", "address": "4 JAMES ST. EAST", "city": "BROCKVILLE", "province": "ON", "country": "CA", "postalCode": "K6V1J9", "twitter": "None", "instagram": "None", "facebook": "None", "youtube": "None", "website": "None", "summary": "None", "logo": "None", "latitude": 44.59245423400061, "longitude": -75.6847689382824}, "845265776RR0001": {"name": "Wallace Ministries", "designationCode": "C", "categoryCode": "47", "address": "424 VICTORIA STREET           POST OFFICE BOX 908", "city": "WINCHESTER", "province": "ON", "country": "CA", "postalCode": "K0C2H0", "twitter": "None", "instagram": "None", "facebook": "None", "youtube": "None", "website": "None", "summary": "None", "logo": "None", "latitude": 45.094129364706504, "longitude": -75.34754004607879}, "802925933RR0001": {"name": "Wallaceburg Volunteer Firefighter's Association", "designationCode": "C", "categoryCode": "55", "address": "620 WELLINGTON STREET         PO BOX 3", "city": "WALLACEBURG", "province": "ON", "country": "CA", "postalCode": "N8A4L5", "twitter": "None", "instagram": "None", "facebook": "None", "youtube": "None", "website": "None", "summary": "None", "logo": "None", "latitude": 42.59413623925208, "longitude": -82.38603298087007}, "850341793RR0001": {"name": "Walls & Wells World Wide Society", "designationCode": "C", "categoryCode": "09", "address": "PO BOX 1703", "city": "FORT NELSON", "province": "BC", "country": "CA", "postalCode": "V0C1R0", "twitter": "None", "instagram": "None", "facebook": "None", "youtube": "None", "website": "None", "summary": "None", "logo": "None", "latitude": 58.80465000000004, "longitude": -122.70046999999994}, "853719813RR0001": {"name": "Walls Of Freedom Outreach Inc.", "designationCode": "C", "categoryCode": "47", "address": "PO BOX 28041                  1795 HENDERSON HWY", "city": "WINNIPEG", "province": "MB", "country": "CA", "postalCode": "R2G4E9", "twitter": "None", "instagram": "None", "facebook": "None", "youtube": "None", "website": "None", "summary": "None", "logo": "None", "latitude": 49.95338041043949, "longitude": -97.07673392301989}, "822558953RR0001": {"name": "Walpole Island Land Trust", "designationCode": "C", "categoryCode": "52", "address": "POSTAL BOX 22032              DUFFERIN AVENUE POSTAL OUTLET", "city": "WALLACEBURG", "province": "ON", "country": "CA", "postalCode": "N8A5G4", "twitter": "None", "instagram": "None", "facebook": "None", "youtube": "None", "website": "None", "summary": "None", "logo": "None", "latitude": 42.59364545774311, "longitude": -82.4301245854952}, "786959684RR0001": {"name": "Walsh Foundation", "designationCode": "B", "categoryCode": "03", "address": "350-13777 COMMERCE PARKWAY", "city": "RICHMOND", "province": "BC", "country": "CA", "postalCode": "V6V2X3", "twitter": "None", "instagram": "None", "facebook": "None", "youtube": "None", "website": "None", "summary": "None", "logo": "None", "latitude": 49.17623147994644, "longitude": -123.07151457951986}, "854373610RR0001": {"name": "Walter Tooke Charitable Trust", "designationCode": "B", "categoryCode": "15", "address": "540-1002 SHERBROOKE ST WEST", "city": "MONTREAL", "province": "QC", "country": "CA", "postalCode": "H3A3L6", "twitter": "None", "instagram": "None", "facebook": "None", "youtube": "None", "website": "None", "summary": "None", "logo": "None", "latitude": 45.502789852876845, "longitude": -73.57558716772498}, "847078151RR0001": {"name": "Wan Fa Yuan Buddha Society of Canada", "designationCode": "C", "categoryCode": "35", "address": "42 D'ARCY ST", "city": "TORONTO", "province": "ON", "country": "CA", "postalCode": "M5T1J7", "twitter": "None", "instagram": "None", "facebook": "None", "youtube": "None", "website": "None", "summary": "None", "logo": "None", "latitude": 43.65500015404806, "longitude": -79.39339979462169}, "817571458RR0001": {"name": "Wang Sung Church of Canada", "designationCode": "C", "categoryCode": "39", "address": "2195 45TH AVE W", "city": "VANCOUVER", "province": "BC", "country": "CA", "postalCode": "V6M2J2", "twitter": "None", "instagram": "None", "facebook": "None", "youtube": "None", "website": "None", "summary": "None", "logo": "None", "latitude": 49.230869529863064, "longitude": -123.15845233236193}, "864774138RR0001": {"name": "Want a pet?", "designationCode": "C", "categoryCode": "54", "address": "POST OFFICE BOX 471", "city": "GERALDTON", "province": "ON", "country": "CA", "postalCode": "P0T1M0", "twitter": "None", "instagram": "None", "facebook": "None", "youtube": "None", "website": "None", "summary": "None", "logo": "None", "latitude": 49.73012979055605, "longitude": -86.95068883318625}, "805813714RR0001": {"name": "War Horse Awareness Foundation", "designationCode": "C", "categoryCode": "09", "address": "9403 98TH STREET", "city": "FORT SASKATCHEWAN", "province": "AB", "country": "CA", "postalCode": "T8L1T2", "twitter": "None", "instagram": "None", "facebook": "None", "youtube": "None", "website": "None", "summary": "None", "logo": "None", "latitude": 53.70214836303304, "longitude": -113.21639880927955}, "797765294RR0001": {"name": "War Stories Society", "designationCode": "C", "categoryCode": "50", "address": "PO BOX 19004 RPO BRITANNIA", "city": "CALGARY", "province": "AB", "country": "CA", "postalCode": "T2S3G6", "twitter": "None", "instagram": "None", "facebook": "None", "youtube": "None", "website": "None", "summary": "None", "logo": "None", "latitude": 51.014692188231884, "longitude": -114.08655591432955}, "733527493RR0001": {"name": "Ward Family Foundation", "designationCode": "B", "categoryCode": "03", "address": "1 TORONTO STREET, SUITE 808", "city": "TORONTO", "province": "ON", "country": "CA", "postalCode": "M5C2V6", "twitter": "None", "instagram": "None", "facebook": "None", "youtube": "None", "website": "None", "summary": "None", "logo": "None", "latitude": 43.64988730558597, "longitude": -79.37604079929623}, "809895303RR0001": {"name": "Warfarin Information Network", "designationCode": "C", "categoryCode": "11", "address": "5151 RIVERVIEW ROAD", "city": "FAIRMONT HOT SPRINGS", "province": "BC", "country": "CA", "postalCode": "V0B1L1", "twitter": "None", "instagram": "None", "facebook": "None", "youtube": "None", "website": "None", "summary": "None", "logo": "None", "latitude": 50.327616414311294, "longitude": -115.86339992535552}, "837472083RR0001": {"name": "Warfield Community Church", "designationCode": "C", "categoryCode": "39", "address": "139 COLLEY ST", "city": "TRAIL", "province": "BC", "country": "CA", "postalCode": "V1R2M3", "twitter": "None", "instagram": "None", "facebook": "None", "youtube": "None", "website": "None", "summary": "None", "logo": "None", "latitude": 49.09594020300577, "longitude": -117.73230764361064}, "899987929RR0001": {"name": "Warkworth-Percy Historical Society", "designationCode": "C", "categoryCode": "50", "address": "225 CONCESSION RD 8 E         RR 5", "city": "WARKWORTH", "province": "ON", "country": "CA", "postalCode": "K0K3K0", "twitter": "None", "instagram": "None", "facebook": "None", "youtube": "None", "website": "None", "summary": "None", "logo": "None", "latitude": 44.25905079204415, "longitude": -77.90238170645894}, "806171591RR0001": {"name": "Warm and Cozy Children's Charity", "designationCode": "C", "categoryCode": "09", "address": "4157 NIELSEN ROAD,            R R 1", "city": "WAUBAUSHENE", "province": "ON", "country": "CA", "postalCode": "L0K2C0", "twitter": "None", "instagram": "None", "facebook": "None", "youtube": "None", "website": "None", "summary": "None", "logo": "None", "latitude": 44.719165828409494, "longitude": -79.74638813982382}, "837952530RR0001": {"name": "Warman Bible Fellowship", "designationCode": "C", "categoryCode": "39", "address": "PO BOX 17", "city": "WARMAN", "province": "SK", "country": "CA", "postalCode": "S0K4S0", "twitter": "None", "instagram": "None", "facebook": "None", "youtube": "None", "website": "None", "summary": "None", "logo": "None", "latitude": 52.31985000000006, "longitude": -106.58322349999993}, "807340575RR0001": {"name": "Warman Childcare Centre Inc.", "designationCode": "C", "categoryCode": "01", "address": "BOX 2001", "city": "WARMAN", "province": "SK", "country": "CA", "postalCode": "S0K4S0", "twitter": "None", "instagram": "None", "facebook": "None", "youtube": "None", "website": "None", "summary": "None", "logo": "None", "latitude": 52.31985000000006, "longitude": -106.58322349999993}, "118942259RR0001": {"name": "Warman Gospel Church", "designationCode": "C", "categoryCode": "34", "address": "PO BOX 276", "city": "WARMAN", "province": "SK", "country": "CA", "postalCode": "S0K4S0", "twitter": "None", "instagram": "None", "facebook": "None", "youtube": "None", "website": "None", "summary": "None", "logo": "None", "latitude": 52.31985000000006, "longitude": -106.58322349999993}, "836431528RR0001": {"name": "Warmland Community Baptist Church", "designationCode": "C", "categoryCode": "31", "address": "PO BOX 896", "city": "CROFTON", "province": "BC", "country": "CA", "postalCode": "V0R1R0", "twitter": "None", "instagram": "None", "facebook": "None", "youtube": "None", "website": "None", "summary": "None", "logo": "None", "latitude": 48.865530000000035, "longitude": -123.64061999999996}, "808511323RR0001": {"name": "WarmWorkers", "designationCode": "C", "categoryCode": "09", "address": "23 SOLSTICE ST", "city": "BRAMPTON", "province": "ON", "country": "CA", "postalCode": "L6P3T5", "twitter": "None", "instagram": "None", "facebook": "None", "youtube": "None", "website": "None", "summary": "None", "logo": "None", "latitude": 43.77972234222968, "longitude": -79.68841218653685}, "871285045RR0001": {"name": "Warren Grapes Agricultural Education Fund", "designationCode": "C", "categoryCode": "21", "address": "555 ROLAND-THERRIEN BOULEVARD SUITE 255", "city": "LONGUEUIL", "province": "QC", "country": "CA", "postalCode": "J4H4E7", "twitter": "None", "instagram": "None", "facebook": "None", "youtube": "None", "website": "None", "summary": "None", "logo": "None", "latitude": 45.544851648363924, "longitude": -73.49136519395269}, "850886136RR0001": {"name": "Warren Y. Soper Charitable Trust", "designationCode": "B", "categoryCode": "05", "address": "1 - 1405 NORTH SERVICE RD E", "city": "OAKVILLE", "province": "ON", "country": "CA", "postalCode": "L6H1A7", "twitter": "None", "instagram": "None", "facebook": "None", "youtube": "None", "website": "None", "summary": "None", "logo": "None", "latitude": 43.47838128416527, "longitude": -79.6728936444104}, "830784682RR0001": {"name": "Wasauksing First Nation United Church", "designationCode": "C", "categoryCode": "44", "address": "POST OFFICE BOX 116", "city": "PARRY SOUND", "province": "ON", "country": "CA", "postalCode": "P2A2X2", "twitter": "None", "instagram": "None", "facebook": "None", "youtube": "None", "website": "None", "summary": "None", "logo": "None", "latitude": 45.34362600000006, "longitude": -80.03579299999993}, "119288918RR1704": {"name": "Wascana Park Tagalog Congregation of Jehovah's Witnesses, Regina, Saskatchewan", "designationCode": "C", "categoryCode": "61", "address": "4-634 MCREAD PL", "city": "REGINA", "province": "SK", "country": "CA", "postalCode": "S4T7R4", "twitter": "None", "instagram": "None", "facebook": "None", "youtube": "None", "website": "None", "summary": "None", "logo": "None", "latitude": 50.46898909139228, "longitude": -104.6710223821304}, "836149989RR0001": {"name": "Washington Kids Foundation", "designationCode": "A", "categoryCode": "03", "address": "108B - 245 FELL AVE", "city": "NORTH VANCOUVER", "province": "BC", "country": "CA", "postalCode": "V7P2K1", "twitter": "None", "instagram": "None", "facebook": "None", "youtube": "None", "website": "None", "summary": "None", "logo": "None", "latitude": 49.31903758673323, "longitude": -123.09473210384299}, "883706962RR0001": {"name": "Waskaganish Cree Pentecostal Church", "designationCode": "C", "categoryCode": "36", "address": "P.O. BOX 59                   101 SMOKEY HILL STREET", "city": "WASKAGANISH", "province": "QC", "country": "CA", "postalCode": "J0M1R0", "twitter": "None", "instagram": "None", "facebook": "None", "youtube": "None", "website": "None", "summary": "None", "logo": "None", "latitude": 51.4859060424721, "longitude": -78.74731260641141}, "837793538RR0001": {"name": "Waskasoo Bible Fellowship", "designationCode": "C", "categoryCode": "39", "address": "34 DALTON CLOSE", "city": "RED DEER", "province": "AB", "country": "CA", "postalCode": "T4R2P5", "twitter": "None", "instagram": "None", "facebook": "None", "youtube": "None", "website": "None", "summary": "None", "logo": "None", "latitude": 52.2653454676841, "longitude": -113.7565433916267}, "825910623RR0001": {"name": "Waskasoo Museum Foundation", "designationCode": "A", "categoryCode": "53", "address": "4525-47A AVENUE", "city": "RED DEER", "province": "AB", "country": "CA", "postalCode": "T4N6Z6", "twitter": "None", "instagram": "None", "facebook": "None", "youtube": "None", "website": "None", "summary": "None", "logo": "None", "latitude": 52.26495345045876, "longitude": -113.8074256811994}, "889752242RR0001": {"name": "Waskatenau United Church", "designationCode": "C", "categoryCode": "44", "address": "PO BOX 392", "city": "WASKATENAU", "province": "AB", "country": "CA", "postalCode": "T0A3P0", "twitter": "None", "instagram": "None", "facebook": "None", "youtube": "None", "website": "None", "summary": "None", "logo": "None", "latitude": 54.11687000000006, "longitude": -112.78526999999997}, "819609496RR0001": {"name": "Wat Buddhakotamanaram of Manitoba Inc.", "designationCode": "C", "categoryCode": "35", "address": "541 CEDARCREST DR", "city": "WINNIPEG", "province": "MB", "country": "CA", "postalCode": "R2G0E1", "twitter": "None", "instagram": "None", "facebook": "None", "youtube": "None", "website": "None", "summary": "None", "logo": "None", "latitude": 49.93231291369948, "longitude": -97.07481254189518}, "119288918RR0001": {"name": "Watch Tower Bible and Tract Society of Canada / La Tour de Garde Soci\u00e9t\u00e9 de Bibles et de Tracts du Canada", "designationCode": "C", "categoryCode": "61", "address": "PO BOX 4100 STN MAIN", "city": "GEORGETOWN", "province": "ON", "country": "CA", "postalCode": "L7G4Y4", "twitter": "None", "instagram": "None", "facebook": "None", "youtube": "None", "website": "None", "summary": "None", "logo": "None", "latitude": 43.676964428204535, "longitude": -79.92917582331788}, "123026908RR0001": {"name": "Watchman on the Wall Ministries", "designationCode": "C", "categoryCode": "47", "address": "POST OFFICE BOX 3458          STATION MAIN", "city": "SPRUCE GROVE", "province": "AB", "country": "CA", "postalCode": "T7X3A7", "twitter": "None", "instagram": "None", "facebook": "None", "youtube": "None", "website": "None", "summary": "None", "logo": "None", "latitude": 53.543963085676126, "longitude": -113.9032334721694}, "819319971RR0001": {"name": "Water for All Canada", "designationCode": "C", "categoryCode": "09", "address": "1025 TRISTAR DRIVE", "city": "MISSISSAUGA", "province": "ON", "country": "CA", "postalCode": "L5T1W5", "twitter": "None", "instagram": "None", "facebook": "None", "youtube": "None", "website": "None", "summary": "None", "logo": "None", "latitude": 43.65319340360059, "longitude": -79.66707047994645}, "815536347RR0001": {"name": "Water Ambassadors Canada", "designationCode": "C", "categoryCode": "05", "address": "45 SHEPPARD AVENUE EAST       SUITE 900", "city": "TORONTO", "province": "ON", "country": "CA", "postalCode": "M2N5W9", "twitter": "None", "instagram": "None", "facebook": "None", "youtube": "None", "website": "None", "summary": "None", "logo": "None", "latitude": 43.76205793308921, "longitude": -79.40841662585845}, "838525269RR0001": {"name": "Water First Education and Training Inc. / L'Eau d'Abord \u00c9ducation et Formation Inc.", "designationCode": "C", "categoryCode": "21", "address": "8 JOHNSTON STREET", "city": "CREEMORE", "province": "ON", "country": "CA", "postalCode": "L0M1G0", "twitter": "None", "instagram": "None", "facebook": "None", "youtube": "None", "website": "None", "summary": "None", "logo": "None", "latitude": 44.32950017626507, "longitude": -80.10813956148645}, "119288918RR1640": {"name": "Waterdown Congregation of Jehovah's Witnesses, Hamilton, Ontario", "designationCode": "C", "categoryCode": "61", "address": "370 BROCK ROAD                STREET STRIP 103", "city": "DUNDAS", "province": "ON", "country": "CA", "postalCode": "L9H5E4", "twitter": "None", "instagram": "None", "facebook": "None", "youtube": "None", "website": "None", "summary": "None", "logo": "None", "latitude": 43.285181624502115, "longitude": -79.99267950842545}, "108191636RR0001": {"name": "Waterford Bible Church", "designationCode": "C", "categoryCode": "31", "address": "47-510 QUEENSWAY W", "city": "SIMCOE", "province": "ON", "country": "CA", "postalCode": "N3Y4R4", "twitter": "None", "instagram": "None", "facebook": "None", "youtube": "None", "website": "None", "summary": "None", "logo": "None", "latitude": 42.84073469216367, "longitude": -80.33119716596461}, "834281081RR0001": {"name": "Waterford Community Church", "designationCode": "C", "categoryCode": "31", "address": "726 THOMPSON RD E             RR 5", "city": "WATERFORD", "province": "ON", "country": "CA", "postalCode": "N0E1Y0", "twitter": "None", "instagram": "None", "facebook": "None", "youtube": "None", "website": "None", "summary": "None", "logo": "None"}, "119288918RR0317": {"name": "Waterfront Congregation of Jehovah's Witnesses, Sault Ste. Marie, Ontario", "designationCode": "C", "categoryCode": "61", "address": "75 HAMILTON AVE.", "city": "SAULT STE. MARIE", "province": "ON", "country": "CA", "postalCode": "P6B1C7", "twitter": "None", "instagram": "None", "facebook": "None", "youtube": "None", "website": "None", "summary": "None", "logo": "None", "latitude": 46.51150595337296, "longitude": -84.3213636742745}, "816195754RR0001": {"name": "Waterloo Korean Baptist Church", "designationCode": "C", "categoryCode": "31", "address": "223 HARTWOOD AVENUE", "city": "WATERLOO", "province": "ON", "country": "CA", "postalCode": "N2J1B2", "twitter": "None", "instagram": "None", "facebook": "None", "youtube": "None", "website": "None", "summary": "None", "logo": "None", "latitude": 43.46422033718071, "longitude": -80.50126131929153}, "851256453RR0001": {"name": "Waterloo Mathematics Charitable Trust Foundation", "designationCode": "A", "categoryCode": "23", "address": "76 BIRCHCLIFF AVE", "city": "KITCHENER", "province": "ON", "country": "CA", "postalCode": "N2M4V6", "twitter": "None", "instagram": "None", "facebook": "None", "youtube": "None", "website": "None", "summary": "None", "logo": "None", "latitude": 43.424823487390945, "longitude": -80.51445047778299}, "108192097RR0001": {"name": "Waterloo Presbytery", "designationCode": "C", "categoryCode": "39", "address": "63 CHALMERS STREET NORTH", "city": "CAMBRIDGE", "province": "ON", "country": "CA", "postalCode": "N1R5B9", "twitter": "None", "instagram": "None", "facebook": "None", "youtube": "None", "website": "None", "summary": "None", "logo": "None", "latitude": 43.359197280050736, "longitude": -80.30023790143713}, "119262103RR0001": {"name": "Waterloo Region District School Board", "designationCode": "C", "categoryCode": "21", "address": "51 ARDELT AVE", "city": "KITCHENER", "province": "ON", "country": "CA", "postalCode": "N2C2R5", "twitter": "None", "instagram": "None", "facebook": "None", "youtube": "None", "website": "None", "summary": "None", "logo": "None", "latitude": 43.427562456806754, "longitude": -80.4783515715271}, "836174052RR0001": {"name": "Waterloo Region Family Network", "designationCode": "C", "categoryCode": "11", "address": "65 HANSON AVE", "city": "KITCHENER", "province": "ON", "country": "CA", "postalCode": "N2C2H6", "twitter": "None", "instagram": "None", "facebook": "None", "youtube": "None", "website": "None", "summary": "None", "logo": "None", "latitude": 43.42534500885816, "longitude": -80.4717904158056}, "815852348RR0001": {"name": "Waterloo Region Green Solutions", "designationCode": "C", "categoryCode": "59", "address": "222 FREDERICK ST", "city": "KITCHENER", "province": "ON", "country": "CA", "postalCode": "N2H2M8", "twitter": "None", "instagram": "None", "facebook": "None", "youtube": "None", "website": "None", "summary": "None", "logo": "None", "latitude": 43.454035528737876, "longitude": -80.48118407106575}, "107797383RR0140": {"name": "Waterloo Seventh-day Adventist Church", "designationCode": "C", "categoryCode": "41", "address": "530 SPRUCEHILL AVENUE", "city": "WATERLOO", "province": "ON", "country": "CA", "postalCode": "N2L4V7", "twitter": "None", "instagram": "None", "facebook": "None", "youtube": "None", "website": "None", "summary": "None", "logo": "None", "latitude": 43.49013972551785, "longitude": -80.54810812681073}, "814652517RR0001": {"name": "Waterloo Wellington Buddhist Monastery and Meditation Centre", "designationCode": "C", "categoryCode": "35", "address": "229 ROYAL OAK RD", "city": "CAMBRIDGE", "province": "ON", "country": "CA", "postalCode": "N3E0A5", "twitter": "None", "instagram": "None", "facebook": "None", "youtube": "None", "website": "None", "summary": "None", "logo": "None", "latitude": 43.415196697992066, "longitude": -80.35615284759672}, "801609371RR0001": {"name": "Watermark Foundation", "designationCode": "B", "categoryCode": "01", "address": "POST OFFICE BOX 62 SUITE 1250 1500 GEORGIA STREET WEST", "city": "VANCOUVER", "province": "BC", "country": "CA", "postalCode": "V6G2Z6", "twitter": "None", "instagram": "None", "facebook": "None", "youtube": "None", "website": "None", "summary": "None", "logo": "None", "latitude": 49.29013479542975, "longitude": -123.1300069287031}, "814826418RR0001": {"name": "Waternish-Stillwater Community Cemetery Society", "designationCode": "B", "categoryCode": "59", "address": "PO BOX 61", "city": "SHERBROOKE", "province": "NS", "country": "CA", "postalCode": "B0J3C0", "twitter": "None", "instagram": "None", "facebook": "None", "youtube": "None", "website": "None", "summary": "None", "logo": "None", "latitude": 44.62486683013651, "longitude": -64.54661386209058}, "802820803RR0001": {"name": "Waterside Community Association Incorporated", "designationCode": "C", "categoryCode": "59", "address": "201 MCALLISTER RD", "city": "RIVERVIEW", "province": "NB", "country": "CA", "postalCode": "E1B1T7", "twitter": "None", "instagram": "None", "facebook": "None", "youtube": "None", "website": "None", "summary": "None", "logo": "None", "latitude": 46.06516473105776, "longitude": -64.79241711062366}, "779203322RR0001": {"name": "Waterside Summer Series Music Festival", "designationCode": "C", "categoryCode": "22", "address": "GD", "city": "STELLA", "province": "ON", "country": "CA", "postalCode": "K0H2S0", "twitter": "None", "instagram": "None", "facebook": "None", "youtube": "None", "website": "None", "summary": "None", "logo": "None", "latitude": 44.41239560160658, "longitude": -76.57143774290779}, "853997898RR0001": {"name": "Waterstone Foundation", "designationCode": "C", "categoryCode": "03", "address": "29 NORTH DRIVE                OWNER KIM DUFFY", "city": "ETOBICOKE", "province": "ON", "country": "CA", "postalCode": "M9A4R1", "twitter": "None", "instagram": "None", "facebook": "None", "youtube": "None", "website": "None", "summary": "None", "logo": "None", "latitude": 43.676125750793275, "longitude": -79.5159947604308}, "843382359RR0001": {"name": "Waterton Foundation", "designationCode": "B", "categoryCode": "53", "address": "PO BOX 112", "city": "WATERTON PARK", "province": "AB", "country": "CA", "postalCode": "T0K2M0", "twitter": "None", "instagram": "None", "facebook": "None", "youtube": "None", "website": "None", "summary": "None", "logo": "None", "latitude": 49.04890282156435, "longitude": -113.90737148729744}, "119288918RR0578": {"name": "Waterville Congregation of Jehovah's Witnesses, Waterville, Nova Scotia", "designationCode": "C", "categoryCode": "61", "address": "456 PELTON MOUNTAIN RD  RR1", "city": "KENTVILLE", "province": "NS", "country": "CA", "postalCode": "B4N3V7", "twitter": "None", "instagram": "None", "facebook": "None", "youtube": "None", "website": "None", "summary": "None", "logo": "None", "latitude": 45.132540903975965, "longitude": -64.62003917704446}, "821452190RR0001": {"name": "Watsa Family Foundation", "designationCode": "A", "categoryCode": "03", "address": "2900 - 550 BURRARD ST", "city": "VANCOUVER", "province": "BC", "country": "CA", "postalCode": "V6C0A3", "twitter": "None", "instagram": "None", "facebook": "None", "youtube": "None", "website": "None", "summary": "None", "logo": "None", "latitude": 49.28596391921073, "longitude": -123.11870289255033}, "850507237RR0001": {"name": "Watson Regional Daycare Centre Inc.", "designationCode": "C", "categoryCode": "01", "address": "PO BOX 267", "city": "WATSON", "province": "SK", "country": "CA", "postalCode": "S0K4V0", "twitter": "None", "instagram": "None", "facebook": "None", "youtube": "None", "website": "None", "summary": "None", "logo": "None", "latitude": 52.32713850000001, "longitude": -106.57019925}, "801308743RR0001": {"name": "Waves of Changes For Autism", "designationCode": "C", "categoryCode": "11", "address": "2 - 30 PENNSYLVANIA AVE", "city": "CONCORD", "province": "ON", "country": "CA", "postalCode": "L4K4A5", "twitter": "None", "instagram": "None", "facebook": "None", "youtube": "None", "website": "None", "summary": "None", "logo": "None", "latitude": 43.80303045109301, "longitude": -79.52773079822836}, "832427843RR0001": {"name": "Waves of Compassion Association", "designationCode": "C", "categoryCode": "29", "address": "166 BEDFORD HIGHWAY", "city": "HALIFAX", "province": "NS", "country": "CA", "postalCode": "B3M2J6", "twitter": "None", "instagram": "None", "facebook": "None", "youtube": "None", "website": "None", "summary": "None", "logo": "None", "latitude": 44.67225905697601, "longitude": -63.64376071519122}, "854838851RR0001": {"name": "Waves of Hope Development Organization - Nicaragua", "designationCode": "B", "categoryCode": "09", "address": "2322 FLEET PATH", "city": "BURLINGTON", "province": "ON", "country": "CA", "postalCode": "L7P4B7", "twitter": "None", "instagram": "None", "facebook": "None", "youtube": "None", "website": "None", "summary": "None", "logo": "None", "latitude": 43.36347335997463, "longitude": -79.84349071388974}, "831179528RR0001": {"name": "Wawa and Area Victim Services", "designationCode": "C", "categoryCode": "59", "address": "30 BROADWAY AVENUE            P.O.BOX 1824", "city": "WAWA", "province": "ON", "country": "CA", "postalCode": "P0S1K0", "twitter": "None", "instagram": "None", "facebook": "None", "youtube": "None", "website": "None", "summary": "None", "logo": "None", "latitude": 47.99720010025994, "longitude": -84.77091779818053}, "839223658RR0001": {"name": "Wawa Christmas Hamper Fund", "designationCode": "C", "categoryCode": "09", "address": "PO BOX 257", "city": "WAWA", "province": "ON", "country": "CA", "postalCode": "P0S1K0", "twitter": "None", "instagram": "None", "facebook": "None", "youtube": "None", "website": "None", "summary": "None", "logo": "None", "latitude": 47.99670182883135, "longitude": -84.76954309189294}, "856564265RR0001": {"name": "Wawanesa & Area Donor's Choice", "designationCode": "A", "categoryCode": "05", "address": "BOX 58", "city": "WAWANESA", "province": "MB", "country": "CA", "postalCode": "R0K2G0", "twitter": "None", "instagram": "None", "facebook": "None", "youtube": "None", "website": "None", "summary": "None", "logo": "None", "latitude": 49.59522000000004, "longitude": -99.68362999999994}, "831483821RR0001": {"name": "Wawota & Community Early Learning Center Co-Operative Ltd.", "designationCode": "C", "categoryCode": "01", "address": "BOX 563", "city": "WAWOTA", "province": "SK", "country": "CA", "postalCode": "S0G5A0", "twitter": "None", "instagram": "None", "facebook": "None", "youtube": "None", "website": "None", "summary": "None", "logo": "None", "latitude": 49.90003000000007, "longitude": -102.03426999999999}, "827896903RR0001": {"name": "Way of Wisdom Ministries International Inc.", "designationCode": "C", "categoryCode": "39", "address": "RURAL ROUTE 3", "city": "PRINCE ALBERT", "province": "SK", "country": "CA", "postalCode": "S6V5R1", "twitter": "None", "instagram": "None", "facebook": "None", "youtube": "None", "website": "None", "summary": "None", "logo": "None", "latitude": 53.199456000000055, "longitude": -105.74863099999993}, "119289981RR0001": {"name": "Way's Mills Union Church", "designationCode": "C", "categoryCode": "44", "address": "2123 CHEMIN WAY'S MILLS", "city": "AYER'S CLIFF", "province": "QC", "country": "CA", "postalCode": "J0B1C0", "twitter": "None", "instagram": "None", "facebook": "None", "youtube": "None", "website": "None", "summary": "None", "logo": "None", "latitude": 45.137069999999994, "longitude": -72.00358425}, "810344135RR0001": {"name": "Wayfinders Manitoba Inc.", "designationCode": "C", "categoryCode": "21", "address": "830 POWERS STREET", "city": "WINNIPEG", "province": "MB", "country": "CA", "postalCode": "R2V4E7", "twitter": "None", "instagram": "None", "facebook": "None", "youtube": "None", "website": "None", "summary": "None", "logo": "None", "latitude": 49.93703003525874, "longitude": -97.12723044993916}, "852957307RR0001": {"name": "Wayne and Isabel Fox Family Foundation", "designationCode": "B", "categoryCode": "03", "address": "45 ARBOUR DR", "city": "OAKVILLE", "province": "ON", "country": "CA", "postalCode": "L6J4Y6", "twitter": "None", "instagram": "None", "facebook": "None", "youtube": "None", "website": "None", "summary": "None", "logo": "None", "latitude": 43.47283382598529, "longitude": -79.63575457366281}, "838367027RR0001": {"name": "Waypoint Centre for Mental Health Care", "designationCode": "C", "categoryCode": "10", "address": "500 CHURCH ST.", "city": "PENETANGUISHENE", "province": "ON", "country": "CA", "postalCode": "L9M1G3", "twitter": "None", "instagram": "None", "facebook": "None", "youtube": "None", "website": "None", "summary": "None", "logo": "None", "latitude": 44.800891130023786, "longitude": -79.92952580173574}, "888301066RR0001": {"name": "Waypoint Volunteer Association", "designationCode": "C", "categoryCode": "09", "address": "500 CHURCH ST.", "city": "PENETANGUISHENE", "province": "ON", "country": "CA", "postalCode": "L9M1G3", "twitter": "None", "instagram": "None", "facebook": "None", "youtube": "None", "website": "None", "summary": "None", "logo": "None", "latitude": 44.800891130023786, "longitude": -79.92952580173574}, "118928449RR0001": {"name": "Waypoints Community Services Association", "designationCode": "C", "categoryCode": "09", "address": "8130A MANNING AVE", "city": "FORT MCMURRAY", "province": "AB", "country": "CA", "postalCode": "T9H1V7", "twitter": "None", "instagram": "None", "facebook": "None", "youtube": "None", "website": "None", "summary": "None", "logo": "None", "latitude": 56.715393546356275, "longitude": -111.34653554976626}, "869546127RR0001": {"name": "Ways Foundation", "designationCode": "A", "categoryCode": "03", "address": "714 YORK STREET", "city": "LONDON", "province": "ON", "country": "CA", "postalCode": "N5W2S8", "twitter": "None", "instagram": "None", "facebook": "None", "youtube": "None", "website": "None", "summary": "None", "logo": "None", "latitude": 42.9873061976204, "longitude": -81.22696022971819}, "892666934RR0001": {"name": "Ways Mental Health Support", "designationCode": "C", "categoryCode": "10", "address": "714 YORK ST", "city": "LONDON", "province": "ON", "country": "CA", "postalCode": "N5W2S8", "twitter": "None", "instagram": "None", "facebook": "None", "youtube": "None", "website": "None", "summary": "None", "logo": "None", "latitude": 42.9873061976204, "longitude": -81.22696022971819}, "760681494RR0001": {"name": "Wayside Initiative", "designationCode": "C", "categoryCode": "21", "address": "1734 CAMBRIDGE ST", "city": "HALIFAX", "province": "NS", "country": "CA", "postalCode": "B3H4A9", "twitter": "None", "instagram": "None", "facebook": "None", "youtube": "None", "website": "None", "summary": "None", "logo": "None", "latitude": 44.641187141266116, "longitude": -63.59971102181297}, "828742486RR0001": {"name": "We are the Villagers", "designationCode": "C", "categoryCode": "09", "address": "486 HUGEL AVENUE", "city": "MIDLAND", "province": "ON", "country": "CA", "postalCode": "L4R1V6", "twitter": "None", "instagram": "None", "facebook": "None", "youtube": "None", "website": "None", "summary": "None", "logo": "None", "latitude": 44.750438390901145, "longitude": -79.88474248609953}, "796342723RR0001": {"name": "We Are Home Free", "designationCode": "C", "categoryCode": "09", "address": "99 TINY BEACHES ROAD NORTH", "city": "TINY", "province": "ON", "country": "CA", "postalCode": "L0L2J0", "twitter": "None", "instagram": "None", "facebook": "None", "youtube": "None", "website": "None", "summary": "None", "logo": "None", "latitude": 44.69877837591405, "longitude": -80.00392428620422}, "847404704RR0001": {"name": "We Are One Jazz Project", "designationCode": "C", "categoryCode": "22", "address": "3-606 MOUNT PLEASANT RD", "city": "TORONTO", "province": "ON", "country": "CA", "postalCode": "M4S2M8", "twitter": "None", "instagram": "None", "facebook": "None", "youtube": "None", "website": "None", "summary": "None", "logo": "None", "latitude": 43.70388510629583, "longitude": -79.38840354651147}, "827211715RR0001": {"name": "We Did it! School-Age Care Society", "designationCode": "C", "categoryCode": "01", "address": "18 STRATHLEA GROVE S.W.", "city": "CALGARY", "province": "AB", "country": "CA", "postalCode": "T3H5C5", "twitter": "None", "instagram": "None", "facebook": "None", "youtube": "None", "website": "None", "summary": "None", "logo": "None", "latitude": 51.05063178267649, "longitude": -114.20855622978834}, "729881094RR0001": {"name": "We Love You Connie Foundation", "designationCode": "B", "categoryCode": "03", "address": "400 - 145 REYNOLDS ST", "city": "OAKVILLE", "province": "ON", "country": "CA", "postalCode": "L6J0A7", "twitter": "None", "instagram": "None", "facebook": "None", "youtube": "None", "website": "None", "summary": "None", "logo": "None", "latitude": 43.449225484880785, "longitude": -79.66744780515327}, "827103839RR0001": {"name": "We've Got Your Back Foundation Inc.", "designationCode": "C", "categoryCode": "09", "address": "28 MAIN STREET", "city": "ST. STEPHEN", "province": "NB", "country": "CA", "postalCode": "E3L1Z1", "twitter": "None", "instagram": "None", "facebook": "None", "youtube": "None", "website": "None", "summary": "None", "logo": "None", "latitude": 45.19429301965916, "longitude": -67.28161022234167}, "895695542RR0001": {"name": "Webster's Whonnock United Church", "designationCode": "C", "categoryCode": "44", "address": "8351 ASTER TERRACE", "city": "MISSION", "province": "BC", "country": "CA", "postalCode": "V2V5V8", "twitter": "None", "instagram": "None", "facebook": "None", "youtube": "None", "website": "None", "summary": "None", "logo": "None", "latitude": 49.15381861449014, "longitude": -122.299514650066}, "815688452RR0001": {"name": "Wedge Curatorial Projects", "designationCode": "C", "categoryCode": "22", "address": "800 BATHURST STREET,          SUITE 503", "city": "TORONTO", "province": "ON", "country": "CA", "postalCode": "M5R3M8", "twitter": "None", "instagram": "None", "facebook": "None", "youtube": "None", "website": "None", "summary": "None", "logo": "None", "latitude": 43.66557079655494, "longitude": -79.41140482780295}, "817563125RR0001": {"name": "Wee Waifs Worldwide Trust", "designationCode": "B", "categoryCode": "05", "address": "2298 CHAPMAN WAY", "city": "NORTH VANCOUVER", "province": "BC", "country": "CA", "postalCode": "V7H1W1", "twitter": "None", "instagram": "None", "facebook": "None", "youtube": "None", "website": "None", "summary": "None", "logo": "None", "latitude": 49.328251478792616, "longitude": -123.00718033236194}, "108194697RR0001": {"name": "Weechi-it-te-win Family Services Inc.", "designationCode": "C", "categoryCode": "09", "address": "PO BOX 812", "city": "FORT FRANCES", "province": "ON", "country": "CA", "postalCode": "P9A2N1", "twitter": "None", "instagram": "None", "facebook": "None", "youtube": "None", "website": "None", "summary": "None", "logo": "None", "latitude": 48.60913200000006, "longitude": -93.38422849999994}, "837135698RR0001": {"name": "Weeneebayko Area Health Authority", "designationCode": "C", "categoryCode": "10", "address": "19 HOSPITAL DRIVE             P.O. BOX 664", "city": "MOOSE FACTORY", "province": "ON", "country": "CA", "postalCode": "P0L1W0", "twitter": "None", "instagram": "None", "facebook": "None", "youtube": "None", "website": "None", "summary": "None", "logo": "None", "latitude": 51.25074597454462, "longitude": -80.6165454642504}, "133017897RR0001": {"name": "Welcome Centre Shelter for Women", "designationCode": "C", "categoryCode": "59", "address": "263 BRIDGE AVENUE", "city": "WINDSOR", "province": "ON", "country": "CA", "postalCode": "N9B2M1", "twitter": "None", "instagram": "None", "facebook": "None", "youtube": "None", "website": "None", "summary": "None", "logo": "None", "latitude": 42.311951193721555, "longitude": -83.06150182419628}, "852262757RR0001": {"name": "Welcome Christian Housing Corporation", "designationCode": "C", "categoryCode": "09", "address": "1581 GREENBANK ROAD", "city": "OTTAWA", "province": "ON", "country": "CA", "postalCode": "K2J4Y6", "twitter": "None", "instagram": "None", "facebook": "None", "youtube": "None", "website": "None", "summary": "None", "logo": "None", "latitude": 45.27342527840596, "longitude": -75.7480636074506}, "830794715RR0001": {"name": "Welcome Friend Association", "designationCode": "C", "categoryCode": "59", "address": "76 DAWSON STREET              POST OFFICE BOX 242", "city": "THESSALON", "province": "ON", "country": "CA", "postalCode": "P0R1L0", "twitter": "None", "instagram": "None", "facebook": "None", "youtube": "None", "website": "None", "summary": "None", "logo": "None", "latitude": 46.263819516013264, "longitude": -83.55802410935425}, "825338957RR0001": {"name": "Welcome Home Children's Centre Inc.", "designationCode": "C", "categoryCode": "09", "address": "34 MCCULLOUGH CRESCENT", "city": "GEORGETOWN", "province": "ON", "country": "CA", "postalCode": "L7G5N5", "twitter": "None", "instagram": "None", "facebook": "None", "youtube": "None", "website": "None", "summary": "None", "logo": "None", "latitude": 43.64958716209816, "longitude": -79.94357271966079}, "803929652RR0001": {"name": "Welcoming Arms", "designationCode": "C", "categoryCode": "09", "address": "44 METCALFE STREET", "city": "AURORA", "province": "ON", "country": "CA", "postalCode": "L4G1E6", "twitter": "None", "instagram": "None", "facebook": "None", "youtube": "None", "website": "None", "summary": "None", "logo": "None", "latitude": 43.99718616573349, "longitude": -79.46374729851682}, "823309851RR0001": {"name": "Weldon Childcare Inc.", "designationCode": "C", "categoryCode": "01", "address": "POST OFFICE BOX 310", "city": "BIENFAIT", "province": "SK", "country": "CA", "postalCode": "S0C0M0", "twitter": "None", "instagram": "None", "facebook": "None", "youtube": "None", "website": "None", "summary": "None", "logo": "None", "latitude": 49.15007000000003, "longitude": -102.81760999999995}, "898522420RR0001": {"name": "Weldon Co-operative Care Home Ltd.", "designationCode": "C", "categoryCode": "09", "address": "BOX 220", "city": "WELDON", "province": "SK", "country": "CA", "postalCode": "S0J3A0", "twitter": "None", "instagram": "None", "facebook": "None", "youtube": "None", "website": "None", "summary": "None", "logo": "None", "latitude": 53.01675000000006, "longitude": -105.13429999999994}, "837771039RR0001": {"name": "Welland Bible Missionary Church", "designationCode": "B", "categoryCode": "39", "address": "2 MARKET SQ", "city": "WELLAND", "province": "ON", "country": "CA", "postalCode": "L3B3G8", "twitter": "None", "instagram": "None", "facebook": "None", "youtube": "None", "website": "None", "summary": "None", "logo": "None", "latitude": 42.9894790605579, "longitude": -79.24812961121741}, "811358621RR0001": {"name": "Wellington Auxiliary Rescue Association", "designationCode": "C", "categoryCode": "59", "address": "PO BOX 493", "city": "WELLINGTON", "province": "ON", "country": "CA", "postalCode": "K0K3L0", "twitter": "None", "instagram": "None", "facebook": "None", "youtube": "None", "website": "None", "summary": "None", "logo": "None", "latitude": 44.300473210135635, "longitude": -77.54765621199132}, "886248590RR0001": {"name": "Wellington Catholic District School Board", "designationCode": "C", "categoryCode": "20", "address": "PO BOX 1298", "city": "GUELPH", "province": "ON", "country": "CA", "postalCode": "N1H6N6", "twitter": "None", "instagram": "None", "facebook": "None", "youtube": "None", "website": "None", "summary": "None", "logo": "None", "latitude": 43.54455300000005, "longitude": -80.24788249999993}}