{"866132079RR0001": {"name": "LA FORET MAGIQUE INCORPOREE", "designationCode": "C", "categoryCode": "01", "address": "CP 135", "city": "LAURIER", "province": "MB", "country": "CA", "postalCode": "R0J1A0", "twitter": "None", "instagram": "None", "facebook": "None", "youtube": "None", "website": "None", "summary": "None", "logo": "None", "latitude": 49.17903346790998, "longitude": -99.67135805116409}, "119001873RR0001": {"name": "LA FRATERNIT\u00c9 SAINT-MARIE DE VILLE DE VANIER INC.", "designationCode": "C", "categoryCode": "09", "address": "204 AV GAUVIN", "city": "QU\u00c9BEC", "province": "QC", "country": "CA", "postalCode": "G1M1Y5", "twitter": "None", "instagram": "None", "facebook": "None", "youtube": "None", "website": "None", "summary": "None", "logo": "None", "latitude": 46.813791132119526, "longitude": -71.25946913653425}, "119001832RR0001": {"name": "LA FRATERNITE EUCHARISTIQUE INC.", "designationCode": "C", "categoryCode": "47", "address": "124 - 4527 RUE BERRI", "city": "MONTREAL", "province": "QC", "country": "CA", "postalCode": "H2J2R4", "twitter": "None", "instagram": "None", "facebook": "None", "youtube": "None", "website": "None", "summary": "None", "logo": "None", "latitude": 45.5253082065035, "longitude": -73.58268850998331}, "107404501RR0001": {"name": "LA FRATERNITE SAINT-PIE X (QU\u00c9BEC) INC.", "designationCode": "C", "categoryCode": "46", "address": "1395 RUE NOTRE DAME", "city": "ST CESAIRE", "province": "QC", "country": "CA", "postalCode": "J0L1T0", "twitter": "None", "instagram": "None", "facebook": "None", "youtube": "None", "website": "None", "summary": "None", "logo": "None", "latitude": 45.40850650069248, "longitude": -73.00215360641141}, "119001899RR0001": {"name": "LA FRATERNITE ST-MICHEL INC.", "designationCode": "C", "categoryCode": "09", "address": "50, RUE CARDINAL-BEGIN E.", "city": "ROUYN-NORANDA", "province": "QC", "country": "CA", "postalCode": "J9X3G8", "twitter": "None", "instagram": "None", "facebook": "None", "youtube": "None", "website": "None", "summary": "None", "logo": "None", "latitude": 48.2366915323159, "longitude": -79.01854208381903}, "130044001RR0001": {"name": "LA FREQUENCE INC", "designationCode": "C", "categoryCode": "09", "address": "101 BOUL. BARIL OUEST", "city": "PRINCEVILLE", "province": "QC", "country": "CA", "postalCode": "G6L3V5", "twitter": "None", "instagram": "None", "facebook": "None", "youtube": "None", "website": "None", "summary": "None", "logo": "None", "latitude": 46.16783475993988, "longitude": -71.87246072012215}, "836281659RR0001": {"name": "LA FRIPERIE DE HAWKESBURY", "designationCode": "C", "categoryCode": "09", "address": "894 BOULEVARD CARTIER", "city": "HAWKESBURY", "province": "ON", "country": "CA", "postalCode": "K6A1W7", "twitter": "None", "instagram": "None", "facebook": "None", "youtube": "None", "website": "None", "summary": "None", "logo": "None", "latitude": 45.60206441588176, "longitude": -74.61077909885934}, "895329159RR0001": {"name": "LA FRIPERIE DU PAVOIS", "designationCode": "C", "categoryCode": "09", "address": "2380, AVE DU MONT-THABOR", "city": "QUEBEC", "province": "QC", "country": "CA", "postalCode": "G1J3W7", "twitter": "None", "instagram": "None", "facebook": "None", "youtube": "None", "website": "None", "summary": "None", "logo": "None", "latitude": 46.83942069054757, "longitude": -71.2327553974264}, "866988629RR0001": {"name": "LA FRIPERIE QU\u00c9VILLON", "designationCode": "C", "categoryCode": "09", "address": "64 A PLACE QUEVILLON", "city": "LEBEL-SUR-QUEVILLON", "province": "QC", "country": "CA", "postalCode": "J0Y1X0", "twitter": "None", "instagram": "None", "facebook": "None", "youtube": "None", "website": "None", "summary": "None", "logo": "None", "latitude": 49.05330325573254, "longitude": -76.97938660894826}, "107588667RR0001": {"name": "LA FRONTIERE", "designationCode": "C", "categoryCode": "09", "address": "201, RUE SAINT-LOUIS", "city": "MONTMAGNY", "province": "QC", "country": "CA", "postalCode": "G5V1N6", "twitter": "None", "instagram": "None", "facebook": "None", "youtube": "None", "website": "None", "summary": "None", "logo": "None", "latitude": 46.983060512637714, "longitude": -70.55003912464635}, "898750658RR0001": {"name": "LA GALERIE DU NOUVEL-ONTARIO CENTRE D'ARTISTE", "designationCode": "C", "categoryCode": "22", "address": "C.P. 242, SUCC. B", "city": "SUDBURY", "province": "ON", "country": "CA", "postalCode": "P3E4N5", "twitter": "None", "instagram": "None", "facebook": "None", "youtube": "None", "website": "None", "summary": "None", "logo": "None", "latitude": 46.48958700000006, "longitude": -80.99011249999994}, "811301142RR0001": {"name": "LA GANG A RAMBROU", "designationCode": "C", "categoryCode": "22", "address": "5615 AV PIERRE-DE COUBERTIN", "city": "MONTREAL", "province": "QC", "country": "CA", "postalCode": "H1N1R1", "twitter": "None", "instagram": "None", "facebook": "None", "youtube": "None", "website": "None", "summary": "None", "logo": "None", "latitude": 45.56873557452822, "longitude": -73.54255432725469}, "897090270RR0001": {"name": "LA GARDERIE ARC-EN-CIEL INC.", "designationCode": "C", "categoryCode": "20", "address": "CP 37", "city": "NOTRE DAME DE LOURDES", "province": "MB", "country": "CA", "postalCode": "R0G1M0", "twitter": "None", "instagram": "None", "facebook": "None", "youtube": "None", "website": "None", "summary": "None", "logo": "None", "latitude": 49.53272000000004, "longitude": -98.55749999999995}, "897781779RR0001": {"name": "LA GARDERIE CROQUE SOLEIL", "designationCode": "C", "categoryCode": "01", "address": "711 DALTON AVE", "city": "KINGSTON", "province": "ON", "country": "CA", "postalCode": "K7M8N6", "twitter": "None", "instagram": "None", "facebook": "None", "youtube": "None", "website": "None", "summary": "None", "logo": "None", "latitude": 44.26949087551347, "longitude": -76.52327102691082}, "890128069RR0001": {"name": "LA GARDERIE DE L'ARC-EN-CIEL INC", "designationCode": "C", "categoryCode": "20", "address": "221 SCOTTSDALE DRIVE", "city": "GUELPH", "province": "ON", "country": "CA", "postalCode": "N1G3A1", "twitter": "None", "instagram": "None", "facebook": "None", "youtube": "None", "website": "None", "summary": "None", "logo": "None", "latitude": 43.52184382012626, "longitude": -80.2423681080332}, "135709871RR0001": {"name": "LA GARDERIE DES LUTINS DE KITCHENER", "designationCode": "C", "categoryCode": "01", "address": "345 THE COUNTRY WAY", "city": "KITCHENER", "province": "ON", "country": "CA", "postalCode": "N2E2S3", "twitter": "None", "instagram": "None", "facebook": "None", "youtube": "None", "website": "None", "summary": "None", "logo": "None", "latitude": 43.40686946883795, "longitude": -80.48179290189847}, "107589111RR0001": {"name": "LA GARDERIE EDUCATIVE DE KINGSTON", "designationCode": "C", "categoryCode": "01", "address": "72 GILMOUR AVE", "city": "KINGSTON", "province": "ON", "country": "CA", "postalCode": "K7M9G6", "twitter": "None", "instagram": "None", "facebook": "None", "youtube": "None", "website": "None", "summary": "None", "logo": "None", "latitude": 44.24234456564141, "longitude": -76.52640276625918}, "119001998RR0001": {"name": "LA GARDERIE FAMILIALE DE CLARE ASSOCIATION", "designationCode": "C", "categoryCode": "01", "address": "PO BOX 448", "city": "METEGHAN", "province": "NS", "country": "CA", "postalCode": "B0W2J0", "twitter": "None", "instagram": "None", "facebook": "None", "youtube": "None", "website": "None", "summary": "None", "logo": "None", "latitude": 44.16554193781324, "longitude": -66.14924273516925}, "119002103RR0001": {"name": "LA GIGOGNE INC.", "designationCode": "C", "categoryCode": "09", "address": "C.P 274", "city": "MATANE", "province": "QC", "country": "CA", "postalCode": "G4W3N2", "twitter": "None", "instagram": "None", "facebook": "None", "youtube": "None", "website": "None", "summary": "None", "logo": "None", "latitude": 48.844995000000054, "longitude": -67.52947399999994}, "119002111RR0001": {"name": "LA GITEE INC.", "designationCode": "C", "categoryCode": "01", "address": "C.P. 363", "city": "THETFORD MINES", "province": "QC", "country": "CA", "postalCode": "G6G5T1", "twitter": "None", "instagram": "None", "facebook": "None", "youtube": "None", "website": "None", "summary": "None", "logo": "None", "latitude": 46.09057200000005, "longitude": -71.29926349999994}, "130979073RR0001": {"name": "LA GLACE BIBLE FELLOWSHIP CHURCH", "designationCode": "C", "categoryCode": "34", "address": "BOX 98", "city": "LAGLACE", "province": "AB", "country": "CA", "postalCode": "T0H2J0", "twitter": "None", "instagram": "None", "facebook": "None", "youtube": "None", "website": "None", "summary": "None", "logo": "None", "latitude": 55.403043000000054, "longitude": -119.15395099999994}, "853782308RR0001": {"name": "LA GLACE COMMUNITY LIBRARY SOCIETY", "designationCode": "C", "categoryCode": "50", "address": "BOX 72", "city": "LA GLACE", "province": "AB", "country": "CA", "postalCode": "T0H2J0", "twitter": "None", "instagram": "None", "facebook": "None", "youtube": "None", "website": "None", "summary": "None", "logo": "None", "latitude": 55.236153725026426, "longitude": -118.77470783304575}, "135850600RR0001": {"name": "LA GRANDE TABLE", "designationCode": "C", "categoryCode": "09", "address": "1255, RUE DANIEL              SUITE 111", "city": "SHERBROOKE", "province": "QC", "country": "CA", "postalCode": "J1H5X3", "twitter": "None", "instagram": "None", "facebook": "None", "youtube": "None", "website": "None", "summary": "None", "logo": "None", "latitude": 45.38691347547438, "longitude": -71.90707461226845}, "894003631RR0001": {"name": "LA GRIFFE D'ALPHA", "designationCode": "C", "categoryCode": "21", "address": "420 RUE CARILLON", "city": "MONT-LAURIER", "province": "QC", "country": "CA", "postalCode": "J9L1P6", "twitter": "None", "instagram": "None", "facebook": "None", "youtube": "None", "website": "None", "summary": "None", "logo": "None", "latitude": 46.55081817401471, "longitude": -75.50021535553122}, "895958247RR0001": {"name": "LA HALTE FAMILIALE", "designationCode": "C", "categoryCode": "09", "address": "303 - 600 RUE ELLICE", "city": "BEAUHARNOIS", "province": "QC", "country": "CA", "postalCode": "J6N3P7", "twitter": "None", "instagram": "None", "facebook": "None", "youtube": "None", "website": "None", "summary": "None", "logo": "None", "latitude": 45.31367296641469, "longitude": -73.87731407576895}, "134215797RR0001": {"name": "LA JEUNESSE CHOIRS", "designationCode": "C", "categoryCode": "22", "address": "P.O. BOX 925", "city": "COBOURG", "province": "ON", "country": "CA", "postalCode": "K9A4W4", "twitter": "None", "instagram": "None", "facebook": "None", "youtube": "None", "website": "None", "summary": "None", "logo": "None", "latitude": 43.95960600000005, "longitude": -78.16778449999994}, "865559124RR0001": {"name": "LA JEUNESSE YOUTH ORCHESTRA INC", "designationCode": "C", "categoryCode": "22", "address": "BOX 134", "city": "PORT HOPE", "province": "ON", "country": "CA", "postalCode": "L1A3W3", "twitter": "None", "instagram": "None", "facebook": "None", "youtube": "None", "website": "None", "summary": "None", "logo": "None", "latitude": 43.95010200000006, "longitude": -78.29160199999993}, "119002319RR0001": {"name": "LA JOIE DES ENFANTS (MONTREAL) INC.", "designationCode": "C", "categoryCode": "56", "address": "8520 ST-URBAIN", "city": "MONTREAL", "province": "QC", "country": "CA", "postalCode": "H2P2P3", "twitter": "None", "instagram": "None", "facebook": "None", "youtube": "None", "website": "None", "summary": "None", "logo": "None", "latitude": 45.53954113737098, "longitude": -73.63894110159264}, "102940400RR0001": {"name": "LA JONCTION POUR ELLE INC.", "designationCode": "C", "categoryCode": "09", "address": "C.P.1257", "city": "LEVIS", "province": "QC", "country": "CA", "postalCode": "G6V6R8", "twitter": "None", "instagram": "None", "facebook": "None", "youtube": "None", "website": "None", "summary": "None", "logo": "None", "latitude": 46.80283200000005, "longitude": -71.17698049999993}, "139744064RR0001": {"name": "LA JOUJOUTHEQUE DE ROSEMONT", "designationCode": "C", "categoryCode": "50", "address": "5675 RUE LAFOND", "city": "MONTREAL", "province": "QC", "country": "CA", "postalCode": "H1X2X6", "twitter": "None", "instagram": "None", "facebook": "None", "youtube": "None", "website": "None", "summary": "None", "logo": "None", "latitude": 45.55417272442133, "longitude": -73.57675227211622}, "131634172RR0001": {"name": "LA JOUJOUTHEQUE FARFOUILLE", "designationCode": "C", "categoryCode": "09", "address": "845 RUE ST-LOUIS", "city": "JOLIETTE", "province": "QC", "country": "CA", "postalCode": "J6E3A3", "twitter": "None", "instagram": "None", "facebook": "None", "youtube": "None", "website": "None", "summary": "None", "logo": "None", "latitude": 46.021718977494544, "longitude": -73.44811358142444}, "119003812RR0002": {"name": "LA LECHE LEAGUE CANADA", "designationCode": "C", "categoryCode": "19", "address": "PO BOX 307", "city": "SILTON", "province": "SK", "country": "CA", "postalCode": "S0G4L0", "twitter": "None", "instagram": "None", "facebook": "None", "youtube": "None", "website": "None", "summary": "None", "logo": "None", "latitude": 50.98678823681553, "longitude": -104.86664427875967}, "118794791RR0001": {"name": "LA LIBELLULE, POUR LES PERSONNES VIVANT AVEC UNE D\u00c9FICIENCE INTELLECTUELLE ET LEURS PROCHES", "designationCode": "C", "categoryCode": "01", "address": "865 43E RUE", "city": "POINTE CALUMET", "province": "QC", "country": "CA", "postalCode": "J0N1G2", "twitter": "None", "instagram": "None", "facebook": "None", "youtube": "None", "website": "None", "summary": "None", "logo": "None", "latitude": 45.498382167349604, "longitude": -73.97182664458434}, "123613523RR0017": {"name": "LA LIGUE DES CADETS DE L'AIR DU CANADA - ESCADRON 879 SIR WILFRID-LAURIER", "designationCode": "C", "categoryCode": "29", "address": "CASIER POSTAL 3310", "city": "SAINT-LIN-LAURENTIDES", "province": "QC", "country": "CA", "postalCode": "J5M1A1", "twitter": "None", "instagram": "None", "facebook": "None", "youtube": "None", "website": "None", "summary": "None", "logo": "None", "latitude": 45.85241400000005, "longitude": -73.75695199999993}, "123613523RR0009": {"name": "LA LIGUE DES CADETS DE L'AIR DU CANADA QUEBEC / THE AIR CADET LEAGUE OF CANADA QUEBEC", "designationCode": "C", "categoryCode": "29", "address": "205, RUE S\u00c9MINAIRE SUD", "city": "ST-JEAN SUR RICHELIEU", "province": "QC", "country": "CA", "postalCode": "J3B8E9", "twitter": "None", "instagram": "None", "facebook": "None", "youtube": "None", "website": "None", "summary": "None", "logo": "None", "latitude": 45.28737040882337, "longitude": -73.270069732991}, "123613523RR0035": {"name": "LA LIGUE DES CADETS DE L'AIR DU CANADA, Escadron 282 Rivi\u00e8re-du-Loup", "designationCode": "C", "categoryCode": "29", "address": "C.P.577", "city": "RIVIERE-DU-LOUP", "province": "QC", "country": "CA", "postalCode": "G5R3Z1", "twitter": "None", "instagram": "None", "facebook": "None", "youtube": "None", "website": "None", "summary": "None", "logo": "None", "latitude": 47.835060000000055, "longitude": -69.53702299999993}, "107592867RR0001": {"name": "LA LIGUE DES CADETS DE L'ARMEE DU CANADA (QUEBEC)", "designationCode": "C", "categoryCode": "29", "address": "C.P. 1000                     SUCC. FORCES", "city": "COURCELETTE", "province": "QC", "country": "CA", "postalCode": "G0A4Z0", "twitter": "None", "instagram": "None", "facebook": "None", "youtube": "None", "website": "None", "summary": "None", "logo": "None", "latitude": 46.88734200000006, "longitude": -71.50947199999993}, "119003861RR0001": {"name": "LA LIGUE POUR LA PROTECTION DE L'ENFANCE DE L'ESTRIE INC.", "designationCode": "C", "categoryCode": "09", "address": "401 7E AVENUE NORD", "city": "SHERBROOKE", "province": "QC", "country": "CA", "postalCode": "J1E2S1", "twitter": "None", "instagram": "None", "facebook": "None", "youtube": "None", "website": "None", "summary": "None", "logo": "None", "latitude": 45.41369344463038, "longitude": -71.87589314074651}, "890607898RR0001": {"name": "LA LUEUR DE L'ESPOIR DU BAS SAINT-LAURENT INC.", "designationCode": "C", "categoryCode": "09", "address": "188 RUE LAVOIE                1ER \u00c9TAGE", "city": "RIMOUSKI", "province": "QC", "country": "CA", "postalCode": "G5L5Z1", "twitter": "None", "instagram": "None", "facebook": "None", "youtube": "None", "website": "None", "summary": "None", "logo": "None"}, "134715887RR0001": {"name": "LA LUEUR DU PHARE DE LANAUDIERE", "designationCode": "C", "categoryCode": "09", "address": "676, BOUL. MANSEAU", "city": "JOLIETTE", "province": "QC", "country": "CA", "postalCode": "J6E3E6", "twitter": "None", "instagram": "None", "facebook": "None", "youtube": "None", "website": "None", "summary": "None", "logo": "None", "latitude": 46.02277381822368, "longitude": -73.44317850141364}, "119003903RR0001": {"name": "LA LUZ DE CRISTO PENTECOSTAL CHURCH", "designationCode": "C", "categoryCode": "39", "address": "325 WESTON ROAD               UNIT 2-B", "city": "TORONTO", "province": "ON", "country": "CA", "postalCode": "M6N4Z9", "twitter": "None", "instagram": "None", "facebook": "None", "youtube": "None", "website": "None", "summary": "None", "logo": "None", "latitude": 43.678558987823635, "longitude": -79.47356202922882}, "139562599RR0001": {"name": "LA M\u00c9RIDIENNE 1990", "designationCode": "C", "categoryCode": "01", "address": "C.P. 878", "city": "WEEDON", "province": "QC", "country": "CA", "postalCode": "J0B3J0", "twitter": "None", "instagram": "None", "facebook": "None", "youtube": "None", "website": "None", "summary": "None", "logo": "None", "latitude": 45.75645600000006, "longitude": -71.60228449999994}, "107654147RR0001": {"name": "LA MAGIE DES MOTS", "designationCode": "C", "categoryCode": "21", "address": "13 A RUE PRINCIPALE", "city": "COTEAU-DU-LAC", "province": "QC", "country": "CA", "postalCode": "J0P1B0", "twitter": "None", "instagram": "None", "facebook": "None", "youtube": "None", "website": "None", "summary": "None", "logo": "None", "latitude": 45.29388133804609, "longitude": -74.17654465488478}, "107593014RR0001": {"name": "LA MAISON \"DE CONNIVENCE\" INC.", "designationCode": "C", "categoryCode": "59", "address": "CASE POSTALE 424", "city": "TROIS RIVIERES", "province": "QC", "country": "CA", "postalCode": "G9A5G4", "twitter": "None", "instagram": "None", "facebook": "None", "youtube": "None", "website": "None", "summary": "None", "logo": "None", "latitude": 46.34016900000006, "longitude": -72.54503449999993}, "119004364RR0001": {"name": "LA MAISON \"UNIES-VERS-FEMMES\"", "designationCode": "C", "categoryCode": "09", "address": "C.P. 82058", "city": "GATINEAU", "province": "QC", "country": "CA", "postalCode": "J8T8B6", "twitter": "None", "instagram": "None", "facebook": "None", "youtube": "None", "website": "None", "summary": "None", "logo": "None", "latitude": 45.47588100000006, "longitude": -75.70120849999994}, "132932146RR0001": {"name": "LA MAISON A DAMAS INC", "designationCode": "C", "categoryCode": "01", "address": "1202 CHEMIN DE LA VERNIERE", "city": "L'ETANG DU NORD", "province": "QC", "country": "CA", "postalCode": "G4T3E6", "twitter": "None", "instagram": "None", "facebook": "None", "youtube": "None", "website": "None", "summary": "None", "logo": "None", "latitude": 47.37270086320594, "longitude": -61.897649980321816}, "118839828RR0001": {"name": "LA MAISON A PETITS PAS", "designationCode": "C", "categoryCode": "21", "address": "3511 RUE DE ROUEN", "city": "MONTREAL", "province": "QC", "country": "CA", "postalCode": "H1W1L8", "twitter": "None", "instagram": "None", "facebook": "None", "youtube": "None", "website": "None", "summary": "None", "logo": "None", "latitude": 45.54518586456227, "longitude": -73.5489133729008}, "893257089RR0001": {"name": "LA MAISON ALONZO WRIGHT", "designationCode": "C", "categoryCode": "09", "address": "2425A RUE SAINT-LOUIS", "city": "GATINEAU", "province": "QC", "country": "CA", "postalCode": "J8V1E7", "twitter": "None", "instagram": "None", "facebook": "None", "youtube": "None", "website": "None", "summary": "None", "logo": "None", "latitude": 45.490983404768095, "longitude": -75.75040836287303}, "140724287RR0001": {"name": "LA MAISON ANNICK INC.", "designationCode": "C", "categoryCode": "49", "address": "6623, MARIE-VICTORIN", "city": "STE-CROIX", "province": "QC", "country": "CA", "postalCode": "G0S2H0", "twitter": "None", "instagram": "None", "facebook": "None", "youtube": "None", "website": "None", "summary": "None", "logo": "None", "latitude": 46.62525864167016, "longitude": -71.75980528587912}, "813030657RR0001": {"name": "LA MAISON AU DIAPASON", "designationCode": "C", "categoryCode": "11", "address": "50 RUE DU DIAPASON", "city": "BROMONT", "province": "QC", "country": "CA", "postalCode": "J2L0G1", "twitter": "None", "instagram": "None", "facebook": "None", "youtube": "None", "website": "None", "summary": "None", "logo": "None", "latitude": 45.30292628620022, "longitude": -72.70088400789119}, "138350749RR0001": {"name": "LA MAISON AUBE-LUMIERE", "designationCode": "C", "categoryCode": "09", "address": "3071, 12E AVENUE NORD", "city": "SHERBROOKE", "province": "QC", "country": "CA", "postalCode": "J1H5H3", "twitter": "None", "instagram": "None", "facebook": "None", "youtube": "None", "website": "None", "summary": "None", "logo": "None", "latitude": 45.44774496808925, "longitude": -71.86297939706245}, "141488296RR0001": {"name": "LA MAISON BELLARMIN", "designationCode": "C", "categoryCode": "46", "address": "25 RUE JARRY OUEST", "city": "MONTREAL", "province": "QC", "country": "CA", "postalCode": "H2P1S6", "twitter": "None", "instagram": "None", "facebook": "None", "youtube": "None", "website": "None", "summary": "None", "logo": "None", "latitude": 45.53849931447277, "longitude": -73.63160199685467}, "856494323RR0001": {"name": "LA MAISON BLEUE: MILIEU DE VIE PREVENTIF A L'ENFANCE", "designationCode": "C", "categoryCode": "09", "address": "3735 PLAMONDON", "city": "MONTREAL", "province": "QC", "country": "CA", "postalCode": "H3S1L8", "twitter": "None", "instagram": "None", "facebook": "None", "youtube": "None", "website": "None", "summary": "None", "logo": "None", "latitude": 45.50007656728618, "longitude": -73.63652683772897}, "892452368RR0001": {"name": "LA MAISON CAMELEON DE L'ESTRIE INC.", "designationCode": "C", "categoryCode": "09", "address": "4761 RUE DE GASPE", "city": "ROCK FOREST", "province": "QC", "country": "CA", "postalCode": "J1N2C7", "twitter": "None", "instagram": "None", "facebook": "None", "youtube": "None", "website": "None", "summary": "None", "logo": "None", "latitude": 45.37105147489748, "longitude": -71.98111907937562}, "103463592RR0001": {"name": "LA MAISON D'AIDE ET D'H\u00c9BERGEMENT BLANCHE MORIN", "designationCode": "C", "categoryCode": "59", "address": "CASE POSTALE 1002", "city": "PABOS", "province": "QC", "country": "CA", "postalCode": "G0C2H0", "twitter": "None", "instagram": "None", "facebook": "None", "youtube": "None", "website": "None", "summary": "None", "logo": "None", "latitude": 48.35885362401349, "longitude": -64.62230900526134}, "894531284RR0001": {"name": "LA MAISON D'AIDE ET D'HEBERGEMENT L'ACCALMIE INC.", "designationCode": "C", "categoryCode": "01", "address": "C.P. 8187                     CAP-AUX-MEULES", "city": "ILES-DE-LA-MADELEINE", "province": "QC", "country": "CA", "postalCode": "G4T1M3", "twitter": "None", "instagram": "None", "facebook": "None", "youtube": "None", "website": "None", "summary": "None", "logo": "None", "latitude": 47.37603001832189, "longitude": -61.869269971580124}, "858137805RR0001": {"name": "LA MAISON D'ANGELE", "designationCode": "C", "categoryCode": "09", "address": "2 RUE LECLERC", "city": "AMQUI", "province": "QC", "country": "CA", "postalCode": "G5J1L7", "twitter": "None", "instagram": "None", "facebook": "None", "youtube": "None", "website": "None", "summary": "None", "logo": "None", "latitude": 48.466047815136605, "longitude": -67.42533650072114}, "102949898RR0001": {"name": "LA MAISON D'ARIANE", "designationCode": "C", "categoryCode": "09", "address": "CASE POSTALE 35", "city": "SAINT-JEROME", "province": "QC", "country": "CA", "postalCode": "J7Z5T7", "twitter": "None", "instagram": "None", "facebook": "None", "youtube": "None", "website": "None", "summary": "None", "logo": "None", "latitude": 45.77506800000006, "longitude": -74.00320999999994}, "131272783RR0001": {"name": "LA MAISON D'AURORE", "designationCode": "C", "categoryCode": "49", "address": "4816 RUE GARNIER", "city": "MONTREAL", "province": "QC", "country": "CA", "postalCode": "H2J4B4", "twitter": "None", "instagram": "None", "facebook": "None", "youtube": "None", "website": "None", "summary": "None", "logo": "None", "latitude": 45.53255170967747, "longitude": -73.58025192881867}, "138352026RR0001": {"name": "LA MAISON D'ENTRAIDE ST-PAUL ET \u00c9MARD", "designationCode": "C", "categoryCode": "09", "address": "5999-RUE DRAKE", "city": "MONTREAL", "province": "QC", "country": "CA", "postalCode": "H4E4G8", "twitter": "None", "instagram": "None", "facebook": "None", "youtube": "None", "website": "None", "summary": "None", "logo": "None", "latitude": 45.457795068555576, "longitude": -73.58220245478658}, "130959877RR0001": {"name": "LA MAISON D'HEBERGEMENT LA BOUFFEE D'AIR DU KRTB", "designationCode": "C", "categoryCode": "09", "address": "9 DU DOMAINE", "city": "RIVIERE-DU-LOUP", "province": "QC", "country": "CA", "postalCode": "G5R2P6", "twitter": "None", "instagram": "None", "facebook": "None", "youtube": "None", "website": "None", "summary": "None", "logo": "None", "latitude": 47.84079813656292, "longitude": -69.53780032748584}, "138852322RR0001": {"name": "LA MAISON D'HEBERGEMENT LE SEJOUR INC.", "designationCode": "C", "categoryCode": "57", "address": "2229 RUE DE L'HOPITAL", "city": "JONQUIERE", "province": "QC", "country": "CA", "postalCode": "G7X4H7", "twitter": "None", "instagram": "None", "facebook": "None", "youtube": "None", "website": "None", "summary": "None", "logo": "None", "latitude": 48.412799989728235, "longitude": -71.23374350150054}, "876453911RR0001": {"name": "LA MAISON D'HEBERGEMENT POUR ELLES DES DEUX VALLEES", "designationCode": "C", "categoryCode": "09", "address": "CP 2993 SUCC BUCKINGHAM", "city": "GATINEAU", "province": "QC", "country": "CA", "postalCode": "J8L2X5", "twitter": "None", "instagram": "None", "facebook": "None", "youtube": "None", "website": "None", "summary": "None", "logo": "None", "latitude": 45.57624536432407, "longitude": -75.41287191744779}, "132846189RR0001": {"name": "LA MAISON D'UN NOUVEL ELAN INC", "designationCode": "C", "categoryCode": "01", "address": "1969 PRICE", "city": "JONQUIERE", "province": "QC", "country": "CA", "postalCode": "G7X5S2", "twitter": "None", "instagram": "None", "facebook": "None", "youtube": "None", "website": "None", "summary": "None", "logo": "None", "latitude": 48.42552695392122, "longitude": -71.2422593147039}, "139457865RR0001": {"name": "LA MAISON DALAUZE, CENTRE D'H\u00c9BERGEMENT POUR FEMMES VIOLENT\u00c9ES AVEC OU SANS ENFANTS", "designationCode": "C", "categoryCode": "01", "address": "C.P. 162", "city": "MONTREAL-EST", "province": "QC", "country": "CA", "postalCode": "H1B5K3", "twitter": "None", "instagram": "None", "facebook": "None", "youtube": "None", "website": "None", "summary": "None", "logo": "None", "latitude": 45.62914050167275, "longitude": -73.50536317298075}, "119003994RR0001": {"name": "LA MAISON DE DIEU", "designationCode": "C", "categoryCode": "39", "address": "3671 RTE 337", "city": "STE JULIENNE", "province": "QC", "country": "CA", "postalCode": "J0K2T0", "twitter": "None", "instagram": "None", "facebook": "None", "youtube": "None", "website": "None", "summary": "None", "logo": "None", "latitude": 46.00545221018432, "longitude": -73.71604454555325}, "129040986RR0001": {"name": "LA MAISON DE JEUNES :LE DOME:", "designationCode": "C", "categoryCode": "56", "address": "C.P. 272", "city": "ST-JEAN-SUR-RICHELIEU", "province": "QC", "country": "CA", "postalCode": "J3B6Z4", "twitter": "None", "instagram": "None", "facebook": "None", "youtube": "None", "website": "None", "summary": "None", "logo": "None", "latitude": 45.30610500000006, "longitude": -73.25031049999993}, "895771673RR0001": {"name": "LA MAISON DE JEUNES \"AU BOUT DU MONDE\" DE ST-PAULIN", "designationCode": "C", "categoryCode": "09", "address": "1811 DAMPHOUSSE", "city": "SAINT-PAULIN", "province": "QC", "country": "CA", "postalCode": "J0K3G0", "twitter": "None", "instagram": "None", "facebook": "None", "youtube": "None", "website": "None", "summary": "None", "logo": "None", "latitude": 46.42271859781306, "longitude": -73.01560619914589}, "879784627RR0001": {"name": "LA MAISON DE JEUNES A DIEPPE INC", "designationCode": "C", "categoryCode": "09", "address": "505 RUE CHAMPLAIN", "city": "DIEPPE", "province": "NB", "country": "CA", "postalCode": "E1A1P2", "twitter": "None", "instagram": "None", "facebook": "None", "youtube": "None", "website": "None", "summary": "None", "logo": "None", "latitude": 46.09804021738085, "longitude": -64.73578754374151}, "124714015RR0001": {"name": "LA MAISON DE JEUNES LE CHEMIN FAISANT INC", "designationCode": "C", "categoryCode": "09", "address": "6937, AV. BALDWIN", "city": "ANJOU", "province": "QC", "country": "CA", "postalCode": "H1K3C6", "twitter": "None", "instagram": "None", "facebook": "None", "youtube": "None", "website": "None", "summary": "None", "logo": "None", "latitude": 45.610289297535886, "longitude": -73.54845900568415}, "107593030RR0001": {"name": "LA MAISON DE JONATHAN INC.", "designationCode": "C", "categoryCode": "09", "address": "81 RUE ST-JEAN", "city": "LONGUEUIL", "province": "QC", "country": "CA", "postalCode": "J4H2W8", "twitter": "None", "instagram": "None", "facebook": "None", "youtube": "None", "website": "None", "summary": "None", "logo": "None", "latitude": 45.537315600063415, "longitude": -73.51226357271052}, "871096707RR0001": {"name": "LA MAISON DE KAMU", "designationCode": "C", "categoryCode": "09", "address": "310 RUE DE BRIANCON", "city": "TERREBONNE", "province": "QC", "country": "CA", "postalCode": "J6Y1R4", "twitter": "None", "instagram": "None", "facebook": "None", "youtube": "None", "website": "None", "summary": "None", "logo": "None", "latitude": 45.684447359426365, "longitude": -73.74718811627915}, "873742894RR0001": {"name": "LA MAISON DE L'ABONDANCE", "designationCode": "C", "categoryCode": "09", "address": "200 RUE NOTRE DAME", "city": "SAINT-ALEXIS-DES-MONTS", "province": "QC", "country": "CA", "postalCode": "J0K1V0", "twitter": "None", "instagram": "None", "facebook": "None", "youtube": "None", "website": "None", "summary": "None", "logo": "None", "latitude": 46.45935072245943, "longitude": -73.14478154734819}, "897973764RR0001": {"name": "LA MAISON DE L'ENTRAIDE DE STE-JULIE INC.", "designationCode": "C", "categoryCode": "09", "address": "1718 RUE PRINCIPALE", "city": "SAINTE-JULIE", "province": "QC", "country": "CA", "postalCode": "J3E1W7", "twitter": "None", "instagram": "None", "facebook": "None", "youtube": "None", "website": "None", "summary": "None", "logo": "None", "latitude": 45.59288314181438, "longitude": -73.34020320286814}, "137438685RR0001": {"name": "LA MAISON DE L'ESPOIR DE MONT-JOLI INC.", "designationCode": "C", "categoryCode": "09", "address": "1515 BOUL. JACQUES-CARTIER", "city": "MONT-JOLI", "province": "QC", "country": "CA", "postalCode": "G5H2V5", "twitter": "None", "instagram": "None", "facebook": "None", "youtube": "None", "website": "None", "summary": "None", "logo": "None", "latitude": 48.5875437474464, "longitude": -68.19033894044678}, "131205767RR0001": {"name": "LA MAISON DE LA CULTURE DE SHIPPAGAN INC", "designationCode": "C", "categoryCode": "22", "address": "218 BOUL J D GAUTHIER", "city": "SHIPPAGAN", "province": "NB", "country": "CA", "postalCode": "E8S1P6", "twitter": "None", "instagram": "None", "facebook": "None", "youtube": "None", "website": "None", "summary": "None", "logo": "None", "latitude": 47.744817000000054, "longitude": -64.71168199999994}, "885605139RR0001": {"name": "LA MAISON DE LA FAMILE DE LONGUE-RIVE", "designationCode": "C", "categoryCode": "01", "address": "350 RTE 138                   C.P. 611", "city": "LONGUE RIVE", "province": "QC", "country": "CA", "postalCode": "G0T1Z0", "twitter": "None", "instagram": "None", "facebook": "None", "youtube": "None", "website": "None", "summary": "None", "logo": "None"}, "894286673RR0001": {"name": "LA MAISON DE LA FAMILLE - MRC BONAVENTURE INC.", "designationCode": "C", "categoryCode": "09", "address": "105 GRAND PRE                 BUREAU 104", "city": "BONAVENTURE", "province": "QC", "country": "CA", "postalCode": "G0C1E0", "twitter": "None", "instagram": "None", "facebook": "None", "youtube": "None", "website": "None", "summary": "None", "logo": "None"}, "139867550RR0001": {"name": "LA MAISON DE LA FAMILLE \"R\u00caVE ET ESPOIR\"", "designationCode": "C", "categoryCode": "09", "address": "2 - 122 RUE WILSON", "city": "SHERBROOKE", "province": "QC", "country": "CA", "postalCode": "J1L1H4", "twitter": "None", "instagram": "None", "facebook": "None", "youtube": "None", "website": "None", "summary": "None", "logo": "None", "latitude": 45.40119316763807, "longitude": -71.93753486704377}, "120524038RR0001": {"name": "LA MAISON DE LA FAMILLE D'AMOS INC.", "designationCode": "C", "categoryCode": "09", "address": "CP 564 SUCC BUREAU-CHEF", "city": "AMOS", "province": "QC", "country": "CA", "postalCode": "J9T3A8", "twitter": "None", "instagram": "None", "facebook": "None", "youtube": "None", "website": "None", "summary": "None", "logo": "None"}, "869338020RR0001": {"name": "LA MAISON DE LA FAMILLE DE BROSSARD", "designationCode": "C", "categoryCode": "09", "address": "2210 RUE ANDRE", "city": "BROSSARD", "province": "QC", "country": "CA", "postalCode": "J4Z2Z8", "twitter": "None", "instagram": "None", "facebook": "None", "youtube": "None", "website": "None", "summary": "None", "logo": "None", "latitude": 45.47870145155528, "longitude": -73.46240927021165}, "130584857RR0001": {"name": "LA MAISON DE LA FAMILLE DE LOTBINI\u00c8RE", "designationCode": "C", "categoryCode": "01", "address": "81 RUE ROUSSEAU", "city": "ST-APOLLINAIRE", "province": "QC", "country": "CA", "postalCode": "G0S2E0", "twitter": "None", "instagram": "None", "facebook": "None", "youtube": "None", "website": "None", "summary": "None", "logo": "None", "latitude": 46.61298230420099, "longitude": -71.50348480056564}, "884882358RR0001": {"name": "LA MAISON DE LA FAMILLE DE MALARTIC", "designationCode": "C", "categoryCode": "09", "address": "161 AVENUE ABITIBI", "city": "MALARTIC", "province": "QC", "country": "CA", "postalCode": "J0Y1Z0", "twitter": "None", "instagram": "None", "facebook": "None", "youtube": "None", "website": "None", "summary": "None", "logo": "None", "latitude": 48.135511623925225, "longitude": -78.12713196976158}, "107655417RR0001": {"name": "LA MAISON DE LA FAMILLE DE QU\u00c9BEC", "designationCode": "C", "categoryCode": "09", "address": "573, 1 ER AVENUE", "city": "QUEBEC", "province": "QC", "country": "CA", "postalCode": "G1L3J6", "twitter": "None", "instagram": "None", "facebook": "None", "youtube": "None", "website": "None", "summary": "None", "logo": "None", "latitude": 46.82237091147437, "longitude": -71.22996053654735}, "136666393RR0001": {"name": "LA MAISON DE LA FAMILLE DE ROUYN-NORANDA", "designationCode": "C", "categoryCode": "09", "address": "380 AVE RICHARD LOCAL 110", "city": "ROUYN-NORANDA", "province": "QC", "country": "CA", "postalCode": "J9X4L3", "twitter": "None", "instagram": "None", "facebook": "None", "youtube": "None", "website": "None", "summary": "None", "logo": "None", "latitude": 48.232449115182646, "longitude": -79.01576169294215}, "141355867RR0001": {"name": "LA MAISON DE LA FAMILLE DE TROIS-RIVI\u00c8RES INC.", "designationCode": "C", "categoryCode": "09", "address": "946, RUE ST-PAUL              2E ETAGE", "city": "TROIS-RIVIERES", "province": "QC", "country": "CA", "postalCode": "G9A1J3", "twitter": "None", "instagram": "None", "facebook": "None", "youtube": "None", "website": "None", "summary": "None", "logo": "None", "latitude": 46.351593867360876, "longitude": -72.54204223919476}, "135477685RR0001": {"name": "LA MAISON DE LA FAMILLE DE VAL D'OR INC.", "designationCode": "C", "categoryCode": "09", "address": "C.P. 117", "city": "VAL-D'OR", "province": "QC", "country": "CA", "postalCode": "J9P4N9", "twitter": "None", "instagram": "None", "facebook": "None", "youtube": "None", "website": "None", "summary": "None", "logo": "None", "latitude": 48.10161300000006, "longitude": -77.78872249999993}, "897753372RR0001": {"name": "LA MAISON DE LA FAMILLE DES PAYS-D'EN-HAUT", "designationCode": "C", "categoryCode": "09", "address": "480 CHEMIN DES CAPUCINES", "city": "ST-AD\u00c8LE", "province": "QC", "country": "CA", "postalCode": "J8B1W5", "twitter": "None", "instagram": "None", "facebook": "None", "youtube": "None", "website": "None", "summary": "None", "logo": "None", "latitude": 45.956331343903145, "longitude": -74.13636583694957}, "890335268RR0001": {"name": "LA MAISON DE LA FAMILLE DU GRANIT", "designationCode": "C", "categoryCode": "59", "address": "3872 RUE LAVAL", "city": "LAC-M\u00c9GANTIC", "province": "QC", "country": "CA", "postalCode": "G6B1A4", "twitter": "None", "instagram": "None", "facebook": "None", "youtube": "None", "website": "None", "summary": "None", "logo": "None", "latitude": 45.586690521524524, "longitude": -70.90050779834394}, "141109850RR0001": {"name": "LA MAISON DE LA FAMILLE DU NORD", "designationCode": "C", "categoryCode": "09", "address": "155 RUE LEONARD", "city": "MONT-TREMBLANT", "province": "QC", "country": "CA", "postalCode": "J8E3K1", "twitter": "None", "instagram": "None", "facebook": "None", "youtube": "None", "website": "None", "summary": "None", "logo": "None", "latitude": 46.11969955536961, "longitude": -74.59580377947383}, "891276651RR0001": {"name": "LA MAISON DE LA FAMILLE DVS", "designationCode": "C", "categoryCode": "09", "address": "545 AV 1E", "city": "QUEBEC", "province": "QC", "country": "CA", "postalCode": "G1L3J6", "twitter": "None", "instagram": "None", "facebook": "None", "youtube": "None", "website": "None", "summary": "None", "logo": "None", "latitude": 46.8224732741937, "longitude": -71.23002517710178}, "888165289RR0001": {"name": "LA MAISON DE LA FAMILLE JOLI-COEUR INC", "designationCode": "C", "categoryCode": "09", "address": "4865 RUE LEGENDRE", "city": "CONTRECOEUR", "province": "QC", "country": "CA", "postalCode": "J0L1C0", "twitter": "None", "instagram": "None", "facebook": "None", "youtube": "None", "website": "None", "summary": "None", "logo": "None", "latitude": 45.85527845654694, "longitude": -73.23820430345117}, "140766940RR0001": {"name": "LA MAISON DE LA FAMILLE LA PARENTH\u00c8SE", "designationCode": "C", "categoryCode": "09", "address": "222 NOTRE-DAME-DESCHAMPS", "city": "REPENTIGNY", "province": "QC", "country": "CA", "postalCode": "J6A3B5", "twitter": "None", "instagram": "None", "facebook": "None", "youtube": "None", "website": "None", "summary": "None", "logo": "None", "latitude": 45.72134125255361, "longitude": -73.46327027142374}, "891459349RR0001": {"name": "LA MAISON DE LA FAMILLE VALL\u00c9E DE LA LI\u00c8VRE", "designationCode": "C", "categoryCode": "09", "address": "321 AV. BUCKINGHAM", "city": "GATINEAU", "province": "QC", "country": "CA", "postalCode": "J8L2G4", "twitter": "None", "instagram": "None", "facebook": "None", "youtube": "None", "website": "None", "summary": "None", "logo": "None", "latitude": 45.591961327226045, "longitude": -75.41759907273918}, "119004042RR0001": {"name": "LA MAISON DE LA MISERICORDE INC.", "designationCode": "C", "categoryCode": "49", "address": "10A RUE OLYMPIC", "city": "SAINT-ANDRE", "province": "NB", "country": "CA", "postalCode": "E3Y3G6", "twitter": "None", "instagram": "None", "facebook": "None", "youtube": "None", "website": "None", "summary": "None", "logo": "None", "latitude": 47.07084145700894, "longitude": -67.75575362707087}, "107593071RR0001": {"name": "LA MAISON DE LA MUSIQUE DE SAINTE-FOY", "designationCode": "C", "categoryCode": "22", "address": "3200 AVENUE D'AMOURS", "city": "QUEBEC", "province": "QC", "country": "CA", "postalCode": "G1X1L9", "twitter": "None", "instagram": "None", "facebook": "None", "youtube": "None", "website": "None", "summary": "None", "logo": "None", "latitude": 46.774718989179966, "longitude": -71.31919735152051}, "119004083RR0001": {"name": "LA MAISON DE QUARTIER DE FABREVILLE INC.", "designationCode": "C", "categoryCode": "56", "address": "3031 BOUL DAGENAIS", "city": "LAVAL", "province": "QC", "country": "CA", "postalCode": "H7P1T4", "twitter": "None", "instagram": "None", "facebook": "None", "youtube": "None", "website": "None", "summary": "None", "logo": "None", "latitude": 45.57929629283269, "longitude": -73.7900952006751}, "848768925RR0001": {"name": "LA MAISON DE QUARTIER ST-PHILIPPE", "designationCode": "C", "categoryCode": "09", "address": "1060 RUE SAINT-FRANCOIS-XAVIERUNITE 130", "city": "TROIS-RIVIERES", "province": "QC", "country": "CA", "postalCode": "G9A1R8", "twitter": "None", "instagram": "None", "facebook": "None", "youtube": "None", "website": "None", "summary": "None", "logo": "None", "latitude": 46.35088687067911, "longitude": -72.54580268148787}, "141700286RR0001": {"name": "LA MAISON DE QUARTIER VILLERAY", "designationCode": "C", "categoryCode": "09", "address": "660, RUE VILLERAY", "city": "MONTREAL", "province": "QC", "country": "CA", "postalCode": "H2R1J1", "twitter": "None", "instagram": "None", "facebook": "None", "youtube": "None", "website": "None", "summary": "None", "logo": "None", "latitude": 45.54332852316931, "longitude": -73.62167189589721}, "897419610RR0001": {"name": "LA MAISON DE SOINS PALLIATIFS DE ROUYN-NORANDA", "designationCode": "C", "categoryCode": "11", "address": "1405 RUE PERREAULT E", "city": "ROUYN-NORANDA", "province": "QC", "country": "CA", "postalCode": "J9X5H5", "twitter": "None", "instagram": "None", "facebook": "None", "youtube": "None", "website": "None", "summary": "None", "logo": "None", "latitude": 48.23805742108573, "longitude": -78.9872742968434}}