{"715552097RR0001": {"name": "LAUGHTON CHARITABLE TRUST", "designationCode": "B", "categoryCode": "05", "address": "3817 BEACHVIEW PL", "city": "VICTORIA", "province": "BC", "country": "CA", "postalCode": "V8P5N8", "twitter": "None", "instagram": "None", "facebook": "None", "youtube": "None", "website": "None", "summary": "None", "logo": "None", "latitude": 48.45969403577835, "longitude": -123.29662322548917}, "865198717RR0001": {"name": "LAUNCHING PAD ADDICTION REHABILITATION SOCIETY", "designationCode": "C", "categoryCode": "57", "address": "984-160TH STREET", "city": "SURREY", "province": "BC", "country": "CA", "postalCode": "V4A4W5", "twitter": "None", "instagram": "None", "facebook": "None", "youtube": "None", "website": "None", "summary": "None", "logo": "None", "latitude": 49.01996700000001, "longitude": -122.77919812265579}, "119009561RR0001": {"name": "LAURA FOSTER MINISTRIES SOCIETY", "designationCode": "C", "categoryCode": "39", "address": "#69-21065-56TH AVE", "city": "LANGLEY", "province": "BC", "country": "CA", "postalCode": "V3A8A6", "twitter": "None", "instagram": "None", "facebook": "None", "youtube": "None", "website": "None", "summary": "None", "logo": "None", "latitude": 49.10461352928614, "longitude": -122.64044302553523}, "119009587RR0001": {"name": "LAURA KEER MEMORIAL CHURCH", "designationCode": "C", "categoryCode": "39", "address": "730 302 ST", "city": "MARYSVILLE", "province": "BC", "country": "CA", "postalCode": "V1A3K3", "twitter": "None", "instagram": "None", "facebook": "None", "youtube": "None", "website": "None", "summary": "None", "logo": "None", "latitude": 49.63908160419313, "longitude": -115.95472419770594}, "102993763RR0001": {"name": "LAURA SECORD COMMUNITY CHILD CARE INC.", "designationCode": "C", "categoryCode": "01", "address": "980 PALMERSTON AVENUE", "city": "WINNIPEG", "province": "MB", "country": "CA", "postalCode": "R3G1J9", "twitter": "None", "instagram": "None", "facebook": "None", "youtube": "None", "website": "None", "summary": "None", "logo": "None", "latitude": 49.87729655727419, "longitude": -97.17315284831787}, "119009611RR0001": {"name": "LAUREL HILL CEMETERY COMPANY", "designationCode": "C", "categoryCode": "59", "address": "203 QUEEN STREET SOUTH", "city": "BOLTON", "province": "ON", "country": "CA", "postalCode": "L7E2C6", "twitter": "None", "instagram": "None", "facebook": "None", "youtube": "None", "website": "None", "summary": "None", "logo": "None", "latitude": 43.87561161062366, "longitude": -79.73265601301307}, "107602203RR0001": {"name": "LAUREL LEA - ST. MATTHEWS PRESBYTERIAN CHURCH", "designationCode": "C", "categoryCode": "37", "address": "837 EXMOUTH STREET", "city": "SARNIA", "province": "ON", "country": "CA", "postalCode": "N7T5R1", "twitter": "None", "instagram": "None", "facebook": "None", "youtube": "None", "website": "None", "summary": "None", "logo": "None", "latitude": 42.98502233269337, "longitude": -82.37980731986863}, "130100530RR0001": {"name": "LAURENCREST YOUTH SERVICES INC.", "designationCode": "C", "categoryCode": "01", "address": "510 MERCIER AVENUE", "city": "CORNWALL", "province": "ON", "country": "CA", "postalCode": "K6K1K2", "twitter": "None", "instagram": "None", "facebook": "None", "youtube": "None", "website": "None", "summary": "None", "logo": "None", "latitude": 45.056136628599766, "longitude": -74.76795094584247}, "893421560RR0001": {"name": "LAURENCREST YOUTH SERVICES OF S.D.&G INC.", "designationCode": "A", "categoryCode": "03", "address": "510 MERCIER AVENUE", "city": "CORNWALL", "province": "ON", "country": "CA", "postalCode": "K6K1K2", "twitter": "None", "instagram": "None", "facebook": "None", "youtube": "None", "website": "None", "summary": "None", "logo": "None"}, "119009645RR0001": {"name": "LAURENTIAN CAMP CHERITH", "designationCode": "C", "categoryCode": "56", "address": "286 RIVER FARM LANE", "city": "LANARK", "province": "ON", "country": "CA", "postalCode": "K0G1K0", "twitter": "None", "instagram": "None", "facebook": "None", "youtube": "None", "website": "None", "summary": "None", "logo": "None", "latitude": 45.142449816863746, "longitude": -76.55920222571262}, "102995107RR0001": {"name": "LAURENTIAN CHILD AND FAMILY CENTRE", "designationCode": "C", "categoryCode": "01", "address": "LAURENTIAN UNIVERSITY", "city": "SUDBURY", "province": "ON", "country": "CA", "postalCode": "P3E2C6", "twitter": "None", "instagram": "None", "facebook": "None", "youtube": "None", "website": "None", "summary": "None", "logo": "None", "latitude": 46.470890000000054, "longitude": -80.97224999999997}, "119009678RR0001": {"name": "LAURENTIAN JUNIOR MUSIC CLUB", "designationCode": "C", "categoryCode": "22", "address": "4 RICHLIN CRES", "city": "OTTAWA", "province": "ON", "country": "CA", "postalCode": "K2B8K4", "twitter": "None", "instagram": "None", "facebook": "None", "youtube": "None", "website": "None", "summary": "None", "logo": "None", "latitude": 45.368724426308525, "longitude": -75.78951998211083}, "883873101RR0001": {"name": "LAURENTIAN REGION CANCER SUPPORT GROUP INC./GROUPE DE SOUTIEN DU CANCER DE LA REGION DES LAURENTIDES INC.", "designationCode": "C", "categoryCode": "11", "address": "PO BOX 2645, 755 MILLARD", "city": "MORIN HEIGHTS", "province": "QC", "country": "CA", "postalCode": "J0R1H0", "twitter": "None", "instagram": "None", "facebook": "None", "youtube": "None", "website": "None", "summary": "None", "logo": "None", "latitude": 45.90396876908646, "longitude": -74.25055372468113}, "119009686RR0001": {"name": "LAURENTIAN UNIVERSITY OF SUDBURY", "designationCode": "C", "categoryCode": "20", "address": "935 RAMSEY LAKE ROAD", "city": "SUDBURY", "province": "ON", "country": "CA", "postalCode": "P3E2C6", "twitter": "None", "instagram": "None", "facebook": "None", "youtube": "None", "website": "None", "summary": "None", "logo": "None", "latitude": 46.47081945295088, "longitude": -80.97225123728919}, "132453333RR0001": {"name": "LAURENTIAN WESLEYAN CHURCH", "designationCode": "C", "categoryCode": "39", "address": "529 MCKAY AVE", "city": "NORTH BAY", "province": "ON", "country": "CA", "postalCode": "P1B7V7", "twitter": "None", "instagram": "None", "facebook": "None", "youtube": "None", "website": "None", "summary": "None", "logo": "None", "latitude": 46.32264824562873, "longitude": -79.43701277797327}, "857755573RR0001": {"name": "LAURIER HEIGHTS BUILDING SOCIETY", "designationCode": "C", "categoryCode": "56", "address": "13807 85 AVE NW", "city": "EDMONTON", "province": "AB", "country": "CA", "postalCode": "T5R3Y6", "twitter": "None", "instagram": "None", "facebook": "None", "youtube": "None", "website": "None", "summary": "None", "logo": "None", "latitude": 53.51729251399405, "longitude": -113.56023133236194}, "119009736RR0001": {"name": "LAUSANNE COMMITTEE FOR WORLD EVANGELIZATION IN CANADA", "designationCode": "C", "categoryCode": "49", "address": "9257 BAYVIEW AVENUE           PO BOX 31361", "city": "RICHMOND HILL", "province": "ON", "country": "CA", "postalCode": "L4C0V7", "twitter": "None", "instagram": "None", "facebook": "None", "youtube": "None", "website": "None", "summary": "None", "logo": "None", "latitude": 43.856430673800126, "longitude": -79.41061330463765}, "119009843RR0001": {"name": "LAVIGNE GRACE REGULAR BAPTIST CHURCH", "designationCode": "C", "categoryCode": "31", "address": "2 VERCHERES ST", "city": "VERNER", "province": "ON", "country": "CA", "postalCode": "P0H2M0", "twitter": "None", "instagram": "None", "facebook": "None", "youtube": "None", "website": "None", "summary": "None", "logo": "None", "latitude": 46.41162651067582, "longitude": -80.12275211518264}, "701427320RR0001": {"name": "LAVINGTON CHURCH", "designationCode": "C", "categoryCode": "31", "address": "9681 SCHOOL ROAD", "city": "VERNON", "province": "BC", "country": "CA", "postalCode": "V1B3G4", "twitter": "None", "instagram": "None", "facebook": "None", "youtube": "None", "website": "None", "summary": "None", "logo": "None", "latitude": 50.23056571483488, "longitude": -119.10725739770675}, "863649968RR0001": {"name": "LAVOY CEMETERY CARETAKING SOCIETY", "designationCode": "C", "categoryCode": "59", "address": "BOX 1058", "city": "VEGREVILLE", "province": "AB", "country": "CA", "postalCode": "T9C1S2", "twitter": "None", "instagram": "None", "facebook": "None", "youtube": "None", "website": "None", "summary": "None", "logo": "None", "latitude": 53.49528600000005, "longitude": -112.05415249999993}, "107604001RR0001": {"name": "LAWRENCE PARK COMMUNITY CHURCH", "designationCode": "C", "categoryCode": "44", "address": "2180 BAYVIEW AVE.", "city": "TORONTO", "province": "ON", "country": "CA", "postalCode": "M4N3K7", "twitter": "None", "instagram": "None", "facebook": "None", "youtube": "None", "website": "None", "summary": "None", "logo": "None", "latitude": 43.725174318887504, "longitude": -79.37990149339221}, "119009926RR0001": {"name": "LAWRENCE STATION COMMUNITY HALL", "designationCode": "C", "categoryCode": "56", "address": "34547 THIRD LINE", "city": "SOUTHWOLD", "province": "ON", "country": "CA", "postalCode": "N0L2G0", "twitter": "None", "instagram": "None", "facebook": "None", "youtube": "None", "website": "None", "summary": "None", "logo": "None", "latitude": 42.75577148430387, "longitude": -81.41505448415963}, "119009934RR0001": {"name": "LAWRENCE STATION UNITED CHURCH", "designationCode": "C", "categoryCode": "44", "address": "6504 ROUTE 3", "city": "LAWRENCE STATION", "province": "NB", "country": "CA", "postalCode": "E5A3C6", "twitter": "None", "instagram": "None", "facebook": "None", "youtube": "None", "website": "None", "summary": "None", "logo": "None", "latitude": 45.41680317651004, "longitude": -67.17371570766416}, "119009983RR0001": {"name": "LAWRENCE TRAFFORD EVANGELISTIC ASSOCIATION INC.", "designationCode": "C", "categoryCode": "36", "address": "PO BOX 541 STATION MAIN", "city": "SASKATOON", "province": "SK", "country": "CA", "postalCode": "S7K3L6", "twitter": "None", "instagram": "None", "facebook": "None", "youtube": "None", "website": "None", "summary": "None", "logo": "None", "latitude": 52.13049000000005, "longitude": -106.65926449999994}, "107604209RR0001": {"name": "LAWRENCETOWN - LAKE ECHO PASTORAL CHARGE", "designationCode": "C", "categoryCode": "44", "address": "2723 # 7 HIGHWAY", "city": "LAKE ECHO", "province": "NS", "country": "CA", "postalCode": "B3E1A3", "twitter": "None", "instagram": "None", "facebook": "None", "youtube": "None", "website": "None", "summary": "None", "logo": "None", "latitude": 44.723093435772256, "longitude": -63.397908201396255}, "130917941RR0001": {"name": "LAWRENCETOWN AND DISTRICT FIRE DEPARTMENT", "designationCode": "C", "categoryCode": "59", "address": "P.O. BOX 6", "city": "LAWRENCETOWN", "province": "NS", "country": "CA", "postalCode": "B0S1M0", "twitter": "None", "instagram": "None", "facebook": "None", "youtube": "None", "website": "None", "summary": "None", "logo": "None", "latitude": 44.87860655669945, "longitude": -65.15653435017721}, "825168925RR0001": {"name": "LAWRENCETOWN MEMORIAL MONUMENT TRUST", "designationCode": "C", "categoryCode": "59", "address": "P.O. BOX 74", "city": "LAWRENCETOWN", "province": "NS", "country": "CA", "postalCode": "B0S1M0", "twitter": "None", "instagram": "None", "facebook": "None", "youtube": "None", "website": "None", "summary": "None", "logo": "None", "latitude": 44.87860655669945, "longitude": -65.15653435017721}, "119009967RR0001": {"name": "LAWRENCETOWN UNITED BAPTIST CHURCH", "designationCode": "C", "categoryCode": "31", "address": "PO BOX 68", "city": "LAWRENCETOWN", "province": "NS", "country": "CA", "postalCode": "B0S1M0", "twitter": "None", "instagram": "None", "facebook": "None", "youtube": "None", "website": "None", "summary": "None", "logo": "None", "latitude": 44.87860655669945, "longitude": -65.15653435017721}, "130726177RR0001": {"name": "LAWSON HEIGHTS ALLIANCE CHURCH", "designationCode": "C", "categoryCode": "39", "address": "159 PINEHOUSE DRIVE", "city": "SASKATOON", "province": "SK", "country": "CA", "postalCode": "S7K5W1", "twitter": "None", "instagram": "None", "facebook": "None", "youtube": "None", "website": "None", "summary": "None", "logo": "None", "latitude": 52.16903053173898, "longitude": -106.63030332099363}, "107604456RR0001": {"name": "LAWSON HEIGHTS PENTECOSTAL ASSEMBLY", "designationCode": "C", "categoryCode": "36", "address": "233 PINEHOUSE DRIVE", "city": "SASKATOON", "province": "SK", "country": "CA", "postalCode": "S7K6N9", "twitter": "None", "instagram": "None", "facebook": "None", "youtube": "None", "website": "None", "summary": "None", "logo": "None", "latitude": 52.16859654501186, "longitude": -106.62585228331352}, "868552647RR0001": {"name": "LAWSON RESEARCH INSTITUTE/INSTITUT DE RECHERCHES LAWSON", "designationCode": "C", "categoryCode": "11", "address": "750 BASELINE ROAD E           SUITE 300", "city": "LONDON", "province": "ON", "country": "CA", "postalCode": "N6C2R5", "twitter": "None", "instagram": "None", "facebook": "None", "youtube": "None", "website": "None", "summary": "None", "logo": "None", "latitude": 42.962117446044026, "longitude": -81.22695480697094}, "860563139RR0001": {"name": "LAWYERS' RIGHTS WATCH (LEGAL RESEARCH) CANADA", "designationCode": "C", "categoryCode": "21", "address": "3220 WEST 13TH AVENUE", "city": "VANCOUVER", "province": "BC", "country": "CA", "postalCode": "V6K2V5", "twitter": "None", "instagram": "None", "facebook": "None", "youtube": "None", "website": "None", "summary": "None", "logo": "None", "latitude": 49.26060249567218, "longitude": -123.17654152553521}, "894110469RR0001": {"name": "LCC INTERNATIONAL FUND INC.", "designationCode": "C", "categoryCode": "21", "address": "P.O. BOX 2142", "city": "ABBOTSFORD", "province": "BC", "country": "CA", "postalCode": "V2T3X8", "twitter": "None", "instagram": "None", "facebook": "None", "youtube": "None", "website": "None", "summary": "None", "logo": "None", "latitude": 49.05161700000005, "longitude": -122.32930399999994}, "107606139RR0001": {"name": "LCF Foundation / Fondation LCF", "designationCode": "C", "categoryCode": "59", "address": "3700 - 1 PLACE VILLE-MARIE", "city": "MONTREAL", "province": "QC", "country": "CA", "postalCode": "H3B3P4", "twitter": "None", "instagram": "None", "facebook": "None", "youtube": "None", "website": "None", "summary": "None", "logo": "None", "latitude": 45.50188724476333, "longitude": -73.56787382018557}, "830447694RR0001": {"name": "LCS Langley Christian School Foundation", "designationCode": "A", "categoryCode": "23", "address": "22930 48TH AVENUE", "city": "LANGLEY", "province": "BC", "country": "CA", "postalCode": "V2Z2T9", "twitter": "None", "instagram": "None", "facebook": "None", "youtube": "None", "website": "None", "summary": "None", "logo": "None", "latitude": 49.08927826090011, "longitude": -122.5887622817719}, "107605727RR0001": {"name": "LDABC The Learning Curve Society", "designationCode": "C", "categoryCode": "11", "address": "5 - 774 BAY ST", "city": "VICTORIA", "province": "BC", "country": "CA", "postalCode": "V8T5E4", "twitter": "None", "instagram": "None", "facebook": "None", "youtube": "None", "website": "None", "summary": "None", "logo": "None", "latitude": 48.4356314760513, "longitude": -123.36349984096027}, "119010072RR0001": {"name": "LDSH(RC) CEREMONIAL MOUNTED TROOP FOUNDATION", "designationCode": "B", "categoryCode": "51", "address": "PO BOX 10500 STN FORCES", "city": "EDMONTON", "province": "AB", "country": "CA", "postalCode": "T5J4J5", "twitter": "None", "instagram": "None", "facebook": "None", "youtube": "None", "website": "None", "summary": "None", "logo": "None", "latitude": 53.54623500000005, "longitude": -113.49037249999994}, "868933102RR0001": {"name": "LE BERCEAU DE KAMOURASKA INC.", "designationCode": "C", "categoryCode": "52", "address": "35 AVENUE MOREL", "city": "KAMOURASKA", "province": "QC", "country": "CA", "postalCode": "G0L1M0", "twitter": "None", "instagram": "None", "facebook": "None", "youtube": "None", "website": "None", "summary": "None", "logo": "None", "latitude": 47.56748731222241, "longitude": -69.86291201053159}, "890814999RR0001": {"name": "LE BERLINGOT, LA FONDATION POUR L'AIDE ALIMENTAIRE AUX ENFANTS DES \u00c9COLES PRIMAIRES DU QUEBEC", "designationCode": "C", "categoryCode": "09", "address": "1670 BOUL LIONEL-BERTRAND     UNITE 200", "city": "BOISBRIAND", "province": "QC", "country": "CA", "postalCode": "J7H1N7", "twitter": "None", "instagram": "None", "facebook": "None", "youtube": "None", "website": "None", "summary": "None", "logo": "None", "latitude": 45.61747525871105, "longitude": -73.85222042985102}, "138480405RR0001": {"name": "LE BON CITOYEN", "designationCode": "C", "categoryCode": "09", "address": "45 RUE FUSEY", "city": "TROIS-RIVIERES", "province": "QC", "country": "CA", "postalCode": "G8T2T6", "twitter": "None", "instagram": "None", "facebook": "None", "youtube": "None", "website": "None", "summary": "None", "logo": "None", "latitude": 46.36431994200464, "longitude": -72.52891688095089}, "138449020RR0001": {"name": "LE BON DIEU DANS LA RUE, ORGANISATION POUR JEUNES ADULTES", "designationCode": "C", "categoryCode": "09", "address": "450 - 533 RUE ONTARIO E", "city": "MONTREAL", "province": "QC", "country": "CA", "postalCode": "H2L1N8", "twitter": "None", "instagram": "None", "facebook": "None", "youtube": "None", "website": "None", "summary": "None", "logo": "None", "latitude": 45.517635, "longitude": -73.56442949999999}, "119010627RR0001": {"name": "LE BON PILOTE INC.", "designationCode": "C", "categoryCode": "09", "address": "160-1945 RUE MULLINS", "city": "MONTREAL", "province": "QC", "country": "CA", "postalCode": "H3K1N9", "twitter": "None", "instagram": "None", "facebook": "None", "youtube": "None", "website": "None", "summary": "None", "logo": "None", "latitude": 45.48090306523738, "longitude": -73.56151176897089}, "138823471RR0001": {"name": "LE BOUCLIER D'ATHENA / THE SHIELD OF ATHENA", "designationCode": "C", "categoryCode": "01", "address": "C.P. 25                       VILLE MONT-ROYAL", "city": "MONT-ROYAL", "province": "QC", "country": "CA", "postalCode": "H3P3B8", "twitter": "None", "instagram": "None", "facebook": "None", "youtube": "None", "website": "None", "summary": "None", "logo": "None", "latitude": 45.52210500000005, "longitude": -73.63759399999994}, "119010635RR0001": {"name": "LE BOULOT VERS", "designationCode": "C", "categoryCode": "09", "address": "4447 RUE DE ROUEN", "city": "MONTREAL", "province": "QC", "country": "CA", "postalCode": "H1V1H1", "twitter": "None", "instagram": "None", "facebook": "None", "youtube": "None", "website": "None", "summary": "None", "logo": "None", "latitude": 45.55500578657161, "longitude": -73.54248161561532}, "119010668RR0001": {"name": "LE BUREAU DE CONSULTATION-JEUNESSE INC.", "designationCode": "C", "categoryCode": "09", "address": "C.P 97554                     CSP WELLINGTON", "city": "VERDUN", "province": "QC", "country": "CA", "postalCode": "H4G3M6", "twitter": "None", "instagram": "None", "facebook": "None", "youtube": "None", "website": "None", "summary": "None", "logo": "None", "latitude": 45.463755148459605, "longitude": -73.566948559938}, "892685363RR0001": {"name": "LE CABANON MAISON DES JEUNES DE LAC-BEAUPORT", "designationCode": "C", "categoryCode": "09", "address": "52 CH. DU VILLAGE", "city": "LAC BEAUPORT", "province": "QC", "country": "CA", "postalCode": "G3B1R2", "twitter": "None", "instagram": "None", "facebook": "None", "youtube": "None", "website": "None", "summary": "None", "logo": "None", "latitude": 46.94655544701442, "longitude": -71.29983443918492}, "894720580RR0001": {"name": "LE CAFE DE LA DEBROUILLE", "designationCode": "C", "categoryCode": "09", "address": "23 RUE SAINT-JEAN BAPTISTE E.", "city": "RIGAUD", "province": "QC", "country": "CA", "postalCode": "J0P1P0", "twitter": "None", "instagram": "None", "facebook": "None", "youtube": "None", "website": "None", "summary": "None", "logo": "None", "latitude": 45.47930138535995, "longitude": -74.30075231818591}, "119010700RR0001": {"name": "LE CAMP CLARET DU LAC ELGIN", "designationCode": "C", "categoryCode": "56", "address": "2030 RUE GALT EST", "city": "SHERBROOKE", "province": "QC", "country": "CA", "postalCode": "J1G3J1", "twitter": "None", "instagram": "None", "facebook": "None", "youtube": "None", "website": "None", "summary": "None", "logo": "None", "latitude": 45.40733664019649, "longitude": -71.85205917785167}, "137988713RR0001": {"name": "LE CAMP DE L'ARCHE INC", "designationCode": "C", "categoryCode": "49", "address": "41 ROUTE FERMANAGH", "city": "ST-ELZEAR", "province": "QC", "country": "CA", "postalCode": "G0S2J0", "twitter": "None", "instagram": "None", "facebook": "None", "youtube": "None", "website": "None", "summary": "None", "logo": "None", "latitude": 46.37427933012685, "longitude": -71.10816530764625}, "118884477RR0001": {"name": "LE CAMP DE SANTE DE SAINT-HYACINTHE INC.", "designationCode": "C", "categoryCode": "11", "address": "2200 AVENUE LEON-PRATTE", "city": "ST-HYACINTHE", "province": "QC", "country": "CA", "postalCode": "J2S4B6", "twitter": "None", "instagram": "None", "facebook": "None", "youtube": "None", "website": "None", "summary": "None", "logo": "None", "latitude": 45.63409200000005, "longitude": -72.94597549999993}, "892356379RR0001": {"name": "LE CAMP ECTUS INC", "designationCode": "C", "categoryCode": "56", "address": "CP 3022", "city": "PETIT ROCHER", "province": "NB", "country": "CA", "postalCode": "E8J3E7", "twitter": "None", "instagram": "None", "facebook": "None", "youtube": "None", "website": "None", "summary": "None", "logo": "None", "latitude": 47.78270700000006, "longitude": -65.71798099999994}, "134193820RR0001": {"name": "LE CAMPAGNOL DES JARDINS DE NAPIERVILLE CENTRE DE JOUR", "designationCode": "C", "categoryCode": "09", "address": "94 ST-ANDRE", "city": "ST-REMI", "province": "QC", "country": "CA", "postalCode": "J0L2L0", "twitter": "None", "instagram": "None", "facebook": "None", "youtube": "None", "website": "None", "summary": "None", "logo": "None", "latitude": 45.257633162906195, "longitude": -73.61563274660966}, "128226263RR0001": {"name": "LE CAP: CENTRE D'APPRENTISSAGE ET DE PERFECTIONNEMENT INC.", "designationCode": "C", "categoryCode": "21", "address": "281 SALISBURY ST", "city": "HAWKESBURY", "province": "ON", "country": "CA", "postalCode": "K6A2P5", "twitter": "None", "instagram": "None", "facebook": "None", "youtube": "None", "website": "None", "summary": "None", "logo": "None", "latitude": 45.610101953921216, "longitude": -74.6226780787987}, "129882890RR0001": {"name": "LE CARRE DES LOMBES", "designationCode": "C", "categoryCode": "22", "address": "2022, SHERBROOKE EST #401", "city": "MONTR\u00c9AL", "province": "QC", "country": "CA", "postalCode": "H2K1B9", "twitter": "None", "instagram": "None", "facebook": "None", "youtube": "None", "website": "None", "summary": "None", "logo": "None", "latitude": 45.53036469885744, "longitude": -73.56310573754998}, "124264391RR0001": {"name": "LE CARRE-THEATRE DU VIEUX-LONGUEUIL INC", "designationCode": "C", "categoryCode": "22", "address": "1005, RUE VALOIS", "city": "LONGUEUIL", "province": "QC", "country": "CA", "postalCode": "J4J1V7", "twitter": "None", "instagram": "None", "facebook": "None", "youtube": "None", "website": "None", "summary": "None", "logo": "None", "latitude": 45.54223064807546, "longitude": -73.47593158771416}, "119010791RR0001": {"name": "LE CARREFOUR D'OTTAWA", "designationCode": "C", "categoryCode": "56", "address": "35, AVENUE MELROSE", "city": "OTTAWA", "province": "ON", "country": "CA", "postalCode": "K1Y1T8", "twitter": "None", "instagram": "None", "facebook": "None", "youtube": "None", "website": "None", "summary": "None", "logo": "None", "latitude": 45.402285571758256, "longitude": -75.72437219784783}, "100825074RR0001": {"name": "LE CARREFOUR DE LA TRIADE INC.", "designationCode": "C", "categoryCode": "01", "address": "3675 RUE ADAM", "city": "MONTREAL", "province": "QC", "country": "CA", "postalCode": "H3W1Z3", "twitter": "None", "instagram": "None", "facebook": "None", "youtube": "None", "website": "None", "summary": "None", "logo": "None", "latitude": 45.544812411333545, "longitude": -73.54031060799792}, "103018776RR0001": {"name": "LE CARREFOUR DES FEMMES DU GRAND LACHUTE", "designationCode": "C", "categoryCode": "09", "address": "310,RUE DE L'EGLISE", "city": "LACHUTE", "province": "QC", "country": "CA", "postalCode": "J8H4A8", "twitter": "None", "instagram": "None", "facebook": "None", "youtube": "None", "website": "None", "summary": "None", "logo": "None", "latitude": 45.64699531057763, "longitude": -74.35756845285336}, "119010767RR0001": {"name": "LE CARREFOUR DES GROUPES POPULAIRES DE ST-HYACINTHE INC.", "designationCode": "C", "categoryCode": "59", "address": "302-1195 RUE SAINT-ANTOINE", "city": "SAINT-HYACINTHE", "province": "QC", "country": "CA", "postalCode": "J2S3K6", "twitter": "None", "instagram": "None", "facebook": "None", "youtube": "None", "website": "None", "summary": "None", "logo": "None", "latitude": 45.625280134601034, "longitude": -72.94288513737098}, "107606303RR0001": {"name": "LE CARREFOUR DES PETITS SOLEILS INC.", "designationCode": "C", "categoryCode": "20", "address": "5115 RIVARD", "city": "MONTREAL", "province": "QC", "country": "CA", "postalCode": "H2J2P2", "twitter": "None", "instagram": "None", "facebook": "None", "youtube": "None", "website": "None", "summary": "None", "logo": "None", "latitude": 45.5277700571873, "longitude": -73.58939910531488}, "118839711RR0001": {"name": "LE CARREFOUR DU PLEIN \u00c9VANGILE DE RIMOUSKI", "designationCode": "C", "categoryCode": "36", "address": "989 BOULEVARD SAINT-GERMAIN   RR 4", "city": "RIMOUSKI", "province": "QC", "country": "CA", "postalCode": "G5L8Y9", "twitter": "None", "instagram": "None", "facebook": "None", "youtube": "None", "website": "None", "summary": "None", "logo": "None", "latitude": 48.42269203075802, "longitude": -68.60342459821709}, "132960634RR0001": {"name": "LE CARREFOUR FAMILIAL DES MOULINS", "designationCode": "C", "categoryCode": "09", "address": "427, RUE LEVEILLE", "city": "TERREBONNE", "province": "QC", "country": "CA", "postalCode": "J6W1Z7", "twitter": "None", "instagram": "None", "facebook": "None", "youtube": "None", "website": "None", "summary": "None", "logo": "None", "latitude": 45.69701326562401, "longitude": -73.62435853032532}, "126298793RR0001": {"name": "LE CARREFOUR FRANCOPHONE DE SUDBURY", "designationCode": "C", "categoryCode": "56", "address": "14 RUE BEECH", "city": "SUDBURY", "province": "ON", "country": "CA", "postalCode": "P3C1Z2", "twitter": "None", "instagram": "None", "facebook": "None", "youtube": "None", "website": "None", "summary": "None", "logo": "None", "latitude": 46.494077355863816, "longitude": -80.99527073156959}, "119010817RR0001": {"name": "LE CARROUSEL COMPAGNIE DE THEATRE", "designationCode": "C", "categoryCode": "22", "address": "2017, RUE PARTHENAIS", "city": "MONTREAL", "province": "QC", "country": "CA", "postalCode": "H2K3T1", "twitter": "None", "instagram": "None", "facebook": "None", "youtube": "None", "website": "None", "summary": "None", "logo": "None", "latitude": 45.52993011936625, "longitude": -73.55707809420639}, "120312848RR0001": {"name": "LE CARROUSEL DU PTIT MONDE D'ANJOU", "designationCode": "C", "categoryCode": "09", "address": "7800 BOUL METROPOLITAIN E     BUREAU 122", "city": "ANJOU", "province": "QC", "country": "CA", "postalCode": "H1K1A1", "twitter": "None", "instagram": "None", "facebook": "None", "youtube": "None", "website": "None", "summary": "None", "logo": "None", "latitude": 45.60743561087255, "longitude": -73.56365325114098}, "107600959RR0001": {"name": "LE CENTRE \u00c9DUCATIF ET DE LOISIRS EN D\u00c9FICIENCE INTELLECTUELLE. (LE CENTRE \u00c9LODI)", "designationCode": "C", "categoryCode": "09", "address": "CP 834, SUCCURSALLE IBERVILLE", "city": "ST-JEAN-SUR-RICHELIEU", "province": "QC", "country": "CA", "postalCode": "J2X4J5", "twitter": "None", "instagram": "None", "facebook": "None", "youtube": "None", "website": "None", "summary": "None", "logo": "None", "latitude": 45.319241901403565, "longitude": -73.23147174133015}, "106897697RR0001": {"name": "LE CENTRE \u00c9VANG\u00c9LIQUE DE SHAWINIGAN", "designationCode": "C", "categoryCode": "36", "address": "773 AV DE LA STATION", "city": "SHAWINIGAN", "province": "QC", "country": "CA", "postalCode": "G9N1W3", "twitter": "None", "instagram": "None", "facebook": "None", "youtube": "None", "website": "None", "summary": "None", "logo": "None", "latitude": 46.542546282820695, "longitude": -72.75200038790443}, "119010825RR0001": {"name": "LE CENTRE ACTU-ELLE", "designationCode": "C", "categoryCode": "09", "address": "501 RUE DES PINS", "city": "GATINEAU", "province": "QC", "country": "CA", "postalCode": "J8L2L2", "twitter": "None", "instagram": "None", "facebook": "None", "youtube": "None", "website": "None", "summary": "None", "logo": "None", "latitude": 45.587786553147915, "longitude": -75.41436019320194}, "898686068RR0001": {"name": "LE CENTRE ALMAGE COMMUNAUTAIRE-POUR PERSONNES AGEES", "designationCode": "C", "categoryCode": "56", "address": "8680 HOCHELAGA", "city": "MONTREAL", "province": "QC", "country": "CA", "postalCode": "H1L2M6", "twitter": "None", "instagram": "None", "facebook": "None", "youtube": "None", "website": "None", "summary": "None", "logo": "None", "latitude": 45.60101941381505, "longitude": -73.52007097971624}, "893509653RR0001": {"name": "LE CENTRE ALPHA DE LA BAIE ET DU BAS-SAGUENAY", "designationCode": "C", "categoryCode": "20", "address": "802 BOUL. DE LA GRANDE-BAIE N", "city": "LA BAIE", "province": "QC", "country": "CA", "postalCode": "G7B3K7", "twitter": "None", "instagram": "None", "facebook": "None", "youtube": "None", "website": "None", "summary": "None", "logo": "None", "latitude": 48.342112940619664, "longitude": -70.88544033692091}, "874163819RR0001": {"name": "LE CENTRE CANADIEN DE RECHERCHE SUR LE TOUCHER/ CANADIAN TOUCH RESEARCH CENTER", "designationCode": "C", "categoryCode": "11", "address": "760 RUE SAINT-ZOTIQUE  EST", "city": "MONTREAL", "province": "QC", "country": "CA", "postalCode": "H2S1M5", "twitter": "None", "instagram": "None", "facebook": "None", "youtube": "None", "website": "None", "summary": "None", "logo": "None", "latitude": 45.53722715208615, "longitude": -73.60688665096097}, "868104985RR0001": {"name": "LE CENTRE CHR\u00c9TIEN \u00c9VANG\u00c9LIQUE LA TUQUE", "designationCode": "C", "categoryCode": "39", "address": "540 RUE ST ANTOINE", "city": "LA TUQUE", "province": "QC", "country": "CA", "postalCode": "G9X2Y4", "twitter": "None", "instagram": "None", "facebook": "None", "youtube": "None", "website": "None", "summary": "None", "logo": "None", "latitude": 47.44003332361936, "longitude": -72.78388993822509}, "132551730RR0001": {"name": "LE CENTRE CHR\u00c9TIEN D'AMOS INC.", "designationCode": "C", "categoryCode": "36", "address": "772, 5E RUE OUEST             C.P. 772", "city": "AMOS", "province": "QC", "country": "CA", "postalCode": "J9T3X3", "twitter": "None", "instagram": "None", "facebook": "None", "youtube": "None", "website": "None", "summary": "None", "logo": "None", "latitude": 48.577771068555585, "longitude": -78.12870122713397}, "891338246RR0001": {"name": "LE CENTRE CHRETIEN DE CHICOUTIMI", "designationCode": "C", "categoryCode": "36", "address": "80 RUE SAINT-AMBROISE", "city": "CHICOUTIMI", "province": "QC", "country": "CA", "postalCode": "G7G2Y9", "twitter": "None", "instagram": "None", "facebook": "None", "youtube": "None", "website": "None", "summary": "None", "logo": "None", "latitude": 48.43931915514458, "longitude": -71.06514376628785}, "119010866RR0001": {"name": "LE CENTRE CHRETIEN DE LANAUDIERE", "designationCode": "C", "categoryCode": "36", "address": "1364 RUE NOTRE-DAME", "city": "REPENTIGNY", "province": "QC", "country": "CA", "postalCode": "J5Y3X1", "twitter": "None", "instagram": "None", "facebook": "None", "youtube": "None", "website": "None", "summary": "None", "logo": "None", "latitude": 45.78201726144041, "longitude": -73.4023368667553}, "119010890RR0001": {"name": "LE CENTRE CHRETIEN VIENS ET VOIS", "designationCode": "C", "categoryCode": "36", "address": "429 MARY ST", "city": "HAWKESBURY", "province": "ON", "country": "CA", "postalCode": "K6A2C8", "twitter": "None", "instagram": "None", "facebook": "None", "youtube": "None", "website": "None", "summary": "None", "logo": "None", "latitude": 45.606034743080976, "longitude": -74.59129354031293}, "135437614RR0001": {"name": "LE CENTRE CHRETIEN, LAC ST-JEAN-EST", "designationCode": "C", "categoryCode": "36", "address": "1040 AVE DU PARC NORD         C.P.2125", "city": "ALMA", "province": "QC", "country": "CA", "postalCode": "G8B5W1", "twitter": "None", "instagram": "None", "facebook": "None", "youtube": "None", "website": "None", "summary": "None", "logo": "None", "latitude": 48.570099914795996, "longitude": -71.63579103748044}, "119010908RR0001": {"name": "LE CENTRE COMMUNAUTAIRE D'ACTION CHRETIENNE DU FAUBOURG INC.", "designationCode": "C", "categoryCode": "56", "address": "369 RUE SAINT-JEAN", "city": "QUEBEC", "province": "QC", "country": "CA", "postalCode": "G1R1N8", "twitter": "None", "instagram": "None", "facebook": "None", "youtube": "None", "website": "None", "summary": "None", "logo": "None", "latitude": 46.808801665820404, "longitude": -71.22285011114326}, "119010916RR0001": {"name": "LE CENTRE COMMUNAUTAIRE DE LA VALLEE D'HARRINGTON INC.-HARRINGTON VALLEY COMMUNITY CENTER INC.", "designationCode": "C", "categoryCode": "56", "address": "420 HARRINGTON RD", "city": "HARRINGTON", "province": "QC", "country": "CA", "postalCode": "J8G2S5", "twitter": "None", "instagram": "None", "facebook": "None", "youtube": "None", "website": "None", "summary": "None", "logo": "None", "latitude": 45.79062750000001, "longitude": -74.68301475}, "131637050RR0001": {"name": "LE CENTRE COMMUNAUTAIRE DES GAIS ET LESBIENNES DE MONTREAL", "designationCode": "C", "categoryCode": "09", "address": "CP 476 SUCCURSALE C           2075 RUE PLESSIS", "city": "MONTREAL", "province": "QC", "country": "CA", "postalCode": "H2L4K4", "twitter": "None", "instagram": "None", "facebook": "None", "youtube": "None", "website": "None", "summary": "None", "logo": "None", "latitude": 45.52417507550915, "longitude": -73.56204988660637}, "867307720RR0001": {"name": "LE CENTRE COMMUNAUTAIRE DU FAUBOURG SAINT-LAURENT", "designationCode": "C", "categoryCode": "52", "address": "105 RUE ONTARIO EST           BUREAU 202", "city": "MONTREAL", "province": "QC", "country": "CA", "postalCode": "H2X1G9", "twitter": "None", "instagram": "None", "facebook": "None", "youtube": "None", "website": "None", "summary": "None", "logo": "None", "latitude": 45.51231921593854, "longitude": -73.56649610690141}, "119010924RR0001": {"name": "LE CENTRE COMMUNAUTAIRE L'AMITIE INC.", "designationCode": "C", "categoryCode": "09", "address": "59, RUE NOTRE-DAME DES ANGES", "city": "QUEBEC", "province": "QC", "country": "CA", "postalCode": "G1K3E4", "twitter": "None", "instagram": "None", "facebook": "None", "youtube": "None", "website": "None", "summary": "None", "logo": "None", "latitude": 46.81201714847949, "longitude": -71.2300842717122}, "106890163RR0001": {"name": "LE CENTRE COMMUNAUTAIRE LE TRAIT D'UNION", "designationCode": "C", "categoryCode": "59", "address": "3100 RUE MOUSSEAU", "city": "LONGUEUIL", "province": "QC", "country": "CA", "postalCode": "J4L4P1", "twitter": "None", "instagram": "None", "facebook": "None", "youtube": "None", "website": "None", "summary": "None", "logo": "None", "latitude": 45.52366256116933, "longitude": -73.45065815655822}, "891096570RR0001": {"name": "LE CENTRE COMMUNAUTAIRE SIKH DE MONTREAL/SIKH COMMUNITY CENTRE OF MONTREAL", "designationCode": "C", "categoryCode": "62", "address": "1155 HYMAN", "city": "D.D.O.", "province": "QC", "country": "CA", "postalCode": "H9B1M7", "twitter": "None", "instagram": "None", "facebook": "None", "youtube": "None", "website": "None", "summary": "None", "logo": "None", "latitude": 45.49852078512931, "longitude": -73.7835196365056}, "130641558RR0001": {"name": "LE CENTRE COMMUNAUTAIRE VAL-MARTIN", "designationCode": "C", "categoryCode": "09", "address": "828 79E AVENUE", "city": "LAVAL", "province": "QC", "country": "CA", "postalCode": "H7V3J1", "twitter": "None", "instagram": "None", "facebook": "None", "youtube": "None", "website": "None", "summary": "None", "logo": "None", "latitude": 45.541955609758276, "longitude": -73.74441884196987}, "130450596RR0001": {"name": "LE CENTRE CULTUREL ARTEM (ARTEMISKAMING)", "designationCode": "C", "categoryCode": "22", "address": "324 AVENUE WHITEWOOD CP 2687", "city": "NEW LISKEARD", "province": "ON", "country": "CA", "postalCode": "P0J1P0", "twitter": "None", "instagram": "None", "facebook": "None", "youtube": "None", "website": "None", "summary": "None", "logo": "None", "latitude": 47.50849442691275, "longitude": -79.68447807308725}, "133854745RR0001": {"name": "LE CENTRE CULTUREL-LES TROIS PETITS POINTS", "designationCode": "C", "categoryCode": "22", "address": "280 BOUL INDUSTRIEL", "city": "ALEXANDRIA", "province": "ON", "country": "CA", "postalCode": "K0C1A0", "twitter": "None", "instagram": "None", "facebook": "None", "youtube": "None", "website": "None", "summary": "None", "logo": "None", "latitude": 45.31393301523478, "longitude": -74.64888631176012}, "106891542RR0001": {"name": "LE CENTRE D'ACCUEIL LA MONTEE INCORPOREE", "designationCode": "C", "categoryCode": "59", "address": "100 RUE QUEEN", "city": "EDMUNDSTON", "province": "NB", "country": "CA", "postalCode": "E3V1A1", "twitter": "None", "instagram": "None", "facebook": "None", "youtube": "None", "website": "None", "summary": "None", "logo": "None", "latitude": 47.36233757227785, "longitude": -68.31742591632519}, "103019360RR0001": {"name": "LE CENTRE D'ACCUEIL MIRIAM-THE MIRIAM HOME", "designationCode": "C", "categoryCode": "01", "address": "8160 RUE ROYDEN", "city": "MONTREAL", "province": "QC", "country": "CA", "postalCode": "H4P2T2", "twitter": "None", "instagram": "None", "facebook": "None", "youtube": "None", "website": "None", "summary": "None", "logo": "None", "latitude": 45.49640691531558, "longitude": -73.66120614547837}, "106892706RR0001": {"name": "LE CENTRE D'ACTION B\u00c9N\u00c9VOLE DE GATINEAU", "designationCode": "C", "categoryCode": "09", "address": "42 AVE. GATINEAU", "city": "GATINEAU", "province": "QC", "country": "CA", "postalCode": "J8T4J3", "twitter": "None", "instagram": "None", "facebook": "None", "youtube": "None", "website": "None", "summary": "None", "logo": "None", "latitude": 45.47785520009819, "longitude": -75.72697365179769}, "107606584RR0001": {"name": "LE CENTRE D'ACTION B\u00c9N\u00c9VOLE DE LA R\u00c9GION DE SHAWINIGAN", "designationCode": "C", "categoryCode": "09", "address": "4393 BOUL DES HETRES", "city": "SHAWINIGAN", "province": "QC", "country": "CA", "postalCode": "G9N4V5", "twitter": "None", "instagram": "None", "facebook": "None", "youtube": "None", "website": "None", "summary": "None", "logo": "None", "latitude": 46.56844667669775, "longitude": -72.73378911094078}, "883045395RR0001": {"name": "LE CENTRE D'ACTION B\u00c9N\u00c9VOLE DE RIVI\u00c8RE-DES-PRAIRIES", "designationCode": "C", "categoryCode": "09", "address": "B26-9140 BOUL. PERRAS", "city": "MONTR\u00c9AL", "province": "QC", "country": "CA", "postalCode": "H1E7E4", "twitter": "None", "instagram": "None", "facebook": "None", "youtube": "None", "website": "None", "summary": "None", "logo": "None", "latitude": 45.65034236966949, "longitude": -73.57774184952996}, "129569448RR0001": {"name": "LE CENTRE D'ACTION B\u00c9N\u00c9VOLE DE ST-JEAN-SUR-RICHELIEU INC.", "designationCode": "C", "categoryCode": "09", "address": "134 RUE ST-GEORGES", "city": "ST-JEAN-SUR-RICHELIEU", "province": "QC", "country": "CA", "postalCode": "J3B2S8", "twitter": "None", "instagram": "None", "facebook": "None", "youtube": "None", "website": "None", "summary": "None", "logo": "None", "latitude": 45.30449049567216, "longitude": -73.2566835}, "119011005RR0001": {"name": "LE CENTRE D'ACTION BENEVOLE DE BEAUHARNOIS", "designationCode": "C", "categoryCode": "59", "address": "106 - 600 RUE ELLICE", "city": "BEAUHARNOIS", "province": "QC", "country": "CA", "postalCode": "J6N3P7", "twitter": "None", "instagram": "None", "facebook": "None", "youtube": "None", "website": "None", "summary": "None", "logo": "None", "latitude": 45.31367296641469, "longitude": -73.87731407576895}, "138632245RR0001": {"name": "LE CENTRE D'AIDE AUX VICTIMES D'ACTES CRIMINELS DE L'OUTAOUAIS", "designationCode": "C", "categoryCode": "09", "address": "104-729 BOUL. SAINT-JOSEPH", "city": "GATINEAU", "province": "QC", "country": "CA", "postalCode": "J8Y4B6", "twitter": "None", "instagram": "None", "facebook": "None", "youtube": "None", "website": "None", "summary": "None", "logo": "None", "latitude": 45.456496041895186, "longitude": -75.74217843412745}, "135786564RR0001": {"name": "LE CENTRE D'AIDE AUX VICTIMES D'ACTES CRIMINELS DE LA REGIONDE L'ESTRIE INC", "designationCode": "C", "categoryCode": "09", "address": "309 RUE MARQUETTE", "city": "SHERBROOKE", "province": "QC", "country": "CA", "postalCode": "J1H1M2", "twitter": "None", "instagram": "None", "facebook": "None", "youtube": "None", "website": "None", "summary": "None", "logo": "None", "latitude": 45.40115014628643, "longitude": -71.89561947005004}, "107606550RR0001": {"name": "LE CENTRE D'AIDE 24/7", "designationCode": "C", "categoryCode": "11", "address": "19, RUE CARON", "city": "GATINEAU", "province": "QC", "country": "CA", "postalCode": "J8Y1Y6", "twitter": "None", "instagram": "None", "facebook": "None", "youtube": "None", "website": "None", "summary": "None", "logo": "None", "latitude": 45.442290510675825, "longitude": -75.7345989657222}, "103019428RR0001": {"name": "LE CENTRE D'ALPHABETISATION DE VILLERAY, LA JARNIGOINE INC.", "designationCode": "C", "categoryCode": "21", "address": "211 JARRY EST", "city": "MONTR\u00c9AL", "province": "QC", "country": "CA", "postalCode": "H2P1T6", "twitter": "None", "instagram": "None", "facebook": "None", "youtube": "None", "website": "None", "summary": "None", "logo": "None", "latitude": 45.540891471002325, "longitude": -73.63024430310446}, "891070088RR0001": {"name": "LE CENTRE D'ANIMATION FAMILIALE DE L'OUTAOUAIS INC.", "designationCode": "C", "categoryCode": "09", "address": "1312 RUE SAINT-LOUIS", "city": "GATINEAU", "province": "QC", "country": "CA", "postalCode": "J8T2M7", "twitter": "None", "instagram": "None", "facebook": "None", "youtube": "None", "website": "None", "summary": "None", "logo": "None", "latitude": 45.4609025323159, "longitude": -75.70697044310117}, "119010981RR0001": {"name": "LE CENTRE D'APPRENTISSAGE PARALLELE DE MONTREAL C. A. P.", "designationCode": "C", "categoryCode": "20", "address": "4861 BOUL SAINT-LAURENT", "city": "MONTREAL", "province": "QC", "country": "CA", "postalCode": "H2T1R6", "twitter": "None", "instagram": "None", "facebook": "None", "youtube": "None", "website": "None", "summary": "None", "logo": "None", "latitude": 45.5220115001907, "longitude": -73.59035904877035}}