{"118962752RR0001": {"name": "HOPE LUTHERAN CHURCH", "designationCode": "C", "categoryCode": "32", "address": "BOX 87", "city": "MILO", "province": "AB", "country": "CA", "postalCode": "T0L1L0", "twitter": "None", "instagram": "None", "facebook": "None", "youtube": "None", "website": "None", "summary": "None", "logo": "None", "latitude": 50.56902000000001, "longitude": -112.88643074999999}, "118962760RR0001": {"name": "HOPE LUTHERAN CHURCH", "designationCode": "C", "categoryCode": "32", "address": "3527 BOULTON ROAD N.W.", "city": "CALGARY", "province": "AB", "country": "CA", "postalCode": "T2L1M5", "twitter": "None", "instagram": "None", "facebook": "None", "youtube": "None", "website": "None", "summary": "None", "logo": "None", "latitude": 51.094327243955284, "longitude": -114.13951095089145}, "118962778RR0001": {"name": "HOPE LUTHERAN CHURCH", "designationCode": "C", "categoryCode": "32", "address": "5104-106 AVE", "city": "EDMONTON", "province": "AB", "country": "CA", "postalCode": "T6A1G2", "twitter": "None", "instagram": "None", "facebook": "None", "youtube": "None", "website": "None", "summary": "None", "logo": "None", "latitude": 53.55106702694888, "longitude": -113.42086878714852}, "118962810RR0001": {"name": "HOPE LUTHERAN CHURCH", "designationCode": "C", "categoryCode": "32", "address": "2174 DEPARTURE BAY RD", "city": "NANAIMO", "province": "BC", "country": "CA", "postalCode": "V9S3V6", "twitter": "None", "instagram": "None", "facebook": "None", "youtube": "None", "website": "None", "summary": "None", "logo": "None", "latitude": 49.19247766764341, "longitude": -123.9671955401371}, "889865663RR0001": {"name": "HOPE LUTHERAN CHURCH,", "designationCode": "C", "categoryCode": "32", "address": "BOX 245", "city": "GRANDVIEW", "province": "MB", "country": "CA", "postalCode": "R0L0Y0", "twitter": "None", "instagram": "None", "facebook": "None", "youtube": "None", "website": "None", "summary": "None", "logo": "None", "latitude": 51.17220000000003, "longitude": -100.69866999999994}, "119238210RR0014": {"name": "HOPE LUTHERAN CHURCH, MACKENZIE, B C", "designationCode": "C", "categoryCode": "32", "address": "BOX 1475", "city": "MACKENZIE", "province": "BC", "country": "CA", "postalCode": "V0J2C0", "twitter": "None", "instagram": "None", "facebook": "None", "youtube": "None", "website": "None", "summary": "None", "logo": "None"}, "118962828RR0001": {"name": "HOPE MEMORIAL SPIRITUAL CHURCH OF BRANTFORD", "designationCode": "C", "categoryCode": "39", "address": "192 DARLING ST", "city": "BRANTFORD", "province": "ON", "country": "CA", "postalCode": "N3S3W7", "twitter": "None", "instagram": "None", "facebook": "None", "youtube": "None", "website": "None", "summary": "None", "logo": "None", "latitude": 43.14090536277347, "longitude": -80.25645073745096}, "141050971RR0001": {"name": "HOPE MENNONITE CHURCH INC", "designationCode": "C", "categoryCode": "34", "address": "101 222 FURBY ST", "city": "WINNIPEG", "province": "MB", "country": "CA", "postalCode": "R3C2A7", "twitter": "None", "instagram": "None", "facebook": "None", "youtube": "None", "website": "None", "summary": "None", "logo": "None", "latitude": 49.88473200000001, "longitude": -97.15791374999999}, "890321862RR0001": {"name": "HOPE MENNONITE FELLOWSHIP", "designationCode": "C", "categoryCode": "34", "address": "1291 -109 ST.", "city": "NORTH BATTLEFORD", "province": "SK", "country": "CA", "postalCode": "S9A2E7", "twitter": "None", "instagram": "None", "facebook": "None", "youtube": "None", "website": "None", "summary": "None", "logo": "None", "latitude": 52.77636058673323, "longitude": -108.2858258688901}, "118962851RR0001": {"name": "HOPE MISSION", "designationCode": "C", "categoryCode": "09", "address": "9908 106 AVE NW", "city": "EDMONTON", "province": "AB", "country": "CA", "postalCode": "T5H0N6", "twitter": "None", "instagram": "None", "facebook": "None", "youtube": "None", "website": "None", "summary": "None", "logo": "None", "latitude": 53.549969446044024, "longitude": -113.49127624438796}, "892607086RR0001": {"name": "HOPE MISSION OF CHRIST", "designationCode": "C", "categoryCode": "49", "address": "448 OLD CHICOPEE TRAIL", "city": "KITCHENER", "province": "ON", "country": "CA", "postalCode": "N2A4H2", "twitter": "None", "instagram": "None", "facebook": "None", "youtube": "None", "website": "None", "summary": "None", "logo": "None", "latitude": 43.43893079407343, "longitude": -80.42582108185712}, "886785369RR0001": {"name": "HOPE OF GOD CHURCH (VANCOUVER)", "designationCode": "C", "categoryCode": "39", "address": "1013 COMO LAKE AVENUE", "city": "COQUITLAM", "province": "BC", "country": "CA", "postalCode": "V3J3N7", "twitter": "None", "instagram": "None", "facebook": "None", "youtube": "None", "website": "None", "summary": "None", "logo": "None", "latitude": 49.26357449321933, "longitude": -122.86526366472387}, "886516327RR0001": {"name": "HOPE OUTREACH OF CANADA INC", "designationCode": "C", "categoryCode": "09", "address": "1101-1985 RICHMOND ST", "city": "LONDON", "province": "ON", "country": "CA", "postalCode": "N5X0A6", "twitter": "None", "instagram": "None", "facebook": "None", "youtube": "None", "website": "None", "summary": "None", "logo": "None", "latitude": 43.03520807380706, "longitude": -81.2871806689648}, "118962877RR0001": {"name": "HOPE PASTORAL CHARGE", "designationCode": "C", "categoryCode": "44", "address": "PO BOX 1577", "city": "HOPE", "province": "BC", "country": "CA", "postalCode": "V0X1L0", "twitter": "None", "instagram": "None", "facebook": "None", "youtube": "None", "website": "None", "summary": "None", "logo": "None", "latitude": 49.37911800000006, "longitude": -121.44296149999994}, "107490302RR0001": {"name": "HOPE PENTECOSTAL ASSEMBLY", "designationCode": "C", "categoryCode": "36", "address": "P.O.BOX 190", "city": "HOPE", "province": "BC", "country": "CA", "postalCode": "V0X1L0", "twitter": "None", "instagram": "None", "facebook": "None", "youtube": "None", "website": "None", "summary": "None", "logo": "None"}, "107833394RR0064": {"name": "HOPE PENTECOSTAL CHURCH - SEAL COVE", "designationCode": "C", "categoryCode": "36", "address": "55 GARDEN ROAD", "city": "CONCEPTION BAY SOUTH", "province": "NL", "country": "CA", "postalCode": "A1X6N9", "twitter": "None", "instagram": "None", "facebook": "None", "youtube": "None", "website": "None", "summary": "None", "logo": "None", "latitude": 47.4634409647307, "longitude": -53.07874683079374}, "118962893RR0001": {"name": "HOPE PLACE CENTRES", "designationCode": "C", "categoryCode": "57", "address": "8173 TRAFALGAR ROAD", "city": "HORNBY", "province": "ON", "country": "CA", "postalCode": "L0P1E0", "twitter": "None", "instagram": "None", "facebook": "None", "youtube": "None", "website": "None", "summary": "None", "logo": "None", "latitude": 43.57691733120716, "longitude": -79.84015701996664}, "108091265RR0001": {"name": "HOPE REFORMED CHURCH (ONTARIO)", "designationCode": "C", "categoryCode": "39", "address": "P.O. BOX 36029", "city": "BRAMPTON", "province": "ON", "country": "CA", "postalCode": "L6S6A3", "twitter": "None", "instagram": "None", "facebook": "None", "youtube": "None", "website": "None", "summary": "None", "logo": "None", "latitude": 43.73610000000005, "longitude": -79.72894249999993}, "118962901RR0001": {"name": "HOPE REFORMED CHURCH OF VANCOUVER", "designationCode": "C", "categoryCode": "39", "address": "900 19TH AVE E", "city": "VANCOUVER", "province": "BC", "country": "CA", "postalCode": "V5V1K7", "twitter": "None", "instagram": "None", "facebook": "None", "youtube": "None", "website": "None", "summary": "None", "logo": "None", "latitude": 49.253655470136955, "longitude": -123.08530402553522}, "819880451RR0001": {"name": "HOPE RESTORED INTERNATIONAL", "designationCode": "C", "categoryCode": "20", "address": "#3408, 15 SUNSET SQUARE", "city": "COCHRANE", "province": "AB", "country": "CA", "postalCode": "T4C0E7", "twitter": "None", "instagram": "None", "facebook": "None", "youtube": "None", "website": "None", "summary": "None", "logo": "None", "latitude": 51.21425621590989, "longitude": -114.4682253361415}, "134271444RR0001": {"name": "HOPE SENIORS CENTRE-DANFORTH", "designationCode": "C", "categoryCode": "01", "address": "303-2171 AVENUE ROAD", "city": "TORONTO", "province": "ON", "country": "CA", "postalCode": "M5M4B4", "twitter": "None", "instagram": "None", "facebook": "None", "youtube": "None", "website": "None", "summary": "None", "logo": "None", "latitude": 43.740564623348284, "longitude": -79.42146630085409}, "107797383RR0103": {"name": "HOPE SEVENTH-DAY ADVENTIST CHURCH", "designationCode": "B", "categoryCode": "41", "address": "280 CULFORD RD", "city": "TORONTO", "province": "ON", "country": "CA", "postalCode": "M6L2V3", "twitter": "None", "instagram": "None", "facebook": "None", "youtube": "None", "website": "None", "summary": "None", "logo": "None", "latitude": 43.71321245905712, "longitude": -79.49040718252613}, "118818491RR0017": {"name": "HOPE SEVENTH-DAY ADVENTIST CHURCH", "designationCode": "C", "categoryCode": "41", "address": "PO 1000", "city": "ABBOTSFORD", "province": "BC", "country": "CA", "postalCode": "V2S4P5", "twitter": "None", "instagram": "None", "facebook": "None", "youtube": "None", "website": "None", "summary": "None", "logo": "None", "latitude": 49.03851300000005, "longitude": -122.29441549999993}, "833692726RR0001": {"name": "HOPE SPRINGS ETERNAL FOUNDATION", "designationCode": "A", "categoryCode": "03", "address": "1500 WEST GEORGIA STREET      SUITE 1250   BOX 62", "city": "VANCOUVER", "province": "BC", "country": "CA", "postalCode": "V6G2Z6", "twitter": "None", "instagram": "None", "facebook": "None", "youtube": "None", "website": "None", "summary": "None", "logo": "None", "latitude": 49.2900638104334, "longitude": -123.12989899362336}, "139820955RR0001": {"name": "HOPE TO LIFE CHRISTIAN FELLOWSHIP", "designationCode": "C", "categoryCode": "39", "address": "608 86 AVE SW", "city": "CALGARY", "province": "AB", "country": "CA", "postalCode": "T2V0V9", "twitter": "None", "instagram": "None", "facebook": "None", "youtube": "None", "website": "None", "summary": "None", "logo": "None", "latitude": 50.97594740218693, "longitude": -114.07788966596462}, "118962935RR0001": {"name": "HOPE UNITED CHURCH", "designationCode": "C", "categoryCode": "44", "address": "2550 DANFORTH AVE", "city": "TORONTO", "province": "ON", "country": "CA", "postalCode": "M4C1L2", "twitter": "None", "instagram": "None", "facebook": "None", "youtube": "None", "website": "None", "summary": "None", "logo": "None", "latitude": 43.68811617236994, "longitude": -79.30208940397594}, "888540036RR0001": {"name": "HOPE UNITED CHURCH", "designationCode": "C", "categoryCode": "44", "address": "PO BOX 158", "city": "NOBEL", "province": "ON", "country": "CA", "postalCode": "P0G1G0", "twitter": "None", "instagram": "None", "facebook": "None", "youtube": "None", "website": "None", "summary": "None", "logo": "None", "latitude": 45.40651800000006, "longitude": -80.16861049999993}, "132172339RR0001": {"name": "HOPE UNITED CHURCH,", "designationCode": "C", "categoryCode": "44", "address": "P.O. BOX 359                  3219 ELGIN STREET", "city": "ALVINSTON", "province": "ON", "country": "CA", "postalCode": "N0N1A0", "twitter": "None", "instagram": "None", "facebook": "None", "youtube": "None", "website": "None", "summary": "None", "logo": "None", "latitude": 42.81986565889551, "longitude": -81.8636288766517}, "131879363RR0001": {"name": "HOPE VOLUNTEER SEARCH AND RESCUE GROUP", "designationCode": "C", "categoryCode": "59", "address": "BOX 1335", "city": "HOPE", "province": "BC", "country": "CA", "postalCode": "V0X1L0", "twitter": "None", "instagram": "None", "facebook": "None", "youtube": "None", "website": "None", "summary": "None", "logo": "None", "latitude": 49.37911800000006, "longitude": -121.44296149999994}, "863545422RR0001": {"name": "HOPE WITHOUT BORDERS", "designationCode": "B", "categoryCode": "09", "address": "5124 JEANNE-MANCE", "city": "MONTREAL", "province": "QC", "country": "CA", "postalCode": "H2V4K1", "twitter": "None", "instagram": "None", "facebook": "None", "youtube": "None", "website": "None", "summary": "None", "logo": "None", "latitude": 45.520608479860485, "longitude": -73.59590401791783}, "888159860RR0001": {"name": "HOPE WORLDWIDE CANADA", "designationCode": "C", "categoryCode": "09", "address": "10 CARRIE CRES", "city": "BRAMPTON", "province": "ON", "country": "CA", "postalCode": "L6Y4Z4", "twitter": "None", "instagram": "None", "facebook": "None", "youtube": "None", "website": "None", "summary": "None", "logo": "None", "latitude": 43.66443834802943, "longitude": -79.77635306062108}, "861465227RR0001": {"name": "HOPE 4 ALL", "designationCode": "C", "categoryCode": "09", "address": "200 SHEILDS COURT", "city": "MARKHAM", "province": "ON", "country": "CA", "postalCode": "L3R9T5", "twitter": "None", "instagram": "None", "facebook": "None", "youtube": "None", "website": "None", "summary": "None", "logo": "None", "latitude": 43.83448800000005, "longitude": -79.35897499999993}, "815113295RR0001": {"name": "HOPEthiopia", "designationCode": "C", "categoryCode": "01", "address": "19 ELBOW RIVER POINT", "city": "CALGARY", "province": "AB", "country": "CA", "postalCode": "T3Z2V1", "twitter": "None", "instagram": "None", "facebook": "None", "youtube": "None", "website": "None", "summary": "None", "logo": "None", "latitude": 51.027969066325056, "longitude": -114.32419122315439}, "829450162RR0001": {"name": "HOPECITY KOREAN COMMUNITY CHURCH", "designationCode": "C", "categoryCode": "39", "address": "PO BOX 516", "city": "FORT MACLEOD", "province": "AB", "country": "CA", "postalCode": "T0L0Z0", "twitter": "None", "instagram": "None", "facebook": "None", "youtube": "None", "website": "None", "summary": "None", "logo": "None", "latitude": 49.72608000000008, "longitude": -113.39563999999996}, "132701483RR0001": {"name": "HOPEDALE BIBLE CHAPEL", "designationCode": "C", "categoryCode": "39", "address": "342 SHERIN DRIVE", "city": "OAKVILLE", "province": "ON", "country": "CA", "postalCode": "L6L4J3", "twitter": "None", "instagram": "None", "facebook": "None", "youtube": "None", "website": "None", "summary": "None", "logo": "None", "latitude": 43.415300158751265, "longitude": -79.70361188871252}, "107490054RR0001": {"name": "HOPEDALE COMMUNITY NURSERY SCHOOL INCORPORATED", "designationCode": "C", "categoryCode": "20", "address": "318 QUEEN MARY DRIVE          ST. AIDAN\"S ANGLICAN CHURCH", "city": "OAKVILLE", "province": "ON", "country": "CA", "postalCode": "L6K3L6", "twitter": "None", "instagram": "None", "facebook": "None", "youtube": "None", "website": "None", "summary": "None", "logo": "None", "latitude": 43.4468036061516, "longitude": -79.68021802290949}, "107490088RR0001": {"name": "HOPEDALE PRESBYTERIAN CHURCH", "designationCode": "C", "categoryCode": "37", "address": "156 THIRD LINE", "city": "OAKVILLE", "province": "ON", "country": "CA", "postalCode": "L6L3Z8", "twitter": "None", "instagram": "None", "facebook": "None", "youtube": "None", "website": "None", "summary": "None", "logo": "None", "latitude": 43.4069778306885, "longitude": -79.70145951056024}, "108083510RR0001": {"name": "HOPEGREYBRUCE MENTAL HEALTH AND ADDICTIONS SERVICES", "designationCode": "C", "categoryCode": "09", "address": "1101 2ND AVENUE EAST          UNIT 206", "city": "OWEN SOUND", "province": "ON", "country": "CA", "postalCode": "N4K2J1", "twitter": "None", "instagram": "None", "facebook": "None", "youtube": "None", "website": "None", "summary": "None", "logo": "None", "latitude": 44.57015839829394, "longitude": -80.94165632330349}, "898943857RR0001": {"name": "HOPESPRING CANCER SUPPORT CENTRE", "designationCode": "C", "categoryCode": "09", "address": "475 KING ST N", "city": "WATERLOO", "province": "ON", "country": "CA", "postalCode": "N2J2Z5", "twitter": "None", "instagram": "None", "facebook": "None", "youtube": "None", "website": "None", "summary": "None", "logo": "None", "latitude": 43.490245945871145, "longitude": -80.5289722245073}, "867276347RR0001": {"name": "HOPETOWN RECREATION COMMITTEE", "designationCode": "C", "categoryCode": "56", "address": "578 DOBBIE ROAD", "city": "LANARK", "province": "ON", "country": "CA", "postalCode": "K0G1K0", "twitter": "None", "instagram": "None", "facebook": "None", "youtube": "None", "website": "None", "summary": "None", "logo": "None", "latitude": 45.05512723096053, "longitude": -76.43518706977167}, "890201486RR0001": {"name": "HOPEWELL CEMETERY COMPANY", "designationCode": "C", "categoryCode": "59", "address": "3961 TRAFALGAR ROAD           RR#1", "city": "HOPEWELL", "province": "NS", "country": "CA", "postalCode": "B0K1C0", "twitter": "None", "instagram": "None", "facebook": "None", "youtube": "None", "website": "None", "summary": "None", "logo": "None", "latitude": 45.46349700000006, "longitude": -62.73608749999994}, "131161986RR0001": {"name": "HOPEWELL CHILDREN'S HOMES INC", "designationCode": "C", "categoryCode": "01", "address": "5651 WELLINGTON RD 86", "city": "ARISS", "province": "ON", "country": "CA", "postalCode": "N0B1B0", "twitter": "None", "instagram": "None", "facebook": "None", "youtube": "None", "website": "None", "summary": "None", "logo": "None", "latitude": 43.56743226034389, "longitude": -80.35394611711588}, "118962976RR0001": {"name": "HOPEWELL HILL BAPTIST CHURCH", "designationCode": "C", "categoryCode": "31", "address": "5304 RTE. 114", "city": "HOPEWELL HILL", "province": "NB", "country": "CA", "postalCode": "E4H3N2", "twitter": "None", "instagram": "None", "facebook": "None", "youtube": "None", "website": "None", "summary": "None", "logo": "None", "latitude": 45.766457111624156, "longitude": -64.68063162753838}, "837133560RR0001": {"name": "HOPE2OFFER MINISTRIES", "designationCode": "C", "categoryCode": "47", "address": "406-1055 BROADWAY W", "city": "VANCOUVER", "province": "BC", "country": "CA", "postalCode": "V6H1E2", "twitter": "None", "instagram": "None", "facebook": "None", "youtube": "None", "website": "None", "summary": "None", "logo": "None", "latitude": 49.2634524532574, "longitude": -123.1278027485429}, "852172410RR0001": {"name": "HOPE4CHILD RELIEF MISSION INC.", "designationCode": "C", "categoryCode": "09", "address": "2365 WARDEN AVENUE            PO BOX 30005", "city": "TORONTO", "province": "ON", "country": "CA", "postalCode": "M1T2H5", "twitter": "None", "instagram": "None", "facebook": "None", "youtube": "None", "website": "None", "summary": "None", "logo": "None", "latitude": 43.78491609660099, "longitude": -79.31066978331164}, "118962984RR0001": {"name": "HOPING COMMUNITY RECREATION ASSOCIATION", "designationCode": "C", "categoryCode": "56", "address": "RR 1", "city": "FOREMOST", "province": "AB", "country": "CA", "postalCode": "T0K0X0", "twitter": "None", "instagram": "None", "facebook": "None", "youtube": "None", "website": "None", "summary": "None", "logo": "None", "latitude": 49.479039, "longitude": -111.44433810502852}, "107678401RR0001": {"name": "HOPITAL DE MATTAWA HOSPITAL INC.", "designationCode": "C", "categoryCode": "10", "address": "217 TURCOTTE PARK RD-PO BOX 70", "city": "MATTAWA", "province": "ON", "country": "CA", "postalCode": "P0H1V0", "twitter": "None", "instagram": "None", "facebook": "None", "youtube": "None", "website": "None", "summary": "None", "logo": "None", "latitude": 46.311374466018876, "longitude": -78.71512303920434}, "108104076RR0001": {"name": "HOPITAL GENERAL DE NIPISSING OUEST / THE WEST NIPISSING GENERAL HOSPITAL", "designationCode": "C", "categoryCode": "10", "address": "725 COURSOL ROAD", "city": "STURGEON FALLS", "province": "ON", "country": "CA", "postalCode": "P2B2Y6", "twitter": "None", "instagram": "None", "facebook": "None", "youtube": "None", "website": "None", "summary": "None", "logo": "None", "latitude": 46.37338509587523, "longitude": -79.91439445888594}, "118963164RR0001": {"name": "HOPITAL JUIF DE READAPTATION JEWISH REHABILITATION HOSPITAL", "designationCode": "C", "categoryCode": "10", "address": "3205 ALTON GOLDBLOOM", "city": "CHOMEDEY LAVAL", "province": "QC", "country": "CA", "postalCode": "H7V1R2", "twitter": "None", "instagram": "None", "facebook": "None", "youtube": "None", "website": "None", "summary": "None", "logo": "None", "latitude": 45.5479690183792, "longitude": -73.73694658179888}, "141300566RR0001": {"name": "HOPITAL MARIE-CLARAC DES SOEURS DE CHARITE DE STE-MARIE (1995) INC.", "designationCode": "C", "categoryCode": "10", "address": "3530 BOUL GOUIN E", "city": "MONTREAL-NORD", "province": "QC", "country": "CA", "postalCode": "H1H1B7", "twitter": "None", "instagram": "None", "facebook": "None", "youtube": "None", "website": "None", "summary": "None", "logo": "None", "latitude": 45.591237086012065, "longitude": -73.64970919366422}, "118963230RR0001": {"name": "HOPITAL MONTFORT", "designationCode": "C", "categoryCode": "10", "address": "713 MONTREAL RD", "city": "OTTAWA", "province": "ON", "country": "CA", "postalCode": "K1K0T2", "twitter": "None", "instagram": "None", "facebook": "None", "youtube": "None", "website": "None", "summary": "None", "logo": "None", "latitude": 45.44415542940227, "longitude": -75.63802910941673}, "107787590RR0001": {"name": "HOPITAL NOTRE-DAME HOSPITAL (HEARST)", "designationCode": "C", "categoryCode": "10", "address": "1405 EDWARD STREET BAG 8000", "city": "HEARST", "province": "ON", "country": "CA", "postalCode": "P0L1N0", "twitter": "None", "instagram": "None", "facebook": "None", "youtube": "None", "website": "None", "summary": "None", "logo": "None", "latitude": 49.68678359786102, "longitude": -83.67850435988652}, "107491847RR0001": {"name": "HOPITAL SAINTE-JUSTINE", "designationCode": "C", "categoryCode": "10", "address": "3175 COTE STE CATHERINE       SITE DECELLES", "city": "MONTREAL", "province": "QC", "country": "CA", "postalCode": "H3T1C5", "twitter": "None", "instagram": "None", "facebook": "None", "youtube": "None", "website": "None", "summary": "None", "logo": "None", "latitude": 45.50269689384822, "longitude": -73.62389770153857}, "107495491RR0001": {"name": "HOPITAL SHRINERS POUR ENFANTS (QUEBEC) INC./ SHRINERS HOSPITAL FOR CHILDREN (QUEBEC) INC.", "designationCode": "C", "categoryCode": "10", "address": "1529 AVENUE CEDAR", "city": "MONTREAL", "province": "QC", "country": "CA", "postalCode": "H3G1A6", "twitter": "None", "instagram": "None", "facebook": "None", "youtube": "None", "website": "None", "summary": "None", "logo": "None", "latitude": 45.49927924121399, "longitude": -73.58774961313382}, "892537960RR0001": {"name": "HORACE PATTERSON FOUNDATION INC.", "designationCode": "C", "categoryCode": "21", "address": "BOX 34088 1KILLARNEY ST", "city": "WINNIPEG", "province": "MB", "country": "CA", "postalCode": "R3T5T5", "twitter": "None", "instagram": "None", "facebook": "None", "youtube": "None", "website": "None", "summary": "None", "logo": "None", "latitude": 49.7913997241611, "longitude": -97.15116310250251}, "868596149RR0001": {"name": "HORATIO ROLAND EGGLETON ESTATE", "designationCode": "B", "categoryCode": "05", "address": "PO BOX 10085                  LCD PACIFIC CENTRE", "city": "VANCOUVER", "province": "BC", "country": "CA", "postalCode": "V7Y1B6", "twitter": "None", "instagram": "None", "facebook": "None", "youtube": "None", "website": "None", "summary": "None", "logo": "None", "latitude": 49.28299000000004, "longitude": -123.11890999999997}, "889653572RR0001": {"name": "HOREB SAINT-JACQUES", "designationCode": "C", "categoryCode": "09", "address": "122 RUE ST-JACQUES", "city": "ST JACQUES", "province": "QC", "country": "CA", "postalCode": "J0K2R0", "twitter": "None", "instagram": "None", "facebook": "None", "youtube": "None", "website": "None", "summary": "None", "logo": "None", "latitude": 45.94917886655283, "longitude": -73.57210309567827}, "108057670RR0001": {"name": "HORIZON ACHIEVEMENT CENTRE SOCIETY", "designationCode": "C", "categoryCode": "09", "address": "780 UPPER PRINCE ST", "city": "SYDNEY", "province": "NS", "country": "CA", "postalCode": "B1P5N6", "twitter": "None", "instagram": "None", "facebook": "None", "youtube": "None", "website": "None", "summary": "None", "logo": "None", "latitude": 46.138758654711886, "longitude": -60.16569129061097}, "106887656RR0001": {"name": "HORIZON COLLEGE AND SEMINARY INC.", "designationCode": "C", "categoryCode": "20", "address": "1303 JACKSON AVE", "city": "SASKATOON", "province": "SK", "country": "CA", "postalCode": "S7H2M9", "twitter": "None", "instagram": "None", "facebook": "None", "youtube": "None", "website": "None", "summary": "None", "logo": "None", "latitude": 52.112934062178944, "longitude": -106.63378772058442}, "889381265RR0001": {"name": "HORIZON EMPLOYEES' CHARITY FUND", "designationCode": "B", "categoryCode": "75", "address": "PO BOX 2249 LCDI", "city": "HAMILTON", "province": "ON", "country": "CA", "postalCode": "L8N3E4", "twitter": "None", "instagram": "None", "facebook": "None", "youtube": "None", "website": "None", "summary": "None", "logo": "None", "latitude": 43.261962000000054, "longitude": -79.88800399999994}, "121963573RR0001": {"name": "HORIZON HOUSING SOCIETY", "designationCode": "C", "categoryCode": "09", "address": "885 - 105 12 AVE SE", "city": "CALGARY", "province": "AB", "country": "CA", "postalCode": "T2G1A1", "twitter": "None", "instagram": "None", "facebook": "None", "youtube": "None", "website": "None", "summary": "None", "logo": "None", "latitude": 51.04136053621104, "longitude": -114.06274186372553}, "868459884RR0001": {"name": "HORIZON MINISTRIES CANADA", "designationCode": "C", "categoryCode": "49", "address": "7742 VICTORIA DR", "city": "VANCOUVER", "province": "BC", "country": "CA", "postalCode": "V5P4A1", "twitter": "None", "instagram": "None", "facebook": "None", "youtube": "None", "website": "None", "summary": "None", "logo": "None", "latitude": 49.2141051618097, "longitude": -123.06600894001409}, "107492373RR0001": {"name": "HORIZON POUR ELLE INC.", "designationCode": "C", "categoryCode": "01", "address": "C.P. 248", "city": "COWANSVILLE", "province": "QC", "country": "CA", "postalCode": "J2K3S7", "twitter": "None", "instagram": "None", "facebook": "None", "youtube": "None", "website": "None", "summary": "None", "logo": "None", "latitude": 45.208068000000054, "longitude": -72.74446099999993}, "811401470RR0001": {"name": "HORIZON SCHOOL DIVISION NO. 205", "designationCode": "C", "categoryCode": "20", "address": "BOX 40", "city": "HUMBOLDT", "province": "SK", "country": "CA", "postalCode": "S0K2A0", "twitter": "None", "instagram": "None", "facebook": "None", "youtube": "None", "website": "None", "summary": "None", "logo": "None", "latitude": 51.7871843348964, "longitude": -104.71638483007007}, "891332363RR0001": {"name": "HORIZON SOLEIL, TABLE DE CONCERTATION DE PREVENTION DES TOXICOMANIES ET DE PROMOTION DE LA SANTE DE LA REGION D'ACTON", "designationCode": "C", "categoryCode": "59", "address": "962 RUE ST-ANDR\u00c9", "city": "ACTON VALE", "province": "QC", "country": "CA", "postalCode": "J0H1A0", "twitter": "None", "instagram": "None", "facebook": "None", "youtube": "None", "website": "None", "summary": "None", "logo": "None", "latitude": 45.64769361172018, "longitude": -72.56418313662117}, "713297893RR0001": {"name": "HORIZON-NATURE BAS-SAINT-LAURENT", "designationCode": "C", "categoryCode": "59", "address": "103 - 570L RUE SAINT-GERMAIN E", "city": "RIMOUSKI", "province": "QC", "country": "CA", "postalCode": "G5L1G4", "twitter": "None", "instagram": "None", "facebook": "None", "youtube": "None", "website": "None", "summary": "None", "logo": "None", "latitude": 48.47709934662457, "longitude": -68.50950125823549}, "118883735RR0001": {"name": "HORIZONS CHILDREN'S CENTRE INC.", "designationCode": "C", "categoryCode": "01", "address": "367 HAMPTON ST. 2ND FLOOR", "city": "WINNIPEG", "province": "MB", "country": "CA", "postalCode": "R3J1P7", "twitter": "None", "instagram": "None", "facebook": "None", "youtube": "None", "website": "None", "summary": "None", "logo": "None", "latitude": 49.88634181626177, "longitude": -97.21215187004486}, "118963461RR0001": {"name": "HORIZONS OF FRIENDSHIP", "designationCode": "C", "categoryCode": "09", "address": "50 COVERT STREET              PO BOX 402", "city": "COBOURG", "province": "ON", "country": "CA", "postalCode": "K9A4L1", "twitter": "None", "instagram": "None", "facebook": "None", "youtube": "None", "website": "None", "summary": "None", "logo": "None", "latitude": 43.96047427782905, "longitude": -78.16806652192855}, "107492449RR0001": {"name": "HORIZONS TRAINING CENTRE SOCIETY", "designationCode": "C", "categoryCode": "20", "address": "5431-36 AVENUE", "city": "WETASKIWIN", "province": "AB", "country": "CA", "postalCode": "T9A3C7", "twitter": "None", "instagram": "None", "facebook": "None", "youtube": "None", "website": "None", "summary": "None", "logo": "None", "latitude": 52.95257650288555, "longitude": -113.38922160935425}, "133593939RR0001": {"name": "HORIZONS UNBOUND REHABILITATION AND TRAINING SOCIETY", "designationCode": "C", "categoryCode": "09", "address": "P.O.BOX 27103", "city": "LANGFORD RPO", "province": "BC", "country": "CA", "postalCode": "V9B5S4", "twitter": "None", "instagram": "None", "facebook": "None", "youtube": "None", "website": "None", "summary": "None", "logo": "None", "latitude": 48.4437907914318, "longitude": -123.52591775669396}, "118805068RR0001": {"name": "HORN OF OIL MINISTRIES", "designationCode": "C", "categoryCode": "49", "address": "4050 COMPTON RD", "city": "PORT ALBERNI", "province": "BC", "country": "CA", "postalCode": "V9Y8A8", "twitter": "None", "instagram": "None", "facebook": "None", "youtube": "None", "website": "None", "summary": "None", "logo": "None", "latitude": 49.269380481245456, "longitude": -124.79862175145709}, "107492480RR0001": {"name": "HORNBY AND DENMAN COMMUNITY HEALTH CARE SOCIETY", "designationCode": "C", "categoryCode": "09", "address": "1965 SOLLANS RD", "city": "HORNBY ISLAND", "province": "BC", "country": "CA", "postalCode": "V0R1Z0", "twitter": "None", "instagram": "None", "facebook": "None", "youtube": "None", "website": "None", "summary": "None", "logo": "None", "latitude": 49.538737956280244, "longitude": -124.66490257255819}, "118963503RR0001": {"name": "HORNBY FESTIVAL SOCIETY", "designationCode": "C", "categoryCode": "22", "address": "2125 SOLLANS ROAD", "city": "HORNBY ISLAND", "province": "BC", "country": "CA", "postalCode": "V0R1Z0", "twitter": "None", "instagram": "None", "facebook": "None", "youtube": "None", "website": "None", "summary": "None", "logo": "None", "latitude": 49.538737956280244, "longitude": -124.66490257255819}, "868287624RR0001": {"name": "HORNBY ISLAND ARTS COUNCIL", "designationCode": "C", "categoryCode": "22", "address": "2115A SOLLANS RD", "city": "HORNBY ISLAND", "province": "BC", "country": "CA", "postalCode": "V0R1Z0", "twitter": "None", "instagram": "None", "facebook": "None", "youtube": "None", "website": "None", "summary": "None", "logo": "None", "latitude": 49.538737956280244, "longitude": -124.66490257255819}, "128614633RR0001": {"name": "HORNBY ISLAND ATHLETIC ASSOCIATION", "designationCode": "C", "categoryCode": "56", "address": "3875 CENTRAL ROAD", "city": "HORNBY ISLAND", "province": "BC", "country": "CA", "postalCode": "V0R1Z0", "twitter": "None", "instagram": "None", "facebook": "None", "youtube": "None", "website": "None", "summary": "None", "logo": "None", "latitude": 49.532824139777645, "longitude": -124.6662612644758}, "107492498RR0001": {"name": "HORNBY ISLAND DAYCARE SOCIETY", "designationCode": "C", "categoryCode": "01", "address": "2200 SOLLANS RD", "city": "HORNBY ISLAND", "province": "BC", "country": "CA", "postalCode": "V0R1Z0", "twitter": "None", "instagram": "None", "facebook": "None", "youtube": "None", "website": "None", "summary": "None", "logo": "None", "latitude": 49.538737956280244, "longitude": -124.66490257255819}, "896795283RR0001": {"name": "HORNBY ISLAND EDUCATIONAL SOCIETY", "designationCode": "C", "categoryCode": "21", "address": "2100 SOLLANS RD", "city": "HORNBY ISLAND", "province": "BC", "country": "CA", "postalCode": "V0R1Z0", "twitter": "None", "instagram": "None", "facebook": "None", "youtube": "None", "website": "None", "summary": "None", "logo": "None", "latitude": 49.538737956280244, "longitude": -124.66490257255819}, "118963537RR0001": {"name": "HORNBY ISLAND NEW HORIZONS SOCIETY", "designationCode": "C", "categoryCode": "50", "address": "P.O.BOX 43, 1765 SOLLANS RD", "city": "HORNBY ISLAND", "province": "BC", "country": "CA", "postalCode": "V0R1Z0", "twitter": "None", "instagram": "None", "facebook": "None", "youtube": "None", "website": "None", "summary": "None", "logo": "None", "latitude": 49.532049, "longitude": -124.66477951892938}, "132786955RR0001": {"name": "HORNBY PASTORAL CHARGE,", "designationCode": "C", "categoryCode": "44", "address": "8958 TRAFALGAR ROAD", "city": "RR2 GEORGETOWN", "province": "ON", "country": "CA", "postalCode": "L7G4S5", "twitter": "None", "instagram": "None", "facebook": "None", "youtube": "None", "website": "None", "summary": "None", "logo": "None", "latitude": 43.58776170243547, "longitude": -79.86742083296751}, "107492548RR0001": {"name": "HORNEPAYNE COMMUNITY HOSPITAL", "designationCode": "C", "categoryCode": "10", "address": "P.O. BOX 190", "city": "HORNEPAYNE", "province": "ON", "country": "CA", "postalCode": "P0M1Z0", "twitter": "None", "instagram": "None", "facebook": "None", "youtube": "None", "website": "None", "summary": "None", "logo": "None", "latitude": 49.170080784352486, "longitude": -84.86323931324436}, "118963578RR0001": {"name": "HORNEPAYNE COMMUNITY HOSPITAL AUXILIARY", "designationCode": "C", "categoryCode": "19", "address": "PO BOX 508", "city": "HORNEPAYNE", "province": "ON", "country": "CA", "postalCode": "P0M1Z0", "twitter": "None", "instagram": "None", "facebook": "None", "youtube": "None", "website": "None", "summary": "None", "logo": "None", "latitude": 49.170080784352486, "longitude": -84.86323931324436}, "872020474RR0001": {"name": "HORSE LAKE CHRISTIAN FELLOWSHIP", "designationCode": "C", "categoryCode": "39", "address": "5827 HORSELAKE RD", "city": "100 MILE HOUSE", "province": "BC", "country": "CA", "postalCode": "V0K2E3", "twitter": "None", "instagram": "None", "facebook": "None", "youtube": "None", "website": "None", "summary": "None", "logo": "None", "latitude": 51.635166000000055, "longitude": -121.29268849999994}, "118963602RR0001": {"name": "HORSE LAKE MENNONITE CHURCH", "designationCode": "C", "categoryCode": "34", "address": "BOX 278", "city": "DUCK LAKE", "province": "SK", "country": "CA", "postalCode": "S0K1J0", "twitter": "None", "instagram": "None", "facebook": "None", "youtube": "None", "website": "None", "summary": "None", "logo": "None", "latitude": 52.809180000000026, "longitude": -106.22419999999994}, "891800575RR0001": {"name": "HORSE PROTECTION SOCIETY OF BRITISH COLUMBIA", "designationCode": "C", "categoryCode": "54", "address": "PO BOX 10054 RPO OTTER-CO-OP", "city": "LANGLEY", "province": "BC", "country": "CA", "postalCode": "V4W3Z5", "twitter": "None", "instagram": "None", "facebook": "None", "youtube": "None", "website": "None", "summary": "None", "logo": "None", "latitude": 49.06808007660572, "longitude": -122.53692991719147}, "137840641RR0001": {"name": "HORSEFLY VOLUNTEER FIRE DEPARTMENT", "designationCode": "C", "categoryCode": "59", "address": "BOX 17", "city": "HORSEFLY", "province": "BC", "country": "CA", "postalCode": "V0L1L0", "twitter": "None", "instagram": "None", "facebook": "None", "youtube": "None", "website": "None", "summary": "None", "logo": "None", "latitude": 52.317951503520185, "longitude": -121.51292664881109}, "855486833RR0001": {"name": "HORSES AN' MEMORIES", "designationCode": "B", "categoryCode": "56", "address": "P.O. BOX 388", "city": "LLOYDMINSTER", "province": "SK", "country": "CA", "postalCode": "S9V0Y4", "twitter": "None", "instagram": "None", "facebook": "None", "youtube": "None", "website": "None", "summary": "None", "logo": "None", "latitude": 53.274840000000054, "longitude": -109.99074949999994}, "118963610RR0001": {"name": "HORTICULTURAL SOCIETY OF ESPANOLA", "designationCode": "C", "categoryCode": "52", "address": "447 ST.JOSEPH ST", "city": "ESPANOLA", "province": "ON", "country": "CA", "postalCode": "P5E1M3", "twitter": "None", "instagram": "None", "facebook": "None", "youtube": "None", "website": "None", "summary": "None", "logo": "None", "latitude": 46.255941785734905, "longitude": -81.77436215087407}, "107492688RR0001": {"name": "HORTICULTURE CENTRE OF THE PACIFIC", "designationCode": "C", "categoryCode": "56", "address": "505 QUAYLE RD", "city": "VICTORIA", "province": "BC", "country": "CA", "postalCode": "V9E2J7", "twitter": "None", "instagram": "None", "facebook": "None", "youtube": "None", "website": "None", "summary": "None", "logo": "None", "latitude": 48.50125177182777, "longitude": -123.41388851113622}, "118963636RR0001": {"name": "HORTON BAND PARENT'S ASSOCIATION", "designationCode": "C", "categoryCode": "22", "address": "75 GREENWICH ROAD SOUTH", "city": "WOLFVILLE", "province": "NS", "country": "CA", "postalCode": "B4P2R2", "twitter": "None", "instagram": "None", "facebook": "None", "youtube": "None", "website": "None", "summary": "None", "logo": "None", "latitude": 45.070475353016, "longitude": -64.4009985005522}, "881098032RR0001": {"name": "HORTON COMMUNITY CENTER ASSOCIATION", "designationCode": "C", "categoryCode": "56", "address": "P.O BOX 110", "city": "GRAND PRE", "province": "NS", "country": "CA", "postalCode": "B0P1M0", "twitter": "None", "instagram": "None", "facebook": "None", "youtube": "None", "website": "None", "summary": "None", "logo": "None", "latitude": 45.10347243861738, "longitude": -64.30577398246761}, "887691426RR0001": {"name": "HORTON HIGH CHILDCARE CENTRE SOCIETY", "designationCode": "C", "categoryCode": "01", "address": "75 GREENWICH ROAD SOUTH", "city": "WOLFVILLE", "province": "NS", "country": "CA", "postalCode": "B4P2R2", "twitter": "None", "instagram": "None", "facebook": "None", "youtube": "None", "website": "None", "summary": "None", "logo": "None", "latitude": 45.070475353016, "longitude": -64.4009985005522}, "899413041RR0001": {"name": "HOSANNA CHINESE LUTHERAN CHURCH", "designationCode": "C", "categoryCode": "32", "address": "210 10 AVE NE", "city": "CALGARY", "province": "AB", "country": "CA", "postalCode": "T2E0W9", "twitter": "None", "instagram": "None", "facebook": "None", "youtube": "None", "website": "None", "summary": "None", "logo": "None", "latitude": 51.06167726852271, "longitude": -114.05958722807007}, "873710438RR0001": {"name": "HOSANNA CHRISTIAN ASSEMBLY", "designationCode": "C", "categoryCode": "39", "address": "BOX 61078 KENSINGTON P O", "city": "CALGARY", "province": "AB", "country": "CA", "postalCode": "T2N4S6", "twitter": "None", "instagram": "None", "facebook": "None", "youtube": "None", "website": "None", "summary": "None", "logo": "None", "latitude": 51.0524867557722, "longitude": -114.10475500718039}, "137201323RR0001": {"name": "HOSANNA EVANGELICAL FREE CHURCH OF ONTARIO", "designationCode": "C", "categoryCode": "39", "address": "3065 - UNIT 36, RIDGEWAY DRIVE", "city": "MISSISSAUGA", "province": "ON", "country": "CA", "postalCode": "L5L5M6", "twitter": "None", "instagram": "None", "facebook": "None", "youtube": "None", "website": "None", "summary": "None", "logo": "None", "latitude": 43.51851645830636, "longitude": -79.68890313918864}, "822897757RR0001": {"name": "HOSANNA HANIN COMMUNITY CHURCH", "designationCode": "C", "categoryCode": "37", "address": "2665 RUNNEL DR", "city": "COQUITLAM", "province": "BC", "country": "CA", "postalCode": "V3E1S3", "twitter": "None", "instagram": "None", "facebook": "None", "youtube": "None", "website": "None", "summary": "None", "logo": "None", "latitude": 49.27883950822297, "longitude": -122.8133115}, "862629557RR0001": {"name": "HOSANNA HOUSE FELLOWSHIP INC.", "designationCode": "C", "categoryCode": "39", "address": "1602 LOUISE AVE", "city": "SASKATOON", "province": "SK", "country": "CA", "postalCode": "S7H2R4", "twitter": "None", "instagram": "None", "facebook": "None", "youtube": "None", "website": "None", "summary": "None", "logo": "None", "latitude": 52.109892586733224, "longitude": -106.63094576325808}, "861832947RR0001": {"name": "HOSANNA INTERNATIONAL OUTREACH MINISTRIES", "designationCode": "C", "categoryCode": "47", "address": "3-3055 DUNDAS STREET WEST     SUITE 156", "city": "MISSISSAUGA", "province": "ON", "country": "CA", "postalCode": "L5L3R8", "twitter": "None", "instagram": "None", "facebook": "None", "youtube": "None", "website": "None", "summary": "None", "logo": "None", "latitude": 43.52101917335921, "longitude": -79.6835156369291}, "860127851RR0001": {"name": "HOSANNA KOREAN PRESBYTERIAN CHURCH", "designationCode": "C", "categoryCode": "39", "address": "512 - 2015 LAWRENCE AVE E", "city": "SCARBOROUGH", "province": "ON", "country": "CA", "postalCode": "M1R5H2", "twitter": "None", "instagram": "None", "facebook": "None", "youtube": "None", "website": "None", "summary": "None", "logo": "None", "latitude": 43.744818772713025, "longitude": -79.29743557108984}, "132490079RR0001": {"name": "HOSANNA LUTHERAN CHURCH AT LUTHER PLACE", "designationCode": "C", "categoryCode": "32", "address": "9009- 163 ST", "city": "EDMONTON", "province": "AB", "country": "CA", "postalCode": "T5R2N8", "twitter": "None", "instagram": "None", "facebook": "None", "youtube": "None", "website": "None", "summary": "None", "logo": "None", "latitude": 53.525744245628715, "longitude": -113.60255379291958}, "888201431RR0001": {"name": "HOSANNA MINISTRIES INC.", "designationCode": "B", "categoryCode": "49", "address": "3332 DEITER BAY", "city": "REGINA", "province": "SK", "country": "CA", "postalCode": "S4V2V9", "twitter": "None", "instagram": "None", "facebook": "None", "youtube": "None", "website": "None", "summary": "None", "logo": "None", "latitude": 50.42657098338024, "longitude": -104.5285489883719}}