{"119240034RR0002": {"name": "TORONTO HINDU DHARMIC SABHA", "designationCode": "C", "categoryCode": "48", "address": "130 WESTMORE DRIVE UNIT 15", "city": "ETOBICOKE", "province": "ON", "country": "CA", "postalCode": "M9V5E2", "twitter": "None", "instagram": "None", "facebook": "None", "youtube": "None", "website": "None", "summary": "None", "logo": "None", "latitude": 43.736073885077175, "longitude": -79.60169521726527}, "138619549RR0001": {"name": "TORONTO HOLYSTONE CHURCH", "designationCode": "C", "categoryCode": "39", "address": "12125 YONGE ST", "city": "RICHMOND HILL", "province": "ON", "country": "CA", "postalCode": "L4E3M4", "twitter": "None", "instagram": "None", "facebook": "None", "youtube": "None", "website": "None", "summary": "None", "logo": "None", "latitude": 43.92273427116393, "longitude": -79.44948553774024}, "829341817RR0001": {"name": "TORONTO HOPE SPRING KOREAN PRESBYTERIAN CHURCH", "designationCode": "C", "categoryCode": "39", "address": "729 ST. CLAIR AV WEST", "city": "TORONTO", "province": "ON", "country": "CA", "postalCode": "M6C1B2", "twitter": "None", "instagram": "None", "facebook": "None", "youtube": "None", "website": "None", "summary": "None", "logo": "None", "latitude": 43.68135476545115, "longitude": -79.42687805681192}, "860816396RR0001": {"name": "TORONTO HOSTELS TRAINING CENTRE", "designationCode": "C", "categoryCode": "20", "address": "501 - 65 WELLESLEY ST E", "city": "TORONTO", "province": "ON", "country": "CA", "postalCode": "M4Y1G7", "twitter": "None", "instagram": "None", "facebook": "None", "youtube": "None", "website": "None", "summary": "None", "logo": "None", "latitude": 43.66563271827582, "longitude": -79.38115773674191}, "107797383RR0060": {"name": "TORONTO HUNGARIAN SEVENTH-DAY ADVENTIST CHURCH", "designationCode": "C", "categoryCode": "41", "address": "26 CANADINE ROAD", "city": "SCARBOROUGH", "province": "ON", "country": "CA", "postalCode": "M1P3R1", "twitter": "None", "instagram": "None", "facebook": "None", "youtube": "None", "website": "None", "summary": "None", "logo": "None", "latitude": 43.76686615072984, "longitude": -79.26925881294355}, "886561273RR0001": {"name": "TORONTO HYE SUNG PRESBYTERIAN CHURCH", "designationCode": "C", "categoryCode": "37", "address": "1501 WOODBINE AVE # 2017", "city": "TORONTO", "province": "ON", "country": "CA", "postalCode": "M4C1H1", "twitter": "None", "instagram": "None", "facebook": "None", "youtube": "None", "website": "None", "summary": "None", "logo": "None", "latitude": 43.69976647850415, "longitude": -79.31883013869864}, "132056342RR0001": {"name": "TORONTO IMMANUEL CHINESE BAPTIST CHURCH", "designationCode": "C", "categoryCode": "31", "address": "50 FOURACRE WAY", "city": "AURORA", "province": "ON", "country": "CA", "postalCode": "L4G7W7", "twitter": "None", "instagram": "None", "facebook": "None", "youtube": "None", "website": "None", "summary": "None", "logo": "None", "latitude": 44.01611345074721, "longitude": -79.44123109062835}, "891990707RR0001": {"name": "TORONTO IMMANUEL CHURCH", "designationCode": "C", "categoryCode": "39", "address": "3180 BATHURST ST", "city": "NORTH YORK", "province": "ON", "country": "CA", "postalCode": "M6A2A9", "twitter": "None", "instagram": "None", "facebook": "None", "youtube": "None", "website": "None", "summary": "None", "logo": "None", "latitude": 43.722713001933236, "longitude": -79.43057692402857}, "135016400RR0001": {"name": "TORONTO INTERGENERATIONAL PARTNERSHIPS IN COMMUNITY", "designationCode": "C", "categoryCode": "59", "address": "A36-800 GREENWOOD AVE", "city": "TORONTO", "province": "ON", "country": "CA", "postalCode": "M4J4B7", "twitter": "None", "instagram": "None", "facebook": "None", "youtube": "None", "website": "None", "summary": "None", "logo": "None", "latitude": 43.68303802718, "longitude": -79.33307317008997}, "896789310RR0001": {"name": "TORONTO INTERNATIONAL CELEBRATION CHURCH", "designationCode": "C", "categoryCode": "39", "address": "190 RAILSIDE ROAD", "city": "TORONTO", "province": "ON", "country": "CA", "postalCode": "M3A1A3", "twitter": "None", "instagram": "None", "facebook": "None", "youtube": "None", "website": "None", "summary": "None", "logo": "None", "latitude": 43.7396396458251, "longitude": -79.3247763823941}, "858782196RR0001": {"name": "TORONTO INTERNATIONAL CHRISTIAN CHURCH", "designationCode": "C", "categoryCode": "39", "address": "69 TALENT CRES", "city": "NORTH YORK", "province": "ON", "country": "CA", "postalCode": "M9M2N5", "twitter": "None", "instagram": "None", "facebook": "None", "youtube": "None", "website": "None", "summary": "None", "logo": "None", "latitude": 43.738374562034714, "longitude": -79.53666341046815}, "847961125RR0001": {"name": "TORONTO INTERNATIONAL FAMILY CHURCH", "designationCode": "C", "categoryCode": "39", "address": "P.O. BOX 26085                RPO CHURCHILL", "city": "MISSISSAUGA", "province": "ON", "country": "CA", "postalCode": "L5L5W7", "twitter": "None", "instagram": "None", "facebook": "None", "youtube": "None", "website": "None", "summary": "None", "logo": "None", "latitude": 43.70823401009694, "longitude": -79.64423545091155}, "119304541RR0001": {"name": "TORONTO INTERNATIONAL FILM FESTIVAL INC", "designationCode": "C", "categoryCode": "22", "address": "350 KING STREET W", "city": "TORONTO", "province": "ON", "country": "CA", "postalCode": "M5V3X5", "twitter": "None", "instagram": "None", "facebook": "None", "youtube": "None", "website": "None", "summary": "None", "logo": "None", "latitude": 43.64649019790516, "longitude": -79.39032884569214}, "822329470RR0001": {"name": "TORONTO IRANIAN CHRISTIAN CHURCH", "designationCode": "C", "categoryCode": "39", "address": "7 CONCORDE PLACE #509", "city": "NORTH YORK", "province": "ON", "country": "CA", "postalCode": "M3C3N4", "twitter": "None", "instagram": "None", "facebook": "None", "youtube": "None", "website": "None", "summary": "None", "logo": "None", "latitude": 43.73022733726668, "longitude": -79.32824485492566}, "861920718RR0001": {"name": "TORONTO ISLAND COMMUNITY CENTRE", "designationCode": "C", "categoryCode": "56", "address": "21 THIRD STREET", "city": "TORONTO", "province": "ON", "country": "CA", "postalCode": "M5J2B3", "twitter": "None", "instagram": "None", "facebook": "None", "youtube": "None", "website": "None", "summary": "None", "logo": "None", "latitude": 43.63277854368284, "longitude": -79.35527762412954}, "119266666RR0001": {"name": "TORONTO JAFFRAY CHINESE ALLIANCE CHURCH", "designationCode": "C", "categoryCode": "39", "address": "9950 SHEPPARD AVENUE EAST", "city": "SCARBOROUGH", "province": "ON", "country": "CA", "postalCode": "M1B5R6", "twitter": "None", "instagram": "None", "facebook": "None", "youtube": "None", "website": "None", "summary": "None", "logo": "None", "latitude": 43.8088741690517, "longitude": -79.16859669929012}, "888120243RR0001": {"name": "TORONTO JAPANESE LANGUAGE SCHOOL", "designationCode": "C", "categoryCode": "20", "address": "3 TERNHILL CRESCENT", "city": "TORONTO", "province": "ON", "country": "CA", "postalCode": "M3C2E4", "twitter": "None", "instagram": "None", "facebook": "None", "youtube": "None", "website": "None", "summary": "None", "logo": "None", "latitude": 43.7325618393155, "longitude": -79.35059976767283}, "107797383RR0059": {"name": "TORONTO JAPANESE SEVENTH-DAY ADVENTIST CHURCH", "designationCode": "C", "categoryCode": "41", "address": "19 MORTIMER AVENUE", "city": "TORONTO", "province": "ON", "country": "CA", "postalCode": "M4K1Z9", "twitter": "None", "instagram": "None", "facebook": "None", "youtube": "None", "website": "None", "summary": "None", "logo": "None", "latitude": 43.68415975823776, "longitude": -79.3554775151192}, "806237475RR0001": {"name": "TORONTO JEWISH ACADEMY OHR MENACHEM", "designationCode": "C", "categoryCode": "20", "address": "3 - 5987 BATHURST ST", "city": "NORTH YORK", "province": "ON", "country": "CA", "postalCode": "M2R1Z3", "twitter": "None", "instagram": "None", "facebook": "None", "youtube": "None", "website": "None", "summary": "None", "logo": "None", "latitude": 43.78613104524208, "longitude": -79.44605454827183}, "119266724RR0001": {"name": "TORONTO JEWISH FOLK CHOIR FOUNDATION", "designationCode": "A", "categoryCode": "22", "address": "73 GAMBELLO CRES", "city": "TORONTO", "province": "ON", "country": "CA", "postalCode": "M3J1W2", "twitter": "None", "instagram": "None", "facebook": "None", "youtube": "None", "website": "None", "summary": "None", "logo": "None", "latitude": 43.75281439497356, "longitude": -79.50043055092623}, "856351739RR0001": {"name": "TORONTO JOOSARANG CHURCH", "designationCode": "C", "categoryCode": "39", "address": "LPH10-16 HARRISON GARDEN BLVD", "city": "NORTH YORK", "province": "ON", "country": "CA", "postalCode": "M2N7J6", "twitter": "None", "instagram": "None", "facebook": "None", "youtube": "None", "website": "None", "summary": "None", "logo": "None", "latitude": 43.75648652058076, "longitude": -79.40657069535726}, "831173877RR0001": {"name": "TORONTO JOYFUL COMMUNITY CHURCH", "designationCode": "C", "categoryCode": "39", "address": "70 HILDA AVE", "city": "TORONTO", "province": "ON", "country": "CA", "postalCode": "M2M1V5", "twitter": "None", "instagram": "None", "facebook": "None", "youtube": "None", "website": "None", "summary": "None", "logo": "None", "latitude": 43.78714594004275, "longitude": -79.42479267225436}, "119266765RR0001": {"name": "TORONTO KALIBARI", "designationCode": "C", "categoryCode": "39", "address": "6815 PROFESSIONAL CRT", "city": "MISSISSAUGA", "province": "ON", "country": "CA", "postalCode": "L4V1Y3", "twitter": "None", "instagram": "None", "facebook": "None", "youtube": "None", "website": "None", "summary": "None", "logo": "None", "latitude": 43.707318232327175, "longitude": -79.63026634064316}, "107797383RR0091": {"name": "TORONTO KINGSVIEW VILLAGE SEVENTH-DAY ADVENTIST CHURCH", "designationCode": "C", "categoryCode": "41", "address": "70 KINGSVIEW BOULEVARD", "city": "ETOBICOKE", "province": "ON", "country": "CA", "postalCode": "M9R1T9", "twitter": "None", "instagram": "None", "facebook": "None", "youtube": "None", "website": "None", "summary": "None", "logo": "None", "latitude": 43.69757205969744, "longitude": -79.55714750181767}, "107573149RR0001": {"name": "TORONTO KIWANIS BOYS AND GIRLS CLUBS", "designationCode": "C", "categoryCode": "09", "address": "101 SPRUCE ST", "city": "TORONTO", "province": "ON", "country": "CA", "postalCode": "M5A2J3", "twitter": "None", "instagram": "None", "facebook": "None", "youtube": "None", "website": "None", "summary": "None", "logo": "None", "latitude": 43.664316936984335, "longitude": -79.36224714418032}, "131471518RR0001": {"name": "TORONTO KOREAN BAPTIST CHURCH", "designationCode": "C", "categoryCode": "39", "address": "278 FINCH AVE EAST", "city": "TORONTO", "province": "ON", "country": "CA", "postalCode": "M2N4S4", "twitter": "None", "instagram": "None", "facebook": "None", "youtube": "None", "website": "None", "summary": "None", "logo": "None", "latitude": 43.784241252870736, "longitude": -79.39529800320264}, "119266823RR0001": {"name": "TORONTO KOREAN METHODIST CHURCH", "designationCode": "C", "categoryCode": "39", "address": "5350 YONGE STREET", "city": "NORTH YORK", "province": "ON", "country": "CA", "postalCode": "M2N5R5", "twitter": "None", "instagram": "None", "facebook": "None", "youtube": "None", "website": "None", "summary": "None", "logo": "None", "latitude": 43.77413362669516, "longitude": -79.41417929909376}, "119266831RR0001": {"name": "TORONTO KOREAN PRAYER HOUSE", "designationCode": "C", "categoryCode": "39", "address": "3 ADDINGTON AVE.", "city": "NORTH YORK", "province": "ON", "country": "CA", "postalCode": "M2N2K8", "twitter": "None", "instagram": "None", "facebook": "None", "youtube": "None", "website": "None", "summary": "None", "logo": "None", "latitude": 43.758868473224034, "longitude": -79.42467775212091}, "827777970RR0001": {"name": "TORONTO KOREAN PRESBYTERIAN CHURCH", "designationCode": "C", "categoryCode": "37", "address": "67 SCARSDALE RD", "city": "NORTH YORK", "province": "ON", "country": "CA", "postalCode": "M3B2R2", "twitter": "None", "instagram": "None", "facebook": "None", "youtube": "None", "website": "None", "summary": "None", "logo": "None", "latitude": 43.74886906385238, "longitude": -79.35442728662986}, "107797383RR0017": {"name": "TORONTO KOREAN SEVENTH-DAY ADVENTIST CHURCH", "designationCode": "C", "categoryCode": "41", "address": "4150 CHESSWOOD DRIVE", "city": "TORONTO", "province": "ON", "country": "CA", "postalCode": "M3J2B9", "twitter": "None", "instagram": "None", "facebook": "None", "youtube": "None", "website": "None", "summary": "None", "logo": "None", "latitude": 43.75944029364073, "longitude": -79.47813401806205}, "108122706RR0001": {"name": "TORONTO KOREAN YUM-KWANG PRESBYTERIAN CHURCH", "designationCode": "C", "categoryCode": "37", "address": "2850 JOHN ST", "city": "MARKHAM", "province": "ON", "country": "CA", "postalCode": "L3R2W4", "twitter": "None", "instagram": "None", "facebook": "None", "youtube": "None", "website": "None", "summary": "None", "logo": "None", "latitude": 43.82542134952904, "longitude": -79.35481777182777}, "890837792RR0001": {"name": "TORONTO LAESTADIAN CONGREGATION", "designationCode": "B", "categoryCode": "32", "address": "P.O. BOX 1035, 5579 HWY 27", "city": "COOKSTOWN", "province": "ON", "country": "CA", "postalCode": "L0L1L0", "twitter": "None", "instagram": "None", "facebook": "None", "youtube": "None", "website": "None", "summary": "None", "logo": "None", "latitude": 44.19570147586637, "longitude": -79.70299533230197}, "119266872RR0001": {"name": "TORONTO LATVIAN CONCERT ASSOCIATION", "designationCode": "C", "categoryCode": "22", "address": "19 LANCEWOOD CRES", "city": "BRAMPTON", "province": "ON", "country": "CA", "postalCode": "L6S5Y5", "twitter": "None", "instagram": "None", "facebook": "None", "youtube": "None", "website": "None", "summary": "None", "logo": "None", "latitude": 43.709727477667435, "longitude": -79.73468858644476}, "119266880RR0001": {"name": "TORONTO LATVIAN SCHOOL VALODINA", "designationCode": "C", "categoryCode": "20", "address": "4 CREDIT UNION DRIVE", "city": "NORTH YORK", "province": "ON", "country": "CA", "postalCode": "M4A2N8", "twitter": "None", "instagram": "None", "facebook": "None", "youtube": "None", "website": "None", "summary": "None", "logo": "None", "latitude": 43.725596051330236, "longitude": -79.31810456266895}, "107657777RR0001": {"name": "TORONTO LIFE-SPRING CHRISTIAN FELLOWSHIP", "designationCode": "C", "categoryCode": "39", "address": "288 CUMMER AVENUE", "city": "WILLOWDALE", "province": "ON", "country": "CA", "postalCode": "M2M2E7", "twitter": "None", "instagram": "None", "facebook": "None", "youtube": "None", "website": "None", "summary": "None", "logo": "None", "latitude": 43.790137165156565, "longitude": -79.40322970650348}, "861449205RR0001": {"name": "TORONTO LIGHT & SALT CHURCH OF THE CHRISTIAN & MISSIONARY ALLIANCE IN CANADA", "designationCode": "C", "categoryCode": "39", "address": "435 HENSALL CIRCLE            UNIT 187", "city": "MISSASAUGA", "province": "ON", "country": "CA", "postalCode": "L5A4P1", "twitter": "None", "instagram": "None", "facebook": "None", "youtube": "None", "website": "None", "summary": "None", "logo": "None", "latitude": 43.59009228005074, "longitude": -79.6057332736741}, "860320241RR0001": {"name": "TORONTO LOCK TAO CHRISTIAN CHURCH", "designationCode": "C", "categoryCode": "39", "address": "PO BOX 82119                  420 HWY 7 EAST", "city": "RICHMOND HILL", "province": "ON", "country": "CA", "postalCode": "L4B3K2", "twitter": "None", "instagram": "None", "facebook": "None", "youtube": "None", "website": "None", "summary": "None", "logo": "None", "latitude": 43.84252248792372, "longitude": -79.3913168999333}, "889157871RR0001": {"name": "TORONTO LOCOMOTIVE PRESERVATION SOCIETY, INC", "designationCode": "C", "categoryCode": "52", "address": "436 MCCAFFREY ROAD", "city": "NEWMARKET", "province": "ON", "country": "CA", "postalCode": "L3X1T6", "twitter": "None", "instagram": "None", "facebook": "None", "youtube": "None", "website": "None", "summary": "None", "logo": "None", "latitude": 44.04210757868313, "longitude": -79.49623067626506}, "883015406RR0001": {"name": "TORONTO LORDS COMMUNITY ASSOCIATION", "designationCode": "C", "categoryCode": "21", "address": "393 KING ST W.                UNIT 404", "city": "TORONTO", "province": "ON", "country": "CA", "postalCode": "M5V1K1", "twitter": "None", "instagram": "None", "facebook": "None", "youtube": "None", "website": "None", "summary": "None", "logo": "None", "latitude": 43.645671798199714, "longitude": -79.39389685469452}, "859332736RR0001": {"name": "TORONTO LUNG TRANSPLANT CIVITAN CLUB INC.", "designationCode": "C", "categoryCode": "11", "address": "48 MANOR HAVEN ROAD", "city": "TORONTO", "province": "ON", "country": "CA", "postalCode": "M6A2J1", "twitter": "None", "instagram": "None", "facebook": "None", "youtube": "None", "website": "None", "summary": "None", "logo": "None", "latitude": 43.723496125194636, "longitude": -79.43522831585774}, "866611056RR0001": {"name": "TORONTO LUTHERAN LORD LOVE CHURC", "designationCode": "C", "categoryCode": "32", "address": "15296 WOODBINE AVE", "city": "GORMLEY", "province": "ON", "country": "CA", "postalCode": "L0H1G0", "twitter": "None", "instagram": "None", "facebook": "None", "youtube": "None", "website": "None", "summary": "None", "logo": "None", "latitude": 43.94191919798831, "longitude": -79.37909938704944}, "119266898RR0001": {"name": "TORONTO MAHAVIHARA SOCIETY", "designationCode": "C", "categoryCode": "39", "address": "4698 KINGSTON ROAD", "city": "SCARBOROUGH", "province": "ON", "country": "CA", "postalCode": "M1E2P9", "twitter": "None", "instagram": "None", "facebook": "None", "youtube": "None", "website": "None", "summary": "None", "logo": "None", "latitude": 43.77849863587042, "longitude": -79.17195714449743}, "897098695RR0001": {"name": "TORONTO MANDARIN CHINESE COMMUNITY CHURCH", "designationCode": "C", "categoryCode": "39", "address": "2230 BIRCHMOUNT ROAD", "city": "SCARBOROUGH", "province": "ON", "country": "CA", "postalCode": "M1T2M2", "twitter": "None", "instagram": "None", "facebook": "None", "youtube": "None", "website": "None", "summary": "None", "logo": "None", "latitude": 43.77940301664843, "longitude": -79.2972847593916}, "874132707RR0001": {"name": "TORONTO MASQUE THEATRE", "designationCode": "C", "categoryCode": "22", "address": "383 HURON ST", "city": "TORONTO", "province": "ON", "country": "CA", "postalCode": "M5S2G5", "twitter": "None", "instagram": "None", "facebook": "None", "youtube": "None", "website": "None", "summary": "None", "logo": "None", "latitude": 43.66585592506776, "longitude": -79.40096721507317}, "892734542RR0001": {"name": "TORONTO MASS CHOIR Inc.", "designationCode": "C", "categoryCode": "22", "address": "14 GOLAN DRIVE", "city": "BRAMPTON", "province": "ON", "country": "CA", "postalCode": "L6P1E8", "twitter": "None", "instagram": "None", "facebook": "None", "youtube": "None", "website": "None", "summary": "None", "logo": "None", "latitude": 43.778879718275824, "longitude": -79.73022451180098}, "119266948RR0001": {"name": "TORONTO MONTESSORI SCHOOLS,", "designationCode": "C", "categoryCode": "20", "address": "8569 BAYVIEW AVE", "city": "RICHMOND HILL", "province": "ON", "country": "CA", "postalCode": "L4B3M7", "twitter": "None", "instagram": "None", "facebook": "None", "youtube": "None", "website": "None", "summary": "None", "logo": "None", "latitude": 43.84181951896845, "longitude": -79.40697775627302}, "119266955RR0001": {"name": "TORONTO MONTHLY MEETING OF THE RELIGIOUS SOCIETY OF FRIENDS", "designationCode": "C", "categoryCode": "39", "address": "60 LOWTHER AVENUE", "city": "TORONTO", "province": "ON", "country": "CA", "postalCode": "M5R1C7", "twitter": "None", "instagram": "None", "facebook": "None", "youtube": "None", "website": "None", "summary": "None", "logo": "None", "latitude": 43.67028511798125, "longitude": -79.3985961154711}, "893029769RR0001": {"name": "TORONTO MYUNG SUNG PRESBYTERIAN CHURCH", "designationCode": "C", "categoryCode": "37", "address": "1 GREENLAND ROAD", "city": "TORONTO", "province": "ON", "country": "CA", "postalCode": "M3C1N1", "twitter": "None", "instagram": "None", "facebook": "None", "youtube": "None", "website": "None", "summary": "None", "logo": "None", "latitude": 43.73379896973291, "longitude": -79.33969484165276}, "119266971RR0001": {"name": "TORONTO NICHIREN BUDDHIST CHURCH", "designationCode": "C", "categoryCode": "49", "address": "20 CAITHNESS AVE", "city": "TORONTO", "province": "ON", "country": "CA", "postalCode": "M4J3X7", "twitter": "None", "instagram": "None", "facebook": "None", "youtube": "None", "website": "None", "summary": "None", "logo": "None", "latitude": 43.681591435743584, "longitude": -79.33514703638393}, "135862373RR0001": {"name": "TORONTO NORTH SUPPORT SERVICES", "designationCode": "C", "categoryCode": "11", "address": "2 - 132 RAILSIDE RD", "city": "NORTH YORK", "province": "ON", "country": "CA", "postalCode": "M3A1A3", "twitter": "None", "instagram": "None", "facebook": "None", "youtube": "None", "website": "None", "summary": "None", "logo": "None", "latitude": 43.736398259795635, "longitude": -79.32729639835004}, "824032528RR0001": {"name": "TORONTO OPEN PRESBYTERIAN CHURCH", "designationCode": "C", "categoryCode": "37", "address": "52 MALAMUTE CRES", "city": "SCARBOROUGH", "province": "ON", "country": "CA", "postalCode": "M1T2C7", "twitter": "None", "instagram": "None", "facebook": "None", "youtube": "None", "website": "None", "summary": "None", "logo": "None", "latitude": 43.77943307412418, "longitude": -79.30196989967676}, "122184542RR0001": {"name": "TORONTO OPERETTA THEATRE", "designationCode": "C", "categoryCode": "22", "address": "947 QUEEN STREET EAST", "city": "TORONTO", "province": "ON", "country": "CA", "postalCode": "M4M1J9", "twitter": "None", "instagram": "None", "facebook": "None", "youtube": "None", "website": "None", "summary": "None", "logo": "None", "latitude": 43.66114277655962, "longitude": -79.33955634748115}, "872463807RR0001": {"name": "TORONTO ORNITHOLOGICAL CLUB", "designationCode": "C", "categoryCode": "52", "address": "ROYAL ONTARIO MUSEUM          100 QUEEN'S PARK CRES.", "city": "TORONTO", "province": "ON", "country": "CA", "postalCode": "M5S2C6", "twitter": "None", "instagram": "None", "facebook": "None", "youtube": "None", "website": "None", "summary": "None", "logo": "None", "latitude": 43.668579987160804, "longitude": -79.39468995830723}, "867994675RR0001": {"name": "TORONTO ORTHODOX THEOLOGICAL ACADEMY INC", "designationCode": "C", "categoryCode": "20", "address": "86 OVERLEA BLVD", "city": "TORONTO", "province": "ON", "country": "CA", "postalCode": "M4H1C6", "twitter": "None", "instagram": "None", "facebook": "None", "youtube": "None", "website": "None", "summary": "None", "logo": "None", "latitude": 43.70853022401729, "longitude": -79.33933907259495}, "860291467RR0001": {"name": "TORONTO PARKS AND TREES FOUNDATION", "designationCode": "A", "categoryCode": "53", "address": "585 DUNDAS ST.E. 3RD FLOOR", "city": "TORONTO", "province": "ON", "country": "CA", "postalCode": "M5A2B7", "twitter": "None", "instagram": "None", "facebook": "None", "youtube": "None", "website": "None", "summary": "None", "logo": "None", "latitude": 43.66027180930821, "longitude": -79.36201567984308}, "131113151RR0001": {"name": "TORONTO PEOPLE WITH AIDS FOUNDATION", "designationCode": "C", "categoryCode": "09", "address": "200 GERRARD STREET EAST       2ND FLOOR", "city": "TORONTO", "province": "ON", "country": "CA", "postalCode": "M5A2E6", "twitter": "None", "instagram": "None", "facebook": "None", "youtube": "None", "website": "None", "summary": "None", "logo": "None", "latitude": 43.66135616515656, "longitude": -79.37171595504638}, "119267235RR0001": {"name": "TORONTO PHOTOGRAPHERS WORKSHOP", "designationCode": "C", "categoryCode": "22", "address": "170 SAINT HELENS AVE", "city": "TORONTO", "province": "ON", "country": "CA", "postalCode": "M6H4A1", "twitter": "None", "instagram": "None", "facebook": "None", "youtube": "None", "website": "None", "summary": "None", "logo": "None", "latitude": 43.653977853453775, "longitude": -79.44245408938761}, "119267250RR0001": {"name": "TORONTO PSYCHIATRIC RESEARCH FOUNDATION", "designationCode": "C", "categoryCode": "21", "address": "1707 - 10 BELLAIR ST", "city": "TORONTO", "province": "ON", "country": "CA", "postalCode": "M5R3T8", "twitter": "None", "instagram": "None", "facebook": "None", "youtube": "None", "website": "None", "summary": "None", "logo": "None", "latitude": 43.66975435053957, "longitude": -79.39075574300298}, "873275499RR0001": {"name": "TORONTO PUBLIC LIBRARY BOARD", "designationCode": "C", "categoryCode": "50", "address": "789 YONGE STREET", "city": "TORONTO", "province": "ON", "country": "CA", "postalCode": "M4W2G8", "twitter": "None", "instagram": "None", "facebook": "None", "youtube": "None", "website": "None", "summary": "None", "logo": "None", "latitude": 43.6717527685382, "longitude": -79.3873500718165}, "838626943RR0001": {"name": "TORONTO RAILWAY HISTORICAL ASSOCIATION", "designationCode": "C", "categoryCode": "50", "address": "15 - 255 BREMNER BLVD", "city": "TORONTO", "province": "ON", "country": "CA", "postalCode": "M5V3M9", "twitter": "None", "instagram": "None", "facebook": "None", "youtube": "None", "website": "None", "summary": "None", "logo": "None", "latitude": 43.64165794717983, "longitude": -79.3864917912456}, "108122979RR0001": {"name": "TORONTO RAPE CRISIS CENTRE", "designationCode": "C", "categoryCode": "09", "address": "PO BOX 59098 RPO DUNDAS ST", "city": "TORONTO", "province": "ON", "country": "CA", "postalCode": "M6R3B5", "twitter": "None", "instagram": "None", "facebook": "None", "youtube": "None", "website": "None", "summary": "None", "logo": "None", "latitude": 43.65370800000001, "longitude": -79.45174349999999}, "119267284RR0001": {"name": "TORONTO RCASC ASSOCIATE FUND", "designationCode": "C", "categoryCode": "65", "address": "315 PRINCESS AVE", "city": "NORTH YORK", "province": "ON", "country": "CA", "postalCode": "M2N3S5", "twitter": "None", "instagram": "None", "facebook": "None", "youtube": "None", "website": "None", "summary": "None", "logo": "None", "latitude": 43.77190683484345, "longitude": -79.39645392838598}, "870021383RR0001": {"name": "TORONTO REEL ASIAN INTERNATIONAL FILM FESTIVAL", "designationCode": "C", "categoryCode": "22", "address": "448 - 401 RICHMOND ST W", "city": "TORONTO", "province": "ON", "country": "CA", "postalCode": "M5V3A8", "twitter": "None", "instagram": "None", "facebook": "None", "youtube": "None", "website": "None", "summary": "None", "logo": "None", "latitude": 43.64792255983254, "longitude": -79.39538964100468}, "134470939RR0001": {"name": "TORONTO REFUGEE COMMUNITY NON-PROFIT HOMES AND SERVICES", "designationCode": "C", "categoryCode": "09", "address": "1558 BLOOR ST W", "city": "TORONTO", "province": "ON", "country": "CA", "postalCode": "M6P1A4", "twitter": "None", "instagram": "None", "facebook": "None", "youtube": "None", "website": "None", "summary": "None", "logo": "None", "latitude": 43.65614126729745, "longitude": -79.45337725604473}, "880980461RR0001": {"name": "TORONTO REHABILITATION INSTITUTE", "designationCode": "C", "categoryCode": "10", "address": "190 ELIZABTEH ST.             R. FRASER ELLIOTT BLDG 1S-414", "city": "TORONTO", "province": "ON", "country": "CA", "postalCode": "M5G2C4", "twitter": "None", "instagram": "None", "facebook": "None", "youtube": "None", "website": "None", "summary": "None", "logo": "None", "latitude": 43.65961800000005, "longitude": -79.38709999999993}, "119252336RR0001": {"name": "TORONTO REHABILITATION INSTITUTE FOUNDATION", "designationCode": "A", "categoryCode": "11", "address": "550 UNIVERSITY AVE", "city": "TORONTO", "province": "ON", "country": "CA", "postalCode": "M5G2A2", "twitter": "None", "instagram": "None", "facebook": "None", "youtube": "None", "website": "None", "summary": "None", "logo": "None", "latitude": 43.65679612210755, "longitude": -79.38934629661225}, "856896873RR0001": {"name": "TORONTO REVIVAL GOSPEL CHURCH", "designationCode": "C", "categoryCode": "39", "address": "1664 FAIRFIELD CRESCENT", "city": "PICKERING", "province": "ON", "country": "CA", "postalCode": "L1V6H5", "twitter": "None", "instagram": "None", "facebook": "None", "youtube": "None", "website": "None", "summary": "None", "logo": "None", "latitude": 43.846626867592036, "longitude": -79.06643454203942}, "119267383RR0001": {"name": "TORONTO SERVICE BATTALION CAPITAL FUND", "designationCode": "C", "categoryCode": "51", "address": "3 JAMES HILL COURT", "city": "UXBRIDGE", "province": "ON", "country": "CA", "postalCode": "L9P1Y5", "twitter": "None", "instagram": "None", "facebook": "None", "youtube": "None", "website": "None", "summary": "None", "logo": "None", "latitude": 44.101727339719524, "longitude": -79.12723730125813}, "869133322RR0001": {"name": "TORONTO SHARON WOMEN'S CHOIR", "designationCode": "C", "categoryCode": "22", "address": "11 ELLIOTT AVENUE", "city": "TORONTO", "province": "ON", "country": "CA", "postalCode": "M8X2P7", "twitter": "None", "instagram": "None", "facebook": "None", "youtube": "None", "website": "None", "summary": "None", "logo": "None", "latitude": 43.65911737636324, "longitude": -79.50516845501772}, "897776878RR0001": {"name": "TORONTO SHIVA SATSANG SABHA", "designationCode": "C", "categoryCode": "39", "address": "180 PATNA CRES", "city": "MAPLE", "province": "ON", "country": "CA", "postalCode": "L6A1N2", "twitter": "None", "instagram": "None", "facebook": "None", "youtube": "None", "website": "None", "summary": "None", "logo": "None", "latitude": 43.84048457227783, "longitude": -79.50147244517863}, "894945633RR0041": {"name": "TORONTO SIMPSON CHINESE ALLIANCE CHURCH", "designationCode": "C", "categoryCode": "39", "address": "200 COMMANDER BLVD", "city": "SCARBOROUGH", "province": "ON", "country": "CA", "postalCode": "M1S3C8", "twitter": "None", "instagram": "None", "facebook": "None", "youtube": "None", "website": "None", "summary": "None", "logo": "None", "latitude": 43.797618, "longitude": -79.26972339725351}, "861864726RR0001": {"name": "TORONTO SINFONIETTA CONCERT ASSOCIATION", "designationCode": "C", "categoryCode": "22", "address": "1576 BLOOR ST W", "city": "TORONTO", "province": "ON", "country": "CA", "postalCode": "M6P1A4", "twitter": "None", "instagram": "None", "facebook": "None", "youtube": "None", "website": "None", "summary": "None", "logo": "None", "latitude": 43.65603123454886, "longitude": -79.45395686539898}, "890103393RR0001": {"name": "TORONTO SKI HAWKS", "designationCode": "C", "categoryCode": "56", "address": "90 BURKSHIRE DRIVE", "city": "AURORA", "province": "ON", "country": "CA", "postalCode": "L4G7P6", "twitter": "None", "instagram": "None", "facebook": "None", "youtube": "None", "website": "None", "summary": "None", "logo": "None", "latitude": 44.016460836805344, "longitude": -79.4581374987306}, "119267391RR0001": {"name": "TORONTO SOCIETY OF THE ARCHAEOLOGICAL INSTITUTE OF AMERICA", "designationCode": "C", "categoryCode": "21", "address": "DEPT OF FINE ART-100 ST GEORGE", "city": "TORONTO", "province": "ON", "country": "CA", "postalCode": "M5S3G3", "twitter": "None", "instagram": "None", "facebook": "None", "youtube": "None", "website": "None", "summary": "None", "logo": "None", "latitude": 43.66265052288084, "longitude": -79.39787466910903}, "108123167RR0001": {"name": "TORONTO SOMANG KOREAN PRESBYTERIAN CHURCH", "designationCode": "C", "categoryCode": "37", "address": "81 CURLEW DRIVE", "city": "TORONTO", "province": "ON", "country": "CA", "postalCode": "M3A2P8", "twitter": "None", "instagram": "None", "facebook": "None", "youtube": "None", "website": "None", "summary": "None", "logo": "None", "latitude": 43.742497696607074, "longitude": -79.31677704630992}, "892033416RR0001": {"name": "TORONTO SUDOWON", "designationCode": "C", "categoryCode": "49", "address": "1211 PHARMACY AVENUE", "city": "TORONTO", "province": "ON", "country": "CA", "postalCode": "M1R2H8", "twitter": "None", "instagram": "None", "facebook": "None", "youtube": "None", "website": "None", "summary": "None", "logo": "None", "latitude": 43.746862944774605, "longitude": -79.30603889852294}, "884157900RR0001": {"name": "TORONTO SUMMER MUSIC FOUNDATION - LA FONDATION DE MUSIC D'ETEDE TORONTO", "designationCode": "C", "categoryCode": "22", "address": "212 - 90 WELLESLEY ST W", "city": "TORONTO", "province": "ON", "country": "CA", "postalCode": "M5S1C5", "twitter": "None", "instagram": "None", "facebook": "None", "youtube": "None", "website": "None", "summary": "None", "logo": "None", "latitude": 43.66384014351649, "longitude": -79.38951969929012}, "805167913RR0001": {"name": "TORONTO SUNGRAK CHURCH", "designationCode": "C", "categoryCode": "39", "address": "913 - 120 TORRESDALE AVE", "city": "NORTH YORK", "province": "ON", "country": "CA", "postalCode": "M2R3N7", "twitter": "None", "instagram": "None", "facebook": "None", "youtube": "None", "website": "None", "summary": "None", "logo": "None", "latitude": 43.77769641049683, "longitude": -79.45402387789247}, "119267458RR0001": {"name": "TORONTO SWATOW BAPTIST CHURCH", "designationCode": "C", "categoryCode": "39", "address": "17 GORDON AVE", "city": "SCARBOROUGH", "province": "ON", "country": "CA", "postalCode": "M1S1A6", "twitter": "None", "instagram": "None", "facebook": "None", "youtube": "None", "website": "None", "summary": "None", "logo": "None", "latitude": 43.78302675742971, "longitude": -79.28646755464847}, "119259687RR0001": {"name": "TORONTO SYMPHONY VOLUNTEER COMMITTEE", "designationCode": "A", "categoryCode": "22", "address": "212 KING ST W 6TH FLOOR", "city": "TORONTO", "province": "ON", "country": "CA", "postalCode": "M5H1K5", "twitter": "None", "instagram": "None", "facebook": "None", "youtube": "None", "website": "None", "summary": "None", "logo": "None", "latitude": 43.647364212908776, "longitude": -79.38630963809213}, "860322445RR0001": {"name": "TORONTO TABLA ENSEMBLE WORLD MUSIC ORGANIZATION INC.", "designationCode": "C", "categoryCode": "22", "address": "847 COSBURN AVE", "city": "EAST YORK", "province": "ON", "country": "CA", "postalCode": "M4C2V9", "twitter": "None", "instagram": "None", "facebook": "None", "youtube": "None", "website": "None", "summary": "None", "logo": "None", "latitude": 43.69619891866249, "longitude": -79.31832459310986}, "119267466RR0001": {"name": "TORONTO TAI CHI ASSOCIATION", "designationCode": "C", "categoryCode": "19", "address": "2930 CARLING AVENUE", "city": "OTTAWA", "province": "ON", "country": "CA", "postalCode": "K2B7J7", "twitter": "None", "instagram": "None", "facebook": "None", "youtube": "None", "website": "None", "summary": "None", "logo": "None", "latitude": 45.35616570910056, "longitude": -75.80240239575298}, "892934969RR0001": {"name": "TORONTO THEOSOPHICAL SOCIETY", "designationCode": "C", "categoryCode": "49", "address": "792 GLENCAIRN AVE", "city": "NORTH YORK", "province": "ON", "country": "CA", "postalCode": "M6B2A3", "twitter": "None", "instagram": "None", "facebook": "None", "youtube": "None", "website": "None", "summary": "None", "logo": "None", "latitude": 43.70936709965941, "longitude": -79.4422201737549}, "119267490RR0001": {"name": "TORONTO UKRAINIAN LIBRARY ASSOCIATION", "designationCode": "C", "categoryCode": "50", "address": "594 BURNHAMTHORPE ROAD", "city": "ETOBICOKE", "province": "ON", "country": "CA", "postalCode": "M9C2Y5", "twitter": "None", "instagram": "None", "facebook": "None", "youtube": "None", "website": "None", "summary": "None", "logo": "None", "latitude": 43.64393990034062, "longitude": -79.56977770967748}, "108123290RR0001": {"name": "TORONTO UNITED MENNONITE CHURCH", "designationCode": "C", "categoryCode": "34", "address": "1774 QUEEN ST E", "city": "TORONTO", "province": "ON", "country": "CA", "postalCode": "M4L1G7", "twitter": "None", "instagram": "None", "facebook": "None", "youtube": "None", "website": "None", "summary": "None", "logo": "None", "latitude": 43.66771615794321, "longitude": -79.31053773203871}, "869352583RR0001": {"name": "TORONTO URBAN NATIVE MINISTRY", "designationCode": "C", "categoryCode": "47", "address": "42 UNSWORTH AVE", "city": "TORONTO", "province": "ON", "country": "CA", "postalCode": "M5M3C5", "twitter": "None", "instagram": "None", "facebook": "None", "youtube": "None", "website": "None", "summary": "None", "logo": "None", "latitude": 43.72568070690753, "longitude": -79.40500604789646}, "119267532RR0001": {"name": "TORONTO VEGETARIAN ASSOCIATION", "designationCode": "C", "categoryCode": "59", "address": "17 BALDWIN ST", "city": "TORONTO", "province": "ON", "country": "CA", "postalCode": "M5T1L1", "twitter": "None", "instagram": "None", "facebook": "None", "youtube": "None", "website": "None", "summary": "None", "logo": "None", "latitude": 43.65611785316531, "longitude": -79.39282425644876}, "887244994RR0001": {"name": "TORONTO VIETNAMESE ALLIANCE CHURCH", "designationCode": "C", "categoryCode": "39", "address": "63 DUNBLAINE AVENUE", "city": "TORONTO", "province": "ON", "country": "CA", "postalCode": "M5M2S2", "twitter": "None", "instagram": "None", "facebook": "None", "youtube": "None", "website": "None", "summary": "None", "logo": "None", "latitude": 43.73536685648353, "longitude": -79.42235460323742}, "884670910RR0001": {"name": "TORONTO VIETNAMESE VICTORY CHURCH", "designationCode": "C", "categoryCode": "39", "address": "947 QUEEN STREET EAST", "city": "TORONTO", "province": "ON", "country": "CA", "postalCode": "M4M1J9", "twitter": "None", "instagram": "None", "facebook": "None", "youtube": "None", "website": "None", "summary": "None", "logo": "None", "latitude": 43.66114277655962, "longitude": -79.33955634748115}, "883542003RR0001": {"name": "TORONTO VOLUNTEER BRIDGE", "designationCode": "C", "categoryCode": "59", "address": "2 MINORCA PLACE", "city": "TORONTO", "province": "ON", "country": "CA", "postalCode": "M3A2Z6", "twitter": "None", "instagram": "None", "facebook": "None", "youtube": "None", "website": "None", "summary": "None", "logo": "None", "latitude": 43.75252170220432, "longitude": -79.33734258188578}, "890348378RR0001": {"name": "TORONTO WAGNER SOCIETY", "designationCode": "C", "categoryCode": "22", "address": "197 NORTHWOOD DR.", "city": "WILLOWDALE", "province": "ON", "country": "CA", "postalCode": "M2M2K5", "twitter": "None", "instagram": "None", "facebook": "None", "youtube": "None", "website": "None", "summary": "None", "logo": "None", "latitude": 43.793848834843445, "longitude": -79.40104737010218}, "119267573RR0001": {"name": "TORONTO WATERFRONT MONTESSORI CHILDRENS CENTRES", "designationCode": "C", "categoryCode": "01", "address": "18 WYANDOT AVENUE", "city": "TORONTO", "province": "ON", "country": "CA", "postalCode": "M5J2M9", "twitter": "None", "instagram": "None", "facebook": "None", "youtube": "None", "website": "None", "summary": "None", "logo": "None", "latitude": 43.62668643851355, "longitude": -79.36099537789246}, "883744385RR0001": {"name": "TORONTO WELSH MALE VOICE CHOIR", "designationCode": "C", "categoryCode": "22", "address": "33 MELROSE AVE", "city": "TORONTO", "province": "ON", "country": "CA", "postalCode": "M5M1Y6", "twitter": "None", "instagram": "None", "facebook": "None", "youtube": "None", "website": "None", "summary": "None", "logo": "None", "latitude": 43.73261575823778, "longitude": -79.4053150151192}, "888701661RR0001": {"name": "TORONTO WEST CHRISTADELPHIANS", "designationCode": "C", "categoryCode": "39", "address": "24 LANGSIDE AVE", "city": "TORONTO", "province": "ON", "country": "CA", "postalCode": "M9N3E3", "twitter": "None", "instagram": "None", "facebook": "None", "youtube": "None", "website": "None", "summary": "None", "logo": "None", "latitude": 43.709174874545575, "longitude": -79.51759260618026}, "108123324RR0001": {"name": "TORONTO WEST COMMUNITY CHURCH", "designationCode": "C", "categoryCode": "36", "address": "606 JANE STREET", "city": "TORONTO", "province": "ON", "country": "CA", "postalCode": "M6S4A6", "twitter": "None", "instagram": "None", "facebook": "None", "youtube": "None", "website": "None", "summary": "None", "logo": "None", "latitude": 43.66494215875126, "longitude": -79.49089539428107}, "107797383RR0099": {"name": "TORONTO WEST SEVENTH-DAY ADVENTIST CHURCH", "designationCode": "C", "categoryCode": "41", "address": "1621 ALBION RD", "city": "ETOBICOKE", "province": "ON", "country": "CA", "postalCode": "M9V1B6", "twitter": "None", "instagram": "None", "facebook": "None", "youtube": "None", "website": "None", "summary": "None", "logo": "None", "latitude": 43.74171171048556, "longitude": -79.59304860672852}, "141146290RR0001": {"name": "TORONTO WILDLIFE CENTRE", "designationCode": "C", "categoryCode": "54", "address": "60 CARL HALL RD               UNIT 4", "city": "TORONTO", "province": "ON", "country": "CA", "postalCode": "M3K2C1", "twitter": "None", "instagram": "None", "facebook": "None", "youtube": "None", "website": "None", "summary": "None", "logo": "None", "latitude": 43.74770620627235, "longitude": -79.47620964198727}, "119267623RR0001": {"name": "TORONTO WORKMEN'S CIRCLE FOUNDATION", "designationCode": "C", "categoryCode": "20", "address": "471 LAWRENCE AVE. W.", "city": "TORONTO", "province": "ON", "country": "CA", "postalCode": "M5M1C6", "twitter": "None", "instagram": "None", "facebook": "None", "youtube": "None", "website": "None", "summary": "None", "logo": "None", "latitude": 43.71975280930822, "longitude": -79.42740428919734}, "865206197RR0001": {"name": "TORONTO YOUTH DEVELOPMENT", "designationCode": "C", "categoryCode": "21", "address": "156 ST. GEORGE STREET", "city": "TORONTO", "province": "ON", "country": "CA", "postalCode": "M5S2G1", "twitter": "None", "instagram": "None", "facebook": "None", "youtube": "None", "website": "None", "summary": "None", "logo": "None", "latitude": 43.66658455952457, "longitude": -79.39948612799323}, "140813502RR0001": {"name": "TORONTO YOUTH FOR CHRIST", "designationCode": "C", "categoryCode": "49", "address": "57 MOBILE DR", "city": "NORTH YORK", "province": "ON", "country": "CA", "postalCode": "M4A1H5", "twitter": "None", "instagram": "None", "facebook": "None", "youtube": "None", "website": "None", "summary": "None", "logo": "None", "latitude": 43.72430983816166, "longitude": -79.3191263845289}}