{"107588378RR0001": {"name": "THE CHESHIRE FOUNDATION (QU\u00c9BEC) INC.", "designationCode": "C", "categoryCode": "01", "address": "19 SUNSHINE DR", "city": "DOLLARD-DES-ORMEAUX", "province": "QC", "country": "CA", "postalCode": "H9B1G1", "twitter": "None", "instagram": "None", "facebook": "None", "youtube": "None", "website": "None", "summary": "None", "logo": "None", "latitude": 45.49237127644407, "longitude": -73.80139318440206}, "805383544RR0001": {"name": "THE CHESTERMERE PUBLIC LIBRARY FOUNDATION", "designationCode": "A", "categoryCode": "03", "address": "105B MARINA RD", "city": "CHESTERMERE", "province": "AB", "country": "CA", "postalCode": "T1X1V7", "twitter": "None", "instagram": "None", "facebook": "None", "youtube": "None", "website": "None", "summary": "None", "logo": "None", "latitude": 51.05294369774962, "longitude": -113.82443782680838}, "141111120RR0001": {"name": "THE CHESTNUT TREE PRE-SCHOOL INC", "designationCode": "C", "categoryCode": "20", "address": "187 CEDARDALE AVE", "city": "STONEY CREEK", "province": "ON", "country": "CA", "postalCode": "L8E1R4", "twitter": "None", "instagram": "None", "facebook": "None", "youtube": "None", "website": "None", "summary": "None", "logo": "None", "latitude": 43.22615108523268, "longitude": -79.74009654925277}, "888701794RR0001": {"name": "THE CHIEF BOB INNES MEMORIAL SCHOLARSHIP FUND", "designationCode": "C", "categoryCode": "21", "address": "P.O. BOX 202", "city": "KENTVILLE", "province": "NS", "country": "CA", "postalCode": "B4N3W4", "twitter": "None", "instagram": "None", "facebook": "None", "youtube": "None", "website": "None", "summary": "None", "logo": "None", "latitude": 45.07663200000006, "longitude": -64.49369299999994}, "865196406RR0001": {"name": "THE CHILD ADVOCACY CENTRE OF NIAGARA", "designationCode": "C", "categoryCode": "09", "address": "8 FORSTER ST", "city": "ST. CATHARINES", "province": "ON", "country": "CA", "postalCode": "L2N1Z9", "twitter": "None", "instagram": "None", "facebook": "None", "youtube": "None", "website": "None", "summary": "None", "logo": "None", "latitude": 43.18691428282071, "longitude": -79.23773387520941}, "871679049RR0001": {"name": "THE CHILD AND FAMILY SERVICES OF CENTRAL MANITOBA FOUNDATION", "designationCode": "A", "categoryCode": "03", "address": "25-3RD STREET S E", "city": "PORTAGE LA PRAIRIE", "province": "MB", "country": "CA", "postalCode": "R1N1N1", "twitter": "None", "instagram": "None", "facebook": "None", "youtube": "None", "website": "None", "summary": "None", "logo": "None", "latitude": 49.97249454341513, "longitude": -98.28593845249642}, "119222123RR0001": {"name": "THE CHILD CARE CENTRE CO-OPERATIVE LIMITED", "designationCode": "C", "categoryCode": "01", "address": "105 COLLEGE AVE E", "city": "REGINA", "province": "SK", "country": "CA", "postalCode": "S4N0V5", "twitter": "None", "instagram": "None", "facebook": "None", "youtube": "None", "website": "None", "summary": "None", "logo": "None", "latitude": 50.44084051399403, "longitude": -104.58104302553522}, "129813234RR0001": {"name": "THE CHILDREN'S AID FOUNDATION OF YORK REGION", "designationCode": "C", "categoryCode": "01", "address": "201 MILLWAY AVENUE, UNIT 19", "city": "VAUGHAN", "province": "ON", "country": "CA", "postalCode": "L4K5K8", "twitter": "None", "instagram": "None", "facebook": "None", "youtube": "None", "website": "None", "summary": "None", "logo": "None", "latitude": 43.79832544330272, "longitude": -79.52667545588311}, "106914013RR0001": {"name": "THE CHILDREN'S AID SOCIETY OF BRANT", "designationCode": "C", "categoryCode": "01", "address": "70 CHATHAM ST                 BOX 774", "city": "BRANTFORD", "province": "ON", "country": "CA", "postalCode": "N3T5R7", "twitter": "None", "instagram": "None", "facebook": "None", "youtube": "None", "website": "None", "summary": "None", "logo": "None", "latitude": 43.14319050043268, "longitude": -80.26262514363205}, "899206759RR0001": {"name": "THE CHILDREN'S AID SOCIETY OF HALDIMAND AND NORFOLK", "designationCode": "C", "categoryCode": "01", "address": "70 TOWN CENTRE DR", "city": "TOWNSEND", "province": "ON", "country": "CA", "postalCode": "N0A1S0", "twitter": "None", "instagram": "None", "facebook": "None", "youtube": "None", "website": "None", "summary": "None", "logo": "None", "latitude": 42.88932705107046, "longitude": -80.14279654010618}, "118852136RR0001": {"name": "THE CHILDREN'S AID SOCIETY OF HAMILTON", "designationCode": "C", "categoryCode": "01", "address": "P.O. BOX 1170, DEPOT 1", "city": "HAMILTON", "province": "ON", "country": "CA", "postalCode": "L8N4B9", "twitter": "None", "instagram": "None", "facebook": "None", "youtube": "None", "website": "None", "summary": "None", "logo": "None", "latitude": 43.261962000000054, "longitude": -79.88800399999994}, "118852185RR0001": {"name": "THE CHILDREN'S AID SOCIETY OF LONDON AND MIDDLESEX", "designationCode": "C", "categoryCode": "01", "address": "PO BOX 7010", "city": "LONDON", "province": "ON", "country": "CA", "postalCode": "N5Y5R8", "twitter": "None", "instagram": "None", "facebook": "None", "youtube": "None", "website": "None", "summary": "None", "logo": "None", "latitude": 42.98689500000006, "longitude": -81.24624349999993}, "859995664RR0001": {"name": "THE CHILDREN'S AID SOCIETY OF LONDON AND MIDDLESEX FOUNDATION", "designationCode": "A", "categoryCode": "02", "address": "1680 OXFORD STREET EAST", "city": "LONDON", "province": "ON", "country": "CA", "postalCode": "N5V3G2", "twitter": "None", "instagram": "None", "facebook": "None", "youtube": "None", "website": "None", "summary": "None", "logo": "None", "latitude": 43.013437717182235, "longitude": -81.1918136822666}, "106914104RR0001": {"name": "THE CHILDREN'S AID SOCIETY OF OTTAWA/LA SOCIETE DE L'AIDE A L'ENFANCE D'OTTAWA", "designationCode": "C", "categoryCode": "01", "address": "1602 TELESAT COURT", "city": "GLOUCESTER", "province": "ON", "country": "CA", "postalCode": "K1B1B1", "twitter": "None", "instagram": "None", "facebook": "None", "youtube": "None", "website": "None", "summary": "None", "logo": "None", "latitude": 45.42761287396866, "longitude": -75.60439186043598}, "107374993RR0001": {"name": "THE CHILDREN'S AID SOCIETY OF OXFORD COUNTY", "designationCode": "C", "categoryCode": "01", "address": "712 PEEL ST", "city": "WOODSTOCK", "province": "ON", "country": "CA", "postalCode": "N4S0B4", "twitter": "None", "instagram": "None", "facebook": "None", "youtube": "None", "website": "None", "summary": "None", "logo": "None", "latitude": 43.130462689422366, "longitude": -80.74635967415892}, "119222206RR0001": {"name": "THE CHILDREN'S AID SOCIETY OF THE CITY OF GULEPH AND THE COUNTY OF WELLINGTON", "designationCode": "C", "categoryCode": "01", "address": "275 ERAMOSA ROAD              PO BOX 1088", "city": "GUELPH", "province": "ON", "country": "CA", "postalCode": "N1H6N3", "twitter": "None", "instagram": "None", "facebook": "None", "youtube": "None", "website": "None", "summary": "None", "logo": "None", "latitude": 43.55784251511922, "longitude": -80.24925336196613}, "107268773RR0001": {"name": "THE CHILDREN'S AID SOCIETY OF THE COUNTY OF DUFFERIN", "designationCode": "C", "categoryCode": "01", "address": "655 RIDDELL ROAD", "city": "ORANGEVILLE", "province": "ON", "country": "CA", "postalCode": "L9W4Z5", "twitter": "None", "instagram": "None", "facebook": "None", "youtube": "None", "website": "None", "summary": "None", "logo": "None", "latitude": 43.897523285533346, "longitude": -80.11278040039792}, "106914195RR0001": {"name": "THE CHILDREN'S AID SOCIETY OF THE COUNTY OF SIMCOE", "designationCode": "C", "categoryCode": "01", "address": "7-60 BELL FARM ROAD", "city": "BARRIE", "province": "ON", "country": "CA", "postalCode": "L4M5G6", "twitter": "None", "instagram": "None", "facebook": "None", "youtube": "None", "website": "None", "summary": "None", "logo": "None", "latitude": 44.40894019986706, "longitude": -79.68017462978224}, "106913932RR0001": {"name": "THE CHILDREN'S AID SOCIETY OF THE DISTRICT OF NIPISSING AND PARRY SOUND", "designationCode": "C", "categoryCode": "01", "address": "433 MCINTYRE STREET WEST", "city": "NORTH BAY", "province": "ON", "country": "CA", "postalCode": "P1B2Z3", "twitter": "None", "instagram": "None", "facebook": "None", "youtube": "None", "website": "None", "summary": "None", "logo": "None", "latitude": 46.31534617623642, "longitude": -79.46682590065772}, "106914294RR0001": {"name": "THE CHILDREN'S AID SOCIETY OF THE REGION OF PEEL", "designationCode": "C", "categoryCode": "01", "address": "6860 CENTURY AVENUE           WEST TOWER", "city": "MISSISSAUGA", "province": "ON", "country": "CA", "postalCode": "L5N2W5", "twitter": "None", "instagram": "None", "facebook": "None", "youtube": "None", "website": "None", "summary": "None", "logo": "None", "latitude": 43.60205400000005, "longitude": -79.74806299999993}, "132003559RR0001": {"name": "THE CHILDREN'S AID SOCIETY OF THE REGIONAL MUNICIPALITY OF HALTON", "designationCode": "C", "categoryCode": "01", "address": "1445 NORJOHN DR               UNITS 1 & 2", "city": "BURLINGTON", "province": "ON", "country": "CA", "postalCode": "L7L0E6", "twitter": "None", "instagram": "None", "facebook": "None", "youtube": "None", "website": "None", "summary": "None", "logo": "None", "latitude": 43.389151311154556, "longitude": -79.77599805271522}, "129202842RR0002": {"name": "THE CHILDREN'S AID SOCIETY OF THE REGIONAL MUNICIPALITY OF WATERLOO", "designationCode": "C", "categoryCode": "01", "address": "200 ARDELT AVE", "city": "KITCHENER", "province": "ON", "country": "CA", "postalCode": "N2C2L9", "twitter": "None", "instagram": "None", "facebook": "None", "youtube": "None", "website": "None", "summary": "None", "logo": "None", "latitude": 43.424153787437, "longitude": -80.47403348245754}, "106914179RR0001": {"name": "THE CHILDREN'S AID SOCIETY OF THE UNITED COUNTIES OF STORMONT, DUNDAS AND GLENGARRY", "designationCode": "C", "categoryCode": "01", "address": "150, BOUNDARY ROAD,P.O.BOX.983", "city": "CORNWALL", "province": "ON", "country": "CA", "postalCode": "K6H5V1", "twitter": "None", "instagram": "None", "facebook": "None", "youtube": "None", "website": "None", "summary": "None", "logo": "None", "latitude": 45.03852985708911, "longitude": -74.67297805003217}, "895155208RR0001": {"name": "THE CHILDREN'S BRIDGE FOUNDATION", "designationCode": "C", "categoryCode": "13", "address": "1400 CLYDE AVENUE             SUITE 221", "city": "NEPEAN", "province": "ON", "country": "CA", "postalCode": "K2G3J2", "twitter": "None", "instagram": "None", "facebook": "None", "youtube": "None", "website": "None", "summary": "None", "logo": "None", "latitude": 45.358578441283505, "longitude": -75.7380936327251}, "136380854RR0001": {"name": "THE CHILDREN'S CENTRE NON PROFIT SOCIETY OF FT MCMURRAY", "designationCode": "C", "categoryCode": "09", "address": "BAY C 254 GREGOIRE DRIVE", "city": "FORT MCMURRAY", "province": "AB", "country": "CA", "postalCode": "T9H4K6", "twitter": "None", "instagram": "None", "facebook": "None", "youtube": "None", "website": "None", "summary": "None", "logo": "None", "latitude": 56.678559905072476, "longitude": -111.34798805187756}, "106914534RR0001": {"name": "THE CHILDREN'S COTTAGE SOCIETY OF CALGARY, AN ALBERTA SOCIETY", "designationCode": "C", "categoryCode": "01", "address": "204, 2120 KENSINGTON ROAD NW", "city": "CALGARY", "province": "AB", "country": "CA", "postalCode": "T2N3R7", "twitter": "None", "instagram": "None", "facebook": "None", "youtube": "None", "website": "None", "summary": "None", "logo": "None", "latitude": 51.05248199999999, "longitude": -114.10922249999999}, "119222404RR0001": {"name": "THE CHILDREN'S FAMILY HOUSE SOCIETY OF B C", "designationCode": "C", "categoryCode": "01", "address": "4567 HEATHER STREET", "city": "VANCOUVER", "province": "BC", "country": "CA", "postalCode": "V5Z0C9", "twitter": "None", "instagram": "None", "facebook": "None", "youtube": "None", "website": "None", "summary": "None", "logo": "None", "latitude": 49.244627597404865, "longitude": -123.12061978570932}, "108076688RR0001": {"name": "THE CHILDREN'S FOUNDATION", "designationCode": "C", "categoryCode": "10", "address": "2750 EAST 18TH AVE", "city": "VANCOUVER", "province": "BC", "country": "CA", "postalCode": "V5M4W8", "twitter": "None", "instagram": "None", "facebook": "None", "youtube": "None", "website": "None", "summary": "None", "logo": "None", "latitude": 49.253995480668536, "longitude": -123.04797130252754}, "140543430RR0001": {"name": "THE CHILDREN'S FOUNDATION OF GUELPH AND WELLINGTON", "designationCode": "C", "categoryCode": "03", "address": "87 WATERLOO AVENUE            UPPER LEVEL", "city": "GUELPH", "province": "ON", "country": "CA", "postalCode": "N1H3H6", "twitter": "None", "instagram": "None", "facebook": "None", "youtube": "None", "website": "None", "summary": "None", "logo": "None", "latitude": 43.5389547921402, "longitude": -80.25242162354984}, "886668284RR0001": {"name": "THE CHILDREN'S FOUNDATION OF MUSKOKA", "designationCode": "C", "categoryCode": "01", "address": "PO BOX 256", "city": "BRACEBRIDGE", "province": "ON", "country": "CA", "postalCode": "P1L1T6", "twitter": "None", "instagram": "None", "facebook": "None", "youtube": "None", "website": "None", "summary": "None", "logo": "None", "latitude": 45.055572000000055, "longitude": -79.28863099999994}, "118852490RR0001": {"name": "THE CHILDREN'S HOSPITAL FOUNDATION OF MANITOBA INC.", "designationCode": "C", "categoryCode": "11", "address": "CE 501 840 SHERBROOK ST", "city": "WINNIPEG", "province": "MB", "country": "CA", "postalCode": "R3A1S1", "twitter": "None", "instagram": "None", "facebook": "None", "youtube": "None", "website": "None", "summary": "None", "logo": "None", "latitude": 49.9037108931559, "longitude": -97.1560512524667}, "884090614RR0001": {"name": "THE CHILDREN'S LIBRARY OF RICHARDS LANDING", "designationCode": "C", "categoryCode": "50", "address": "BOX 72", "city": "RICHARDS LANDING", "province": "ON", "country": "CA", "postalCode": "P0R1J0", "twitter": "None", "instagram": "None", "facebook": "None", "youtube": "None", "website": "None", "summary": "None", "logo": "None", "latitude": 46.29075000000006, "longitude": -84.03105999999997}, "868979063RR0001": {"name": "THE CHILDREN'S LINK SOCIETY (RESOURCE INFORMATION)", "designationCode": "C", "categoryCode": "09", "address": "211 - 8855 MACLEOD TRAIL SW", "city": "CALGARY", "province": "AB", "country": "CA", "postalCode": "T2H0M2", "twitter": "None", "instagram": "None", "facebook": "None", "youtube": "None", "website": "None", "summary": "None", "logo": "None", "latitude": 50.99439991848855, "longitude": -114.0716953460148}, "889167417RR0001": {"name": "THE CHILDREN'S MILLENNIUM PLAY ASSOCIATION", "designationCode": "C", "categoryCode": "21", "address": "3857 REVELSTOKE DRIVE", "city": "OTTAWA", "province": "ON", "country": "CA", "postalCode": "K1V7C2", "twitter": "None", "instagram": "None", "facebook": "None", "youtube": "None", "website": "None", "summary": "None", "logo": "None", "latitude": 45.35353420760002, "longitude": -75.69927809010875}, "119222453RR0001": {"name": "THE CHILDREN'S REHABILITATION & CEREBRAL PALSY ASSOCIATION", "designationCode": "C", "categoryCode": "11", "address": "2805 KINGSWAY", "city": "VANCOUVER", "province": "BC", "country": "CA", "postalCode": "V5R5H9", "twitter": "None", "instagram": "None", "facebook": "None", "youtube": "None", "website": "None", "summary": "None", "logo": "None", "latitude": 49.236952629493786, "longitude": -123.04723984719269}, "862146123RR0001": {"name": "THE CHILDREN'S SAFETY VILLAGE OF BRANT", "designationCode": "C", "categoryCode": "59", "address": "407 ELGIN ST.", "city": "BRANTFORD", "province": "ON", "country": "CA", "postalCode": "N3S7P6", "twitter": "None", "instagram": "None", "facebook": "None", "youtube": "None", "website": "None", "summary": "None", "logo": "None", "latitude": 43.15222883914263, "longitude": -80.22588802939941}, "124038878RR0001": {"name": "THE CHILDREN'S WISH FOUNDATION OF CANADA/LA FONDATION CANADIENNE REVES D'ENFANTS", "designationCode": "C", "categoryCode": "09", "address": "350-1101 KINGSTON RD", "city": "PICKERING", "province": "ON", "country": "CA", "postalCode": "L1V1B5", "twitter": "None", "instagram": "None", "facebook": "None", "youtube": "None", "website": "None", "summary": "None", "logo": "None", "latitude": 43.82976971443459, "longitude": -79.09783709975707}, "119222503RR0001": {"name": "THE CHILLIWACK ACADEMY OF MUSIC", "designationCode": "C", "categoryCode": "22", "address": "9201 CORBOULD ST", "city": "CHILLIWACK", "province": "BC", "country": "CA", "postalCode": "V2P4A6", "twitter": "None", "instagram": "None", "facebook": "None", "youtube": "None", "website": "None", "summary": "None", "logo": "None", "latitude": 49.16952809810233, "longitude": -121.96419463915772}, "886264191RR0001": {"name": "THE CHILLIWACK PLOWING SOCIETY", "designationCode": "C", "categoryCode": "59", "address": "50285 CAMP RIVER RD", "city": "CHILLIWACK", "province": "BC", "country": "CA", "postalCode": "V2P6H4", "twitter": "None", "instagram": "None", "facebook": "None", "youtube": "None", "website": "None", "summary": "None", "logo": "None", "latitude": 49.20408710859468, "longitude": -121.83205321854999}, "852258631RR0001": {"name": "THE CHIMERA PROJECT DANCE THEATRE", "designationCode": "C", "categoryCode": "22", "address": "476 PARLIAMENT ST", "city": "TORONTO", "province": "ON", "country": "CA", "postalCode": "M4X1P2", "twitter": "None", "instagram": "None", "facebook": "None", "youtube": "None", "website": "None", "summary": "None", "logo": "None", "latitude": 43.66447262891686, "longitude": -79.3680932184487}, "890731011RR0001": {"name": "THE CHIN-WEI FOUNDATION", "designationCode": "B", "categoryCode": "03", "address": "206 - 1080 MAINLAND ST", "city": "VANCOUVER", "province": "BC", "country": "CA", "postalCode": "V6B2T4", "twitter": "None", "instagram": "None", "facebook": "None", "youtube": "None", "website": "None", "summary": "None", "logo": "None", "latitude": 49.2756749486411, "longitude": -123.12031245571023}, "887333631RR0001": {"name": "THE CHINESE ACADEMY FOUNDATION", "designationCode": "C", "categoryCode": "20", "address": "191 - 1518 CENTRE ST NE", "city": "CALGARY", "province": "AB", "country": "CA", "postalCode": "T2E2R9", "twitter": "None", "instagram": "None", "facebook": "None", "youtube": "None", "website": "None", "summary": "None", "logo": "None", "latitude": 51.06537015848241, "longitude": -114.06111340477507}, "119222529RR0001": {"name": "THE CHINESE BENEVOLENT ASSOCIATION OF MANITOBA", "designationCode": "C", "categoryCode": "09", "address": "18 COLERIDGE PARK DRIVE", "city": "WINNIPEG", "province": "MB", "country": "CA", "postalCode": "R3K0B5", "twitter": "None", "instagram": "None", "facebook": "None", "youtube": "None", "website": "None", "summary": "None", "logo": "None", "latitude": 49.86761954616571, "longitude": -97.3099832216227}, "138338884RR0001": {"name": "THE CHINESE BUDDHIST ASSOCIATION OF MANITOBA INC.", "designationCode": "C", "categoryCode": "35", "address": "585 CUMBERLAND AVE", "city": "WINNIPEG", "province": "MB", "country": "CA", "postalCode": "R3B3M8", "twitter": "None", "instagram": "None", "facebook": "None", "youtube": "None", "website": "None", "summary": "None", "logo": "None", "latitude": 49.89965904858896, "longitude": -97.15738332471588}, "118853068RR0001": {"name": "THE CHINESE CANADIAN ASSOCIATION OF KINGSTON AND DISTRICT", "designationCode": "C", "categoryCode": "22", "address": "412 WESTGATE COURT", "city": "KINGSTON", "province": "ON", "country": "CA", "postalCode": "K7P0E4", "twitter": "None", "instagram": "None", "facebook": "None", "youtube": "None", "website": "None", "summary": "None", "logo": "None", "latitude": 44.262707469328895, "longitude": -76.60781623602077}, "859373672RR0001": {"name": "THE CHINESE CANADIAN HISTORICAL SOCIETY OF B.C.", "designationCode": "C", "categoryCode": "50", "address": "PO BOX 18032                  RPO KERRISDALE", "city": "VANCOUVER", "province": "BC", "country": "CA", "postalCode": "V6M4L3", "twitter": "None", "instagram": "None", "facebook": "None", "youtube": "None", "website": "None", "summary": "None", "logo": "None", "latitude": 49.22097000000008, "longitude": -123.15072999999995}, "875034225RR0001": {"name": "THE CHINESE CANADIAN MILITARY MUSEUM SOCIETY", "designationCode": "C", "categoryCode": "50", "address": "3873 W 18TH AVE.", "city": "VANCOUVER", "province": "BC", "country": "CA", "postalCode": "V6S1B4", "twitter": "None", "instagram": "None", "facebook": "None", "youtube": "None", "website": "None", "summary": "None", "logo": "None", "latitude": 49.25655546768412, "longitude": -123.19004144171619}, "137603981RR0001": {"name": "THE CHINESE CHRISTIAN CHURCH OF OTTAWA", "designationCode": "C", "categoryCode": "39", "address": "116 EMPRESS AVENUE", "city": "OTTAWA", "province": "ON", "country": "CA", "postalCode": "K1R7G2", "twitter": "None", "instagram": "None", "facebook": "None", "youtube": "None", "website": "None", "summary": "None", "logo": "None", "latitude": 45.410909793236705, "longitude": -75.70905993862911}, "886060797RR0001": {"name": "THE CHINESE LANGUAGE SCHOOL OF REGINA INC.", "designationCode": "C", "categoryCode": "20", "address": "PO BOX 37161 RPO LANDMARK", "city": "REGINA", "province": "SK", "country": "CA", "postalCode": "S4S7K4", "twitter": "None", "instagram": "None", "facebook": "None", "youtube": "None", "website": "None", "summary": "None", "logo": "None", "latitude": 50.448246000000054, "longitude": -104.59517299999993}, "888138443RR0001": {"name": "THE CHINESE MEDICINE AND ACUPUNCTURE ASSOCIATION OF CANADA", "designationCode": "C", "categoryCode": "21", "address": "154 WELLINGTON ST", "city": "LONDON", "province": "ON", "country": "CA", "postalCode": "N6B2K8", "twitter": "None", "instagram": "None", "facebook": "None", "youtube": "None", "website": "None", "summary": "None", "logo": "None", "latitude": 42.97731973633789, "longitude": -81.24141012458904}, "140673708RR0001": {"name": "THE CHINOOK'S EDGE SCHOOL DIVISION NO 73", "designationCode": "C", "categoryCode": "20", "address": "4904 - 50 STREET", "city": "INNISFAIL", "province": "AB", "country": "CA", "postalCode": "T4G1W4", "twitter": "None", "instagram": "None", "facebook": "None", "youtube": "None", "website": "None", "summary": "None", "logo": "None", "latitude": 52.02742045268047, "longitude": -113.94827991618097}, "119222560RR0001": {"name": "THE CHMIELNICKER CHARITABLE SOCIETY", "designationCode": "A", "categoryCode": "23", "address": "62 ESTHER CRES", "city": "THORNHILL", "province": "ON", "country": "CA", "postalCode": "L4J3L4", "twitter": "None", "instagram": "None", "facebook": "None", "youtube": "None", "website": "None", "summary": "None", "logo": "None", "latitude": 43.79786401584037, "longitude": -79.44324701194522}, "119222578RR0001": {"name": "THE CHML CHILDREN'S FUND", "designationCode": "C", "categoryCode": "09", "address": "875 MAIN STREET WEST", "city": "HAMILTON", "province": "ON", "country": "CA", "postalCode": "L8S4R1", "twitter": "None", "instagram": "None", "facebook": "None", "youtube": "None", "website": "None", "summary": "None", "logo": "None", "latitude": 43.25923263777501, "longitude": -79.90124755231119}, "105203459RR0001": {"name": "THE CHOATE SCHOOL CANADIAN FUND INC./FONDS CANADIEN DE L'\u00c9COLE CHOATE INC.", "designationCode": "C", "categoryCode": "21", "address": "1 CHELSEA PLACE", "city": "MONTREAL", "province": "QC", "country": "CA", "postalCode": "H3G2J9", "twitter": "None", "instagram": "None", "facebook": "None", "youtube": "None", "website": "None", "summary": "None", "logo": "None", "latitude": 45.49799520788848, "longitude": -73.58248910395857}, "858498405RR0001": {"name": "THE CHOQUETTE FAMILY FOUNDATION", "designationCode": "B", "categoryCode": "03", "address": "2060-130 ADELAIDE ST W", "city": "TORONTO", "province": "ON", "country": "CA", "postalCode": "M5H3P5", "twitter": "None", "instagram": "None", "facebook": "None", "youtube": "None", "website": "None", "summary": "None", "logo": "None", "latitude": 43.64931314741162, "longitude": -79.38362708272251}, "119222594RR0001": {"name": "THE CHORALAIRS OF NORTH YORK", "designationCode": "C", "categoryCode": "22", "address": "228 NORTH MEADOW CRES", "city": "THORNHILL", "province": "ON", "country": "CA", "postalCode": "L4J3C5", "twitter": "None", "instagram": "None", "facebook": "None", "youtube": "None", "website": "None", "summary": "None", "logo": "None", "latitude": 43.801907386058126, "longitude": -79.43429800473186}, "108062241RR0001": {"name": "THE CHRIST THE REDEEMER CATHOLIC SEPARATE REGIONAL DIVISION NO. 3", "designationCode": "C", "categoryCode": "20", "address": "P O BOX 1318                  1 MCRAE STREET", "city": "OKOTOKS", "province": "AB", "country": "CA", "postalCode": "T1S1B3", "twitter": "None", "instagram": "None", "facebook": "None", "youtube": "None", "website": "None", "summary": "None", "logo": "None", "latitude": 50.72543851399405, "longitude": -113.97451405689883}, "132537853RR0001": {"name": "THE CHRISTADELPHIANS INCORPORATED", "designationCode": "C", "categoryCode": "39", "address": "149 THORBURN RD", "city": "ST. JOHN'S", "province": "NL", "country": "CA", "postalCode": "A1B4P8", "twitter": "None", "instagram": "None", "facebook": "None", "youtube": "None", "website": "None", "summary": "None", "logo": "None", "latitude": 47.56520097694629, "longitude": -52.77093785013554}, "119222552RR0001": {"name": "THE CHRISTIAN & MISSIONARY ALLIANCE CHURCH", "designationCode": "C", "categoryCode": "39", "address": "140 KING STREET", "city": "ESTEVAN", "province": "SK", "country": "CA", "postalCode": "S4A2T5", "twitter": "None", "instagram": "None", "facebook": "None", "youtube": "None", "website": "None", "summary": "None", "logo": "None", "latitude": 49.14670613768269, "longitude": -102.97113857298625}, "119222800RR0001": {"name": "THE CHRISTIAN & MISSIONARY ALLIANCE CHURCH", "designationCode": "C", "categoryCode": "39", "address": "255 GREGORY DR W RR7", "city": "CHATHAM", "province": "ON", "country": "CA", "postalCode": "N7L0E2", "twitter": "None", "instagram": "None", "facebook": "None", "youtube": "None", "website": "None", "summary": "None", "logo": "None", "latitude": 42.420290665589256, "longitude": -82.21734748796787}, "894945633RR0054": {"name": "THE CHRISTIAN & MISSIONARY ALLIANCE CHURCH", "designationCode": "C", "categoryCode": "39", "address": "373 BRIDGE STREET WEST", "city": "BELLEVILLE", "province": "ON", "country": "CA", "postalCode": "K8N4Z2", "twitter": "None", "instagram": "None", "facebook": "None", "youtube": "None", "website": "None", "summary": "None", "logo": "None", "latitude": 44.15980926066031, "longitude": -77.41282234736316}, "132465444RR0001": {"name": "THE CHRISTIAN ACADEMY OF WESTERN ONTARIO", "designationCode": "C", "categoryCode": "20", "address": "85 CHARLES ST", "city": "LONDON", "province": "ON", "country": "CA", "postalCode": "N6H1H1", "twitter": "None", "instagram": "None", "facebook": "None", "youtube": "None", "website": "None", "summary": "None", "logo": "None", "latitude": 42.98455259339834, "longitude": -81.26685851543633}, "108077082RR0001": {"name": "THE CHRISTIAN AND MISSIONARY ALLIANCE CHURCH", "designationCode": "C", "categoryCode": "39", "address": "81 FREDERICK ST", "city": "ORILLIA", "province": "ON", "country": "CA", "postalCode": "L3V5W8", "twitter": "None", "instagram": "None", "facebook": "None", "youtube": "None", "website": "None", "summary": "None", "logo": "None", "latitude": 44.60196246759679, "longitude": -79.4269027749426}, "133063859RR0001": {"name": "THE CHRISTIAN AND MISSIONARY ALLIANCE IN CANADA", "designationCode": "C", "categoryCode": "49", "address": "30 CARRIER DRIVE SUITE 100", "city": "TORONTO", "province": "ON", "country": "CA", "postalCode": "M9W5T7", "twitter": "None", "instagram": "None", "facebook": "None", "youtube": "None", "website": "None", "summary": "None", "logo": "None", "latitude": 43.73895905637922, "longitude": -79.60616660395856}, "119222677RR0001": {"name": "THE CHRISTIAN ASSEMBLY CHURCH OF PORTAGE LA PRAIRIE", "designationCode": "C", "categoryCode": "39", "address": "344 OLD BRIDGE ROAD", "city": "PORTAGE LA PRAIRIE", "province": "MB", "country": "CA", "postalCode": "R1N3X3", "twitter": "None", "instagram": "None", "facebook": "None", "youtube": "None", "website": "None", "summary": "None", "logo": "None", "latitude": 49.94375974917068, "longitude": -98.2851651441737}, "119222685RR0001": {"name": "THE CHRISTIAN BRETHREN OF RED DEER", "designationCode": "C", "categoryCode": "39", "address": "2700 55 ST", "city": "RED DEER", "province": "AB", "country": "CA", "postalCode": "T4P0X1", "twitter": "None", "instagram": "None", "facebook": "None", "youtube": "None", "website": "None", "summary": "None", "logo": "None", "latitude": 52.273957533758185, "longitude": -113.75981091618097}, "119222727RR0001": {"name": "THE CHRISTIAN CENTRE FELLOWSHIP", "designationCode": "C", "categoryCode": "34", "address": "328 THOMPSON DR N", "city": "THOMPSON", "province": "MB", "country": "CA", "postalCode": "R8N0C4", "twitter": "None", "instagram": "None", "facebook": "None", "youtube": "None", "website": "None", "summary": "None", "logo": "None", "latitude": 55.74801123753172, "longitude": -97.86955036370675}, "891633265RR0001": {"name": "THE CHRISTIAN CHURCH IN THE VILLAGE OF MEADOWVALE", "designationCode": "C", "categoryCode": "39", "address": "3063 MCNAUGHTON AVE", "city": "MISSISSAUGA", "province": "ON", "country": "CA", "postalCode": "L4T1R8", "twitter": "None", "instagram": "None", "facebook": "None", "youtube": "None", "website": "None", "summary": "None", "logo": "None", "latitude": 43.708441944774606, "longitude": -79.64537152083201}, "106918741RR0001": {"name": "THE CHRISTIAN EDUCATION ASSOCIATION OF ALBERTA", "designationCode": "C", "categoryCode": "21", "address": "9806 - 101 STREET", "city": "FORT SASKATCHEWAN", "province": "AB", "country": "CA", "postalCode": "T8L1V4", "twitter": "None", "instagram": "None", "facebook": "None", "youtube": "None", "website": "None", "summary": "None", "logo": "None", "latitude": 53.70823869383712, "longitude": -113.21156563067628}, "119222743RR0001": {"name": "THE CHRISTIAN FELLOWSHIP CHURCH OF FAIRVALE NB", "designationCode": "C", "categoryCode": "39", "address": "43 STEEVES CRES", "city": "ROTHESAY", "province": "NB", "country": "CA", "postalCode": "E2S1C2", "twitter": "None", "instagram": "None", "facebook": "None", "youtube": "None", "website": "None", "summary": "None", "logo": "None", "latitude": 45.37222099417161, "longitude": -65.96877111247}, "843794512RR0001": {"name": "THE CHRISTIAN LINK", "designationCode": "C", "categoryCode": "47", "address": "95 INGLESIDE DRIVE", "city": "KITCHENER", "province": "ON", "country": "CA", "postalCode": "N2M2G9", "twitter": "None", "instagram": "None", "facebook": "None", "youtube": "None", "website": "None", "summary": "None", "logo": "None", "latitude": 43.43951777655963, "longitude": -80.53272631724272}, "856901285RR0002": {"name": "THE CHRISTIAN REFORMED CHURCH IN NORTH AMERICA - Canada Corporation", "designationCode": "C", "categoryCode": "49", "address": "3475 MAINWAY                  P.O. BOX 5070 STN LCD 1", "city": "BURLINGTON", "province": "ON", "country": "CA", "postalCode": "L7R3Y8", "twitter": "None", "instagram": "None", "facebook": "None", "youtube": "None", "website": "None", "summary": "None", "logo": "None", "latitude": 43.37043221262034, "longitude": -79.79729227869441}, "883678708RR0001": {"name": "THE CHRISTIAN REFORMED CHURCH IN NORTH AMERICA-CANADA FOUNDATION", "designationCode": "A", "categoryCode": "43", "address": "3475 MAIN WAY, P. O. BOX 5070 STATION LCD 1", "city": "BURLINGTON", "province": "ON", "country": "CA", "postalCode": "L7R3Y8", "twitter": "None", "instagram": "None", "facebook": "None", "youtube": "None", "website": "None", "summary": "None", "logo": "None", "latitude": 43.326195000000055, "longitude": -79.79863399999994}, "106919962RR0001": {"name": "THE CHRISTIAN REFORMED CHURCH OF ALLISTON", "designationCode": "C", "categoryCode": "39", "address": "28 DOWNEY AVE", "city": "ALLISTON", "province": "ON", "country": "CA", "postalCode": "L9R1J7", "twitter": "None", "instagram": "None", "facebook": "None", "youtube": "None", "website": "None", "summary": "None", "logo": "None", "latitude": 44.15504826634307, "longitude": -79.8538787950574}, "129886354RR0001": {"name": "THE CHRISTIAN REFORMED CHURCH OF GRANUM, ALBERTA, CANADA", "designationCode": "C", "categoryCode": "39", "address": "PO BOX 445", "city": "GRANUM", "province": "AB", "country": "CA", "postalCode": "T0L1A0", "twitter": "None", "instagram": "None", "facebook": "None", "youtube": "None", "website": "None", "summary": "None", "logo": "None", "latitude": 49.873620000000074, "longitude": -113.51807999999994}, "131629057RR0001": {"name": "THE CHRISTIAN REFORMED CHURCH OF MAPLE RIDGE, B.C.", "designationCode": "C", "categoryCode": "39", "address": "20245 DEWDNEY TRUNK RD", "city": "MAPLE RIDGE", "province": "BC", "country": "CA", "postalCode": "V2X3C9", "twitter": "None", "instagram": "None", "facebook": "None", "youtube": "None", "website": "None", "summary": "None", "logo": "None", "latitude": 49.22151045740982, "longitude": -122.65959552755837}, "828296723RR0001": {"name": "THE CHRISTIAN REFORMED CHURCH OF TELKWA", "designationCode": "C", "categoryCode": "39", "address": "TELKWA CRC                    BOX 410", "city": "TELKWA", "province": "BC", "country": "CA", "postalCode": "V0J2X0", "twitter": "None", "instagram": "None", "facebook": "None", "youtube": "None", "website": "None", "summary": "None", "logo": "None", "latitude": 54.697850000000074, "longitude": -127.05061999999998}, "872005046RR0001": {"name": "THE CHRISTIAN SCHOLARSHIP ASSOCIATION OF CANADA", "designationCode": "C", "categoryCode": "21", "address": "24 REED DR", "city": "AJAX", "province": "ON", "country": "CA", "postalCode": "L1S5S1", "twitter": "None", "instagram": "None", "facebook": "None", "youtube": "None", "website": "None", "summary": "None", "logo": "None", "latitude": 43.852754460470756, "longitude": -79.0375815}, "891014391RR0001": {"name": "THE CHRISTIAN SCIENCE ASSOCIATION OF THE PUPILS OF JOHN E CHEAL, C S B", "designationCode": "C", "categoryCode": "39", "address": "27 ESCOTT CLOSE", "city": "RED DEER", "province": "AB", "country": "CA", "postalCode": "T4R2J9", "twitter": "None", "instagram": "None", "facebook": "None", "youtube": "None", "website": "None", "summary": "None", "logo": "None", "latitude": 52.26192149956732, "longitude": -113.7769782136882}, "889327979RR0001": {"name": "THE CHRISTIAN SCIENCE ASSOCIATION OF THE PUPILS OF WILLIAM HAMILTON HILL", "designationCode": "C", "categoryCode": "49", "address": "208-3460 QUADRA ST", "city": "VICTORIA", "province": "BC", "country": "CA", "postalCode": "V8X1G6", "twitter": "None", "instagram": "None", "facebook": "None", "youtube": "None", "website": "None", "summary": "None", "logo": "None", "latitude": 48.454884125454434, "longitude": -123.35978954374151}, "886745199RR0001": {"name": "THE CHRISTIAN SCIENCE ASSOCIATION OF THE STUDENTS OF EDWARD K. JONES, CSB.", "designationCode": "C", "categoryCode": "49", "address": "106 - 4394 WEST SAANICH RD", "city": "VICTORIA", "province": "BC", "country": "CA", "postalCode": "V8Z0B5", "twitter": "None", "instagram": "None", "facebook": "None", "youtube": "None", "website": "None", "summary": "None", "logo": "None", "latitude": 48.48988670935881, "longitude": -123.38606392449053}, "119222917RR0001": {"name": "THE CHRISTIAN SCIENCE TRUST IN CANADA", "designationCode": "A", "categoryCode": "45", "address": "7107C-120 ST                  P.O. BOX 234", "city": "DELTA", "province": "BC", "country": "CA", "postalCode": "V4E2A9", "twitter": "None", "instagram": "None", "facebook": "None", "youtube": "None", "website": "None", "summary": "None", "logo": "None", "latitude": 49.132249813975626, "longitude": -122.89050434479628}, "118857812RR0001": {"name": "THE CHRISTIANS GATHERED UNTO THE NAME OF THE LORD JESUS CHRIST MEETING IN THE GOSPEL HALL", "designationCode": "C", "categoryCode": "39", "address": "55 COLLEGE PARK DR", "city": "WELLAND", "province": "ON", "country": "CA", "postalCode": "L3C6Z7", "twitter": "None", "instagram": "None", "facebook": "None", "youtube": "None", "website": "None", "summary": "None", "logo": "None", "latitude": 43.01797950678067, "longitude": -79.26292066042471}, "885395566RR0001": {"name": "THE CHRISTIE GARDENS FOUNDATION", "designationCode": "A", "categoryCode": "03", "address": "600 MELITA CRESCENT", "city": "TORONTO", "province": "ON", "country": "CA", "postalCode": "M6G3Z4", "twitter": "None", "instagram": "None", "facebook": "None", "youtube": "None", "website": "None", "summary": "None", "logo": "None", "latitude": 43.67305924591719, "longitude": -79.42317855698575}, "829393925RR0001": {"name": "THE CHRISTINA AND HEDLEY G. IVANY CHARITABLE FOUNDATION", "designationCode": "B", "categoryCode": "03", "address": "1791 ROSEBANK AVENUE", "city": "HALIFAX", "province": "NS", "country": "CA", "postalCode": "B3H4C5", "twitter": "None", "instagram": "None", "facebook": "None", "youtube": "None", "website": "None", "summary": "None", "logo": "None", "latitude": 44.641665334727875, "longitude": -63.60227169842474}, "119222925RR0001": {"name": "THE CHRISTMAS BUREAU OF EDMONTON", "designationCode": "C", "categoryCode": "09", "address": "BOX 16000", "city": "EDMONTON", "province": "AB", "country": "CA", "postalCode": "T5J4B4", "twitter": "None", "instagram": "None", "facebook": "None", "youtube": "None", "website": "None", "summary": "None", "logo": "None", "latitude": 53.54623500000005, "longitude": -113.49037249999994}, "106921208RR0001": {"name": "THE CHRISTMAS CHEER BOARD OF GREATER WINNIPEG INC.", "designationCode": "C", "categoryCode": "09", "address": "PO BOX 51089", "city": "WINNIPEG", "province": "MB", "country": "CA", "postalCode": "R2X3C6", "twitter": "None", "instagram": "None", "facebook": "None", "youtube": "None", "website": "None", "summary": "None", "logo": "None", "latitude": 49.92942300000006, "longitude": -97.17201349999993}, "118858521RR0001": {"name": "THE CHRISTMAS FAMILY BALL SOCIETY", "designationCode": "A", "categoryCode": "03", "address": "6715 CHURCHILL ST.", "city": "VANCOUVER", "province": "BC", "country": "CA", "postalCode": "V6P5B2", "twitter": "None", "instagram": "None", "facebook": "None", "youtube": "None", "website": "None", "summary": "None", "logo": "None", "latitude": 49.22488020483004, "longitude": -123.1417729656353}, "136019023RR0001": {"name": "THE CHRISTMAS SHOPPE", "designationCode": "C", "categoryCode": "09", "address": "29 SHADY LANE CRES", "city": "ST THOMAS", "province": "ON", "country": "CA", "postalCode": "N5P3T2", "twitter": "None", "instagram": "None", "facebook": "None", "youtube": "None", "website": "None", "summary": "None", "logo": "None", "latitude": 42.795283956452316, "longitude": -81.24858070312153}, "891572547RR0001": {"name": "THE CHRISTOPHER FOUNDATION", "designationCode": "B", "categoryCode": "03", "address": "1010-475 WEST GEORGIA STREET", "city": "VANCOUVER", "province": "BC", "country": "CA", "postalCode": "V6B4M9", "twitter": "None", "instagram": "None", "facebook": "None", "youtube": "None", "website": "None", "summary": "None", "logo": "None", "latitude": 49.28107337552653, "longitude": -123.11582762585846}, "119222982RR0001": {"name": "THE CHRISTOPHER SOCIETY OF PENTICTON", "designationCode": "C", "categoryCode": "56", "address": "275 CAMBIE ST", "city": "PENTICTON", "province": "BC", "country": "CA", "postalCode": "V2A4G9", "twitter": "None", "instagram": "None", "facebook": "None", "youtube": "None", "website": "None", "summary": "None", "logo": "None", "latitude": 49.49937841326678, "longitude": -119.5837043252928}, "889563862RR0001": {"name": "THE CHRONIC PAIN ASSOCIATION OF CANADA", "designationCode": "C", "categoryCode": "11", "address": "BOX 66017 RPO HERITAGE", "city": "EDMONTON", "province": "AB", "country": "CA", "postalCode": "T6J6T4", "twitter": "None", "instagram": "None", "facebook": "None", "youtube": "None", "website": "None", "summary": "None", "logo": "None", "latitude": 53.4746100372207, "longitude": -113.50513994777566}, "891436263RR0001": {"name": "THE CHURCH", "designationCode": "C", "categoryCode": "39", "address": "37 ROSE AVENUE, P.O. BOX 1589", "city": "TILBURY", "province": "ON", "country": "CA", "postalCode": "N0P2L0", "twitter": "None", "instagram": "None", "facebook": "None", "youtube": "None", "website": "None", "summary": "None", "logo": "None", "latitude": 42.254057589214725, "longitude": -82.4289434748688}, "119227320RR0001": {"name": "THE CHURCH (OF THE SAINTS) IN CALGARY", "designationCode": "C", "categoryCode": "39", "address": "3508 BENTON DRIVE N W", "city": "CALGARY", "province": "AB", "country": "CA", "postalCode": "T2L1W8", "twitter": "None", "instagram": "None", "facebook": "None", "youtube": "None", "website": "None", "summary": "None", "logo": "None", "latitude": 51.10299180183505, "longitude": -114.13658499971154}, "119227338RR0001": {"name": "THE CHURCH (OF THE SAINTS) IN EDMONTON", "designationCode": "C", "categoryCode": "39", "address": "9818 77 AVENUE NW", "city": "EDMONTON", "province": "AB", "country": "CA", "postalCode": "T6E1M4", "twitter": "None", "instagram": "None", "facebook": "None", "youtube": "None", "website": "None", "summary": "None", "logo": "None", "latitude": 53.51326050043268, "longitude": -113.48377183236194}, "864725429RR0001": {"name": "THE CHURCH (OF THE SAINTS) IN WINNIPEG INC.", "designationCode": "C", "categoryCode": "39", "address": "PO BOX 34120", "city": "WINNIPEG", "province": "MB", "country": "CA", "postalCode": "R3T5T5", "twitter": "None", "instagram": "None", "facebook": "None", "youtube": "None", "website": "None", "summary": "None", "logo": "None", "latitude": 49.802685000000054, "longitude": -97.14879799999993}, "138398771RR0001": {"name": "THE CHURCH ASSEMBLY IN TORONTO", "designationCode": "C", "categoryCode": "39", "address": "1780 BIRCHMOUNT RD", "city": "TORONTO", "province": "ON", "country": "CA", "postalCode": "M1P2H8", "twitter": "None", "instagram": "None", "facebook": "None", "youtube": "None", "website": "None", "summary": "None", "logo": "None", "latitude": 43.76481264308379, "longitude": -79.29136718310305}, "119223014RR0001": {"name": "THE CHURCH AT BAPAUME", "designationCode": "C", "categoryCode": "39", "address": "BOX 1016", "city": "SPIRITWOOD", "province": "SK", "country": "CA", "postalCode": "S0J2M0", "twitter": "None", "instagram": "None", "facebook": "None", "youtube": "None", "website": "None", "summary": "None", "logo": "None", "latitude": 53.366550000000075, "longitude": -107.51787999999999}, "119223022RR0001": {"name": "THE CHURCH AT CALGARY", "designationCode": "C", "categoryCode": "39", "address": "218 DOUGLASBANK MEWS SE", "city": "CALGARY", "province": "AB", "country": "CA", "postalCode": "T2Z2K2", "twitter": "None", "instagram": "None", "facebook": "None", "youtube": "None", "website": "None", "summary": "None", "logo": "None", "latitude": 50.942523257573924, "longitude": -114.00710353248878}, "119223055RR0001": {"name": "THE CHURCH AT KINCARDINE", "designationCode": "C", "categoryCode": "39", "address": "410 QUEEN ST", "city": "KINCARDINE", "province": "ON", "country": "CA", "postalCode": "N2Z2R2", "twitter": "None", "instagram": "None", "facebook": "None", "youtube": "None", "website": "None", "summary": "None", "logo": "None", "latitude": 44.167718387924964, "longitude": -81.64246565470737}}