{"878147016RR0001": {"name": "HOSANNA WORSHIP CENTRE", "designationCode": "C", "categoryCode": "39", "address": "848 SOUTH SERVICE RD", "city": "MISSISSAUGA", "province": "ON", "country": "CA", "postalCode": "L5E1T8", "twitter": "None", "instagram": "None", "facebook": "None", "youtube": "None", "website": "None", "summary": "None", "logo": "None", "latitude": 43.58555747625378, "longitude": -79.58045789852294}, "118963651RR0001": {"name": "HOSHIZAKI HOUSE, DRYDEN DISTRICT CRISIS SHELTER", "designationCode": "C", "categoryCode": "01", "address": "PO BOX 974", "city": "DRYDEN", "province": "ON", "country": "CA", "postalCode": "P8N3E3", "twitter": "None", "instagram": "None", "facebook": "None", "youtube": "None", "website": "None", "summary": "None", "logo": "None", "latitude": 49.782039000000054, "longitude": -92.83759099999993}, "892303165RR0001": {"name": "HOSPICE CALGARY FOUNDATION", "designationCode": "A", "categoryCode": "13", "address": "1245 70 AVE SE", "city": "CALGARY", "province": "AB", "country": "CA", "postalCode": "T2H2X8", "twitter": "None", "instagram": "None", "facebook": "None", "youtube": "None", "website": "None", "summary": "None", "logo": "None", "latitude": 50.991126623348286, "longitude": -114.03827921994926}, "118963669RR0001": {"name": "HOSPICE CALGARY SOCIETY", "designationCode": "C", "categoryCode": "11", "address": "1245 70TH AVE SE", "city": "CALGARY", "province": "AB", "country": "CA", "postalCode": "T2H2X8", "twitter": "None", "instagram": "None", "facebook": "None", "youtube": "None", "website": "None", "summary": "None", "logo": "None", "latitude": 50.991126623348286, "longitude": -114.03827921994926}, "141112722RR0001": {"name": "HOSPICE DUFFERIN", "designationCode": "C", "categoryCode": "01", "address": "30 CENTRE ST", "city": "ORANGEVILLE", "province": "ON", "country": "CA", "postalCode": "L9W2X1", "twitter": "None", "instagram": "None", "facebook": "None", "youtube": "None", "website": "None", "summary": "None", "logo": "None", "latitude": 43.91574506520872, "longitude": -80.10341406445797}, "118868249RR0001": {"name": "HOSPICE GEORGIAN TRIANGLE", "designationCode": "C", "categoryCode": "11", "address": "240 ERIE ST", "city": "COLLINGWOOD", "province": "ON", "country": "CA", "postalCode": "L9Y0X8", "twitter": "None", "instagram": "None", "facebook": "None", "youtube": "None", "website": "None", "summary": "None", "logo": "None", "latitude": 44.50254227192884, "longitude": -80.20208927519805}, "870166436RR0001": {"name": "HOSPICE GEORGINA", "designationCode": "C", "categoryCode": "11", "address": "P.O. BOX 721", "city": "SUTTON WEST", "province": "ON", "country": "CA", "postalCode": "L0E1R0", "twitter": "None", "instagram": "None", "facebook": "None", "youtube": "None", "website": "None", "summary": "None", "logo": "None", "latitude": 44.33123400000005, "longitude": -79.33264549999993}, "890259062RR0001": {"name": "HOSPICE HUNTSVILLE", "designationCode": "C", "categoryCode": "09", "address": "100 FRANK MILLER DRIVE", "city": "HUNTSVILLE", "province": "ON", "country": "CA", "postalCode": "P1H1H7", "twitter": "None", "instagram": "None", "facebook": "None", "youtube": "None", "website": "None", "summary": "None", "logo": "None", "latitude": 45.338983203886734, "longitude": -79.20400243614445}, "899915243RR0001": {"name": "HOSPICE HURONIA", "designationCode": "C", "categoryCode": "09", "address": "25 JEFFERY ST", "city": "PENETANGUISHENE", "province": "ON", "country": "CA", "postalCode": "L9M1K6", "twitter": "None", "instagram": "None", "facebook": "None", "youtube": "None", "website": "None", "summary": "None", "logo": "None", "latitude": 44.768430180446465, "longitude": -79.92951702020463}, "118963685RR0001": {"name": "HOSPICE KINGSTON", "designationCode": "C", "categoryCode": "11", "address": "36 BARRIE ST", "city": "KINGSTON", "province": "ON", "country": "CA", "postalCode": "K7L3J7", "twitter": "None", "instagram": "None", "facebook": "None", "youtube": "None", "website": "None", "summary": "None", "logo": "None", "latitude": 44.22393670552253, "longitude": -76.49049110548778}, "890985591RR0001": {"name": "HOSPICE LENNOX AND ADDINGTON", "designationCode": "C", "categoryCode": "19", "address": "218 - 8 RICHMOND PARK DR", "city": "NAPANEE", "province": "ON", "country": "CA", "postalCode": "K7R2Z4", "twitter": "None", "instagram": "None", "facebook": "None", "youtube": "None", "website": "None", "summary": "None", "logo": "None", "latitude": 44.24036405106917, "longitude": -76.9659297560906}, "890333263RR0001": {"name": "HOSPICE MUSKOKA", "designationCode": "C", "categoryCode": "11", "address": "PO BOX 156", "city": "BRACEBRIDGE", "province": "ON", "country": "CA", "postalCode": "P1L1T6", "twitter": "None", "instagram": "None", "facebook": "None", "youtube": "None", "website": "None", "summary": "None", "logo": "None", "latitude": 45.055572000000055, "longitude": -79.28863099999994}, "899716294RR0001": {"name": "HOSPICE NIAGARA", "designationCode": "C", "categoryCode": "01", "address": "403 ONTARIO STREET, UNIT 2", "city": "ST-CATHARINES", "province": "ON", "country": "CA", "postalCode": "L2N1L5", "twitter": "None", "instagram": "None", "facebook": "None", "youtube": "None", "website": "None", "summary": "None", "logo": "None", "latitude": 43.18256491095817, "longitude": -79.26662978258862}, "892671561RR0001": {"name": "HOSPICE NORTH HASTINGS", "designationCode": "C", "categoryCode": "11", "address": "BOX 875                       27 BRIDGE STREET EAST", "city": "BANCROFT", "province": "ON", "country": "CA", "postalCode": "K0L1C0", "twitter": "None", "instagram": "None", "facebook": "None", "youtube": "None", "website": "None", "summary": "None", "logo": "None", "latitude": 45.05695900190458, "longitude": -77.85077603952926}, "118871011RR0001": {"name": "HOSPICE NORTHWEST", "designationCode": "C", "categoryCode": "01", "address": "63 CARRIE ST", "city": "THUNDER BAY", "province": "ON", "country": "CA", "postalCode": "P7A4J2", "twitter": "None", "instagram": "None", "facebook": "None", "youtube": "None", "website": "None", "summary": "None", "logo": "None", "latitude": 48.442226943620774, "longitude": -89.24119136943835}, "118963719RR0001": {"name": "HOSPICE OF CHARLOTTE INC.", "designationCode": "C", "categoryCode": "01", "address": "PO BOX 154", "city": "ST. STEPHEN", "province": "NB", "country": "CA", "postalCode": "E3L2X3", "twitter": "None", "instagram": "None", "facebook": "None", "youtube": "None", "website": "None", "summary": "None", "logo": "None", "latitude": 45.19456800000006, "longitude": -67.27532299999993}, "118963743RR0001": {"name": "HOSPICE OF GREATER SAINT JOHN, INC.", "designationCode": "C", "categoryCode": "10", "address": "385 DUFFERIN ROW", "city": "SAINT JOHN", "province": "NB", "country": "CA", "postalCode": "E2M2J9", "twitter": "None", "instagram": "None", "facebook": "None", "youtube": "None", "website": "None", "summary": "None", "logo": "None", "latitude": 45.252066552311206, "longitude": -66.07420100040403}, "107492837RR0001": {"name": "HOSPICE OF SOUTHERN KINGS COUNTY INC.", "designationCode": "C", "categoryCode": "11", "address": "BOX 893", "city": "MONTAGUE", "province": "PE", "country": "CA", "postalCode": "C0A1R0", "twitter": "None", "instagram": "None", "facebook": "None", "youtube": "None", "website": "None", "summary": "None", "logo": "None", "latitude": 46.14343222329997, "longitude": -62.75594020244682}, "831503925RR0001": {"name": "HOSPICE OF SUSSEX, INC.", "designationCode": "C", "categoryCode": "11", "address": "20 KENNEDY DR                 P O BOX 4595", "city": "SUSSEX", "province": "NB", "country": "CA", "postalCode": "E4E5L8", "twitter": "None", "instagram": "None", "facebook": "None", "youtube": "None", "website": "None", "summary": "None", "logo": "None", "latitude": 45.72681651137274, "longitude": -65.49167871037187}, "140415795RR0001": {"name": "HOSPICE OF WATERLOO REGION", "designationCode": "C", "categoryCode": "09", "address": "298 LAWRENCE AVENUE", "city": "KITCHENER", "province": "ON", "country": "CA", "postalCode": "N2M1Y4", "twitter": "None", "instagram": "None", "facebook": "None", "youtube": "None", "website": "None", "summary": "None", "logo": "None", "latitude": 43.441185927029665, "longitude": -80.51350957683681}, "107516320RR0001": {"name": "HOSPICE PALLIATIVE CARE ASSOCIATION OF P.E.I. INC.", "designationCode": "C", "categoryCode": "11", "address": "93 MURCHISON LANE", "city": "CHARLOTTETOWN", "province": "PE", "country": "CA", "postalCode": "C1A0G3", "twitter": "None", "instagram": "None", "facebook": "None", "youtube": "None", "website": "None", "summary": "None", "logo": "None", "latitude": 46.25529012458058, "longitude": -63.09470304986797}, "849017942RR0001": {"name": "HOSPICE PALLIATIVE CARE OF GREATER MONCTON INC. / HOSPICE DE SOINS PALLIATIFS DU GRAND MONCTON INC.", "designationCode": "C", "categoryCode": "11", "address": "164 COLLISHAW ST", "city": "MONCTON", "province": "NB", "country": "CA", "postalCode": "E1C9R3", "twitter": "None", "instagram": "None", "facebook": "None", "youtube": "None", "website": "None", "summary": "None", "logo": "None", "latitude": 46.095821572277856, "longitude": -64.80417275160133}, "119478964RR0001": {"name": "HOSPICE PETERBOROUGH", "designationCode": "C", "categoryCode": "01", "address": "439 RUBIDGE STREET", "city": "PETERBOROUGH", "province": "ON", "country": "CA", "postalCode": "K9H4E4", "twitter": "None", "instagram": "None", "facebook": "None", "youtube": "None", "website": "None", "summary": "None", "logo": "None", "latitude": 44.306693800998346, "longitude": -78.3269003575218}, "135249803RR0001": {"name": "HOSPICE PRINCE EDWARD", "designationCode": "C", "categoryCode": "59", "address": "40 DOWNES AVENUE", "city": "PICTON", "province": "ON", "country": "CA", "postalCode": "K0K2T0", "twitter": "None", "instagram": "None", "facebook": "None", "youtube": "None", "website": "None", "summary": "None", "logo": "None", "latitude": 44.0080207397327, "longitude": -77.15155980822196}, "864058839RR0001": {"name": "HOSPICE RENFREW INC.", "designationCode": "C", "categoryCode": "01", "address": "459 ALBERT STREET", "city": "RENFREW", "province": "ON", "country": "CA", "postalCode": "K7V1V8", "twitter": "None", "instagram": "None", "facebook": "None", "youtube": "None", "website": "None", "summary": "None", "logo": "None", "latitude": 45.48292601564689, "longitude": -76.7004398772726}, "134433234RR0001": {"name": "HOSPICE SIMCOE", "designationCode": "C", "categoryCode": "01", "address": "336 PENETANGUISHENE ROAD      RR 1", "city": "BARRIE", "province": "ON", "country": "CA", "postalCode": "L4M7C2", "twitter": "None", "instagram": "None", "facebook": "None", "youtube": "None", "website": "None", "summary": "None", "logo": "None", "latitude": 44.413931891482456, "longitude": -79.64631923844402}, "846664027RR0001": {"name": "HOSPICE SIMONS PALLIATIVE CARE CENTRE DE SOINS PALLIATIFS", "designationCode": "C", "categoryCode": "10", "address": "1211 GOLF ROAD,", "city": "EAST HAWKESBURY", "province": "ON", "country": "CA", "postalCode": "K6A2R2", "twitter": "None", "instagram": "None", "facebook": "None", "youtube": "None", "website": "None", "summary": "None", "logo": "None", "latitude": 45.5763138558207, "longitude": -74.52162279262318}, "869623215RR0001": {"name": "HOSPICE SOCIETY OF GREATER HALIFAX", "designationCode": "C", "categoryCode": "01", "address": "618 FRANCKLYN STREET          P.O. BOX 27151 RPO FENWICK", "city": "HALIFAX", "province": "NS", "country": "CA", "postalCode": "B3H4M8", "twitter": "None", "instagram": "None", "facebook": "None", "youtube": "None", "website": "None", "summary": "None", "logo": "None", "latitude": 44.62669557089287, "longitude": -63.579161287696785}, "107492852RR0001": {"name": "HOSPICE ST. MARIE BERNARD INC.", "designationCode": "C", "categoryCode": "01", "address": "BOX 99", "city": "GRAYSON", "province": "SK", "country": "CA", "postalCode": "S0A1E0", "twitter": "None", "instagram": "None", "facebook": "None", "youtube": "None", "website": "None", "summary": "None", "logo": "None", "latitude": 50.716710000000035, "longitude": -102.65098999999998}, "138815618RR0001": {"name": "HOSPICE TORONTO", "designationCode": "C", "categoryCode": "11", "address": "502-55 EGLINTON AVENUE EAST", "city": "TORONTO", "province": "ON", "country": "CA", "postalCode": "M4P1G8", "twitter": "None", "instagram": "None", "facebook": "None", "youtube": "None", "website": "None", "summary": "None", "logo": "None", "latitude": 43.70715979819971, "longitude": -79.3961471061516}, "888800547RR0001": {"name": "HOSPICE VAUGHAN", "designationCode": "C", "categoryCode": "01", "address": "31 WOODBRIDGE AVENUE", "city": "WOODBRIDGE", "province": "ON", "country": "CA", "postalCode": "L4L2S6", "twitter": "None", "instagram": "None", "facebook": "None", "youtube": "None", "website": "None", "summary": "None", "logo": "None", "latitude": 43.7861434988987, "longitude": -79.59026526723794}, "123455024RR0001": {"name": "HOSPICE WELLINGTON", "designationCode": "C", "categoryCode": "11", "address": "795 SCOTTSDALE DRIVE", "city": "GUELPH", "province": "ON", "country": "CA", "postalCode": "N1G3R8", "twitter": "None", "instagram": "None", "facebook": "None", "youtube": "None", "website": "None", "summary": "None", "logo": "None", "latitude": 43.51075323783845, "longitude": -80.22858835544432}, "869762690RR0001": {"name": "HOSPICE WEST PARRY SOUND", "designationCode": "C", "categoryCode": "11", "address": "6 ALBERT STREET, ROOM #1323", "city": "PARRY SOUND", "province": "ON", "country": "CA", "postalCode": "P2A3A4", "twitter": "None", "instagram": "None", "facebook": "None", "youtube": "None", "website": "None", "summary": "None", "logo": "None", "latitude": 45.34190277268198, "longitude": -80.01937494825869}, "132534272RR0001": {"name": "HOSPICE YUKON SOCIETY", "designationCode": "C", "categoryCode": "01", "address": "409 JARVIS ST", "city": "WHITEHORSE", "province": "YT", "country": "CA", "postalCode": "Y1A2H4", "twitter": "None", "instagram": "None", "facebook": "None", "youtube": "None", "website": "None", "summary": "None", "logo": "None", "latitude": 60.72094665999203, "longitude": -135.05970480653824}, "118963768RR0001": {"name": "HOSPICE/PALLIATIVE CARE SOCIETY OF CAPE BRETON COUNTY", "designationCode": "C", "categoryCode": "11", "address": "PO BOX 561", "city": "SYDNEY", "province": "NS", "country": "CA", "postalCode": "B1P6H4", "twitter": "None", "instagram": "None", "facebook": "None", "youtube": "None", "website": "None", "summary": "None", "logo": "None", "latitude": 46.137372000000056, "longitude": -60.19552249999994}, "132461435RR0002": {"name": "HOSPITAL AUXILIARIES ASSOCIATION OF ONTARIO", "designationCode": "C", "categoryCode": "11", "address": "6 TOWES LANE                  POST OFFICE BOX 3-8", "city": "L'AMABLE", "province": "ON", "country": "CA", "postalCode": "K0L2L0", "twitter": "None", "instagram": "None", "facebook": "None", "youtube": "None", "website": "None", "summary": "None", "logo": "None", "latitude": 45.01069705021085, "longitude": -77.78975732822914}, "132532615RR0001": {"name": "HOSPITAL AUXILIARY TO ALEXANDRA MARINE & GENERAL HOSPITAL", "designationCode": "C", "categoryCode": "19", "address": "120 NAPIER STREET", "city": "GODERICH", "province": "ON", "country": "CA", "postalCode": "N7A1W5", "twitter": "None", "instagram": "None", "facebook": "None", "youtube": "None", "website": "None", "summary": "None", "logo": "None", "latitude": 43.75022589821498, "longitude": -81.70606089821497}, "118963826RR0001": {"name": "HOSPITAL AUXILIARY TO SEAFORTH COMMUNITY HOSPITAL", "designationCode": "C", "categoryCode": "19", "address": "24 CENTENNIAL DRIVE           BOX 99", "city": "SEAFORTH", "province": "ON", "country": "CA", "postalCode": "N0K1W0", "twitter": "None", "instagram": "None", "facebook": "None", "youtube": "None", "website": "None", "summary": "None", "logo": "None", "latitude": 43.551620889022644, "longitude": -81.38567386347648}, "888081643RR0001": {"name": "HOSPITAL AUXILIARY TO THE CAMPBELLFORD MEMORIAL HOSPITAL", "designationCode": "C", "categoryCode": "15", "address": "146 OLIVER RD", "city": "CAMBELLFORD", "province": "ON", "country": "CA", "postalCode": "K0L1L0", "twitter": "None", "instagram": "None", "facebook": "None", "youtube": "None", "website": "None", "summary": "None", "logo": "None", "latitude": 44.31231306898548, "longitude": -77.78957473819773}, "892342361RR0001": {"name": "HOSPITAL DEVELOPMENT AND EDUCATION FUND OF CANADA", "designationCode": "C", "categoryCode": "21", "address": "3600 - 22 ADELAIDE ST W", "city": "TORONTO", "province": "ON", "country": "CA", "postalCode": "M5H4E3", "twitter": "None", "instagram": "None", "facebook": "None", "youtube": "None", "website": "None", "summary": "None", "logo": "None", "latitude": 43.6500561684748, "longitude": -79.38026958604074}, "867009615RR0001": {"name": "HOSPITAL FAMILY HOUSES OF ONTARIO", "designationCode": "C", "categoryCode": "09", "address": "191 BARTON STREET EAST", "city": "HAMILTON", "province": "ON", "country": "CA", "postalCode": "L8L2W7", "twitter": "None", "instagram": "None", "facebook": "None", "youtube": "None", "website": "None", "summary": "None", "logo": "None", "latitude": 43.26205007412418, "longitude": -79.85741368122807}, "118963875RR0001": {"name": "HOSPITAL FOR SICK CHILDREN TRUST RE: JOHN ROSS ROBERTSON ENDOWMENT", "designationCode": "B", "categoryCode": "15", "address": "130 KING ST 20TH FLOOR        BOX 430 STN FIRST CANADIAN PL", "city": "TORONTO", "province": "ON", "country": "CA", "postalCode": "M5X1K1", "twitter": "None", "instagram": "None", "facebook": "None", "youtube": "None", "website": "None", "summary": "None", "logo": "None", "latitude": 43.64826932503962, "longitude": -79.38190945606182}, "864330816RR0001": {"name": "HOSPITALITY HOUSE REFUGEE MINISTRY INC", "designationCode": "C", "categoryCode": "09", "address": "513 PACIFIC AVE", "city": "WINNIPEG", "province": "MB", "country": "CA", "postalCode": "R3A0M6", "twitter": "None", "instagram": "None", "facebook": "None", "youtube": "None", "website": "None", "summary": "None", "logo": "None", "latitude": 49.9048038953776, "longitude": -97.14839281167414}, "118963891RR0001": {"name": "HOSPITALLER ORDER OF SAINT JOHN OF JERUSALEM COMMANDERY OF EDMONTON", "designationCode": "C", "categoryCode": "11", "address": "4520-151 STREET NW", "city": "EDMONTON", "province": "AB", "country": "CA", "postalCode": "T5E2N8", "twitter": "None", "instagram": "None", "facebook": "None", "youtube": "None", "website": "None", "summary": "None", "logo": "None", "latitude": 53.48431413240799, "longitude": -113.58105713999578}, "133501593RR0001": {"name": "HOSPITALS AND COMMUNITY DAY CARE ASSOCIATION OF EDMONTON", "designationCode": "C", "categoryCode": "01", "address": "11402 UNIVERSITY AVE NW       APT 7127B", "city": "EDMONTON", "province": "AB", "country": "CA", "postalCode": "T6G2J3", "twitter": "None", "instagram": "None", "facebook": "None", "youtube": "None", "website": "None", "summary": "None", "logo": "None", "latitude": 53.51679361315689, "longitude": -113.52614244820077}, "119114056RR0001": {"name": "HOSPITALS OF REGINA FOUNDATION INC.", "designationCode": "A", "categoryCode": "13", "address": "#225 - 1874 SCARTH STREET", "city": "REGINA", "province": "SK", "country": "CA", "postalCode": "S4P4B3", "twitter": "None", "instagram": "None", "facebook": "None", "youtube": "None", "website": "None", "summary": "None", "logo": "None"}, "895921880RR0001": {"name": "HOT DOCS", "designationCode": "C", "categoryCode": "22", "address": "402 - 720 SPADINA AVE", "city": "TORONTO", "province": "ON", "country": "CA", "postalCode": "M5S2T9", "twitter": "None", "instagram": "None", "facebook": "None", "youtube": "None", "website": "None", "summary": "None", "logo": "None", "latitude": 43.665348604766635, "longitude": -79.40317238804866}, "118964071RR0001": {"name": "HOTEL DIEU HOSPITAL", "designationCode": "C", "categoryCode": "10", "address": "166 BROCK STREET", "city": "KINGSTON", "province": "ON", "country": "CA", "postalCode": "K7L5G2", "twitter": "None", "instagram": "None", "facebook": "None", "youtube": "None", "website": "None", "summary": "None", "logo": "None", "latitude": 44.23110572548917, "longitude": -76.48614734416293}, "118964097RR0001": {"name": "HOTEL DIEU HOSPITAL NURSES ALUMNI ASSOCIATION TRUST FUND", "designationCode": "C", "categoryCode": "21", "address": "113 MCMICHAEL ST", "city": "KINGSTON", "province": "ON", "country": "CA", "postalCode": "K7M1V1", "twitter": "None", "instagram": "None", "facebook": "None", "youtube": "None", "website": "None", "summary": "None", "logo": "None", "latitude": 44.251532633360256, "longitude": -76.52548418301707}, "891193575RR0001": {"name": "HOTEL DIEU HOSPITAL OF ST JOSEPH EMPLOYEES CHARITY TRUST", "designationCode": "B", "categoryCode": "75", "address": "1453 PRINCE RD", "city": "WINDSOR", "province": "ON", "country": "CA", "postalCode": "N9C3Z4", "twitter": "None", "instagram": "None", "facebook": "None", "youtube": "None", "website": "None", "summary": "None", "logo": "None", "latitude": 42.28670496958962, "longitude": -83.06319772225693}, "883572216RR0001": {"name": "HOTEL DIEU OF SAINT JOSEPH HOSPITAL AUXILIARY", "designationCode": "C", "categoryCode": "19", "address": "10 WOODLAND HILL", "city": "PERTH-ANDOVER", "province": "NB", "country": "CA", "postalCode": "E7H5H5", "twitter": "None", "instagram": "None", "facebook": "None", "youtube": "None", "website": "None", "summary": "None", "logo": "None", "latitude": 46.729259341497176, "longitude": -67.70913684523546}, "889317590RR0002": {"name": "HOTEL DIEU SHAVER HEALTH AND REHABILITATION FOUNDATION", "designationCode": "A", "categoryCode": "13", "address": "541 GLENRIDGE AVENUE", "city": "ST CATHARINES", "province": "ON", "country": "CA", "postalCode": "L2T4C2", "twitter": "None", "instagram": "None", "facebook": "None", "youtube": "None", "website": "None", "summary": "None", "logo": "None", "latitude": 43.12308514071787, "longitude": -79.2434149134406}, "102402393RR0001": {"name": "HOTINOHSIONI INCORPORATED", "designationCode": "C", "categoryCode": "01", "address": "318-1/2 COLBORNE EAST", "city": "BRANTFORD", "province": "ON", "country": "CA", "postalCode": "N3S3M9", "twitter": "None", "instagram": "None", "facebook": "None", "youtube": "None", "website": "None", "summary": "None", "logo": "None", "latitude": 43.14532424017407, "longitude": -80.20349921399462}, "118964154RR0001": {"name": "HOUGHTON - FIRST BAPTIST CHURCH", "designationCode": "C", "categoryCode": "31", "address": "723 LAKESHORE ROAD            RR# 2", "city": "PORT BURWELL", "province": "ON", "country": "CA", "postalCode": "N0J1T0", "twitter": "None", "instagram": "None", "facebook": "None", "youtube": "None", "website": "None", "summary": "None", "logo": "None", "latitude": 42.64152045041773, "longitude": -80.77668043765055}, "118964139RR0001": {"name": "HOUGHTON BRETHREN IN CHRIST COMMUNITY CHURCH", "designationCode": "C", "categoryCode": "39", "address": "1156 NORFOLK COUNTY ROAD 28   R.R. #5", "city": "LANGTON", "province": "ON", "country": "CA", "postalCode": "N0E1G0", "twitter": "None", "instagram": "None", "facebook": "None", "youtube": "None", "website": "None", "summary": "None", "logo": "None", "latitude": 42.68202174271454, "longitude": -80.6586666927406}, "892202441RR0001": {"name": "HOUGHTON COLLEGE FOUNDATION OF CANADA", "designationCode": "A", "categoryCode": "23", "address": "33 HIGHLAND DRIVE             RR4", "city": "BRANTFORD", "province": "ON", "country": "CA", "postalCode": "N3T5L7", "twitter": "None", "instagram": "None", "facebook": "None", "youtube": "None", "website": "None", "summary": "None", "logo": "None", "latitude": 43.1250404413705, "longitude": -80.39181369884272}, "857633804RR0001": {"name": "HOUR OF PRAISE ASSEMBLY MINISTRIES INC.", "designationCode": "C", "categoryCode": "39", "address": "4-1181 FINCH AVE W", "city": "TORONTO", "province": "ON", "country": "CA", "postalCode": "M3J2V8", "twitter": "None", "instagram": "None", "facebook": "None", "youtube": "None", "website": "None", "summary": "None", "logo": "None", "latitude": 43.7652757892556, "longitude": -79.48273477751192}, "854878808RR0001": {"name": "HOUSE FOR ALL NATIONS", "designationCode": "C", "categoryCode": "39", "address": "1160 LANSDOWNE DRIVE", "city": "COQUITLAM", "province": "BC", "country": "CA", "postalCode": "V3B5V8", "twitter": "None", "instagram": "None", "facebook": "None", "youtube": "None", "website": "None", "summary": "None", "logo": "None", "latitude": 49.281173025535224, "longitude": -122.8083651044199}, "118964170RR0001": {"name": "HOUSE NEXT DOOR", "designationCode": "C", "categoryCode": "01", "address": "10209 - 123 STREET", "city": "EDMONTON", "province": "AB", "country": "CA", "postalCode": "T5N1N3", "twitter": "None", "instagram": "None", "facebook": "None", "youtube": "None", "website": "None", "summary": "None", "logo": "None", "latitude": 53.54327674854292, "longitude": -113.53407779234267}, "842016784RR0001": {"name": "HOUSE OF ALL NATIONS", "designationCode": "C", "categoryCode": "36", "address": "90 CARMICHAEL DRIVE", "city": "NORTH BAY", "province": "ON", "country": "CA", "postalCode": "P1B8G2", "twitter": "None", "instagram": "None", "facebook": "None", "youtube": "None", "website": "None", "summary": "None", "logo": "None", "latitude": 46.349617030843994, "longitude": -79.43056959965939}, "107493843RR0001": {"name": "HOUSE OF ASHKENAZIE", "designationCode": "C", "categoryCode": "42", "address": "6 - 1110 HENDERSON HWY", "city": "WINNIPEG", "province": "MB", "country": "CA", "postalCode": "R2G1L1", "twitter": "None", "instagram": "None", "facebook": "None", "youtube": "None", "website": "None", "summary": "None", "logo": "None", "latitude": 49.93836300000002, "longitude": -97.09255350000001}, "860781459RR0001": {"name": "HOUSE OF BLESSING APOSTOLIC CHURCH OF CALGARY", "designationCode": "C", "categoryCode": "39", "address": "130-32 AVENUE N.W.", "city": "CALGARY", "province": "AB", "country": "CA", "postalCode": "T2M2P6", "twitter": "None", "instagram": "None", "facebook": "None", "youtube": "None", "website": "None", "summary": "None", "logo": "None", "latitude": 51.08156451875457, "longitude": -114.0644205}, "857631162RR0001": {"name": "HOUSE OF BLESSING HEALING ROOMS", "designationCode": "C", "categoryCode": "49", "address": "3 JAMES AVE.", "city": "PICTON", "province": "ON", "country": "CA", "postalCode": "K0K2T0", "twitter": "None", "instagram": "None", "facebook": "None", "youtube": "None", "website": "None", "summary": "None", "logo": "None", "latitude": 44.19995853489358, "longitude": -77.5987964596253}, "852928399RR0001": {"name": "HOUSE OF BREAD MINISTRIES INC.", "designationCode": "C", "categoryCode": "39", "address": "9-2020 LANTHIER DR.SUITE 314", "city": "ORLEANS", "province": "ON", "country": "CA", "postalCode": "K4A3V4", "twitter": "None", "instagram": "None", "facebook": "None", "youtube": "None", "website": "None", "summary": "None", "logo": "None", "latitude": 45.4583513829997, "longitude": -75.49268005611941}, "118964196RR0001": {"name": "HOUSE OF COMPASSION OF TORONTO", "designationCode": "C", "categoryCode": "01", "address": "169-171 1/2 SHAW STREET", "city": "TORONTO", "province": "ON", "country": "CA", "postalCode": "M6J2W6", "twitter": "None", "instagram": "None", "facebook": "None", "youtube": "None", "website": "None", "summary": "None", "logo": "None", "latitude": 43.64659727307121, "longitude": -79.41691542936687}, "873146062RR0001": {"name": "HOUSE OF DAVID MINISTRIES / MINISTERES MAISON DE DAVID", "designationCode": "C", "categoryCode": "47", "address": "176B, AV. DU SABLON", "city": "BOIS-DES-FILION", "province": "QC", "country": "CA", "postalCode": "J6Z4X2", "twitter": "None", "instagram": "None", "facebook": "None", "youtube": "None", "website": "None", "summary": "None", "logo": "None", "latitude": 45.68303795584995, "longitude": -73.77660604366407}, "860315068RR0001": {"name": "HOUSE OF FAITH TABERNACLE INCORPORATED", "designationCode": "C", "categoryCode": "39", "address": "24 NICKEL CRES.", "city": "BRAMPTON", "province": "ON", "country": "CA", "postalCode": "L6S4W1", "twitter": "None", "instagram": "None", "facebook": "None", "youtube": "None", "website": "None", "summary": "None", "logo": "None", "latitude": 43.723096950343205, "longitude": -79.7535272628254}, "107493892RR0001": {"name": "HOUSE OF FRIENDSHIP OF KITCHENER", "designationCode": "C", "categoryCode": "47", "address": "P.O. BOX 1837 STN C", "city": "KITCHENER", "province": "ON", "country": "CA", "postalCode": "N2G4R3", "twitter": "None", "instagram": "None", "facebook": "None", "youtube": "None", "website": "None", "summary": "None", "logo": "None", "latitude": 43.45123200000006, "longitude": -80.49304249999993}, "878987106RR0001": {"name": "HOUSE OF GIVING", "designationCode": "A", "categoryCode": "03", "address": "1500 WEST GEORGIA STREET      SUITE 1250   BOX 62", "city": "VANCOUVER", "province": "BC", "country": "CA", "postalCode": "V6G2Z6", "twitter": "None", "instagram": "None", "facebook": "None", "youtube": "None", "website": "None", "summary": "None", "logo": "None", "latitude": 49.2900638104334, "longitude": -123.12989899362336}, "821827987RR0001": {"name": "HOUSE OF GOD IN TORONTO", "designationCode": "C", "categoryCode": "39", "address": "3-2375 BRIMLEY RD             SUITE 308", "city": "TORONTO", "province": "ON", "country": "CA", "postalCode": "M1S3L6", "twitter": "None", "instagram": "None", "facebook": "None", "youtube": "None", "website": "None", "summary": "None", "logo": "None", "latitude": 43.79816356287144, "longitude": -79.2732292468408}, "888341468RR0001": {"name": "HOUSE OF HOPE AND HEALING", "designationCode": "C", "categoryCode": "09", "address": "14 BAYSWATER AVE", "city": "OTTAWA", "province": "ON", "country": "CA", "postalCode": "K1Y2E4", "twitter": "None", "instagram": "None", "facebook": "None", "youtube": "None", "website": "None", "summary": "None", "logo": "None", "latitude": 45.40691131167415, "longitude": -75.72090023997322}, "819975822RR0001": {"name": "HOUSE OF HOPE SOCIETY INCORPORATED", "designationCode": "C", "categoryCode": "11", "address": "87 BOUSFIELD RISE", "city": "WATERDOWN", "province": "ON", "country": "CA", "postalCode": "L8B0T4", "twitter": "None", "instagram": "None", "facebook": "None", "youtube": "None", "website": "None", "summary": "None", "logo": "None", "latitude": 43.32812055369617, "longitude": -79.92233119790514}, "107493926RR0001": {"name": "HOUSE OF ISRAEL CONGREGATION OF ST. AGATHE", "designationCode": "C", "categoryCode": "42", "address": "CP 293", "city": "SAINTE-AGATHE-DES-MONTS", "province": "QC", "country": "CA", "postalCode": "J8C3A3", "twitter": "None", "instagram": "None", "facebook": "None", "youtube": "None", "website": "None", "summary": "None", "logo": "None", "latitude": 46.04740800000006, "longitude": -74.28346099999993}, "134560309RR0001": {"name": "HOUSE OF LAZARUS MATILDA RESOURCE CENTRE INC", "designationCode": "C", "categoryCode": "09", "address": "2245 SIMMS STREET             BOX 125", "city": "MOUNTAIN", "province": "ON", "country": "CA", "postalCode": "K0E1S0", "twitter": "None", "instagram": "None", "facebook": "None", "youtube": "None", "website": "None", "summary": "None", "logo": "None", "latitude": 45.031536199001664, "longitude": -75.49361576227714}, "897812988RR0001": {"name": "HOUSE OF LORETO INCORPORATED", "designationCode": "C", "categoryCode": "47", "address": "BOX 1779", "city": "BEAUSEJOUR", "province": "MB", "country": "CA", "postalCode": "R0E0C0", "twitter": "None", "instagram": "None", "facebook": "None", "youtube": "None", "website": "None", "summary": "None", "logo": "None", "latitude": 50.061750000000075, "longitude": -96.50519999999995}, "893828715RR0001": {"name": "HOUSE OF PRAISE - THE REDEEMED CHRISTIAN CHURCH OF GOD", "designationCode": "C", "categoryCode": "39", "address": "3085 LENWORTH DRIVE", "city": "MISSISSAUGA", "province": "ON", "country": "CA", "postalCode": "L4X3A2", "twitter": "None", "instagram": "None", "facebook": "None", "youtube": "None", "website": "None", "summary": "None", "logo": "None", "latitude": 43.62202914045805, "longitude": -79.57462537287213}, "825226442RR0001": {"name": "HOUSE OF PRAISE TABERNACLE MINISTRIES", "designationCode": "C", "categoryCode": "39", "address": "800 ARROW ROAD                UNITS 4 & 5", "city": "TORONTO", "province": "ON", "country": "CA", "postalCode": "M9M2Z8", "twitter": "None", "instagram": "None", "facebook": "None", "youtube": "None", "website": "None", "summary": "None", "logo": "None", "latitude": 43.7490330377116, "longitude": -79.53225026608536}, "893515924RR0001": {"name": "HOUSE OF PRAYER (PENTECOSTAL-SLAVIC)", "designationCode": "C", "categoryCode": "36", "address": "1166 OAKCROSSING RD", "city": "LONDON", "province": "ON", "country": "CA", "postalCode": "N6H0E9", "twitter": "None", "instagram": "None", "facebook": "None", "youtube": "None", "website": "None", "summary": "None", "logo": "None", "latitude": 42.99049290648612, "longitude": -81.31078835013554}, "119293025RR0005": {"name": "HOUSE OF PRAYER ALLIANCE CHURCH", "designationCode": "C", "categoryCode": "39", "address": "280 BRIDLEWOOD AVE SW", "city": "CALGARY", "province": "AB", "country": "CA", "postalCode": "T1K1S5", "twitter": "None", "instagram": "None", "facebook": "None", "youtube": "None", "website": "None", "summary": "None", "logo": "None", "latitude": 50.89737945657561, "longitude": -114.10960088773155}, "879612026RR0001": {"name": "HOUSE OF PRAYER EVANGELISTIC CENTRE", "designationCode": "C", "categoryCode": "39", "address": "1181A DUFFERIN STREET", "city": "TORONTO", "province": "ON", "country": "CA", "postalCode": "M6H4B7", "twitter": "None", "instagram": "None", "facebook": "None", "youtube": "None", "website": "None", "summary": "None", "logo": "None", "latitude": 43.66465717721973, "longitude": -79.43732348914455}, "872979133RR0001": {"name": "HOUSE OF PRAYER FOR ALL NATIONS", "designationCode": "C", "categoryCode": "39", "address": "1336 BAXTER", "city": "LASALLE", "province": "QC", "country": "CA", "postalCode": "H8N1A4", "twitter": "None", "instagram": "None", "facebook": "None", "youtube": "None", "website": "None", "summary": "None", "logo": "None", "latitude": 45.43820469995397, "longitude": -73.60669617652486}, "893240150RR0001": {"name": "HOUSE OF PRAYER OUTREACH MINISTRIES", "designationCode": "C", "categoryCode": "39", "address": "255 WELLINGTON ST E", "city": "BARRIE", "province": "ON", "country": "CA", "postalCode": "L4M2E4", "twitter": "None", "instagram": "None", "facebook": "None", "youtube": "None", "website": "None", "summary": "None", "logo": "None", "latitude": 44.401708844566954, "longitude": -79.67670911933757}, "887684199RR0001": {"name": "HOUSE OF REFUGE MISSION", "designationCode": "C", "categoryCode": "01", "address": "PO BOX 373 STATION MAIN", "city": "EDMONTON", "province": "AB", "country": "CA", "postalCode": "T5J2J6", "twitter": "None", "instagram": "None", "facebook": "None", "youtube": "None", "website": "None", "summary": "None", "logo": "None", "latitude": 53.54623500000005, "longitude": -113.49037249999994}, "132153040RR0001": {"name": "HOUSE OF SHALOM", "designationCode": "C", "categoryCode": "56", "address": "3050 JEFFERSON BLVD", "city": "WINDSOR", "province": "ON", "country": "CA", "postalCode": "N8T3G9", "twitter": "None", "instagram": "None", "facebook": "None", "youtube": "None", "website": "None", "summary": "None", "logo": "None", "latitude": 42.29782585403067, "longitude": -82.94386419297174}, "108078759RR0001": {"name": "HOUSE OF SOPHROSYNE", "designationCode": "C", "categoryCode": "57", "address": "1771 CHAPPELL AVE", "city": "WINDSOR", "province": "ON", "country": "CA", "postalCode": "N9C3E8", "twitter": "None", "instagram": "None", "facebook": "None", "youtube": "None", "website": "None", "summary": "None", "logo": "None", "latitude": 42.281770779877846, "longitude": -83.05890797045407}, "881918411RR0001": {"name": "HOUSE OF THE GOOD SHEPHERD MINISTRIES", "designationCode": "C", "categoryCode": "09", "address": "27274 FRASER HWY", "city": "ALDERGROVE", "province": "BC", "country": "CA", "postalCode": "V4W3P8", "twitter": "None", "instagram": "None", "facebook": "None", "youtube": "None", "website": "None", "summary": "None", "logo": "None", "latitude": 49.05782728615953, "longitude": -122.46856890477582}, "888738267RR0001": {"name": "HOUSE OF THE RISEN SON CHURCH INCORPORATED", "designationCode": "C", "categoryCode": "39", "address": "305 MACHRAY AVE", "city": "WINNIPEG", "province": "MB", "country": "CA", "postalCode": "R2W1A3", "twitter": "None", "instagram": "None", "facebook": "None", "youtube": "None", "website": "None", "summary": "None", "logo": "None"}, "123109845RR0001": {"name": "HOUSELINK COMMUNITY HOMES", "designationCode": "C", "categoryCode": "01", "address": "805 BLOOR STREET WEST", "city": "TORONTO", "province": "ON", "country": "CA", "postalCode": "M6G1L8", "twitter": "None", "instagram": "None", "facebook": "None", "youtube": "None", "website": "None", "summary": "None", "logo": "None", "latitude": 43.66285480930823, "longitude": -79.42150453774025}, "130314206RR0001": {"name": "HOUSING FOR YOUTH IN THE CITY OF YORK CORPORATION", "designationCode": "C", "categoryCode": "01", "address": "422 GILBERT AVENUE", "city": "CITY OF YORK", "province": "ON", "country": "CA", "postalCode": "M6E4X3", "twitter": "None", "instagram": "None", "facebook": "None", "youtube": "None", "website": "None", "summary": "None", "logo": "None", "latitude": 43.68951491450752, "longitude": -79.46215316504099}, "129298444RR0001": {"name": "HOUSING HELP CENTRE FOR HAMILTON-WENTWORTH", "designationCode": "C", "categoryCode": "09", "address": "119 MAIN ST EAST", "city": "HAMILTON", "province": "ON", "country": "CA", "postalCode": "L8N3Z3", "twitter": "None", "instagram": "None", "facebook": "None", "youtube": "None", "website": "None", "summary": "None", "logo": "None", "latitude": 43.25436303748046, "longitude": -79.8652843642738}, "123436545RR0001": {"name": "HOUSING HELP CORPORATION AIDE LOGEMENT, OTTAWA-CARLETON", "designationCode": "C", "categoryCode": "09", "address": "502-309 COOPER ST.", "city": "OTTAWA", "province": "ON", "country": "CA", "postalCode": "K2P0G5", "twitter": "None", "instagram": "None", "facebook": "None", "youtube": "None", "website": "None", "summary": "None", "logo": "None", "latitude": 45.417332283109175, "longitude": -75.6938818960701}, "886685239RR0001": {"name": "HOUSING INFORMATION SERVICES OF WINDSOR & ESSEX COUNTY INC", "designationCode": "C", "categoryCode": "59", "address": "3450 YPRES AVENUE             SUITE 200", "city": "WINDSOR", "province": "ON", "country": "CA", "postalCode": "N8W5K9", "twitter": "None", "instagram": "None", "facebook": "None", "youtube": "None", "website": "None", "summary": "None", "logo": "None", "latitude": 42.30175268388246, "longitude": -82.97928189592587}, "123176349RR0001": {"name": "HOUSTON COMMUNITY SERVICES ASSOCIATION", "designationCode": "C", "categoryCode": "59", "address": "3404 9TH STREET               PO BOX 489", "city": "HOUSTON", "province": "BC", "country": "CA", "postalCode": "V0J1Z0", "twitter": "None", "instagram": "None", "facebook": "None", "youtube": "None", "website": "None", "summary": "None", "logo": "None", "latitude": 54.400356000000016, "longitude": -126.64519552277653}, "119288918RR0374": {"name": "HOUSTON CONGREGATION OF JEHOVAH'S WITNESSES", "designationCode": "C", "categoryCode": "61", "address": "12428 PEROW LOOP ROAD", "city": "HOUSTON", "province": "BC", "country": "CA", "postalCode": "V0J1Z2", "twitter": "None", "instagram": "None", "facebook": "None", "youtube": "None", "website": "None", "summary": "None", "logo": "None", "latitude": 54.52028685385488, "longitude": -126.43629586684533}, "871055703RR0001": {"name": "HOUSTON HOSPICE SOCIETY", "designationCode": "C", "categoryCode": "11", "address": "3234 BENSON AVE               BOX 385", "city": "HOUSTON", "province": "BC", "country": "CA", "postalCode": "V0J1Z0", "twitter": "None", "instagram": "None", "facebook": "None", "youtube": "None", "website": "None", "summary": "None", "logo": "None", "latitude": 54.4002764815507, "longitude": -126.65268438820038}, "139461784RR0001": {"name": "HOUSTON LINK TO LEARNING SOCIETY", "designationCode": "C", "categoryCode": "21", "address": "PO BOX 1294", "city": "HOUSTON", "province": "BC", "country": "CA", "postalCode": "V0J1Z0", "twitter": "None", "instagram": "None", "facebook": "None", "youtube": "None", "website": "None", "summary": "None", "logo": "None", "latitude": 55.240365186846496, "longitude": -127.654727473102}, "107494155RR0001": {"name": "HOUSTON PENTECOSTAL TABERNACLE", "designationCode": "C", "categoryCode": "36", "address": "2024 RIVERBANK DR", "city": "HOUSTON", "province": "BC", "country": "CA", "postalCode": "V0J1Z2", "twitter": "None", "instagram": "None", "facebook": "None", "youtube": "None", "website": "None", "summary": "None", "logo": "None", "latitude": 54.39329642298808, "longitude": -126.64249643314862}, "107494171RR0001": {"name": "HOUSTON PUBLIC LIBRARY ASSOCIATION", "designationCode": "C", "categoryCode": "50", "address": "BOX 840", "city": "HOUSTON", "province": "BC", "country": "CA", "postalCode": "V0J1Z0", "twitter": "None", "instagram": "None", "facebook": "None", "youtube": "None", "website": "None", "summary": "None", "logo": "None", "latitude": 55.240365186846496, "longitude": -127.654727473102}, "879944122RR0001": {"name": "HOUSTON RETIREMENT HOUSING SOCIETY", "designationCode": "C", "categoryCode": "09", "address": "27-3603 11TH ST", "city": "HOUSTON", "province": "BC", "country": "CA", "postalCode": "V0J1Z2", "twitter": "None", "instagram": "None", "facebook": "None", "youtube": "None", "website": "None", "summary": "None", "logo": "None", "latitude": 54.39734190849067, "longitude": -126.64115880468214}, "118964360RR0001": {"name": "HOUSTON UNITED CHURCH", "designationCode": "C", "categoryCode": "44", "address": "PO BOX 1006", "city": "HOUSTON", "province": "BC", "country": "CA", "postalCode": "V0J1Z0", "twitter": "None", "instagram": "None", "facebook": "None", "youtube": "None", "website": "None", "summary": "None", "logo": "None", "latitude": 55.240365186846496, "longitude": -127.654727473102}}