{"893212977RR0001": {"name": "ROYAL CANADIAN LEGION BRANCH 479, NIAGARA FALLS POPPY FUND", "designationCode": "C", "categoryCode": "09", "address": "5603 SPRING STREET", "city": "NIAGARA FALLS", "province": "ON", "country": "CA", "postalCode": "L2G1P7", "twitter": "None", "instagram": "None", "facebook": "None", "youtube": "None", "website": "None", "summary": "None", "logo": "None", "latitude": 43.09062151933149, "longitude": -79.08830019317328}, "890746746RR0001": {"name": "ROYAL CANADIAN LEGION BRANCH 517 POPPY FUND", "designationCode": "C", "categoryCode": "09", "address": "3583 PETAWAWA BLVD", "city": "PETAWAWA", "province": "ON", "country": "CA", "postalCode": "K8H2Y1", "twitter": "None", "instagram": "None", "facebook": "None", "youtube": "None", "website": "None", "summary": "None", "logo": "None", "latitude": 45.90417386124405, "longitude": -77.28590300216439}, "893189977RR0001": {"name": "ROYAL CANADIAN LEGION BRANCH 532 MEMORIAL SCHOLARSHIP FUND", "designationCode": "C", "categoryCode": "09", "address": "65 BOULLEE STREET", "city": "NEW HAMBURG", "province": "ON", "country": "CA", "postalCode": "N3A1E1", "twitter": "None", "instagram": "None", "facebook": "None", "youtube": "None", "website": "None", "summary": "None", "logo": "None", "latitude": 43.377362296361724, "longitude": -80.70612777162073}, "106810757RR0001": {"name": "ROYAL CANADIAN LEGION BRIGDEWATER BRANCH N.S. #24 POPPY FUND", "designationCode": "C", "categoryCode": "09", "address": "78 CHURCHILL STREET", "city": "BRIDGEWATER", "province": "NS", "country": "CA", "postalCode": "B4V1R7", "twitter": "None", "instagram": "None", "facebook": "None", "youtube": "None", "website": "None", "summary": "None", "logo": "None", "latitude": 44.374973017225344, "longitude": -64.52259167081205}, "107932105RR0001": {"name": "ROYAL CANADIAN LEGION BROCKVILLE ONT. NO. 96 BRANCH POPPY FUND", "designationCode": "C", "categoryCode": "09", "address": "PO BOX 36", "city": "BROCKVILLE", "province": "ON", "country": "CA", "postalCode": "K6V5T7", "twitter": "None", "instagram": "None", "facebook": "None", "youtube": "None", "website": "None", "summary": "None", "logo": "None", "latitude": 44.59037100000006, "longitude": -75.68301049999994}, "119126845RR0001": {"name": "ROYAL CANADIAN LEGION BROME (QUE. NO. 23) BRANCH POPPY FUND", "designationCode": "C", "categoryCode": "09", "address": "BOX 3666", "city": "KNOWLTON", "province": "QC", "country": "CA", "postalCode": "J0E1V0", "twitter": "None", "instagram": "None", "facebook": "None", "youtube": "None", "website": "None", "summary": "None", "logo": "None", "latitude": 45.21568763279196, "longitude": -72.48676844241518}, "119126878RR0001": {"name": "ROYAL CANADIAN LEGION BURKS FALLS ONT. NO. 405 BRANCH POPPY FUND", "designationCode": "C", "categoryCode": "09", "address": "P O BOX 220", "city": "BURKS FALLS", "province": "ON", "country": "CA", "postalCode": "P0A1C0", "twitter": "None", "instagram": "None", "facebook": "None", "youtube": "None", "website": "None", "summary": "None", "logo": "None", "latitude": 45.61863000000005, "longitude": -79.40468999999996}, "119126886RR0001": {"name": "ROYAL CANADIAN LEGION CAMPBELLFORD ONT. NO. 103 BRANCH POPPY FUND", "designationCode": "C", "categoryCode": "09", "address": "34 BRIDGE ST W PO BOX 793", "city": "CAMPBELLFORD", "province": "ON", "country": "CA", "postalCode": "K0L1L0", "twitter": "None", "instagram": "None", "facebook": "None", "youtube": "None", "website": "None", "summary": "None", "logo": "None", "latitude": 44.308602322263035, "longitude": -77.80119770982171}, "892940560RR0001": {"name": "ROYAL CANADIAN LEGION CAMROSE BRANCH POPPY FUND", "designationCode": "C", "categoryCode": "05", "address": "PO BOX 1330 STN MAIN", "city": "CAMROSE", "province": "AB", "country": "CA", "postalCode": "T4V1X3", "twitter": "None", "instagram": "None", "facebook": "None", "youtube": "None", "website": "None", "summary": "None", "logo": "None", "latitude": 53.019161503313846, "longitude": -112.82562875165692}, "119126902RR0001": {"name": "ROYAL CANADIAN LEGION CANWOOD BRANCH # 132 POPPY FUND", "designationCode": "C", "categoryCode": "09", "address": "BOX 508", "city": "CANWOOD", "province": "SK", "country": "CA", "postalCode": "S0J0K0", "twitter": "None", "instagram": "None", "facebook": "None", "youtube": "None", "website": "None", "summary": "None", "logo": "None", "latitude": 53.36680000000007, "longitude": -106.60110999999995}, "889680369RR0001": {"name": "ROYAL CANADIAN LEGION CASTOR BRANCH POPPY FUND, BRANCH NO 119, THE", "designationCode": "C", "categoryCode": "05", "address": "BOX 22", "city": "CASTOR", "province": "AB", "country": "CA", "postalCode": "T0C0X0", "twitter": "None", "instagram": "None", "facebook": "None", "youtube": "None", "website": "None", "summary": "None", "logo": "None", "latitude": 52.21792000000005, "longitude": -111.90889999999996}, "108096785RR0001": {"name": "ROYAL CANADIAN LEGION COBDEN & DISTRICT (ONTARIO NO. 550) BRANCH POPPY FUND", "designationCode": "C", "categoryCode": "09", "address": "43A MAIN ST. P.O. BOX 114", "city": "COBDEN", "province": "ON", "country": "CA", "postalCode": "K0J1K0", "twitter": "None", "instagram": "None", "facebook": "None", "youtube": "None", "website": "None", "summary": "None", "logo": "None", "latitude": 45.62653250369647, "longitude": -76.88356296068444}, "119127017RR0001": {"name": "ROYAL CANADIAN LEGION COBEQUID NO. 72 BRANCH POPPY FUND", "designationCode": "C", "categoryCode": "09", "address": "BR NO.72 POPPY TRUST FUND 692 CROWES MILLS RD RR1", "city": "BELMONT", "province": "NS", "country": "CA", "postalCode": "B0M1C0", "twitter": "None", "instagram": "None", "facebook": "None", "youtube": "None", "website": "None", "summary": "None", "logo": "None", "latitude": 45.40687399056494, "longitude": -63.365445285562004}, "888110046RR0001": {"name": "ROYAL CANADIAN LEGION COL J E L STREIGHT BRANCH 210 POPPY FUND", "designationCode": "C", "categoryCode": "05", "address": "110 JUTLAND ROAD", "city": "TORONTO", "province": "ON", "country": "CA", "postalCode": "M8Z2H1", "twitter": "None", "instagram": "None", "facebook": "None", "youtube": "None", "website": "None", "summary": "None", "logo": "None", "latitude": 43.628647136303115, "longitude": -79.51843897336826}, "891625865RR0001": {"name": "ROYAL CANADIAN LEGION COOKSVILLE ONT NO 582 BRANCH POPPY TRUST FUND", "designationCode": "C", "categoryCode": "09", "address": "456 HENSALL CIRCLE", "city": "MISSISSAUGA", "province": "ON", "country": "CA", "postalCode": "L5A1X7", "twitter": "None", "instagram": "None", "facebook": "None", "youtube": "None", "website": "None", "summary": "None", "logo": "None", "latitude": 43.58957829970027, "longitude": -79.60513428870733}, "889292041RR0001": {"name": "ROYAL CANADIAN LEGION CORNWALL (ONTARIO NO 297) BRANCH POPP", "designationCode": "C", "categoryCode": "09", "address": "412 2ND ST W", "city": "CORNWALL", "province": "ON", "country": "CA", "postalCode": "K6J1H2", "twitter": "None", "instagram": "None", "facebook": "None", "youtube": "None", "website": "None", "summary": "None", "logo": "None", "latitude": 45.01582163445679, "longitude": -74.73746915875127}, "893173971RR0001": {"name": "ROYAL CANADIAN LEGION CORUNNA (ONT NO 447 LESLIE SUTHERLAND) BRANCH POPPY FUND", "designationCode": "C", "categoryCode": "09", "address": "ALBERT ST PO BOX 119", "city": "CORUNNA", "province": "ON", "country": "CA", "postalCode": "N0N1G0", "twitter": "None", "instagram": "None", "facebook": "None", "youtube": "None", "website": "None", "summary": "None", "logo": "None", "latitude": 42.89285931265356, "longitude": -82.43758236126035}, "891488181RR0001": {"name": "ROYAL CANADIAN LEGION DEEP RIVER (ONTARIO NO 436) BRANCH POPPY FUND", "designationCode": "C", "categoryCode": "09", "address": "ROYAL CANADIAN LEGION BOX 1137", "city": "DEEP RIVER", "province": "ON", "country": "CA", "postalCode": "K0J1P0", "twitter": "None", "instagram": "None", "facebook": "None", "youtube": "None", "website": "None", "summary": "None", "logo": "None", "latitude": 46.10094229916361, "longitude": -77.48685137671198}, "888369840RR0001": {"name": "ROYAL CANADIAN LEGION DELHI ONT NO 125 BRANCH POPPY FUND", "designationCode": "C", "categoryCode": "09", "address": "161 MAIN STREET OF DELHI", "city": "DELHI", "province": "ON", "country": "CA", "postalCode": "N4B2M1", "twitter": "None", "instagram": "None", "facebook": "None", "youtube": "None", "website": "None", "summary": "None", "logo": "None", "latitude": 42.855043851232075, "longitude": -80.49811431458834}, "107933103RR0001": {"name": "ROYAL CANADIAN LEGION DISTRICT \"D\" CARE CENTRES", "designationCode": "C", "categoryCode": "01", "address": "59 LAWSON RD", "city": "WEST HILL", "province": "ON", "country": "CA", "postalCode": "M1C2J1", "twitter": "None", "instagram": "None", "facebook": "None", "youtube": "None", "website": "None", "summary": "None", "logo": "None", "latitude": 43.78402395080548, "longitude": -79.16414514868195}, "119127173RR0001": {"name": "ROYAL CANADIAN LEGION DUNDAS (ONT. NO. 36) BRANCH POPPY FUND", "designationCode": "C", "categoryCode": "09", "address": "280 KING ST W", "city": "DUNDAS", "province": "ON", "country": "CA", "postalCode": "L9H1W1", "twitter": "None", "instagram": "None", "facebook": "None", "youtube": "None", "website": "None", "summary": "None", "logo": "None", "latitude": 43.26915354007751, "longitude": -79.96649677924268}, "119127215RR0001": {"name": "ROYAL CANADIAN LEGION EGANVILLE (ONTARIO NO. 353) BRANCH POPPY FUND", "designationCode": "C", "categoryCode": "09", "address": "BOX 196", "city": "EGANVILLE", "province": "ON", "country": "CA", "postalCode": "K0J1T0", "twitter": "None", "instagram": "None", "facebook": "None", "youtube": "None", "website": "None", "summary": "None", "logo": "None", "latitude": 45.57147000000006, "longitude": -77.04741949999993}, "873584098RR0001": {"name": "ROYAL CANADIAN LEGION ELMIRA BR 469 POPPY FUND", "designationCode": "C", "categoryCode": "05", "address": "11 FIRST STREET               P.O. BOX 123", "city": "ELMIRA", "province": "ON", "country": "CA", "postalCode": "N3B2Z5", "twitter": "None", "instagram": "None", "facebook": "None", "youtube": "None", "website": "None", "summary": "None", "logo": "None", "latitude": 43.59201133710659, "longitude": -80.55999703948245}, "122707706RR0001": {"name": "ROYAL CANADIAN LEGION ESTERHAZY, SASK BRANCH NO 249, POPPY FUND", "designationCode": "C", "categoryCode": "09", "address": "PO BOX 389", "city": "ESTERHAZY", "province": "SK", "country": "CA", "postalCode": "S0A0X0", "twitter": "None", "instagram": "None", "facebook": "None", "youtube": "None", "website": "None", "summary": "None", "logo": "None", "latitude": 50.65157000000005, "longitude": -102.05784999999997}, "891268781RR0001": {"name": "ROYAL CANADIAN LEGION FENELON FALLS ONT NO 238 BRANCH POPPY FUND", "designationCode": "C", "categoryCode": "09", "address": "23 VETERANS WAY", "city": "FENELON FALLS", "province": "ON", "country": "CA", "postalCode": "K0M1N0", "twitter": "None", "instagram": "None", "facebook": "None", "youtube": "None", "website": "None", "summary": "None", "logo": "None", "latitude": 44.53083754725, "longitude": -78.7418789123163}, "888878394RR0001": {"name": "ROYAL CANADIAN LEGION FORT ERIE ONT NO 71 BRANCH POPPY FUND", "designationCode": "C", "categoryCode": "09", "address": "130 GARRISON RD", "city": "FORT ERIE", "province": "ON", "country": "CA", "postalCode": "L2A6E1", "twitter": "None", "instagram": "None", "facebook": "None", "youtube": "None", "website": "None", "summary": "None", "logo": "None", "latitude": 42.905567986760495, "longitude": -78.91749626966545}, "119127306RR0001": {"name": "ROYAL CANADIAN LEGION FORT MACLEOD BRANCH POPPY FUND", "designationCode": "C", "categoryCode": "05", "address": "P.O. BOX 697", "city": "FORT MACLEOD", "province": "AB", "country": "CA", "postalCode": "T0L0Z0", "twitter": "None", "instagram": "None", "facebook": "None", "youtube": "None", "website": "None", "summary": "None", "logo": "None"}, "133119149RR0001": {"name": "ROYAL CANADIAN LEGION FREDERICTON (NB) BR # 4, BRANCH POPPY FUND, THE", "designationCode": "C", "categoryCode": "09", "address": "P.O. BOX 132", "city": "FREDERICTON", "province": "NB", "country": "CA", "postalCode": "E3B4Y2", "twitter": "None", "instagram": "None", "facebook": "None", "youtube": "None", "website": "None", "summary": "None", "logo": "None", "latitude": 45.96062100000006, "longitude": -66.63911299999994}, "890806060RR0001": {"name": "ROYAL CANADIAN LEGION GENERAL ALEXANDER ROSS BRANCH #77 POPPY FUND", "designationCode": "C", "categoryCode": "09", "address": "BOX 1329", "city": "YORKTON", "province": "SK", "country": "CA", "postalCode": "S3N3G2", "twitter": "None", "instagram": "None", "facebook": "None", "youtube": "None", "website": "None", "summary": "None", "logo": "None", "latitude": 51.20403900000005, "longitude": -102.44985199999994}, "891634461RR0001": {"name": "ROYAL CANADIAN LEGION GODERICH (ONT NO 109) BRANCH POPPY FUND THE", "designationCode": "C", "categoryCode": "09", "address": "56 KINGSTON STREET", "city": "GODERICH", "province": "ON", "country": "CA", "postalCode": "N7A3K4", "twitter": "None", "instagram": "None", "facebook": "None", "youtube": "None", "website": "None", "summary": "None", "logo": "None", "latitude": 43.74160556422777, "longitude": -81.70921892440394}, "119127405RR0001": {"name": "ROYAL CANADIAN LEGION GREATER EDMONTON POPPY FUND", "designationCode": "C", "categoryCode": "09", "address": "10720 101 ST NW", "city": "EDMONTON", "province": "AB", "country": "CA", "postalCode": "T5H2S3", "twitter": "None", "instagram": "None", "facebook": "None", "youtube": "None", "website": "None", "summary": "None", "logo": "None", "latitude": 53.55199825145709, "longitude": -113.49376875872778}, "890837669RR0001": {"name": "ROYAL CANADIAN LEGION GRENFELL BRANCH #55 POPPY FUND", "designationCode": "C", "categoryCode": "09", "address": "BOX 895                       BRANCH #55 POPPY FUND", "city": "GRENFELL", "province": "SK", "country": "CA", "postalCode": "S0G2B0", "twitter": "None", "instagram": "None", "facebook": "None", "youtube": "None", "website": "None", "summary": "None", "logo": "None", "latitude": 50.411193000000054, "longitude": -102.92259049999993}, "889021390RR0001": {"name": "ROYAL CANADIAN LEGION GUELPH (ONTARIO NO 234) BRANCH POPPY FUND", "designationCode": "C", "categoryCode": "09", "address": "57 WATSON PKY S", "city": "GUELPH", "province": "ON", "country": "CA", "postalCode": "N1L0H8", "twitter": "None", "instagram": "None", "facebook": "None", "youtube": "None", "website": "None", "summary": "None", "logo": "None", "latitude": 43.56164010399416, "longitude": -80.20846092319795}, "890763469RR0001": {"name": "ROYAL CANADIAN LEGION HARTLAND BR NB NO 24 BRANCH POPPY FUND THE", "designationCode": "C", "categoryCode": "09", "address": "41 ORSER ST", "city": "HARTLAND", "province": "NB", "country": "CA", "postalCode": "E7P1P3", "twitter": "None", "instagram": "None", "facebook": "None", "youtube": "None", "website": "None", "summary": "None", "logo": "None", "latitude": 46.29978842408682, "longitude": -67.52744291208334}, "892407370RR0001": {"name": "ROYAL CANADIAN LEGION HUDSON BAY, SASK BRANCH # 130 POPPY FUND", "designationCode": "C", "categoryCode": "09", "address": "BOX 1424", "city": "HUDSON BAY", "province": "SK", "country": "CA", "postalCode": "S0E0Y0", "twitter": "None", "instagram": "None", "facebook": "None", "youtube": "None", "website": "None", "summary": "None", "logo": "None", "latitude": 52.862685000000056, "longitude": -102.38924149999994}, "119127538RR0001": {"name": "ROYAL CANADIAN LEGION INDIAN HEAD, SASK. BRANCH #114, SASK. POPPY FUND", "designationCode": "C", "categoryCode": "09", "address": "PO BOX 564", "city": "INDIAN HEAD", "province": "SK", "country": "CA", "postalCode": "S0G2K0", "twitter": "None", "instagram": "None", "facebook": "None", "youtube": "None", "website": "None", "summary": "None", "logo": "None", "latitude": 50.52675000000005, "longitude": -103.66901999999999}, "891477648RR0001": {"name": "ROYAL CANADIAN LEGION KANATA (ONTARIO NO 638) BRANCH POPPY FUND", "designationCode": "C", "categoryCode": "09", "address": "70 HINES RD", "city": "KANATA", "province": "ON", "country": "CA", "postalCode": "K2K2M5", "twitter": "None", "instagram": "None", "facebook": "None", "youtube": "None", "website": "None", "summary": "None", "logo": "None", "latitude": 45.34577115257711, "longitude": -75.92442558895678}, "108075441RR0001": {"name": "ROYAL CANADIAN LEGION KAPUSKASING ONT NO. 85 BRANCH POPPY FUND", "designationCode": "C", "categoryCode": "09", "address": "4 GOVERNMENT RD", "city": "KAPUSKASING", "province": "ON", "country": "CA", "postalCode": "P5N2W3", "twitter": "None", "instagram": "None", "facebook": "None", "youtube": "None", "website": "None", "summary": "None", "logo": "None", "latitude": 49.41294247489747, "longitude": -82.4245142216227}, "890909864RR0001": {"name": "ROYAL CANADIAN LEGION KINGSVILLE ONT NO 188 BRANCH POPPY FUND", "designationCode": "C", "categoryCode": "09", "address": "PO BOX 266", "city": "KINGSVILLE", "province": "ON", "country": "CA", "postalCode": "N9Y2E9", "twitter": "None", "instagram": "None", "facebook": "None", "youtube": "None", "website": "None", "summary": "None", "logo": "None", "latitude": 42.03786300000006, "longitude": -82.74031099999993}, "124339466RR0001": {"name": "ROYAL CANADIAN LEGION LACOMBE ALTA NO 79 BRANCH POPPY FUND", "designationCode": "C", "categoryCode": "09", "address": "5138 49 ST", "city": "LACOMBE", "province": "AB", "country": "CA", "postalCode": "T4L1J2", "twitter": "None", "instagram": "None", "facebook": "None", "youtube": "None", "website": "None", "summary": "None", "logo": "None", "latitude": 52.465959, "longitude": -113.72923560300627}, "119127652RR0001": {"name": "ROYAL CANADIAN LEGION LETHBRIDGE BRANCH POPPY FUND GENERAL STEWART BRANCH NO. 4", "designationCode": "C", "categoryCode": "05", "address": "324 MAYOR MAGRATH DR S", "city": "LETHBRIDGE", "province": "AB", "country": "CA", "postalCode": "T1J3L7", "twitter": "None", "instagram": "None", "facebook": "None", "youtube": "None", "website": "None", "summary": "None", "logo": "None", "latitude": 49.69589030133206, "longitude": -112.81147159129088}, "888524048RR0001": {"name": "ROYAL CANADIAN LEGION LINDSAY ONT NO 67 SIR SAM HUGHES BRANCH POPPY FUND", "designationCode": "C", "categoryCode": "09", "address": "12 YORK STREET NORTH", "city": "LINDSAY", "province": "ON", "country": "CA", "postalCode": "K9V3Z6", "twitter": "None", "instagram": "None", "facebook": "None", "youtube": "None", "website": "None", "summary": "None", "logo": "None", "latitude": 44.35540736199487, "longitude": -78.7361498022307}, "119127678RR0001": {"name": "ROYAL CANADIAN LEGION LLOYDMINSTER SASK. BRANCH POPPY FUND", "designationCode": "C", "categoryCode": "09", "address": "BOX 277", "city": "LLOYDMINSTER", "province": "SK", "country": "CA", "postalCode": "S9V0Y2", "twitter": "None", "instagram": "None", "facebook": "None", "youtube": "None", "website": "None", "summary": "None", "logo": "None", "latitude": 53.274840000000054, "longitude": -109.99074949999994}, "119127702RR0001": {"name": "ROYAL CANADIAN LEGION LT. COL. HARRY BABCOCK ONTARIO NO. 137 BRANCH POOPY FUND", "designationCode": "C", "categoryCode": "09", "address": "26 MILL ST E", "city": "NAPANEE", "province": "ON", "country": "CA", "postalCode": "K7R1H2", "twitter": "None", "instagram": "None", "facebook": "None", "youtube": "None", "website": "None", "summary": "None", "logo": "None", "latitude": 44.24712132526414, "longitude": -76.94877926031523}, "888743846RR0001": {"name": "ROYAL CANADIAN LEGION MACKENZIE ONTARIO NO 414 BRANCH POPPY FUND THE", "designationCode": "C", "categoryCode": "09", "address": "60 LEGION COURT RD", "city": "WOODBRIDGE", "province": "ON", "country": "CA", "postalCode": "L4L2B4", "twitter": "None", "instagram": "None", "facebook": "None", "youtube": "None", "website": "None", "summary": "None", "logo": "None", "latitude": 43.779048570892876, "longitude": -79.58861162727209}, "890800261RR0001": {"name": "ROYAL CANADIAN LEGION MEADOW LAKE BRANCH (SASK ) #76 POPPY FUND,", "designationCode": "C", "categoryCode": "09", "address": "PO BOX 309 STN MAIN", "city": "MEADOW LAKE", "province": "SK", "country": "CA", "postalCode": "S9X1Y3", "twitter": "None", "instagram": "None", "facebook": "None", "youtube": "None", "website": "None", "summary": "None", "logo": "None", "latitude": 54.13326000000005, "longitude": -108.45203299999993}, "893199372RR0001": {"name": "ROYAL CANADIAN LEGION METROPOLITAN BR 594 POPPY TRUST FUND", "designationCode": "C", "categoryCode": "05", "address": "5030 HOWARD AVENUE", "city": "TECUMSEH", "province": "ON", "country": "CA", "postalCode": "N9A6Z6", "twitter": "None", "instagram": "None", "facebook": "None", "youtube": "None", "website": "None", "summary": "None", "logo": "None", "latitude": 42.22918152539101, "longitude": -82.99736705456249}, "891617862RR0001": {"name": "ROYAL CANADIAN LEGION MILVERTON & DISTRICT ONT NO 565 BRAN CH POPPY FUND", "designationCode": "C", "categoryCode": "09", "address": "GARY W BYRD                   PO BOX 357", "city": "MILVERTON", "province": "ON", "country": "CA", "postalCode": "N0K1M0", "twitter": "None", "instagram": "None", "facebook": "None", "youtube": "None", "website": "None", "summary": "None", "logo": "None", "latitude": 43.58028300000005, "longitude": -80.99507599999993}, "891283947RR0001": {"name": "ROYAL CANADIAN LEGION MINTO NB NO 12 BRANCH POPPY FUND", "designationCode": "C", "categoryCode": "09", "address": "16 LEGION ST", "city": "MINTO", "province": "NB", "country": "CA", "postalCode": "E4B3N8", "twitter": "None", "instagram": "None", "facebook": "None", "youtube": "None", "website": "None", "summary": "None", "logo": "None", "latitude": 46.0762000807995, "longitude": -66.07223095841584}, "119127884RR0001": {"name": "ROYAL CANADIAN LEGION MOOSOMIN SASK. BRANCH 81 POPPY FUND", "designationCode": "C", "categoryCode": "09", "address": "712 MAIN STREET               POST OFFICE BOX 1016", "city": "MOOSOMIN", "province": "SK", "country": "CA", "postalCode": "S0G3N0", "twitter": "None", "instagram": "None", "facebook": "None", "youtube": "None", "website": "None", "summary": "None", "logo": "None", "latitude": 50.1439038993047, "longitude": -101.6672123595781}, "887537819RR0001": {"name": "ROYAL CANADIAN LEGION NAICAM BRANCH #218 INC. POPPY FUND", "designationCode": "A", "categoryCode": "05", "address": "P.O. BOX 578", "city": "NAICAM", "province": "SK", "country": "CA", "postalCode": "S0K2Z0", "twitter": "None", "instagram": "None", "facebook": "None", "youtube": "None", "website": "None", "summary": "None", "logo": "None", "latitude": 52.42007000000007, "longitude": -104.49704999999994}, "119127892RR0001": {"name": "ROYAL CANADIAN LEGION NEW HAMBURG ONT. NO. 532 BRANCH POPPY FUND", "designationCode": "C", "categoryCode": "09", "address": "65 BOULLEE STREET", "city": "NEW HAMBURG", "province": "ON", "country": "CA", "postalCode": "N3A1E1", "twitter": "None", "instagram": "None", "facebook": "None", "youtube": "None", "website": "None", "summary": "None", "logo": "None", "latitude": 43.377362296361724, "longitude": -80.70612777162073}, "891998767RR0001": {"name": "ROYAL CANADIAN LEGION NEW LISK EARD BRANCH 33 POPPY FUND", "designationCode": "C", "categoryCode": "09", "address": "BOX 699", "city": "NEW LISKEARD", "province": "ON", "country": "CA", "postalCode": "P0J1P0", "twitter": "None", "instagram": "None", "facebook": "None", "youtube": "None", "website": "None", "summary": "None", "logo": "None", "latitude": 47.50254600000005, "longitude": -79.69562449999994}, "119127918RR0001": {"name": "ROYAL CANADIAN LEGION NIPAWIN BRANCH #120 POPPY FUND", "designationCode": "C", "categoryCode": "09", "address": "BOX 1324", "city": "NIPAWIN", "province": "SK", "country": "CA", "postalCode": "S0E1E0", "twitter": "None", "instagram": "None", "facebook": "None", "youtube": "None", "website": "None", "summary": "None", "logo": "None", "latitude": 53.396118, "longitude": -104.00834700000001}, "119126985RR0001": {"name": "ROYAL CANADIAN LEGION NO. 74 BRANCH POPPY FUND", "designationCode": "C", "categoryCode": "09", "address": "119 KING STREET", "city": "CHIPMAN", "province": "NB", "country": "CA", "postalCode": "E4A2K5", "twitter": "None", "instagram": "None", "facebook": "None", "youtube": "None", "website": "None", "summary": "None", "logo": "None", "latitude": 46.17158743182309, "longitude": -65.87369861554103}, "119127967RR0001": {"name": "ROYAL CANADIAN LEGION NORTH BAY (ONT. 23) BRANCH POPPY FUND", "designationCode": "C", "categoryCode": "09", "address": "150 FIRST AVENUE WEST", "city": "NORTH BAY", "province": "ON", "country": "CA", "postalCode": "P1B3B9", "twitter": "None", "instagram": "None", "facebook": "None", "youtube": "None", "website": "None", "summary": "None", "logo": "None", "latitude": 46.31277563612803, "longitude": -79.46142152217435}, "886929199RR0001": {"name": "ROYAL CANADIAN LEGION ONT NO 171 BRANCH POPPY FUND", "designationCode": "C", "categoryCode": "09", "address": "111 DUFFERIN ST S", "city": "ALLISTON", "province": "ON", "country": "CA", "postalCode": "L9R1E9", "twitter": "None", "instagram": "None", "facebook": "None", "youtube": "None", "website": "None", "summary": "None", "logo": "None", "latitude": 44.15035596698516, "longitude": -79.86294030278022}, "887443794RR0001": {"name": "ROYAL CANADIAN LEGION ONT NO 322 BRANCH POPPY FUND", "designationCode": "C", "categoryCode": "09", "address": "111 HUNT ST", "city": "AJAX", "province": "ON", "country": "CA", "postalCode": "L1S1P3", "twitter": "None", "instagram": "None", "facebook": "None", "youtube": "None", "website": "None", "summary": "None", "logo": "None", "latitude": 43.8464998309483, "longitude": -79.0239938845289}, "119128049RR0001": {"name": "ROYAL CANADIAN LEGION ONT. BRANCH 329 POPPY FUND", "designationCode": "C", "categoryCode": "09", "address": "PO BOX 419", "city": "TOTTENHAM", "province": "ON", "country": "CA", "postalCode": "L0G1W0", "twitter": "None", "instagram": "None", "facebook": "None", "youtube": "None", "website": "None", "summary": "None", "logo": "None", "latitude": 44.101466326769575, "longitude": -79.82930921542986}, "119128098RR0001": {"name": "ROYAL CANADIAN LEGION ONT. NO. 78 BRANCH POPPY FUND", "designationCode": "C", "categoryCode": "09", "address": "347 MAIN ST EAST", "city": "PICTON", "province": "ON", "country": "CA", "postalCode": "K0K2T0", "twitter": "None", "instagram": "None", "facebook": "None", "youtube": "None", "website": "None", "summary": "None", "logo": "None", "latitude": 44.19523880091449, "longitude": -77.04803934610621}, "888985397RR0001": {"name": "ROYAL CANADIAN LEGION ORILLIA ONT NO 34 BRANCH POPPY FUND", "designationCode": "C", "categoryCode": "09", "address": "215 MISSISSAGA ST. EAST", "city": "ORILLIA", "province": "ON", "country": "CA", "postalCode": "L3V1W2", "twitter": "None", "instagram": "None", "facebook": "None", "youtube": "None", "website": "None", "summary": "None", "logo": "None", "latitude": 44.61040477712458, "longitude": -79.41437503848172}, "119128148RR0001": {"name": "ROYAL CANADIAN LEGION OWEN SOUND ONT. NO. 6 BRANCH POPPY FUND", "designationCode": "C", "categoryCode": "09", "address": "PO BOX 186", "city": "OWEN SOUND", "province": "ON", "country": "CA", "postalCode": "N4K5P3", "twitter": "None", "instagram": "None", "facebook": "None", "youtube": "None", "website": "None", "summary": "None", "logo": "None", "latitude": 44.56423500000005, "longitude": -80.94243049999993}, "891185464RR0001": {"name": "ROYAL CANADIAN LEGION PARRY SOUND ONT NO 117 BRANCH POPPY FUND", "designationCode": "C", "categoryCode": "09", "address": "30 MARY STREET", "city": "PARRY SOUND", "province": "ON", "country": "CA", "postalCode": "P2A1E2", "twitter": "None", "instagram": "None", "facebook": "None", "youtube": "None", "website": "None", "summary": "None", "logo": "None", "latitude": 45.34557149235395, "longitude": -80.03469111226845}, "119128189RR0001": {"name": "ROYAL CANADIAN LEGION PASSAMAQUODDY N.B. NO. 8 BRANCH POPPY FUND", "designationCode": "C", "categoryCode": "09", "address": "SEC-TREAS                     270 QUEEN ST PO BOX 434", "city": "ST ANDREWS", "province": "NB", "country": "CA", "postalCode": "E5B1E8", "twitter": "None", "instagram": "None", "facebook": "None", "youtube": "None", "website": "None", "summary": "None", "logo": "None", "latitude": 45.07333119207677, "longitude": -67.04927952441004}, "888469848RR0001": {"name": "ROYAL CANADIAN LEGION PEMBROKE ONTARIO NO. 72 BRANCH POPPY FUND", "designationCode": "A", "categoryCode": "09", "address": "PO BOX 486 ST", "city": "PEMBROKE", "province": "ON", "country": "CA", "postalCode": "K8A6X7", "twitter": "None", "instagram": "None", "facebook": "None", "youtube": "None", "website": "None", "summary": "None", "logo": "None", "latitude": 45.82623442110414, "longitude": -77.13337502381557}, "892293978RR0001": {"name": "ROYAL CANADIAN LEGION PERTH ANDOVER BR NB NO 36 BRANCH POPPY FUND", "designationCode": "C", "categoryCode": "09", "address": "44 LEGION ST", "city": "PERTH-ANDOVER", "province": "NB", "country": "CA", "postalCode": "E7H2S8", "twitter": "None", "instagram": "None", "facebook": "None", "youtube": "None", "website": "None", "summary": "None", "logo": "None", "latitude": 46.74231111177762, "longitude": -67.70433876325319}, "119128213RR0001": {"name": "ROYAL CANADIAN LEGION POINTE CLAIRE BRANCH #57 POPPY WELFAREFUND", "designationCode": "C", "categoryCode": "09", "address": "PO BOX 181", "city": "POINTE CLAIRE", "province": "QC", "country": "CA", "postalCode": "H9R4N9", "twitter": "None", "instagram": "None", "facebook": "None", "youtube": "None", "website": "None", "summary": "None", "logo": "None", "latitude": 45.44809800000006, "longitude": -73.81735099999993}, "119128247RR0001": {"name": "ROYAL CANADIAN LEGION PORT ARTHUR BRANCH NO. 5 POPPY FUND", "designationCode": "C", "categoryCode": "09", "address": "229 VAN NORMAN ST", "city": "THUNDER BAY", "province": "ON", "country": "CA", "postalCode": "P7A4B6", "twitter": "None", "instagram": "None", "facebook": "None", "youtube": "None", "website": "None", "summary": "None", "logo": "None", "latitude": 48.4363937679613, "longitude": -89.2200144857175}, "887454288RR0001": {"name": "ROYAL CANADIAN LEGION QUEBEC COMMAND POPPY FUND INC.", "designationCode": "C", "categoryCode": "09", "address": "720-1000 RUE SAINT-ANTOINE W", "city": "MONTREAL", "province": "QC", "country": "CA", "postalCode": "H3C3R7", "twitter": "None", "instagram": "None", "facebook": "None", "youtube": "None", "website": "None", "summary": "None", "logo": "None", "latitude": 45.49693899227025, "longitude": -73.56674962220217}, "108096926RR0001": {"name": "ROYAL CANADIAN LEGION R E POOLEY BRANCH 167 POPPY FUND", "designationCode": "C", "categoryCode": "09", "address": "P.O. BOX 638", "city": "EXETER", "province": "ON", "country": "CA", "postalCode": "N0M1S6", "twitter": "None", "instagram": "None", "facebook": "None", "youtube": "None", "website": "None", "summary": "None", "logo": "None", "latitude": 36.29779000000008, "longitude": -119.13605999999999}, "119128296RR0001": {"name": "ROYAL CANADIAN LEGION RENFREW ONTARIO NO. 148 BRANCH POPPY FUND", "designationCode": "C", "categoryCode": "09", "address": "30 RAGLAN ST.S", "city": "RENFREW", "province": "ON", "country": "CA", "postalCode": "K7V1P7", "twitter": "None", "instagram": "None", "facebook": "None", "youtube": "None", "website": "None", "summary": "None", "logo": "None", "latitude": 45.474241067141946, "longitude": -76.68707931949308}, "119128387RR0001": {"name": "ROYAL CANADIAN LEGION SHAUNAVON SASK BRANCH NO. 40 POPPY FUND", "designationCode": "C", "categoryCode": "09", "address": "BOX 1355", "city": "SHAUNAVON", "province": "SK", "country": "CA", "postalCode": "S0N2M0", "twitter": "None", "instagram": "None", "facebook": "None", "youtube": "None", "website": "None", "summary": "None", "logo": "None", "latitude": 49.64645000000007, "longitude": -108.41961999999995}, "886437193RR0001": {"name": "ROYAL CANADIAN LEGION SOUTH CARLETON (ONTARIO NO 314) BRANCH POPPY FUND, THE", "designationCode": "C", "categoryCode": "65", "address": "5550 ANN ST.                  PO BOX 123", "city": "MANOTICK", "province": "ON", "country": "CA", "postalCode": "K4M1A3", "twitter": "None", "instagram": "None", "facebook": "None", "youtube": "None", "website": "None", "summary": "None", "logo": "None", "latitude": 45.22448126949051, "longitude": -75.6846291468347}, "122066301RR0001": {"name": "ROYAL CANADIAN LEGION ST GEORGE BR (NB) #40 BRANCH POPPY FUND", "designationCode": "C", "categoryCode": "09", "address": "4 GILLMOR ST", "city": "ST GEORGE", "province": "NB", "country": "CA", "postalCode": "E5C3N8", "twitter": "None", "instagram": "None", "facebook": "None", "youtube": "None", "website": "None", "summary": "None", "logo": "None", "latitude": 45.27050100000005, "longitude": -66.83970949999993}, "889877791RR0001": {"name": "ROYAL CANADIAN LEGION ST PETERS #47 POPPY FUND", "designationCode": "C", "categoryCode": "09", "address": "PO BOX 104", "city": "ST PETERS", "province": "NS", "country": "CA", "postalCode": "B0E3B0", "twitter": "None", "instagram": "None", "facebook": "None", "youtube": "None", "website": "None", "summary": "None", "logo": "None", "latitude": 45.691080000000056, "longitude": -60.747042499999935}, "119128478RR0001": {"name": "ROYAL CANADIAN LEGION ST. LAMBERT BRANCH NO. 68 B.E.S.L. POPPY FUND", "designationCode": "C", "categoryCode": "09", "address": "33 AV FORT", "city": "SAINT-LAMBERT", "province": "QC", "country": "CA", "postalCode": "J4P3S9", "twitter": "None", "instagram": "None", "facebook": "None", "youtube": "None", "website": "None", "summary": "None", "logo": "None", "latitude": 45.498316550060856, "longitude": -73.51293480544173}, "119128437RR0001": {"name": "ROYAL CANADIAN LEGION STAYNER ONT. NO. 457 BRANCH POPPY FUND", "designationCode": "C", "categoryCode": "09", "address": "BOX 457", "city": "STAYNER", "province": "ON", "country": "CA", "postalCode": "L0M1S0", "twitter": "None", "instagram": "None", "facebook": "None", "youtube": "None", "website": "None", "summary": "None", "logo": "None", "latitude": 44.42021839038064, "longitude": -80.10092542779911}, "888934395RR0001": {"name": "ROYAL CANADIAN LEGION THREE SISTERS CALBERTA & NWT NO 3) BRANCH POPPY FUND", "designationCode": "C", "categoryCode": "09", "address": "834-7TH ST / VETERANS WAY", "city": "CANMORE", "province": "AB", "country": "CA", "postalCode": "T1W2C8", "twitter": "None", "instagram": "None", "facebook": "None", "youtube": "None", "website": "None", "summary": "None", "logo": "None", "latitude": 51.088266000000004, "longitude": -115.362108}, "119128593RR0001": {"name": "ROYAL CANADIAN LEGION TURNER VALLEY ALTA NO. 78 BRANCH POPPY FUND", "designationCode": "C", "categoryCode": "09", "address": "BOX 154", "city": "TURNER VALLEY", "province": "AB", "country": "CA", "postalCode": "T0L2A0", "twitter": "None", "instagram": "None", "facebook": "None", "youtube": "None", "website": "None", "summary": "None", "logo": "None", "latitude": 50.663565, "longitude": -114.28559999999999}, "119128601RR0001": {"name": "ROYAL CANADIAN LEGION UNITY BRANCH #90 POPPY FUND", "designationCode": "C", "categoryCode": "09", "address": "BOX 823", "city": "UNITY", "province": "SK", "country": "CA", "postalCode": "S0K4L0", "twitter": "None", "instagram": "None", "facebook": "None", "youtube": "None", "website": "None", "summary": "None", "logo": "None", "latitude": 52.437110000000075, "longitude": -109.14557999999994}, "130761323RR0001": {"name": "ROYAL CANADIAN LEGION VILLA KINGSTON", "designationCode": "C", "categoryCode": "01", "address": "671 PRINCESS STREET", "city": "KINGSTON", "province": "ON", "country": "CA", "postalCode": "K7L1E6", "twitter": "None", "instagram": "None", "facebook": "None", "youtube": "None", "website": "None", "summary": "None", "logo": "None", "latitude": 44.23804133807474, "longitude": -76.50416153471048}, "119128643RR0001": {"name": "ROYAL CANADIAN LEGION WATERFORD ONT. NO. 123 (BRANCH POPPY FUND)", "designationCode": "B", "categoryCode": "09", "address": "223 NICHOL STREET", "city": "WATERFORD", "province": "ON", "country": "CA", "postalCode": "N0E1Y0", "twitter": "None", "instagram": "None", "facebook": "None", "youtube": "None", "website": "None", "summary": "None", "logo": "None", "latitude": 42.93146721954524, "longitude": -80.30197921510182}, "888564440RR0001": {"name": "ROYAL CANADIAN LEGION WEYBURN BRANCH #47 POPPY FUND", "designationCode": "C", "categoryCode": "09", "address": "150 3RD STREET NE", "city": "WEYBURN", "province": "SK", "country": "CA", "postalCode": "S4H0W2", "twitter": "None", "instagram": "None", "facebook": "None", "youtube": "None", "website": "None", "summary": "None", "logo": "None", "latitude": 49.65638576550297, "longitude": -103.85513573776858}, "886696590RR0001": {"name": "ROYAL CANADIAN LEGION WINGHAM (ONT NO 180) BRANCH POPPY FUND THE", "designationCode": "C", "categoryCode": "09", "address": "VICTORIA ST W", "city": "WINGHAM", "province": "ON", "country": "CA", "postalCode": "N0G2W0", "twitter": "None", "instagram": "None", "facebook": "None", "youtube": "None", "website": "None", "summary": "None", "logo": "None", "latitude": 43.887012187805965, "longitude": -81.3193967976314}, "892307372RR0001": {"name": "ROYAL CANADIAN LEGION WOODSTOCK BR NO 11 BRANCH POPPY FUN D THE", "designationCode": "C", "categoryCode": "09", "address": "109 CARLETON STREET", "city": "WOODSTOCK", "province": "NB", "country": "CA", "postalCode": "E7M1E3", "twitter": "None", "instagram": "None", "facebook": "None", "youtube": "None", "website": "None", "summary": "None", "logo": "None", "latitude": 46.14928286900565, "longitude": -67.57171145325738}, "890908262RR0001": {"name": "ROYAL CANADIAN LEGION WYOMING ONT NO 388 BRANCH POPPY FUND", "designationCode": "C", "categoryCode": "09", "address": "BOX 214", "city": "WYOMING", "province": "ON", "country": "CA", "postalCode": "N0N1T0", "twitter": "None", "instagram": "None", "facebook": "None", "youtube": "None", "website": "None", "summary": "None", "logo": "None", "latitude": 42.950270000000046, "longitude": -82.11870999999996}, "119126795RR0001": {"name": "ROYAL CANADIAN LEGION-BRANCH 468-POPPY FUND", "designationCode": "C", "categoryCode": "09", "address": "P.O. BOX 149", "city": "HENSALL", "province": "ON", "country": "CA", "postalCode": "N0M1X0", "twitter": "None", "instagram": "None", "facebook": "None", "youtube": "None", "website": "None", "summary": "None", "logo": "None", "latitude": 43.45618301769557, "longitude": -81.44569614528069}, "119126571RR0001": {"name": "ROYAL CANADIAN LEGION, ARMSTRONG MEMORIAL N.S. #19 BRANCH, POPPY FUND", "designationCode": "C", "categoryCode": "09", "address": "PO BOX 10", "city": "NORTH SYDNEY", "province": "NS", "country": "CA", "postalCode": "B2A3M1", "twitter": "None", "instagram": "None", "facebook": "None", "youtube": "None", "website": "None", "summary": "None", "logo": "None", "latitude": 46.20710400000006, "longitude": -60.25146199999993}, "886335397RR0001": {"name": "ROYAL CANADIAN LEGION, BRANCH # 560 KINGSTON POPPY TRUST FUND", "designationCode": "C", "categoryCode": "09", "address": "734 MONTREAL STREET", "city": "KINGSTON", "province": "ON", "country": "CA", "postalCode": "K7K3J4", "twitter": "None", "instagram": "None", "facebook": "None", "youtube": "None", "website": "None", "summary": "None", "logo": "None", "latitude": 44.25148418541167, "longitude": -76.48556963901483}, "891387987RR0001": {"name": "ROYAL CANADIAN LEGION, CLARE BRANCH # 052 POPPY FUND", "designationCode": "C", "categoryCode": "09", "address": "BOX 100", "city": "SAULNIERVILLE", "province": "NS", "country": "CA", "postalCode": "B0W2Z0", "twitter": "None", "instagram": "None", "facebook": "None", "youtube": "None", "website": "None", "summary": "None", "logo": "None", "latitude": 44.23431485860516, "longitude": -66.06328380838774}, "107929515RR0001": {"name": "ROYAL CANADIAN LEGION, COLEMAN BRANCH #9 POPPY FUND", "designationCode": "C", "categoryCode": "09", "address": "BOX 448", "city": "COLEMAN", "province": "AB", "country": "CA", "postalCode": "T0K0M0", "twitter": "None", "instagram": "None", "facebook": "None", "youtube": "None", "website": "None", "summary": "None", "logo": "None", "latitude": 49.4888173371808, "longitude": -113.95073569884576}, "119127108RR0001": {"name": "ROYAL CANADIAN LEGION, CUT KNIFE (SASKATCHEWAN #200) BRANCH POPPY FUND", "designationCode": "C", "categoryCode": "09", "address": "P. O. BOX 689", "city": "CUT KNIFE", "province": "SK", "country": "CA", "postalCode": "S0M0N0", "twitter": "None", "instagram": "None", "facebook": "None", "youtube": "None", "website": "None", "summary": "None", "logo": "None", "latitude": 52.740921789497094, "longitude": -109.02330639630397}, "892411976RR0001": {"name": "ROYAL CANADIAN LEGION, ESTON BRANCH, POPPY FUND", "designationCode": "C", "categoryCode": "09", "address": "BOX 664", "city": "ESTON", "province": "SK", "country": "CA", "postalCode": "S0L1A0", "twitter": "None", "instagram": "None", "facebook": "None", "youtube": "None", "website": "None", "summary": "None", "logo": "None", "latitude": 51.15382000000005, "longitude": -108.75371999999999}, "119127512RR0001": {"name": "ROYAL CANADIAN LEGION, HUMBOLDT (SASK. #28) BRANCH, POPPY FUND", "designationCode": "C", "categoryCode": "09", "address": "PO BOX 1981", "city": "HUMBOLDT", "province": "SK", "country": "CA", "postalCode": "S0K2A0", "twitter": "None", "instagram": "None", "facebook": "None", "youtube": "None", "website": "None", "summary": "None", "logo": "None", "latitude": 51.7871843348964, "longitude": -104.71638483007007}, "119127553RR0001": {"name": "ROYAL CANADIAN LEGION, KAMSACK SASK. #24 BRANCH POPPY FUND", "designationCode": "C", "categoryCode": "09", "address": "P.O. BOX 1653", "city": "KAMSACK", "province": "SK", "country": "CA", "postalCode": "S0A1S0", "twitter": "None", "instagram": "None", "facebook": "None", "youtube": "None", "website": "None", "summary": "None", "logo": "None", "latitude": 51.63817289172365, "longitude": -101.65758543154911}, "119127579RR0001": {"name": "ROYAL CANADIAN LEGION, KELVINGTON (SASK. #19) BRANCH POPPY FUND", "designationCode": "C", "categoryCode": "09", "address": "BOX 893", "city": "KELVINGTON", "province": "SK", "country": "CA", "postalCode": "S0A1W0", "twitter": "None", "instagram": "None", "facebook": "None", "youtube": "None", "website": "None", "summary": "None", "logo": "None", "latitude": 50.942659313471935, "longitude": -102.0486202158667}, "873741029RR0001": {"name": "ROYAL CANADIAN LEGION, KILLAM BRANCH #65 POPPY FUND", "designationCode": "C", "categoryCode": "09", "address": "PO BOX 581", "city": "KILLAM", "province": "AB", "country": "CA", "postalCode": "T0B2L0", "twitter": "None", "instagram": "None", "facebook": "None", "youtube": "None", "website": "None", "summary": "None", "logo": "None", "latitude": 52.78344000000004, "longitude": -111.85174999999998}, "892433970RR0001": {"name": "ROYAL CANADIAN LEGION, KINDERSLEY (SASK #57) BRANCH, POPPY FUND,", "designationCode": "C", "categoryCode": "09", "address": "BOX 2409", "city": "KINDERSLEY", "province": "SK", "country": "CA", "postalCode": "S0L1S0", "twitter": "None", "instagram": "None", "facebook": "None", "youtube": "None", "website": "None", "summary": "None", "logo": "None", "latitude": 51.46791900000005, "longitude": -109.15522999999993}, "893218776RR0001": {"name": "ROYAL CANADIAN LEGION, MAHONE BAY BRANCH N.S. #49 POPPY FUND", "designationCode": "C", "categoryCode": "09", "address": "BOX 162", "city": "MAHONE BAY", "province": "NS", "country": "CA", "postalCode": "B0J2E0", "twitter": "None", "instagram": "None", "facebook": "None", "youtube": "None", "website": "None", "summary": "None", "logo": "None", "latitude": 44.5107664683721, "longitude": -64.5603343504879}, "866255805RR0001": {"name": "ROYAL CANADIAN LEGION, MIRAMICHI BR. 10, POPPY FUND", "designationCode": "C", "categoryCode": "09", "address": "3 - 20 FOUNTAIN HEAD LANE", "city": "MIRAMICHI", "province": "NB", "country": "CA", "postalCode": "E1V4A1", "twitter": "None", "instagram": "None", "facebook": "None", "youtube": "None", "website": "None", "summary": "None", "logo": "None", "latitude": 47.00188783509596, "longitude": -65.56377784354659}}