{"899269500RR0001": {"name": "Oneness First Born International Ministries", "designationCode": "C", "categoryCode": "49", "address": "72 - 76 PERTH AVE", "city": "TORONTO", "province": "ON", "country": "CA", "postalCode": "M6R2C2", "twitter": "None", "instagram": "None", "facebook": "None", "youtube": "None", "website": "None", "summary": "None", "logo": "None", "latitude": 43.65631244170402, "longitude": -79.44845311451132}, "856214911RR0001": {"name": "Onetree Foundation", "designationCode": "A", "categoryCode": "03", "address": "28 MELROSE DR", "city": "NIAGARA ON THE LAKE", "province": "ON", "country": "CA", "postalCode": "L0S1J0", "twitter": "None", "instagram": "None", "facebook": "None", "youtube": "None", "website": "None", "summary": "None", "logo": "None", "latitude": 43.149043153471155, "longitude": -79.09746452140894}, "871474540RR0001": {"name": "OneChurch.ca", "designationCode": "C", "categoryCode": "36", "address": "BOX 358", "city": "CARLYLE", "province": "SK", "country": "CA", "postalCode": "S0C0R0", "twitter": "None", "instagram": "None", "facebook": "None", "youtube": "None", "website": "None", "summary": "None", "logo": "None", "latitude": 49.628016, "longitude": -102.26315694795335}, "802094458RR0001": {"name": "OneProsper International Inc.", "designationCode": "C", "categoryCode": "09", "address": "3 MILLCREEK COURT", "city": "OTTAWA", "province": "ON", "country": "CA", "postalCode": "K2G6Y7", "twitter": "None", "instagram": "None", "facebook": "None", "youtube": "None", "website": "None", "summary": "None", "logo": "None", "latitude": 45.28401537665173, "longitude": -75.70171904801202}, "803351295RR0001": {"name": "OneSky Foundation (Canada) Inc.", "designationCode": "C", "categoryCode": "01", "address": "5959 COUSINEAU BLVD           P.O. BOX 29636", "city": "SAINT HUBERT", "province": "QC", "country": "CA", "postalCode": "J3Y9A9", "twitter": "None", "instagram": "None", "facebook": "None", "youtube": "None", "website": "None", "summary": "None", "logo": "None"}, "828095737RR0001": {"name": "One4Another International", "designationCode": "C", "categoryCode": "11", "address": "103 RAMSAY AVENUE", "city": "CAMBRIDGE", "province": "ON", "country": "CA", "postalCode": "N3C2M4", "twitter": "None", "instagram": "None", "facebook": "None", "youtube": "None", "website": "None", "summary": "None", "logo": "None", "latitude": 43.42950371994927, "longitude": -80.30093882151323}, "834948580RR0001": {"name": "Only the Brave Youth Equality Association", "designationCode": "B", "categoryCode": "09", "address": "1145 HAYS DR NW", "city": "EDMONTON", "province": "AB", "country": "CA", "postalCode": "T6M0M2", "twitter": "None", "instagram": "None", "facebook": "None", "youtube": "None", "website": "None", "summary": "None", "logo": "None", "latitude": 53.48281050678067, "longitude": -113.66945197446478}, "893173963RR0001": {"name": "Ontario Art Education Association", "designationCode": "C", "categoryCode": "22", "address": "22 KENWAY RD", "city": "TORONTO", "province": "ON", "country": "CA", "postalCode": "M8Z4W8", "twitter": "None", "instagram": "None", "facebook": "None", "youtube": "None", "website": "None", "summary": "None", "logo": "None", "latitude": 43.642350042183644, "longitude": -79.5261032482831}, "131711053RR0001": {"name": "Ontario Association of Children and Youth Centres (ONTCHILD)", "designationCode": "C", "categoryCode": "09", "address": "40 HUMEWOOD DR", "city": "YORK", "province": "ON", "country": "CA", "postalCode": "M6C2W4", "twitter": "None", "instagram": "None", "facebook": "None", "youtube": "None", "website": "None", "summary": "None", "logo": "None", "latitude": 43.683887763835024, "longitude": -79.42697002792981}, "107796757RR0001": {"name": "Ontario Association of Interval and Transition Houses", "designationCode": "C", "categoryCode": "03", "address": "PO BOX 27585 RPO YORKDALE MALL", "city": "NORTH YORK", "province": "ON", "country": "CA", "postalCode": "M6A3B8", "twitter": "None", "instagram": "None", "facebook": "None", "youtube": "None", "website": "None", "summary": "None", "logo": "None", "latitude": 43.72732424740376, "longitude": -79.44924702962736}, "119248532RR0001": {"name": "Ontario Association of Not-For-Profit Credit Counselling Services", "designationCode": "C", "categoryCode": "59", "address": "PO BOX 189", "city": "GRIMSBY", "province": "ON", "country": "CA", "postalCode": "L3M4G3", "twitter": "None", "instagram": "None", "facebook": "None", "youtube": "None", "website": "None", "summary": "None", "logo": "None", "latitude": 43.199079000000054, "longitude": -79.58552299999994}, "868535667RR0001": {"name": "Ontario Association For Suicide Prevention", "designationCode": "C", "categoryCode": "09", "address": "19387 GLEN RD", "city": "WILLIAMSTOWN", "province": "ON", "country": "CA", "postalCode": "K0C2J0", "twitter": "None", "instagram": "None", "facebook": "None", "youtube": "None", "website": "None", "summary": "None", "logo": "None", "latitude": 45.12719751318598, "longitude": -74.59576073703037}, "856996228RR0001": {"name": "Ontario Band Association", "designationCode": "C", "categoryCode": "22", "address": "198 FINCHAM AVE", "city": "MARKHAM", "province": "ON", "country": "CA", "postalCode": "L3P4B5", "twitter": "None", "instagram": "None", "facebook": "None", "youtube": "None", "website": "None", "summary": "None", "logo": "None", "latitude": 43.889770150729845, "longitude": -79.24983706440064}, "118777788RR0001": {"name": "Ontario Bar Association Foundation / La Fondation de l'Association du Barreau de l'Ontario", "designationCode": "A", "categoryCode": "21", "address": "20 TORONTO STREET             SUITE 300", "city": "TORONTO", "province": "ON", "country": "CA", "postalCode": "M5C2B8", "twitter": "None", "instagram": "None", "facebook": "None", "youtube": "None", "website": "None", "summary": "None", "logo": "None", "latitude": 43.65031677101972, "longitude": -79.37628576951916}, "822922860RR0001": {"name": "Ontario Brain Institute Foundation", "designationCode": "A", "categoryCode": "13", "address": "1618-438 UNIVERSITY AVE", "city": "TORONTO", "province": "ON", "country": "CA", "postalCode": "M5G2K8", "twitter": "None", "instagram": "None", "facebook": "None", "youtube": "None", "website": "None", "summary": "None", "logo": "None", "latitude": 43.654422133216045, "longitude": -79.388376372641}, "825783426RR0001": {"name": "Ontario Canine Spay Neuter Task Force", "designationCode": "C", "categoryCode": "54", "address": "5240 FAIRVIEW RD              RR 1", "city": "UNION", "province": "ON", "country": "CA", "postalCode": "N0L2L0", "twitter": "None", "instagram": "None", "facebook": "None", "youtube": "None", "website": "None", "summary": "None", "logo": "None", "latitude": 42.68235529808413, "longitude": -81.16938268495032}, "759164528RR0001": {"name": "Ontario Christian Gospel Center", "designationCode": "C", "categoryCode": "39", "address": "6120A YONGE STREET, SUITE 214", "city": "TORONTO", "province": "ON", "country": "CA", "postalCode": "M2M1J9", "twitter": "None", "instagram": "None", "facebook": "None", "youtube": "None", "website": "None", "summary": "None", "logo": "None", "latitude": 43.79170269377188, "longitude": -79.41856323814082}, "119288918RR1487": {"name": "Ontario Circuit 1C of Jehovah's Witnesses", "designationCode": "C", "categoryCode": "61", "address": "18 MISTYWOOD DRIVE", "city": "CALEDON", "province": "ON", "country": "CA", "postalCode": "L7K1A7", "twitter": "None", "instagram": "None", "facebook": "None", "youtube": "None", "website": "None", "summary": "None", "logo": "None", "latitude": 43.86179576270982, "longitude": -80.00290239275188}, "119288918RR1679": {"name": "Ontario Circuit 10C of Jehovah's Witnesses", "designationCode": "C", "categoryCode": "61", "address": "115 BANNING RD", "city": "KANATA", "province": "ON", "country": "CA", "postalCode": "K2L1C3", "twitter": "None", "instagram": "None", "facebook": "None", "youtube": "None", "website": "None", "summary": "None", "logo": "None", "latitude": 45.29805034805806, "longitude": -75.88189223408752}, "119288918RR1539": {"name": "Ontario Circuit 11-C of Jehovah's Witnesses", "designationCode": "C", "categoryCode": "61", "address": "6864 HIGHWAY 63", "city": "NORTH BAY", "province": "ON", "country": "CA", "postalCode": "P1B8G4", "twitter": "None", "instagram": "None", "facebook": "None", "youtube": "None", "website": "None", "summary": "None", "logo": "None", "latitude": 46.36709394460377, "longitude": -79.31026222660745}, "119288918RR1639": {"name": "Ontario Circuit 16B Of Jehovah's Witnesses", "designationCode": "C", "categoryCode": "61", "address": "35 WELLINGTON STREET WEST", "city": "CORNWALL", "province": "ON", "country": "CA", "postalCode": "K6J5G7", "twitter": "None", "instagram": "None", "facebook": "None", "youtube": "None", "website": "None", "summary": "None", "logo": "None", "latitude": 45.050112334179595, "longitude": -74.75485322843203}, "119288918RR1702": {"name": "Ontario Circuit 20C of Jehovah's Witnesses", "designationCode": "C", "categoryCode": "61", "address": "PO BOX 205                    42 BEACH AVENUE", "city": "IROQUOIS", "province": "ON", "country": "CA", "postalCode": "K0E1K0", "twitter": "None", "instagram": "None", "facebook": "None", "youtube": "None", "website": "None", "summary": "None", "logo": "None", "latitude": 44.85452512066578, "longitude": -75.31018267062443}, "119067635RR0001": {"name": "Ontario Colleges Athletic Association", "designationCode": "C", "categoryCode": "29", "address": "911 - 305 MILNER AVE", "city": "SCARBOROUGH", "province": "ON", "country": "CA", "postalCode": "M1B3V4", "twitter": "None", "instagram": "None", "facebook": "None", "youtube": "None", "website": "None", "summary": "None", "logo": "None", "latitude": 43.7897168198398, "longitude": -79.23615702954594}, "856860010RR0001": {"name": "Ontario Community Emergency Assistance Program", "designationCode": "C", "categoryCode": "59", "address": "PO BOX 663 STN MAIN", "city": "COBOURG", "province": "ON", "country": "CA", "postalCode": "K9A4R5", "twitter": "None", "instagram": "None", "facebook": "None", "youtube": "None", "website": "None", "summary": "None", "logo": "None", "latitude": 43.95960600000005, "longitude": -78.16778449999994}, "877381624RR0001": {"name": "Ontario Cross-Cultural Music Society", "designationCode": "C", "categoryCode": "22", "address": "103 - 80 ACADIA AVE", "city": "MARKHAM", "province": "ON", "country": "CA", "postalCode": "L3R9V1", "twitter": "None", "instagram": "None", "facebook": "None", "youtube": "None", "website": "None", "summary": "None", "logo": "None", "latitude": 43.82102031173147, "longitude": -79.32759820595523}, "126650449RR0001": {"name": "Ontario Disability Employment Network", "designationCode": "C", "categoryCode": "59", "address": "PO BOX 70576 RPO WHITBY MALL", "city": "WHITBY", "province": "ON", "country": "CA", "postalCode": "L1N9G3", "twitter": "None", "instagram": "None", "facebook": "None", "youtube": "None", "website": "None", "summary": "None", "logo": "None", "latitude": 43.88664000000006, "longitude": -78.91047999999995}, "808966824RR0001": {"name": "Ontario Eastern Bluebird Society", "designationCode": "C", "categoryCode": "54", "address": "24, BRANT PLACE", "city": "CAMBRIDGE", "province": "ON", "country": "CA", "postalCode": "N1S2V8", "twitter": "None", "instagram": "None", "facebook": "None", "youtube": "None", "website": "None", "summary": "None", "logo": "None", "latitude": 43.36263011518264, "longitude": -80.32299472589321}, "107797722RR0001": {"name": "Ontario Federation for Cerebral Palsy", "designationCode": "C", "categoryCode": "11", "address": "1630 LAWRENCE AVE W STE 104", "city": "TORONTO", "province": "ON", "country": "CA", "postalCode": "M6L1C5", "twitter": "None", "instagram": "None", "facebook": "None", "youtube": "None", "website": "None", "summary": "None", "logo": "None", "latitude": 43.70559618073714, "longitude": -79.49118925134152}, "815809686RR0001": {"name": "Ontario Filipino Ministerial Fellowship (OFMF)", "designationCode": "C", "categoryCode": "39", "address": "181 NUGGET AVE.", "city": "SCARBOROUGH", "province": "ON", "country": "CA", "postalCode": "M1S3B1", "twitter": "None", "instagram": "None", "facebook": "None", "youtube": "None", "website": "None", "summary": "None", "logo": "None", "latitude": 43.7945139139306, "longitude": -79.25378412415635}, "842125882RR0001": {"name": "Ontario Foundation for Global Citizenship", "designationCode": "C", "categoryCode": "59", "address": "421 - 215 SPADINA AVE", "city": "TORONTO", "province": "ON", "country": "CA", "postalCode": "M5T2C7", "twitter": "None", "instagram": "None", "facebook": "None", "youtube": "None", "website": "None", "summary": "None", "logo": "None", "latitude": 43.65063316348313, "longitude": -79.39697013165816}, "860501618RR0001": {"name": "Ontario Inter-Cultural Community Services", "designationCode": "C", "categoryCode": "09", "address": "27 - 145 CLARENCE ST", "city": "BRAMPTON", "province": "ON", "country": "CA", "postalCode": "L6W1T2", "twitter": "None", "instagram": "None", "facebook": "None", "youtube": "None", "website": "None", "summary": "None", "logo": "None", "latitude": 43.68895445663879, "longitude": -79.74235933541279}, "840123855RR0001": {"name": "Ontario Job Opportunity Information Network", "designationCode": "C", "categoryCode": "59", "address": "20 SPADINA RD", "city": "TORONTO", "province": "ON", "country": "CA", "postalCode": "M5R2S7", "twitter": "None", "instagram": "None", "facebook": "None", "youtube": "None", "website": "None", "summary": "None", "logo": "None", "latitude": 43.66860591312256, "longitude": -79.40465540830377}, "888799442RR0001": {"name": "Ontario Lawyers Assistance Program", "designationCode": "C", "categoryCode": "57", "address": "31 OASIS WAY", "city": "MARKHAM", "province": "ON", "country": "CA", "postalCode": "L6E0B6", "twitter": "None", "instagram": "None", "facebook": "None", "youtube": "None", "website": "None", "summary": "None", "logo": "None", "latitude": 43.900102194558265, "longitude": -79.25072606520871}, "829958016RR0001": {"name": "Ontario Muslim Academy", "designationCode": "C", "categoryCode": "20", "address": "82 BEVERLY ST", "city": "CAMBRIDGE", "province": "ON", "country": "CA", "postalCode": "N1R3Z7", "twitter": "None", "instagram": "None", "facebook": "None", "youtube": "None", "website": "None", "summary": "None", "logo": "None", "latitude": 43.36274768027577, "longitude": -80.30897474398392}, "815306113RR0001": {"name": "Ontario Native Women's Charitable Foundation", "designationCode": "C", "categoryCode": "09", "address": "380 RAY BLVD", "city": "THUNDER BAY", "province": "ON", "country": "CA", "postalCode": "P7B4E6", "twitter": "None", "instagram": "None", "facebook": "None", "youtube": "None", "website": "None", "summary": "None", "logo": "None", "latitude": 48.426417366639726, "longitude": -89.24461485004862}, "898359419RR0001": {"name": "Ontario Odyssey of the Mind Association", "designationCode": "C", "categoryCode": "29", "address": "58 ROAD 7 E                   RR 2", "city": "RUTHVEN", "province": "ON", "country": "CA", "postalCode": "N0P2G0", "twitter": "None", "instagram": "None", "facebook": "None", "youtube": "None", "website": "None", "summary": "None", "logo": "None", "latitude": 42.24050998470465, "longitude": -82.23058429932439}, "130018625RR0001": {"name": "Ontario Physical and Health Education Association", "designationCode": "C", "categoryCode": "21", "address": "608-1 CONCORD GATE", "city": "TORONTO", "province": "ON", "country": "CA", "postalCode": "M3C3N6", "twitter": "None", "instagram": "None", "facebook": "None", "youtube": "None", "website": "None", "summary": "None", "logo": "None", "latitude": 43.729335579577295, "longitude": -79.32941936127169}, "813883881RR0001": {"name": "Ontario Quad Safety Council", "designationCode": "C", "categoryCode": "59", "address": "832 MARCH RD, MORGAN'S GRANT POST OFFICE PO BOX 76085", "city": "OTTAWA", "province": "ON", "country": "CA", "postalCode": "K2W0C9", "twitter": "None", "instagram": "None", "facebook": "None", "youtube": "None", "website": "None", "summary": "None", "logo": "None"}, "817700909RR0001": {"name": "Ontario Secondary Schools Spanish Contest", "designationCode": "C", "categoryCode": "21", "address": "4-222 WILSON AVE", "city": "TORONTO", "province": "ON", "country": "CA", "postalCode": "M5M3B1", "twitter": "None", "instagram": "None", "facebook": "None", "youtube": "None", "website": "None", "summary": "None", "logo": "None", "latitude": 43.73894611798127, "longitude": -79.42594006440065}, "810023747RR0001": {"name": "Ontario Shores Centre for Mental Health Sciences", "designationCode": "C", "categoryCode": "10", "address": "700 GORDON STREET", "city": "WHITBY", "province": "ON", "country": "CA", "postalCode": "L1N5S9", "twitter": "None", "instagram": "None", "facebook": "None", "youtube": "None", "website": "None", "summary": "None", "logo": "None", "latitude": 43.8511541182363, "longitude": -78.94063984975112}, "835525247RR0001": {"name": "Ontario Student Awards Foundation", "designationCode": "C", "categoryCode": "21", "address": "100 BABY POINT ROAD", "city": "TORONTO", "province": "ON", "country": "CA", "postalCode": "M6S2G3", "twitter": "None", "instagram": "None", "facebook": "None", "youtube": "None", "website": "None", "summary": "None", "logo": "None", "latitude": 43.6554401579432, "longitude": -79.4984574805816}, "139983852RR0001": {"name": "Ontario Visually Impaired Golfers Corporation", "designationCode": "C", "categoryCode": "56", "address": "16095 SIDEROAD 18A, R.R. #3", "city": "SUNDERLAND", "province": "ON", "country": "CA", "postalCode": "L0C1H0", "twitter": "None", "instagram": "None", "facebook": "None", "youtube": "None", "website": "None", "summary": "None", "logo": "None", "latitude": 44.287185708345646, "longitude": -79.02609051848846}, "832017768RR0001": {"name": "Ontario Wapiti Restoration Association", "designationCode": "C", "categoryCode": "54", "address": "63 PITTS LANDING ROAD", "city": "MADOC", "province": "ON", "country": "CA", "postalCode": "K0K2K0", "twitter": "None", "instagram": "None", "facebook": "None", "youtube": "None", "website": "None", "summary": "None", "logo": "None", "latitude": 44.5135940980998, "longitude": -77.44404454985526}, "842146284RR0001": {"name": "Ontario Water Centre", "designationCode": "C", "categoryCode": "29", "address": "12-16715 YONGE STREET         UNIT 175", "city": "NEWMARKET", "province": "ON", "country": "CA", "postalCode": "L3X1X4", "twitter": "None", "instagram": "None", "facebook": "None", "youtube": "None", "website": "None", "summary": "None", "logo": "None", "latitude": 44.03580841522868, "longitude": -79.47588607074955}, "826472268RR0001": {"name": "Ontario Weimaraner Rescue and Assistance (OWRASSIST)", "designationCode": "C", "categoryCode": "54", "address": "8 CENTENNIAL DR,", "city": "ST CATHARINES", "province": "ON", "country": "CA", "postalCode": "L2N6A4", "twitter": "None", "instagram": "None", "facebook": "None", "youtube": "None", "website": "None", "summary": "None", "logo": "None", "latitude": 43.18583664112191, "longitude": -79.26167074274318}, "893207068RR0001": {"name": "Ontario Wilderness Lodge", "designationCode": "C", "categoryCode": "49", "address": "105 MAIN STREET EAST          7TH FLOOR", "city": "HAMILTON", "province": "ON", "country": "CA", "postalCode": "L8N1G6", "twitter": "None", "instagram": "None", "facebook": "None", "youtube": "None", "website": "None", "summary": "None", "logo": "None", "latitude": 43.254462297192646, "longitude": -79.8655056154101}, "815529102RR0001": {"name": "Ontario Wildlife Rescue Centre", "designationCode": "C", "categoryCode": "54", "address": "POST OFFICE BOX 48545         3701 LAKESHORE BOULEVARD", "city": "TORONTO", "province": "ON", "country": "CA", "postalCode": "M8W1P5", "twitter": "None", "instagram": "None", "facebook": "None", "youtube": "None", "website": "None", "summary": "None", "logo": "None", "latitude": 43.593248024121586, "longitude": -79.53850373659769}, "873917843RR0001": {"name": "Ontario's North for the Children / Le Nord de l'Ontario pourles enfants", "designationCode": "C", "categoryCode": "59", "address": "704 MCKENZIE ST", "city": "THUNDER BAY", "province": "ON", "country": "CA", "postalCode": "P7C3L4", "twitter": "None", "instagram": "None", "facebook": "None", "youtube": "None", "website": "None", "summary": "None", "logo": "None", "latitude": 48.394241424635084, "longitude": -89.23716869828053}, "811921501RR0001": {"name": "Ontariogreen Conservation Association", "designationCode": "C", "categoryCode": "52", "address": "3150 CULP RD", "city": "JORDAN STATION", "province": "ON", "country": "CA", "postalCode": "L0R1S0", "twitter": "None", "instagram": "None", "facebook": "None", "youtube": "None", "website": "None", "summary": "None", "logo": "None", "latitude": 43.17106200000005, "longitude": -79.36149049999993}, "828929646RR0001": {"name": "Op\u00e9ra bouffe du Qu\u00e9bec", "designationCode": "C", "categoryCode": "22", "address": "5585 RUE PASTEUR", "city": "LAVAL", "province": "QC", "country": "CA", "postalCode": "H7K2X8", "twitter": "None", "instagram": "None", "facebook": "None", "youtube": "None", "website": "None", "summary": "None", "logo": "None", "latitude": 45.630886137947904, "longitude": -73.74188922771089}, "822483293RR0001": {"name": "Op\u00e9ra/Th\u00e9\u00e2tre Voxpopuli", "designationCode": "C", "categoryCode": "22", "address": "5238 RUE DE LANAUDI\u00c8RE", "city": "MONTR\u00c9AL", "province": "QC", "country": "CA", "postalCode": "H2J3R3", "twitter": "None", "instagram": "None", "facebook": "None", "youtube": "None", "website": "None", "summary": "None", "logo": "None", "latitude": 45.53431880070988, "longitude": -73.58586189898428}, "835410440RR0001": {"name": "Op\u00e9ration p\u00e8re No\u00ebl / Operation Santa Clause", "designationCode": "B", "categoryCode": "09", "address": "2478, BOULEVARD DES OISEAUX", "city": "LAVAL", "province": "QC", "country": "CA", "postalCode": "H7L4W7", "twitter": "None", "instagram": "None", "facebook": "None", "youtube": "None", "website": "None", "summary": "None", "logo": "None", "latitude": 45.590183172629715, "longitude": -73.7750078711987}, "803619964RR0001": {"name": "Open Arms Church of Jesus Christ", "designationCode": "C", "categoryCode": "39", "address": "1250 ST. MARTINS DR", "city": "PICKERING", "province": "ON", "country": "CA", "postalCode": "L1W0A2", "twitter": "None", "instagram": "None", "facebook": "None", "youtube": "None", "website": "None", "summary": "None", "logo": "None", "latitude": 43.826844324533, "longitude": -79.09202034378576}, "130139165RR0001": {"name": "Open Arms Community Church of God", "designationCode": "C", "categoryCode": "39", "address": "3325 WALKER ROAD", "city": "WINDSOR", "province": "ON", "country": "CA", "postalCode": "N8W3R9", "twitter": "None", "instagram": "None", "facebook": "None", "youtube": "None", "website": "None", "summary": "None", "logo": "None", "latitude": 42.2777909239426, "longitude": -82.9786520510991}, "837199991RR0001": {"name": "Open Arms Seventh Day Baptist Church", "designationCode": "C", "categoryCode": "31", "address": "67 SANDERS DR", "city": "MARKHAM", "province": "ON", "country": "CA", "postalCode": "L6B0M3", "twitter": "None", "instagram": "None", "facebook": "None", "youtube": "None", "website": "None", "summary": "None", "logo": "None", "latitude": 43.852462478792596, "longitude": -79.22529027254892}, "894399948RR0001": {"name": "Open Bible Faith Fellowship of Canada", "designationCode": "C", "categoryCode": "39", "address": "4490 7TH CONCESSION", "city": "WINDSOR", "province": "ON", "country": "CA", "postalCode": "N9A6J3", "twitter": "None", "instagram": "None", "facebook": "None", "youtube": "None", "website": "None", "summary": "None", "logo": "None", "latitude": 42.25353096600397, "longitude": -82.9626054037778}, "837360635RR0001": {"name": "Open Door Clinic", "designationCode": "C", "categoryCode": "09", "address": "26 MINNACOTE AVE", "city": "SCARBOROUGH", "province": "ON", "country": "CA", "postalCode": "M1E4B3", "twitter": "None", "instagram": "None", "facebook": "None", "youtube": "None", "website": "None", "summary": "None", "logo": "None", "latitude": 43.774400074932245, "longitude": -79.16799436874587}, "828777623RR0001": {"name": "Open Door Community Ministries", "designationCode": "C", "categoryCode": "49", "address": "PO BOX 32059 RPO CAMBIE", "city": "RICHMOND", "province": "BC", "country": "CA", "postalCode": "V6X3R9", "twitter": "None", "instagram": "None", "facebook": "None", "youtube": "None", "website": "None", "summary": "None", "logo": "None", "latitude": 49.184585999999996, "longitude": -123.10102522376141}, "107396905RR0047": {"name": "Open Door Foursquare Church", "designationCode": "C", "categoryCode": "39", "address": "14449 102B AVE", "city": "SURREY", "province": "BC", "country": "CA", "postalCode": "V3R6M6", "twitter": "None", "instagram": "None", "facebook": "None", "youtube": "None", "website": "None", "summary": "None", "logo": "None", "latitude": 49.18911040028696, "longitude": -122.82248847800098}, "841205487RR0001": {"name": "Open Door Healing Center Pentecostal Church Of God Inc.", "designationCode": "C", "categoryCode": "36", "address": "41 BROOKWELL DRIVE #408", "city": "NORTH YORK", "province": "ON", "country": "CA", "postalCode": "M3M2Y2", "twitter": "None", "instagram": "None", "facebook": "None", "youtube": "None", "website": "None", "summary": "None", "logo": "None", "latitude": 43.74436485564679, "longitude": -79.49469871541895}, "812477909RR0001": {"name": "Open Door Ministries Inc.", "designationCode": "C", "categoryCode": "39", "address": "P.O. BOX 224", "city": "VICTORIA", "province": "NL", "country": "CA", "postalCode": "A0A4G0", "twitter": "None", "instagram": "None", "facebook": "None", "youtube": "None", "website": "None", "summary": "None", "logo": "None", "latitude": 47.691130500000014, "longitude": -53.22207149999999}, "767797897RR0001": {"name": "Open Hands Global Relief and Health Programs", "designationCode": "C", "categoryCode": "09", "address": "2176 ROCHESTER CIRCLE,", "city": "OAKVILLE", "province": "ON", "country": "CA", "postalCode": "L6M5E3", "twitter": "None", "instagram": "None", "facebook": "None", "youtube": "None", "website": "None", "summary": "None", "logo": "None", "latitude": 43.42468280070989, "longitude": -79.76384137800804}, "812908994RR0001": {"name": "Open Hands Ministry Inc.", "designationCode": "C", "categoryCode": "39", "address": "BOX 10 GROUP 15 RR1", "city": "DUFRESNE", "province": "MB", "country": "CA", "postalCode": "R0A0J0", "twitter": "None", "instagram": "None", "facebook": "None", "youtube": "None", "website": "None", "summary": "None", "logo": "None", "latitude": 49.74028138783215, "longitude": -96.87312206323217}, "830812483RR0001": {"name": "Open House", "designationCode": "C", "categoryCode": "45", "address": "232 RUNDLEVILLE PL NE", "city": "CALGARY", "province": "AB", "country": "CA", "postalCode": "T1Y2T3", "twitter": "None", "instagram": "None", "facebook": "None", "youtube": "None", "website": "None", "summary": "None", "logo": "None", "latitude": 51.07222552596791, "longitude": -113.97126378420568}, "842679821RR0001": {"name": "Open Ice for Kids Inc.", "designationCode": "C", "categoryCode": "09", "address": "RPO NORTH END                 P.O. BOX 29045", "city": "MONCTON", "province": "NB", "country": "CA", "postalCode": "E1G4R3", "twitter": "None", "instagram": "None", "facebook": "None", "youtube": "None", "website": "None", "summary": "None", "logo": "None", "latitude": 46.08834900000005, "longitude": -64.77824149999994}, "841260706RR0001": {"name": "Open Sky Co-operative Ltd.", "designationCode": "C", "categoryCode": "01", "address": "12 FOLKINS DRIVE", "city": "SACKVILLE", "province": "NB", "country": "CA", "postalCode": "E4L1H9", "twitter": "None", "instagram": "None", "facebook": "None", "youtube": "None", "website": "None", "summary": "None", "logo": "None", "latitude": 45.92548762606775, "longitude": -64.3524801971049}, "809332364RR0001": {"name": "Open Sky International Centre", "designationCode": "C", "categoryCode": "39", "address": "31 WALMER RD", "city": "RICHMOND HILL", "province": "ON", "country": "CA", "postalCode": "L4C3W8", "twitter": "None", "instagram": "None", "facebook": "None", "youtube": "None", "website": "None", "summary": "None", "logo": "None", "latitude": 43.858446589791654, "longitude": -79.45276832872659}, "805821717RR0001": {"name": "Open Source Text Canada", "designationCode": "C", "categoryCode": "21", "address": "254 WINDERMERE AVENUE", "city": "TORONTO", "province": "ON", "country": "CA", "postalCode": "M6S3K5", "twitter": "None", "instagram": "None", "facebook": "None", "youtube": "None", "website": "None", "summary": "None", "logo": "None", "latitude": 43.64575118290151, "longitude": -79.47874556815157}, "803020395RR0001": {"name": "Opendoor Filipino Church of Calgary", "designationCode": "B", "categoryCode": "39", "address": "PO BOX 53126                  RPO MARLBOROUGH CRO", "city": "CALGARY", "province": "AB", "country": "CA", "postalCode": "T2A7L9", "twitter": "None", "instagram": "None", "facebook": "None", "youtube": "None", "website": "None", "summary": "None", "logo": "None", "latitude": 51.059556000000015, "longitude": -113.96975741544264}, "836158980RR0001": {"name": "Opendoor For Success Association", "designationCode": "C", "categoryCode": "29", "address": "411-13900 HYLAND RD", "city": "SURREY", "province": "BC", "country": "CA", "postalCode": "V3W1K4", "twitter": "None", "instagram": "None", "facebook": "None", "youtube": "None", "website": "None", "summary": "None", "logo": "None", "latitude": 49.125389627243436, "longitude": -122.8365067574297}, "815680533RR0001": {"name": "Opening Hearts", "designationCode": "C", "categoryCode": "11", "address": "30 CORINALDO DR", "city": "HAMILTON", "province": "ON", "country": "CA", "postalCode": "L8W3J7", "twitter": "None", "instagram": "None", "facebook": "None", "youtube": "None", "website": "None", "summary": "None", "logo": "None", "latitude": 43.20090682070517, "longitude": -79.86893474594582}, "855162657RR0001": {"name": "Opera on the Avalon Inc.", "designationCode": "C", "categoryCode": "22", "address": "PO BOX 8722                   STATION A", "city": "ST. JOHN'S", "province": "NL", "country": "CA", "postalCode": "A1B3T1", "twitter": "None", "instagram": "None", "facebook": "None", "youtube": "None", "website": "None", "summary": "None", "logo": "None", "latitude": 47.56938900000006, "longitude": -52.78609699999993}, "814936738RR0001": {"name": "Opera Five, Inc.", "designationCode": "C", "categoryCode": "22", "address": "3-31 SHERBOURNE ST N", "city": "TORONTO", "province": "ON", "country": "CA", "postalCode": "M4W2T3", "twitter": "None", "instagram": "None", "facebook": "None", "youtube": "None", "website": "None", "summary": "None", "logo": "None"}, "819581448RR0001": {"name": "Opera Kelowna Society", "designationCode": "C", "categoryCode": "22", "address": "101 - 346 LAWRENCE AVE", "city": "KELOWNA", "province": "BC", "country": "CA", "postalCode": "V1Y6L4", "twitter": "None", "instagram": "None", "facebook": "None", "youtube": "None", "website": "None", "summary": "None", "logo": "None", "latitude": 49.88542365093948, "longitude": -119.49588568463636}, "826867483RR0001": {"name": "Operation Cat Snip Society", "designationCode": "C", "categoryCode": "54", "address": "184 HIGHWAY 1", "city": "DAYTON", "province": "NS", "country": "CA", "postalCode": "B5A5A1", "twitter": "None", "instagram": "None", "facebook": "None", "youtube": "None", "website": "None", "summary": "None", "logo": "None", "latitude": 43.86593116480574, "longitude": -66.10964859057526}, "119068997RR0001": {"name": "Operation Come Home / Op\u00e9ration Retnrer au Foyer", "designationCode": "C", "categoryCode": "09", "address": "150 GLOUCESTER STREET", "city": "OTTAWA", "province": "ON", "country": "CA", "postalCode": "K2P0A6", "twitter": "None", "instagram": "None", "facebook": "None", "youtube": "None", "website": "None", "summary": "None", "logo": "None", "latitude": 45.418458647498525, "longitude": -75.69724297916798}, "119068955RR0001": {"name": "Operation Eyesight Canada", "designationCode": "C", "categoryCode": "15", "address": "4 PARKDALE CRESCENT NW", "city": "CALGARY", "province": "AB", "country": "CA", "postalCode": "T2N3T8", "twitter": "None", "instagram": "None", "facebook": "None", "youtube": "None", "website": "None", "summary": "None", "logo": "None", "latitude": 51.05832943187709, "longitude": -114.13571399725869}, "816209613RR0001": {"name": "Operation Scugog", "designationCode": "C", "categoryCode": "09", "address": "BOX 353", "city": "PORT PERRY", "province": "ON", "country": "CA", "postalCode": "L9L1A4", "twitter": "None", "instagram": "None", "facebook": "None", "youtube": "None", "website": "None", "summary": "None", "logo": "None", "latitude": 44.10681900000006, "longitude": -78.94273399999993}, "840643605RR0001": {"name": "Operation Smile Canada Foundation", "designationCode": "C", "categoryCode": "11", "address": "204 - 375 UNIVERSITY AVE", "city": "TORONTO", "province": "ON", "country": "CA", "postalCode": "M5G2J5", "twitter": "None", "instagram": "None", "facebook": "None", "youtube": "None", "website": "None", "summary": "None", "logo": "None", "latitude": 43.653447994460095, "longitude": -79.38752779110193}, "856060090RR0001": {"name": "Operation Walk Canada Inc.", "designationCode": "C", "categoryCode": "11", "address": "903 MAITLAND STREET", "city": "LONDON", "province": "ON", "country": "CA", "postalCode": "N5Y2X2", "twitter": "None", "instagram": "None", "facebook": "None", "youtube": "None", "website": "None", "summary": "None", "logo": "None", "latitude": 43.00305314709452, "longitude": -81.2450747549482}, "891806986RR0001": {"name": "Opokaa'Sin Early Intervention Society", "designationCode": "C", "categoryCode": "09", "address": "POST OFFICE BOX 264", "city": "STAND-OFF", "province": "AB", "country": "CA", "postalCode": "T0L1Y0", "twitter": "None", "instagram": "None", "facebook": "None", "youtube": "None", "website": "None", "summary": "None", "logo": "None", "latitude": 49.46847000000008, "longitude": -113.30506999999994}, "893394247RR0001": {"name": "Opportunities for Employment Inc.", "designationCode": "C", "categoryCode": "59", "address": "300-294 PORTAGE AVENUE", "city": "WINNIPEG", "province": "MB", "country": "CA", "postalCode": "R3C0B9", "twitter": "None", "instagram": "None", "facebook": "None", "youtube": "None", "website": "None", "summary": "None", "logo": "None", "latitude": 49.89376320286816, "longitude": -97.14299429473726}, "853345247RR0001": {"name": "Optimum Guatemalan Relief Canada Inc.", "designationCode": "B", "categoryCode": "09", "address": "23 DEERHURST HIGHLANDS DRIVE", "city": "HUNTSVILLE", "province": "ON", "country": "CA", "postalCode": "P1H1B1", "twitter": "None", "instagram": "None", "facebook": "None", "youtube": "None", "website": "None", "summary": "None", "logo": "None", "latitude": 45.34859920901366, "longitude": -79.14757872912452}, "840224505RR0001": {"name": "Option justice r\u00e9paratrice", "designationCode": "C", "categoryCode": "59", "address": "1605 AV DE LERY", "city": "QUEBEC", "province": "QC", "country": "CA", "postalCode": "G1J4X8", "twitter": "None", "instagram": "None", "facebook": "None", "youtube": "None", "website": "None", "summary": "None", "logo": "None", "latitude": 46.83955422563341, "longitude": -71.21771001875456}, "898261193RR0001": {"name": "Option: une alternative \u00e0 la violence conjugale", "designationCode": "C", "categoryCode": "09", "address": "104-1150, BOUL. ST-JOSEPH EST", "city": "MONTR\u00c9AL", "province": "QC", "country": "CA", "postalCode": "H2J1L5", "twitter": "None", "instagram": "None", "facebook": "None", "youtube": "None", "website": "None", "summary": "None", "logo": "None", "latitude": 45.526282642066725, "longitude": -73.58778261242684}, "813676954RR0001": {"name": "Options grossesse", "designationCode": "C", "categoryCode": "59", "address": "201 - 2520 CH SAINTE-FOY", "city": "QUEBEC", "province": "QC", "country": "CA", "postalCode": "G1V1T5", "twitter": "None", "instagram": "None", "facebook": "None", "youtube": "None", "website": "None", "summary": "None", "logo": "None", "latitude": 46.78367934058491, "longitude": -71.28994591064104}, "804013837RR0001": {"name": "Options For Independent Living and Development", "designationCode": "B", "categoryCode": "09", "address": "41A RAY STREET SOUTH", "city": "HAMILTON", "province": "ON", "country": "CA", "postalCode": "L8P3V4", "twitter": "None", "instagram": "None", "facebook": "None", "youtube": "None", "website": "None", "summary": "None", "logo": "None", "latitude": 43.25838418672356, "longitude": -79.88087859389516}, "817311814RR0001": {"name": "Options, Pathways & Transitions Inc.", "designationCode": "C", "categoryCode": "59", "address": "288 MARION STREET", "city": "WINNIPEG", "province": "MB", "country": "CA", "postalCode": "R2H0T7", "twitter": "None", "instagram": "None", "facebook": "None", "youtube": "None", "website": "None", "summary": "None", "logo": "None", "latitude": 49.88173554674262, "longitude": -97.1146987754631}, "894850965RR0001": {"name": "Optometry Giving Sight", "designationCode": "C", "categoryCode": "11", "address": "4 PARKDALE CRES NW", "city": "CALGARY", "province": "AB", "country": "CA", "postalCode": "T2N3T8", "twitter": "None", "instagram": "None", "facebook": "None", "youtube": "None", "website": "None", "summary": "None", "logo": "None", "latitude": 51.05832943187709, "longitude": -114.13571399725869}, "888475464RR0001": {"name": "Or Haneshamah - Ottawa's Reconstructionist Community", "designationCode": "C", "categoryCode": "42", "address": "30 CLEARY AVE", "city": "OTTAWA", "province": "ON", "country": "CA", "postalCode": "K2A4A1", "twitter": "None", "instagram": "None", "facebook": "None", "youtube": "None", "website": "None", "summary": "None", "logo": "None", "latitude": 45.381881502654394, "longitude": -75.7718032598243}, "812903938RR0001": {"name": "Orange Noy\u00e9e", "designationCode": "C", "categoryCode": "22", "address": "4949, RUE CLARK", "city": "MONTREAL", "province": "QC", "country": "CA", "postalCode": "H2T2T6", "twitter": "None", "instagram": "None", "facebook": "None", "youtube": "None", "website": "None", "summary": "None", "logo": "None", "latitude": 45.521791155433036, "longitude": -73.59157953551853}, "823040530RR0001": {"name": "Orangedale - Gillis Cove Cemetery", "designationCode": "C", "categoryCode": "59", "address": "229 ORANGEDALE IONA RD", "city": "ORANGEDALE", "province": "NS", "country": "CA", "postalCode": "B0E2K0", "twitter": "None", "instagram": "None", "facebook": "None", "youtube": "None", "website": "None", "summary": "None", "logo": "None", "latitude": 45.90516540175331, "longitude": -61.084483310058026}, "886664481RR0001": {"name": "Orbicom: R\u00e9seau des chaires Unesco en communication", "designationCode": "C", "categoryCode": "21", "address": "CP 8888, SUCC. CENTRE-VILLE   SUITE J4351, UQAM", "city": "MONTREAL", "province": "QC", "country": "CA", "postalCode": "H3C3P8", "twitter": "None", "instagram": "None", "facebook": "None", "youtube": "None", "website": "None", "summary": "None", "logo": "None", "latitude": 45.49833600000005, "longitude": -73.55148649999994}, "119288918RR0159": {"name": "Orchard Congregation of Jehovah's Witnesses, Burlington, Ontario", "designationCode": "C", "categoryCode": "61", "address": "4025 MAINWAY", "city": "BURLINGTON", "province": "ON", "country": "CA", "postalCode": "L7L2L7", "twitter": "None", "instagram": "None", "facebook": "None", "youtube": "None", "website": "None", "summary": "None", "logo": "None", "latitude": 43.37669173429465, "longitude": -79.79136825062821}, "119056406RR0001": {"name": "Orchard Valley Pastoral Charge", "designationCode": "C", "categoryCode": "44", "address": "130 CORNWALLIS AVENUE", "city": "NEW MINAS", "province": "NS", "country": "CA", "postalCode": "B4N3M7", "twitter": "None", "instagram": "None", "facebook": "None", "youtube": "None", "website": "None", "summary": "None", "logo": "None", "latitude": 45.07453022756666, "longitude": -64.44505234523078}, "845888080RR0001": {"name": "Orchard View Foundation Inc.", "designationCode": "A", "categoryCode": "13", "address": "2230 ROUTE 102 HIGHWAY", "city": "GAGETOWN", "province": "NB", "country": "CA", "postalCode": "E5M1J6", "twitter": "None", "instagram": "None", "facebook": "None", "youtube": "None", "website": "None", "summary": "None", "logo": "None", "latitude": 45.77826263864805, "longitude": -66.15247519954279}, "816837090RR0001": {"name": "Orchestra Kingston Incorporated", "designationCode": "C", "categoryCode": "22", "address": "PO BOX 382", "city": "KINGSTON", "province": "ON", "country": "CA", "postalCode": "K7L4W2", "twitter": "None", "instagram": "None", "facebook": "None", "youtube": "None", "website": "None", "summary": "None", "logo": "None", "latitude": 44.23153200000006, "longitude": -76.47933049999993}, "822260766RR0001": {"name": "Orchestre d'harmonie de Montr\u00e9al-Nord", "designationCode": "C", "categoryCode": "22", "address": "5100 RUE PERRAS", "city": "MONTREAL-NORD", "province": "QC", "country": "CA", "postalCode": "H1G1X2", "twitter": "None", "instagram": "None", "facebook": "None", "youtube": "None", "website": "None", "summary": "None", "logo": "None", "latitude": 45.607196033845106, "longitude": -73.63432952579502}, "843602905RR0001": {"name": "Orchestre de chambre Nouvelle G\u00e9n\u00e9ration", "designationCode": "C", "categoryCode": "22", "address": "4427 AVENUE MELROSE", "city": "MONTR\u00c9AL", "province": "QC", "country": "CA", "postalCode": "H4A2S7", "twitter": "None", "instagram": "None", "facebook": "None", "youtube": "None", "website": "None", "summary": "None", "logo": "None", "latitude": 45.474245359714836, "longitude": -73.62699222049751}, "864674049RR0001": {"name": "Orchestre de la francophonie canadienne", "designationCode": "C", "categoryCode": "22", "address": "1097, RUE SAINT-ALEXANDRE     PORTE 303", "city": "MONTREAL", "province": "QC", "country": "CA", "postalCode": "H2Z1P8", "twitter": "None", "instagram": "None", "facebook": "None", "youtube": "None", "website": "None", "summary": "None", "logo": "None", "latitude": 45.50391503886542, "longitude": -73.56465837217965}}