{"841979883RR0001": {"name": "Red Fox Healthy Living Society", "designationCode": "C", "categoryCode": "56", "address": "500 - 610 MAIN ST", "city": "VANCOUVER", "province": "BC", "country": "CA", "postalCode": "V6A2V3", "twitter": "None", "instagram": "None", "facebook": "None", "youtube": "None", "website": "None", "summary": "None", "logo": "None", "latitude": 49.279329707163114, "longitude": -123.09969365930993}, "119288918RR1578": {"name": "Red River Chinese Congregation of Jehovah's Witnesses, Winnipeg, Manitoba", "designationCode": "C", "categoryCode": "61", "address": "60 CADBORO ROAD", "city": "WINNIPEG", "province": "MB", "country": "CA", "postalCode": "R3Y1R7", "twitter": "None", "instagram": "None", "facebook": "None", "youtube": "None", "website": "None", "summary": "None", "logo": "None", "latitude": 49.80138013289891, "longitude": -97.17627377153931}, "838096782RR0001": {"name": "Red Wolf Spirit Adventures Society", "designationCode": "C", "categoryCode": "09", "address": "503 - 2118 15TH AVE W", "city": "VANCOUVER", "province": "BC", "country": "CA", "postalCode": "V6K2Y5", "twitter": "None", "instagram": "None", "facebook": "None", "youtube": "None", "website": "None", "summary": "None", "logo": "None", "latitude": 49.25814036854674, "longitude": -123.15353663558179}, "135431518RR0001": {"name": "Redcliff Action Society for Youth", "designationCode": "C", "categoryCode": "09", "address": "POST OFFICE BOX 1560", "city": "REDCLIFF", "province": "AB", "country": "CA", "postalCode": "T0J2P0", "twitter": "None", "instagram": "None", "facebook": "None", "youtube": "None", "website": "None", "summary": "None", "logo": "None", "latitude": 50.06256300000001, "longitude": -110.79354470271593}, "802188516RR0001": {"name": "Redeemed Baptist Church", "designationCode": "C", "categoryCode": "39", "address": "9572 153A ST", "city": "SURREY", "province": "BC", "country": "CA", "postalCode": "V3R8J6", "twitter": "None", "instagram": "None", "facebook": "None", "youtube": "None", "website": "None", "summary": "None", "logo": "None", "latitude": 49.17631500000002, "longitude": -122.79682150998332}, "846230357RR0001": {"name": "Redeemed Christian Church of God - Jesus House Scarborough", "designationCode": "C", "categoryCode": "39", "address": "32 PROGRESS AVE", "city": "TORONTO", "province": "ON", "country": "CA", "postalCode": "M1P2Y4", "twitter": "None", "instagram": "None", "facebook": "None", "youtube": "None", "website": "None", "summary": "None", "logo": "None", "latitude": 43.77016109136769, "longitude": -79.27926176505879}, "816433924RR0001": {"name": "Redeemed Christian Church of God - Lifegate Chapel, Calgary", "designationCode": "C", "categoryCode": "39", "address": "PO BOX 71156                  RPO SILVER SPRINGS", "city": "CALGARY", "province": "AB", "country": "CA", "postalCode": "T3B5K2", "twitter": "None", "instagram": "None", "facebook": "None", "youtube": "None", "website": "None", "summary": "None", "logo": "None", "latitude": 51.10348224324807, "longitude": -114.18908464889931}, "803070648RR0001": {"name": "Redeemed Christian Church of God, Christ Love Assembly Calgary", "designationCode": "C", "categoryCode": "39", "address": "12 SADDLETREE CRT NE", "city": "CALGARY", "province": "AB", "country": "CA", "postalCode": "T3J5L1", "twitter": "None", "instagram": "None", "facebook": "None", "youtube": "None", "website": "None", "summary": "None", "logo": "None", "latitude": 51.129911192132944, "longitude": -113.9549856234066}, "801328766RR0001": {"name": "Redeemed Christian Church of God, Open Heavens Parish Calgary", "designationCode": "B", "categoryCode": "39", "address": "402 - 501 40 AVE NW", "city": "CALGARY", "province": "AB", "country": "CA", "postalCode": "T2K5S5", "twitter": "None", "instagram": "None", "facebook": "None", "youtube": "None", "website": "None", "summary": "None", "logo": "None", "latitude": 51.08766192822134, "longitude": -114.07349073083003}, "800884041RR0001": {"name": "Redeemed Christian Church of God: Grace Sanctuary Inc.", "designationCode": "C", "categoryCode": "39", "address": "314 EAST HAMPTON BLVD", "city": "SASKATOON", "province": "SK", "country": "CA", "postalCode": "S7R0E1", "twitter": "None", "instagram": "None", "facebook": "None", "youtube": "None", "website": "None", "summary": "None", "logo": "None", "latitude": 52.155570434935534, "longitude": -106.708465974609}, "841856784RR0001": {"name": "Redeemed Life Church", "designationCode": "C", "categoryCode": "49", "address": "236 WOODWARD LANE", "city": "FORT MCMURRAY", "province": "AB", "country": "CA", "postalCode": "T9H5K8", "twitter": "None", "instagram": "None", "facebook": "None", "youtube": "None", "website": "None", "summary": "None", "logo": "None", "latitude": 56.72294293810952, "longitude": -111.45971290588052}, "738252691RR0001": {"name": "Redeemer Bible Church", "designationCode": "C", "categoryCode": "39", "address": "PO BOX 24055 RPO WEST HIGHLAND", "city": "KITCHENER", "province": "ON", "country": "CA", "postalCode": "N2M5P1", "twitter": "None", "instagram": "None", "facebook": "None", "youtube": "None", "website": "None", "summary": "None", "logo": "None", "latitude": 43.4371198353875, "longitude": -80.5120121292498}, "820817708RR0001": {"name": "Redeemer Chinese Baptist Church", "designationCode": "C", "categoryCode": "39", "address": "10187 173 ST", "city": "SURREY", "province": "BC", "country": "CA", "postalCode": "V4N4H6", "twitter": "None", "instagram": "None", "facebook": "None", "youtube": "None", "website": "None", "summary": "None", "logo": "None", "latitude": 49.187654863725555, "longitude": -122.7426755377689}, "827770116RR0001": {"name": "Redeemer Christ Assembly", "designationCode": "C", "categoryCode": "39", "address": "95 SOFTNEEDLE AVE", "city": "BRAMPTON", "province": "ON", "country": "CA", "postalCode": "L6R1L2", "twitter": "None", "instagram": "None", "facebook": "None", "youtube": "None", "website": "None", "summary": "None", "logo": "None", "latitude": 43.73890705133025, "longitude": -79.75763059905381}, "841834609RR0001": {"name": "Redeemer Orthodox Presbyterian Church of Airdrie", "designationCode": "C", "categoryCode": "39", "address": "PO BOX 10207", "city": "AIRDRIE", "province": "AB", "country": "CA", "postalCode": "T4B0H5", "twitter": "None", "instagram": "None", "facebook": "None", "youtube": "None", "website": "None", "summary": "None", "logo": "None", "latitude": 51.27789300000006, "longitude": -114.02254249999993}, "834504888RR0001": {"name": "Redeemer United Reformed Church", "designationCode": "C", "categoryCode": "39", "address": "4519 46 AVE", "city": "LACOMBE", "province": "AB", "country": "CA", "postalCode": "T4L1W3", "twitter": "None", "instagram": "None", "facebook": "None", "youtube": "None", "website": "None", "summary": "None", "logo": "None", "latitude": 52.45577076762724, "longitude": -113.72666280076787}, "849284484RR0001": {"name": "Redeemer's Grace Assembly Society", "designationCode": "C", "categoryCode": "39", "address": "10145 170A STREET", "city": "SURREY", "province": "BC", "country": "CA", "postalCode": "V4N4N6", "twitter": "None", "instagram": "None", "facebook": "None", "youtube": "None", "website": "None", "summary": "None", "logo": "None", "latitude": 49.18699774854292, "longitude": -122.75004355219563}, "818847535RR0001": {"name": "Redeeming Grace Bible Church Inc.", "designationCode": "C", "categoryCode": "39", "address": "14 - 777 NORQUAY DR", "city": "WINKLER", "province": "MB", "country": "CA", "postalCode": "R6W2S2", "twitter": "None", "instagram": "None", "facebook": "None", "youtube": "None", "website": "None", "summary": "None", "logo": "None", "latitude": 49.19048195679476, "longitude": -97.93259436840009}, "810354910RR0001": {"name": "Redemption Baptist Church of Calgary/\u00c9glise Batiste de la Redemption de Calgary", "designationCode": "C", "categoryCode": "31", "address": "32 EVANFIELD WAY NW", "city": "CALGARY", "province": "AB", "country": "CA", "postalCode": "T3P0L1", "twitter": "None", "instagram": "None", "facebook": "None", "youtube": "None", "website": "None", "summary": "None", "logo": "None", "latitude": 51.17847249708581, "longitude": -114.11485019871321}, "816806970RR0001": {"name": "Redemption Baptist Church Inc.", "designationCode": "C", "categoryCode": "31", "address": "POST OFFICE BOX 2054", "city": "KINDERSLEY", "province": "SK", "country": "CA", "postalCode": "S0L1S0", "twitter": "None", "instagram": "None", "facebook": "None", "youtube": "None", "website": "None", "summary": "None", "logo": "None", "latitude": 51.46791900000005, "longitude": -109.15522999999993}, "857988174RR0001": {"name": "Redemption Church", "designationCode": "C", "categoryCode": "36", "address": "3512 WEST 7TH AVE", "city": "VANCOUVER", "province": "BC", "country": "CA", "postalCode": "V6R1W3", "twitter": "None", "instagram": "None", "facebook": "None", "youtube": "None", "website": "None", "summary": "None", "logo": "None", "latitude": 49.26597848124546, "longitude": -123.18207130252755}, "804576338RR0001": {"name": "Redemption Community Baptist Church", "designationCode": "C", "categoryCode": "31", "address": "211 - 10188 155 ST", "city": "SURREY", "province": "BC", "country": "CA", "postalCode": "V3R0R6", "twitter": "None", "instagram": "None", "facebook": "None", "youtube": "None", "website": "None", "summary": "None", "logo": "None", "latitude": 49.187331636995616, "longitude": -122.79270403326818}, "831429709RR0001": {"name": "Redemption Hill Church", "designationCode": "C", "categoryCode": "39", "address": "#901-31955 OLD YALE RD.", "city": "ABBOTSFORD", "province": "BC", "country": "CA", "postalCode": "V2T4N1", "twitter": "None", "instagram": "None", "facebook": "None", "youtube": "None", "website": "None", "summary": "None", "logo": "None", "latitude": 49.05204144730296, "longitude": -122.33894882664214}, "814286241RR0001": {"name": "Redemption Worship Centre", "designationCode": "C", "categoryCode": "39", "address": "44 ALFONSO CRES", "city": "BRAMPTON", "province": "ON", "country": "CA", "postalCode": "L6P1S5", "twitter": "None", "instagram": "None", "facebook": "None", "youtube": "None", "website": "None", "summary": "None", "logo": "None", "latitude": 43.769141464625704, "longitude": -79.66928048211082}, "824476725RR0001": {"name": "Redhill Church", "designationCode": "C", "categoryCode": "39", "address": "6150 TRAFALGAR RD", "city": "MILTON", "province": "ON", "country": "CA", "postalCode": "L9E0Z1", "twitter": "None", "instagram": "None", "facebook": "None", "youtube": "None", "website": "None", "summary": "None", "logo": "None", "latitude": 43.539174727393764, "longitude": -79.78617820255009}, "890747983RR0001": {"name": "Rediscovery International Foundation", "designationCode": "C", "categoryCode": "20", "address": "1287 JOHN CROSBY DR", "city": "KISPIOX", "province": "BC", "country": "CA", "postalCode": "V0J1Y4", "twitter": "None", "instagram": "None", "facebook": "None", "youtube": "None", "website": "None", "summary": "None", "logo": "None", "latitude": 55.355003927001015, "longitude": -127.69834166374292}, "801271180RR0001": {"name": "Redleaf Foundation", "designationCode": "B", "categoryCode": "03", "address": "P.O.BOX 45069 PORT CREDIT", "city": "MISSISSAUGA", "province": "ON", "country": "CA", "postalCode": "L5G1C9", "twitter": "None", "instagram": "None", "facebook": "None", "youtube": "None", "website": "None", "summary": "None", "logo": "None", "latitude": 43.55140002611222, "longitude": -79.58596004111577}, "866873300RR0001": {"name": "Redleaf Prayer Ministries Society", "designationCode": "C", "categoryCode": "49", "address": "21642 89A AVE.", "city": "LANGLEY", "province": "BC", "country": "CA", "postalCode": "V1M4C6", "twitter": "None", "instagram": "None", "facebook": "None", "youtube": "None", "website": "None", "summary": "None", "logo": "None", "latitude": 49.165964488458826, "longitude": -122.62302352553522}, "839264272RR0001": {"name": "Redshift Music Society", "designationCode": "C", "categoryCode": "22", "address": "#107-630 ROCHE POINT DRIVE", "city": "NORTH VANCOUVER", "province": "BC", "country": "CA", "postalCode": "V7H3A1", "twitter": "None", "instagram": "None", "facebook": "None", "youtube": "None", "website": "None", "summary": "None", "logo": "None", "latitude": 49.31166628282071, "longitude": -122.96890561163328}, "134770585RR0001": {"name": "Redwater - Smoky Lake Victim Services Society", "designationCode": "C", "categoryCode": "09", "address": "BOX 399", "city": "REDWATER", "province": "AB", "country": "CA", "postalCode": "T0A2W0", "twitter": "None", "instagram": "None", "facebook": "None", "youtube": "None", "website": "None", "summary": "None", "logo": "None", "latitude": 53.94921000000005, "longitude": -113.10568999999998}, "850158668RR0001": {"name": "Redwood Park Communities Inc.", "designationCode": "C", "categoryCode": "09", "address": "36 TORONTO ST", "city": "BARRIE", "province": "ON", "country": "CA", "postalCode": "L4N1T9", "twitter": "None", "instagram": "None", "facebook": "None", "youtube": "None", "website": "None", "summary": "None", "logo": "None", "latitude": 44.38708661114328, "longitude": -79.69280818821028}, "807699723RR0001": {"name": "Reed Charitable Foundation", "designationCode": "B", "categoryCode": "03", "address": "1196 TALL TREE LANE", "city": "NORTH VANCOUVER", "province": "BC", "country": "CA", "postalCode": "V7R1W4", "twitter": "None", "instagram": "None", "facebook": "None", "youtube": "None", "website": "None", "summary": "None", "logo": "None", "latitude": 49.34903548600596, "longitude": -123.10692079961336}, "824164669RR0001": {"name": "Refire Ministries", "designationCode": "C", "categoryCode": "39", "address": "3359 MASTHEAD CRESCENT", "city": "MISSISSAUGA", "province": "ON", "country": "CA", "postalCode": "L5L1G9", "twitter": "None", "instagram": "None", "facebook": "None", "youtube": "None", "website": "None", "summary": "None", "logo": "None", "latitude": 43.53532543493552, "longitude": -79.68574941465175}, "827378316RR0001": {"name": "Reflection Foundation", "designationCode": "B", "categoryCode": "03", "address": "1250-1500 W GEORGIA ST        PO BOX 62", "city": "VANCOUVER", "province": "BC", "country": "CA", "postalCode": "V6G2Z6", "twitter": "None", "instagram": "None", "facebook": "None", "youtube": "None", "website": "None", "summary": "None", "logo": "None", "latitude": 49.290187500000016, "longitude": -123.130035}, "747888493RR0001": {"name": "Refood Food Rescue Foundation", "designationCode": "C", "categoryCode": "09", "address": "7471 SCHAEFER AVE", "city": "RICHMOND", "province": "BC", "country": "CA", "postalCode": "V6Y2W7", "twitter": "None", "instagram": "None", "facebook": "None", "youtube": "None", "website": "None", "summary": "None", "logo": "None", "latitude": 49.149263482110825, "longitude": -123.14377366763807}, "813821022RR0001": {"name": "Refresh Ministries", "designationCode": "C", "categoryCode": "49", "address": "PO BOX 434", "city": "SEXSMITH", "province": "AB", "country": "CA", "postalCode": "T0H3C0", "twitter": "None", "instagram": "None", "facebook": "None", "youtube": "None", "website": "None", "summary": "None", "logo": "None", "latitude": 55.348520000000065, "longitude": -118.78230999999994}, "893685321RR0001": {"name": "Refreshing Waters Community Church Inc.", "designationCode": "C", "categoryCode": "36", "address": "361-C HODDER AVENUE", "city": "THUNDER BAY", "province": "ON", "country": "CA", "postalCode": "P7A1T6", "twitter": "None", "instagram": "None", "facebook": "None", "youtube": "None", "website": "None", "summary": "None", "logo": "None", "latitude": 48.4636677799065, "longitude": -89.1822849182871}, "810731190RR0001": {"name": "Refreshing Wind Ministries", "designationCode": "C", "categoryCode": "39", "address": "220 HURON ROAD                BOX 277", "city": "SEBRINGVILLE", "province": "ON", "country": "CA", "postalCode": "N0K1X0", "twitter": "None", "instagram": "None", "facebook": "None", "youtube": "None", "website": "None", "summary": "None", "logo": "None", "latitude": 43.40433409051278, "longitude": -81.05492011876065}, "857903884RR0001": {"name": "Refuge de paix", "designationCode": "C", "categoryCode": "39", "address": "1191 RUE GALT O", "city": "SHERBROOKE", "province": "QC", "country": "CA", "postalCode": "J1H2A5", "twitter": "None", "instagram": "None", "facebook": "None", "youtube": "None", "website": "None", "summary": "None", "logo": "None", "latitude": 45.38926463884376, "longitude": -71.90627734250955}, "806700639RR0001": {"name": "Refuge pour animaux du T\u00e9miscamingue", "designationCode": "C", "categoryCode": "54", "address": "1287, RUE PRINCIPALE", "city": "SAINT-EDOUARD-DE-FABRE", "province": "QC", "country": "CA", "postalCode": "J0Z1Z0", "twitter": "None", "instagram": "None", "facebook": "None", "youtube": "None", "website": "None", "summary": "None", "logo": "None", "latitude": 47.19673855536962, "longitude": -79.36738444910243}, "815030689RR0001": {"name": "Refuge A.M.R.", "designationCode": "C", "categoryCode": "54", "address": "47 RUE SAINT-PIERRE", "city": "SAINT-CONSTANT", "province": "QC", "country": "CA", "postalCode": "J5A1B9", "twitter": "None", "instagram": "None", "facebook": "None", "youtube": "None", "website": "None", "summary": "None", "logo": "None", "latitude": 45.381508846528874, "longitude": -73.56079527909846}, "805338191RR0001": {"name": "Refuge Blitz", "designationCode": "C", "categoryCode": "54", "address": "3736 RUE DES FOUGERES", "city": "LEVIS", "province": "QC", "country": "CA", "postalCode": "G6V7M5", "twitter": "None", "instagram": "None", "facebook": "None", "youtube": "None", "website": "None", "summary": "None", "logo": "None", "latitude": 46.75495016068451, "longitude": -71.17518807198938}, "831380423RR0001": {"name": "Refuge Enfants Pour Tous", "designationCode": "C", "categoryCode": "09", "address": "435 MONTROSE AVE", "city": "TORONTO", "province": "ON", "country": "CA", "postalCode": "M6G3H2", "twitter": "None", "instagram": "None", "facebook": "None", "youtube": "None", "website": "None", "summary": "None", "logo": "None", "latitude": 43.66124886816893, "longitude": -79.42015842073994}, "768519928RR0001": {"name": "Refuge Magoo", "designationCode": "C", "categoryCode": "54", "address": "544 BOUL DES LAURENTIDES", "city": "LAVAL", "province": "QC", "country": "CA", "postalCode": "H7G2V4", "twitter": "None", "instagram": "None", "facebook": "None", "youtube": "None", "website": "None", "summary": "None", "logo": "None", "latitude": 45.57131092754926, "longitude": -73.69312380893284}, "118787142RR0062": {"name": "Refugee Program of the Anglican Diocese of BC", "designationCode": "C", "categoryCode": "49", "address": "900 VANCOUVER ST", "city": "VICTORIA", "province": "BC", "country": "CA", "postalCode": "V8V3V7", "twitter": "None", "instagram": "None", "facebook": "None", "youtube": "None", "website": "None", "summary": "None", "logo": "None", "latitude": 48.42170864599994, "longitude": -123.35749388759996}, "784394322RR0001": {"name": "Refugee Women's Network", "designationCode": "C", "categoryCode": "21", "address": "8 MIRIAM CRESCENT", "city": "RICHMOND HILL", "province": "ON", "country": "CA", "postalCode": "L4B2P4", "twitter": "None", "instagram": "None", "facebook": "None", "youtube": "None", "website": "None", "summary": "None", "logo": "None", "latitude": 43.854216106872755, "longitude": -79.40810910006343}, "827361031RR0001": {"name": "Regeneration Church", "designationCode": "C", "categoryCode": "39", "address": "1270 SHORELINE AVENUE", "city": "BELLE RIVER", "province": "ON", "country": "CA", "postalCode": "N0R1A0", "twitter": "None", "instagram": "None", "facebook": "None", "youtube": "None", "website": "None", "summary": "None", "logo": "None", "latitude": 42.29912676331455, "longitude": -82.75379224331891}, "846986750RR0001": {"name": "Regenesis Community Living Inc.", "designationCode": "C", "categoryCode": "09", "address": "8933 WELLINGTON RD 50", "city": "ACTON", "province": "ON", "country": "CA", "postalCode": "L7J2L8", "twitter": "None", "instagram": "None", "facebook": "None", "youtube": "None", "website": "None", "summary": "None", "logo": "None", "latitude": 43.63528085550909, "longitude": -80.03280988382635}, "841962665RR0001": {"name": "Regent Family Foundation", "designationCode": "B", "categoryCode": "05", "address": "150 YORK STREET               SUITE 1212", "city": "TORONTO", "province": "ON", "country": "CA", "postalCode": "M5H3S5", "twitter": "None", "instagram": "None", "facebook": "None", "youtube": "None", "website": "None", "summary": "None", "logo": "None", "latitude": 43.64973143574359, "longitude": -79.3843565691325}, "845914613RR0001": {"name": "Regent Park Film Festival Inc.", "designationCode": "C", "categoryCode": "22", "address": "240-585 DUNDAS ST E", "city": "TORONTO", "province": "ON", "country": "CA", "postalCode": "M5A2B7", "twitter": "None", "instagram": "None", "facebook": "None", "youtube": "None", "website": "None", "summary": "None", "logo": "None", "latitude": 43.66027180930821, "longitude": -79.36201567984308}, "132412073RR0001": {"name": "Regent Park United Church", "designationCode": "C", "categoryCode": "44", "address": "175 OXFORD ST", "city": "ORILLIA", "province": "ON", "country": "CA", "postalCode": "L3V1H4", "twitter": "None", "instagram": "None", "facebook": "None", "youtube": "None", "website": "None", "summary": "None", "logo": "None", "latitude": 44.599414490876036, "longitude": -79.40007646247933}, "132259433RR0001": {"name": "Regina Beach United Church", "designationCode": "C", "categoryCode": "44", "address": "PO BOX 189", "city": "REGINA BEACH", "province": "SK", "country": "CA", "postalCode": "S0G4C0", "twitter": "None", "instagram": "None", "facebook": "None", "youtube": "None", "website": "None", "summary": "None", "logo": "None", "latitude": 50.72346000000002, "longitude": -103.64722425000001}, "107882300RR0001": {"name": "Regina Indian Community Awareness, Inc.", "designationCode": "C", "categoryCode": "09", "address": "3355 6TH AVE", "city": "REGINA", "province": "SK", "country": "CA", "postalCode": "S4T4L8", "twitter": "None", "instagram": "None", "facebook": "None", "youtube": "None", "website": "None", "summary": "None", "logo": "None", "latitude": 50.45981247345519, "longitude": -104.62971094463039}, "799640719RR0001": {"name": "Regina Korean Church of The Lord", "designationCode": "C", "categoryCode": "39", "address": "855 BROAD ST N", "city": "REGINA", "province": "SK", "country": "CA", "postalCode": "S4R6C7", "twitter": "None", "instagram": "None", "facebook": "None", "youtube": "None", "website": "None", "summary": "None", "logo": "None", "latitude": 50.490807927553966, "longitude": -104.60605622667009}, "119114130RR0001": {"name": "Regina Lyric Musical Theatre Inc.", "designationCode": "C", "categoryCode": "22", "address": "BOX 3754", "city": "REGINA", "province": "SK", "country": "CA", "postalCode": "S4P3N8", "twitter": "None", "instagram": "None", "facebook": "None", "youtube": "None", "website": "None", "summary": "None", "logo": "None", "latitude": 50.448246000000054, "longitude": -104.59517299999993}, "119114288RR0001": {"name": "Regina Rotary Club Community Fund Inc.", "designationCode": "C", "categoryCode": "63", "address": "PO BOX 164", "city": "REGINA", "province": "SK", "country": "CA", "postalCode": "S4P2Z6", "twitter": "None", "instagram": "None", "facebook": "None", "youtube": "None", "website": "None", "summary": "None", "logo": "None", "latitude": 50.448246000000054, "longitude": -104.59517299999993}, "128992492RR0001": {"name": "Regina Sexual Assault Centre Inc.", "designationCode": "C", "categoryCode": "09", "address": "1830 MACKAY ST", "city": "REGINA", "province": "SK", "country": "CA", "postalCode": "S4N6R4", "twitter": "None", "instagram": "None", "facebook": "None", "youtube": "None", "website": "None", "summary": "None", "logo": "None", "latitude": 50.44982734698283, "longitude": -104.5808058852366}, "811403898RR0001": {"name": "Regina Trades and Skills Centre Inc.", "designationCode": "C", "categoryCode": "20", "address": "1275 ALBERT ST", "city": "REGINA", "province": "SK", "country": "CA", "postalCode": "S4R2R4", "twitter": "None", "instagram": "None", "facebook": "None", "youtube": "None", "website": "None", "summary": "None", "logo": "None", "latitude": 50.458743, "longitude": -104.61798737806629}, "130167232RR0001": {"name": "Regina Transition House Inc.", "designationCode": "C", "categoryCode": "01", "address": "P.O. BOX 1364", "city": "REGINA", "province": "SK", "country": "CA", "postalCode": "S4P3B8", "twitter": "None", "instagram": "None", "facebook": "None", "youtube": "None", "website": "None", "summary": "None", "logo": "None", "latitude": 50.448246000000054, "longitude": -104.59517299999993}, "888133592RR0001": {"name": "Regina United Church Right Relations Fund", "designationCode": "C", "categoryCode": "44", "address": "189 RINK AVENUE               SUITE 214", "city": "REGINA", "province": "SK", "country": "CA", "postalCode": "S4R7V3", "twitter": "None", "instagram": "None", "facebook": "None", "youtube": "None", "website": "None", "summary": "None", "logo": "None", "latitude": 50.4874628327258, "longitude": -104.65482728513396}, "890733777RR0001": {"name": "Regional Animal Protection Society", "designationCode": "C", "categoryCode": "54", "address": "201 - 13340 SMALLWOOD PL", "city": "RICHMOND", "province": "BC", "country": "CA", "postalCode": "V6V1W8", "twitter": "None", "instagram": "None", "facebook": "None", "youtube": "None", "website": "None", "summary": "None", "logo": "None", "latitude": 49.17141325976699, "longitude": -123.0766861451326}, "845285063RR0001": {"name": "Regional Equine & Agricultural Centre of Huron Inc.", "designationCode": "C", "categoryCode": "20", "address": "169 BEECH STREET              POST OFFICE BOX 248", "city": "CLINTON", "province": "ON", "country": "CA", "postalCode": "N0M1L0", "twitter": "None", "instagram": "None", "facebook": "None", "youtube": "None", "website": "None", "summary": "None", "logo": "None", "latitude": 43.62335030835592, "longitude": -81.5367461120669}, "809124613RR0001": {"name": "Regional Food Distribution Association of Northwestern Ontario", "designationCode": "C", "categoryCode": "09", "address": "570 SYNDICATE AVE S", "city": "THUNDER BAY", "province": "ON", "country": "CA", "postalCode": "P7E1E7", "twitter": "None", "instagram": "None", "facebook": "None", "youtube": "None", "website": "None", "summary": "None", "logo": "None", "latitude": 48.37532727003876, "longitude": -89.25017815719339}, "809872294RR0001": {"name": "Regional Health Authority B/R\u00e9gie r\u00e9gionale de la sant\u00e9 B", "designationCode": "C", "categoryCode": "19", "address": "155 PLEASANT STREET", "city": "MIRAMICHI", "province": "NB", "country": "CA", "postalCode": "E1V1Y3", "twitter": "None", "instagram": "None", "facebook": "None", "youtube": "None", "website": "None", "summary": "None", "logo": "None", "latitude": 46.99767660727677, "longitude": -65.56854212158794}, "890789399RR0001": {"name": "Regional Mental Health Care Volunteer Association", "designationCode": "C", "categoryCode": "19", "address": "550 WELLINGTON RD", "city": "LONDON", "province": "ON", "country": "CA", "postalCode": "N6C0A7", "twitter": "None", "instagram": "None", "facebook": "None", "youtube": "None", "website": "None", "summary": "None", "logo": "None", "latitude": 42.954920869948474, "longitude": -81.22936951474995}, "884999764RR0001": {"name": "Regnum Christi Calgary Association", "designationCode": "C", "categoryCode": "49", "address": "1307 14 ST SW", "city": "CALGARY", "province": "AB", "country": "CA", "postalCode": "T3C1C6", "twitter": "None", "instagram": "None", "facebook": "None", "youtube": "None", "website": "None", "summary": "None", "logo": "None", "latitude": 51.04120488735288, "longitude": -114.0947672679002}, "869556126RR0001": {"name": "Regnum Christi Leadership Institute Inc.", "designationCode": "C", "categoryCode": "20", "address": "226 TRELAWN AVE", "city": "OAKVILLE", "province": "ON", "country": "CA", "postalCode": "L6J4R2", "twitter": "None", "instagram": "None", "facebook": "None", "youtube": "None", "website": "None", "summary": "None", "logo": "None", "latitude": 43.467125218420044, "longitude": -79.65227552371755}, "834192866RR0001": {"name": "Regroupement \"un toit pour toi\"", "designationCode": "C", "categoryCode": "09", "address": "4-1240, PLACE JEANNE-MANCE", "city": "VALCOURT", "province": "QC", "country": "CA", "postalCode": "J0E2L0", "twitter": "None", "instagram": "None", "facebook": "None", "youtube": "None", "website": "None", "summary": "None", "logo": "None", "latitude": 45.48968829444881, "longitude": -72.31939911893355}, "839632882RR0001": {"name": "Regroupement culturel Islamique Africain de Montr\u00e9al", "designationCode": "C", "categoryCode": "60", "address": "2315 ONTARIO E", "city": "MONTREAL", "province": "QC", "country": "CA", "postalCode": "H2K1W2", "twitter": "None", "instagram": "None", "facebook": "None", "youtube": "None", "website": "None", "summary": "None", "logo": "None", "latitude": 45.53065846018228, "longitude": -73.55485373385638}, "801901661RR0001": {"name": "Regroupement des archives du S\u00e9minaire de Sherbrooke et de l'Archidioc\u00e8se de Sherbrooke", "designationCode": "C", "categoryCode": "50", "address": "130 RUE DE LA CATH\u00c9DRALE", "city": "SHERBROOKE", "province": "QC", "country": "CA", "postalCode": "J1H4M1", "twitter": "None", "instagram": "None", "facebook": "None", "youtube": "None", "website": "None", "summary": "None", "logo": "None", "latitude": 45.40215780019028, "longitude": -71.89345627151064}, "810626952RR0001": {"name": "Regroupement des stomis\u00e9s Qu\u00e9bec-L\u00e9vis inc.", "designationCode": "C", "categoryCode": "11", "address": "3632, RUE DES OPALES", "city": "L\u00c9VIS", "province": "QC", "country": "CA", "postalCode": "G6W8C2", "twitter": "None", "instagram": "None", "facebook": "None", "youtube": "None", "website": "None", "summary": "None", "logo": "None", "latitude": 46.772200832650384, "longitude": -71.19352863240798}, "844275727RR0001": {"name": "Regroupement des usagers du transport adapt\u00e9 de Ch\u00e2teauguay (RUTAC)", "designationCode": "C", "categoryCode": "09", "address": "CASE POSTALE 66001", "city": "CH\u00c2TEAUGUAY", "province": "QC", "country": "CA", "postalCode": "J6K5B7", "twitter": "None", "instagram": "None", "facebook": "None", "youtube": "None", "website": "None", "summary": "None", "logo": "None", "latitude": 45.36151800000006, "longitude": -73.75070149999993}, "889876991RR0001": {"name": "Regroupement des A\u00een\u00e9s de St-\u00c9mile", "designationCode": "C", "categoryCode": "09", "address": "4115 D'AVIGNON", "city": "QU\u00c9BEC", "province": "QC", "country": "CA", "postalCode": "G2B1W2", "twitter": "None", "instagram": "None", "facebook": "None", "youtube": "None", "website": "None", "summary": "None", "logo": "None", "latitude": 46.83903750678069, "longitude": -71.36542966610884}, "881897326RR0001": {"name": "Regroupement des Personnes avec Surdit\u00e9 de la Communaut\u00e9 M\u00e9tropolitaine de Qu\u00e9bec", "designationCode": "C", "categoryCode": "01", "address": "4100 3E AV O", "city": "QUEBEC", "province": "QC", "country": "CA", "postalCode": "G1H6E1", "twitter": "None", "instagram": "None", "facebook": "None", "youtube": "None", "website": "None", "summary": "None", "logo": "None", "latitude": 46.840045535951226, "longitude": -71.25233861627915}, "802579854RR0001": {"name": "Regroupement pour la p\u00e9rennit\u00e9 de l'Ile Verte", "designationCode": "C", "categoryCode": "52", "address": "3852 RUE DROLET", "city": "MONTREAL", "province": "QC", "country": "CA", "postalCode": "H2W2L2", "twitter": "None", "instagram": "None", "facebook": "None", "youtube": "None", "website": "None", "summary": "None", "logo": "None", "latitude": 45.519045800709875, "longitude": -73.57399345005473}, "817044308RR0001": {"name": "Regroupement proches-aidants Abitibi-Ouest", "designationCode": "C", "categoryCode": "11", "address": "257 RUE PRINCIPALE            C.P. 231", "city": "LA SARRE", "province": "QC", "country": "CA", "postalCode": "J9Z2X5", "twitter": "None", "instagram": "None", "facebook": "None", "youtube": "None", "website": "None", "summary": "None", "logo": "None", "latitude": 48.804848329447736, "longitude": -79.20524876807686}, "828588343RR0001": {"name": "Regroupement proches-aidants Rouyn-Noranda", "designationCode": "C", "categoryCode": "09", "address": "332 PERREAULT EST             LOCAL 202", "city": "ROUYN-NORANDA", "province": "QC", "country": "CA", "postalCode": "J9X5C1", "twitter": "None", "instagram": "None", "facebook": "None", "youtube": "None", "website": "None", "summary": "None", "logo": "None", "latitude": 48.23814053231591, "longitude": -79.0101225}, "890093941RR0001": {"name": "Regroupement Langage Qu\u00e9bec", "designationCode": "C", "categoryCode": "09", "address": "3958 RUE DANDURAND", "city": "MONTR\u00c9AL", "province": "QC", "country": "CA", "postalCode": "H1X1P7", "twitter": "None", "instagram": "None", "facebook": "None", "youtube": "None", "website": "None", "summary": "None", "logo": "None", "latitude": 45.558357684978986, "longitude": -73.57218453661507}, "812655603RR0001": {"name": "Regroupement Qu\u00e9b\u00e9cois des maladies orphelines", "designationCode": "C", "categoryCode": "11", "address": "105 - 110 AV DES PINS O", "city": "MONTREAL", "province": "QC", "country": "CA", "postalCode": "H2W1R7", "twitter": "None", "instagram": "None", "facebook": "None", "youtube": "None", "website": "None", "summary": "None", "logo": "None", "latitude": 45.51366206566028, "longitude": -73.57630110647808}, "851416842RR0001": {"name": "Rehabilitation & Wellness Centre of Naomi & Ruth Ltd.", "designationCode": "C", "categoryCode": "57", "address": "7 - 75 RUE CALDER", "city": "SHEDIAC", "province": "NB", "country": "CA", "postalCode": "E4P1K6", "twitter": "None", "instagram": "None", "facebook": "None", "youtube": "None", "website": "None", "summary": "None", "logo": "None", "latitude": 46.22237461558666, "longitude": -64.5456682115238}, "853023505RR0001": {"name": "Rehoboth Eritrean Church of Vancouver", "designationCode": "C", "categoryCode": "39", "address": "P.O. BOX 18520                R.P.O. WEST GEORGIA STREET", "city": "VANCOUVER", "province": "BC", "country": "CA", "postalCode": "V6Z0B3", "twitter": "None", "instagram": "None", "facebook": "None", "youtube": "None", "website": "None", "summary": "None", "logo": "None", "latitude": 49.28667362057004, "longitude": -123.12466569892877}, "857425151RR0001": {"name": "Rehoboth Evangelical Pentecostal Church Of Edmonton", "designationCode": "C", "categoryCode": "39", "address": "PO BOX 34078                  RPO KINGSWAY MALL", "city": "EDMONTON", "province": "AB", "country": "CA", "postalCode": "T5G3G4", "twitter": "None", "instagram": "None", "facebook": "None", "youtube": "None", "website": "None", "summary": "None", "logo": "None", "latitude": 53.56275000000005, "longitude": -113.50697999999994}, "811336569RR0001": {"name": "Rehoboth Tabernacle", "designationCode": "C", "categoryCode": "39", "address": "41 GRAYLEE AVE", "city": "SCARBOROUGH", "province": "ON", "country": "CA", "postalCode": "M1J1M7", "twitter": "None", "instagram": "None", "facebook": "None", "youtube": "None", "website": "None", "summary": "None", "logo": "None", "latitude": 43.74170442630854, "longitude": -79.24698916030914}, "859107799RR0001": {"name": "Reign Foundation", "designationCode": "A", "categoryCode": "03", "address": "10-6320 EAST BOULEVARD", "city": "VANCOUVER", "province": "BC", "country": "CA", "postalCode": "V6M3V8", "twitter": "None", "instagram": "None", "facebook": "None", "youtube": "None", "website": "None", "summary": "None", "logo": "None", "latitude": 49.228738091453735, "longitude": -123.15514917472515}, "837574177RR0001": {"name": "Reinke Family Foundation", "designationCode": "B", "categoryCode": "09", "address": "101 - 118 PROVINCIAL AVE", "city": "SHERWOOD PARK", "province": "AB", "country": "CA", "postalCode": "T8H0Z7", "twitter": "None", "instagram": "None", "facebook": "None", "youtube": "None", "website": "None", "summary": "None", "logo": "None", "latitude": 53.56711783236193, "longitude": -113.31246776348922}, "769012493RR0001": {"name": "Reinland Mennonite Church of Two Hills", "designationCode": "C", "categoryCode": "34", "address": "PO BOX 686", "city": "TWO HILLS", "province": "AB", "country": "CA", "postalCode": "T0B4K0", "twitter": "None", "instagram": "None", "facebook": "None", "youtube": "None", "website": "None", "summary": "None", "logo": "None", "latitude": 53.42860638169389, "longitude": -110.1791835}, "813816915RR0001": {"name": "Reinland Mennonite Church Of Southern Alberta", "designationCode": "C", "categoryCode": "34", "address": "POST OFFICE BOX 853", "city": "VAUXHALL", "province": "AB", "country": "CA", "postalCode": "T0K2K0", "twitter": "None", "instagram": "None", "facebook": "None", "youtube": "None", "website": "None", "summary": "None", "logo": "None", "latitude": 50.070880000000045, "longitude": -112.09733999999997}, "765838123RR0001": {"name": "Reise Family Foundation", "designationCode": "B", "categoryCode": "03", "address": "249 WEST 32ND ST", "city": "HAMILTON", "province": "ON", "country": "CA", "postalCode": "L9C5H5", "twitter": "None", "instagram": "None", "facebook": "None", "youtube": "None", "website": "None", "summary": "None", "logo": "None", "latitude": 43.23728356961321, "longitude": -79.91183914063717}, "823809587RR0001": {"name": "Reiss Family Foundation", "designationCode": "B", "categoryCode": "03", "address": "151 YONGE STREET, SUITE 1500", "city": "TORONTO", "province": "ON", "country": "CA", "postalCode": "M5C2W7", "twitter": "None", "instagram": "None", "facebook": "None", "youtube": "None", "website": "None", "summary": "None", "logo": "None", "latitude": 43.65173779819972, "longitude": -79.37861566152122}, "810745372RR0001": {"name": "Rejoice Childrens Foundation", "designationCode": "A", "categoryCode": "03", "address": "144-4 AVENUE SOUTHWEST        SUITE 1600", "city": "CALGARY", "province": "AB", "country": "CA", "postalCode": "T2P3N4", "twitter": "None", "instagram": "None", "facebook": "None", "youtube": "None", "website": "None", "summary": "None", "logo": "None", "latitude": 51.04946250843935, "longitude": -114.06417463154939}, "103060869RR0001": {"name": "Relais communautaire de Laval", "designationCode": "C", "categoryCode": "09", "address": "111, BOUL. DES LAURENTIDES    SUITE 101", "city": "LAVAL", "province": "QC", "country": "CA", "postalCode": "H7G2T2", "twitter": "None", "instagram": "None", "facebook": "None", "youtube": "None", "website": "None", "summary": "None", "logo": "None", "latitude": 45.56314800000001, "longitude": -73.683522}, "849820295RR0001": {"name": "Relations publiques sans fronti\u00e8res / Public Relations without Borders", "designationCode": "C", "categoryCode": "29", "address": "800-1155 RUE METCALFE", "city": "MONTREAL", "province": "QC", "country": "CA", "postalCode": "H3B0C1", "twitter": "None", "instagram": "None", "facebook": "None", "youtube": "None", "website": "None", "summary": "None", "logo": "None", "latitude": 45.49988890455286, "longitude": -73.57053800357802}, "841804883RR0001": {"name": "Release Ministries Society", "designationCode": "C", "categoryCode": "47", "address": "77-21138 88 AVE", "city": "LANGLEY", "province": "BC", "country": "CA", "postalCode": "V1M2G7", "twitter": "None", "instagram": "None", "facebook": "None", "youtube": "None", "website": "None", "summary": "None", "logo": "None", "latitude": 49.16228855006086, "longitude": -122.63628294033121}, "879829778RR0001": {"name": "Relessey Cemetery", "designationCode": "B", "categoryCode": "59", "address": "874538 5TH LINE EHS", "city": "MONO", "province": "ON", "country": "CA", "postalCode": "L9W6A8", "twitter": "None", "instagram": "None", "facebook": "None", "youtube": "None", "website": "None", "summary": "None", "logo": "None", "latitude": 44.03610393861317, "longitude": -80.02485705757158}, "835050725RR0001": {"name": "Reliable Charitable Foundation of Hope", "designationCode": "B", "categoryCode": "03", "address": "#12 ACHESON INDUSTRIAL PARK   53016 HWY 60", "city": "ACHESON", "province": "AB", "country": "CA", "postalCode": "T7X5A7", "twitter": "None", "instagram": "None", "facebook": "None", "youtube": "None", "website": "None", "summary": "None", "logo": "None", "latitude": 53.548308614835356, "longitude": -113.76273401161674}, "866371339RR0001": {"name": "Religious Education Activities for Life (Real) Foundation", "designationCode": "C", "categoryCode": "23", "address": "160 FESTIVAL WAY", "city": "SHERWOOD PARK", "province": "AB", "country": "CA", "postalCode": "T8A5Z2", "twitter": "None", "instagram": "None", "facebook": "None", "youtube": "None", "website": "None", "summary": "None", "logo": "None", "latitude": 53.5279662489756, "longitude": -113.29728583847877}, "842135485RR0001": {"name": "Remembering Canada's Heroes", "designationCode": "C", "categoryCode": "50", "address": "P.O. BOX 2555                 71 MECHANIC STREET", "city": "SPRINGHILL", "province": "NS", "country": "CA", "postalCode": "B0M1X0", "twitter": "None", "instagram": "None", "facebook": "None", "youtube": "None", "website": "None", "summary": "None", "logo": "None", "latitude": 45.64527553566277, "longitude": -64.05325129185172}, "830789434RR0001": {"name": "Remnant Fellowship Church Canada Inc.", "designationCode": "C", "categoryCode": "39", "address": "4130 ALBERT ST.P.O.BOX 37274", "city": "REGINA", "province": "SK", "country": "CA", "postalCode": "S4S7K4", "twitter": "None", "instagram": "None", "facebook": "None", "youtube": "None", "website": "None", "summary": "None", "logo": "None", "latitude": 50.41332161698971, "longitude": -104.61824554702491}, "839689593RR0001": {"name": "Renaissance Church Inc.", "designationCode": "C", "categoryCode": "39", "address": "270 LINDEN AVENUE", "city": "WINNIPEG", "province": "MB", "country": "CA", "postalCode": "R2K0N3", "twitter": "None", "instagram": "None", "facebook": "None", "youtube": "None", "website": "None", "summary": "None", "logo": "None", "latitude": 49.92976813737099, "longitude": -97.09687095810482}, "852637859RR0001": {"name": "Renaissance International Ministries", "designationCode": "B", "categoryCode": "39", "address": "4819 WEST SAANICH ROAD", "city": "VICTORIA", "province": "BC", "country": "CA", "postalCode": "V8Z3H4", "twitter": "None", "instagram": "None", "facebook": "None", "youtube": "None", "website": "None", "summary": "None", "logo": "None", "latitude": 48.505869701915856, "longitude": -123.40727111388456}}