{"864335948RR0001": {"name": "ONNURI CHURCH", "designationCode": "C", "categoryCode": "39", "address": "19711 86TH AVE", "city": "LANGLEY", "province": "BC", "country": "CA", "postalCode": "V2Y1Z5", "twitter": "None", "instagram": "None", "facebook": "None", "youtube": "None", "website": "None", "summary": "None", "logo": "None", "latitude": 49.159242471002344, "longitude": -122.67637094171619}, "860088905RR0001": {"name": "ONOWAY AND DISTRICT HISTORICAL GUILD", "designationCode": "C", "categoryCode": "50", "address": "P.O. BOX 1368", "city": "ONOWAY", "province": "AB", "country": "CA", "postalCode": "T0E1V0", "twitter": "None", "instagram": "None", "facebook": "None", "youtube": "None", "website": "None", "summary": "None", "logo": "None", "latitude": 53.70302000000004, "longitude": -114.19152999999994}, "119067320RR0001": {"name": "ONOWAY BAPTIST CHURCH", "designationCode": "C", "categoryCode": "31", "address": "BOX 510", "city": "ONOWAY", "province": "AB", "country": "CA", "postalCode": "T0E1V0", "twitter": "None", "instagram": "None", "facebook": "None", "youtube": "None", "website": "None", "summary": "None", "logo": "None", "latitude": 53.70302000000004, "longitude": -114.19152999999994}, "895404044RR0001": {"name": "ONOWAY GOLDEN CLUB", "designationCode": "C", "categoryCode": "56", "address": "BOX 1162", "city": "ONOWAY", "province": "AB", "country": "CA", "postalCode": "T0E1V0", "twitter": "None", "instagram": "None", "facebook": "None", "youtube": "None", "website": "None", "summary": "None", "logo": "None", "latitude": 53.70302000000004, "longitude": -114.19152999999994}, "107796526RR0001": {"name": "ONOWAY PASTORAL CHARGE", "designationCode": "C", "categoryCode": "44", "address": "SITE 111, COMP 1, RR1", "city": "ALBERTA BEACH", "province": "AB", "country": "CA", "postalCode": "T0E0A1", "twitter": "None", "instagram": "None", "facebook": "None", "youtube": "None", "website": "None", "summary": "None", "logo": "None", "latitude": 53.67507000000006, "longitude": -114.41082949999993}, "106693047RR0025": {"name": "ONOWAY SEVENTH-DAY ADVENTIST CHURCH", "designationCode": "C", "categoryCode": "41", "address": "5816 HIGHWAY, 2A", "city": "LACOMBE", "province": "AB", "country": "CA", "postalCode": "T4L2G5", "twitter": "None", "instagram": "None", "facebook": "None", "youtube": "None", "website": "None", "summary": "None", "logo": "None", "latitude": 52.474063600197404, "longitude": -113.71692568401835}, "119067353RR0001": {"name": "ONSLOW BELMONT FIRE BRIGADE", "designationCode": "C", "categoryCode": "59", "address": "19 CUTTEN LANE", "city": "CENTRAL ONSLOW", "province": "NS", "country": "CA", "postalCode": "B6L5B7", "twitter": "None", "instagram": "None", "facebook": "None", "youtube": "None", "website": "None", "summary": "None", "logo": "None", "latitude": 45.38518244936224, "longitude": -63.32354140882338}, "868348525RR0001": {"name": "ONSTAGE PERFORMANCE GROUP", "designationCode": "C", "categoryCode": "22", "address": "P.O. BOX 1003, STATION MAIN", "city": "BARRIE", "province": "ON", "country": "CA", "postalCode": "L4M5E1", "twitter": "None", "instagram": "None", "facebook": "None", "youtube": "None", "website": "None", "summary": "None", "logo": "None"}, "851970749RR0001": {"name": "ONTARIO ABORIGINAL HIV/AIDS STRATEGY", "designationCode": "C", "categoryCode": "11", "address": "201 7 HAYDEN ST", "city": "TORONTO", "province": "ON", "country": "CA", "postalCode": "M4Y2P2", "twitter": "None", "instagram": "None", "facebook": "None", "youtube": "None", "website": "None", "summary": "None", "logo": "None", "latitude": 43.66940483873857, "longitude": -79.38613594670785}, "132372285RR0001": {"name": "ONTARIO AGRI-FOOD EDUCATION INC", "designationCode": "C", "categoryCode": "20", "address": "PO BOX 460                    8560 TREMAINE ROAD", "city": "MILTON", "province": "ON", "country": "CA", "postalCode": "L9T4Z1", "twitter": "None", "instagram": "None", "facebook": "None", "youtube": "None", "website": "None", "summary": "None", "logo": "None", "latitude": 43.52084970690752, "longitude": -79.93390016417561}, "860352137RR0001": {"name": "ONTARIO AHMADIYYA ANJUMAN ISHA'AT ISLAM (LAHORE)", "designationCode": "C", "categoryCode": "49", "address": "716 THE WEST MALL NO 2010", "city": "ETOBICOKE", "province": "ON", "country": "CA", "postalCode": "M9C4X6", "twitter": "None", "instagram": "None", "facebook": "None", "youtube": "None", "website": "None", "summary": "None", "logo": "None", "latitude": 43.655978931473065, "longitude": -79.57107682289822}, "140599531RR0001": {"name": "ONTARIO AIDS NETWORK", "designationCode": "C", "categoryCode": "29", "address": "5-296 JARVIS ST.", "city": "TORONTO", "province": "ON", "country": "CA", "postalCode": "M5B2C5", "twitter": "None", "instagram": "None", "facebook": "None", "youtube": "None", "website": "None", "summary": "None", "logo": "None", "latitude": 43.66101595836461, "longitude": -79.3761462011078}, "108090820RR0001": {"name": "ONTARIO ARCHAEOLOGICAL SOCIETY", "designationCode": "C", "categoryCode": "21", "address": "PO BOX 62066                  VICTORIA TERRACE POST OFFICE", "city": "TORONTO", "province": "ON", "country": "CA", "postalCode": "M4A2W1", "twitter": "None", "instagram": "None", "facebook": "None", "youtube": "None", "website": "None", "summary": "None", "logo": "None", "latitude": 43.72995300000005, "longitude": -79.31419999999993}, "890856370RR0001": {"name": "ONTARIO ARTS FOUNDATION/FONDATION DES ARTS DE L'ONTARIO", "designationCode": "A", "categoryCode": "23", "address": "700 - 121 BLOOR ST E", "city": "TORONTO", "province": "ON", "country": "CA", "postalCode": "M4W3M5", "twitter": "None", "instagram": "None", "facebook": "None", "youtube": "None", "website": "None", "summary": "None", "logo": "None", "latitude": 43.67244585876691, "longitude": -79.37634608562912}, "888770146RR0001": {"name": "ONTARIO ASSOCIATION FOR FAMILIES OF CHILDREN WITH COMMUNICATION DISORDERS", "designationCode": "C", "categoryCode": "11", "address": "933 ALICE ST", "city": "WOODSTOCK", "province": "ON", "country": "CA", "postalCode": "N4S2J9", "twitter": "None", "instagram": "None", "facebook": "None", "youtube": "None", "website": "None", "summary": "None", "logo": "None", "latitude": 43.12436603165207, "longitude": -80.73088090062907}, "881822423RR0001": {"name": "ONTARIO ASSOCIATION FOR INFANT AND CHILD DEVELOPMENT", "designationCode": "C", "categoryCode": "23", "address": "3220 HARMONY RD. N.,          RR #5", "city": "OSHAWA", "province": "ON", "country": "CA", "postalCode": "L1H8L7", "twitter": "None", "instagram": "None", "facebook": "None", "youtube": "None", "website": "None", "summary": "None", "logo": "None", "latitude": 43.98839875408282, "longitude": -78.87097321279322}, "890337264RR0001": {"name": "ONTARIO ASSOCIATION FOR MATHEMATICS EDUCATION/ASSOCIATION ONTARIENNE POUR L'ENSEIGNEMENT DES MATHEMATIQUES", "designationCode": "C", "categoryCode": "21", "address": "4751 MACK AVE", "city": "TOWN OF PLYMPTON WYOMING", "province": "ON", "country": "CA", "postalCode": "N0N1J6", "twitter": "None", "instagram": "None", "facebook": "None", "youtube": "None", "website": "None", "summary": "None", "logo": "None", "latitude": 43.11119145876865, "longitude": -82.09553556797866}, "107796682RR0001": {"name": "ONTARIO ASSOCIATION OF ARCHITECTS TRUST FUND", "designationCode": "C", "categoryCode": "25", "address": "1 DUNCAN MILL RD", "city": "NORTH YORK", "province": "ON", "country": "CA", "postalCode": "M3B1Z2", "twitter": "None", "instagram": "None", "facebook": "None", "youtube": "None", "website": "None", "summary": "None", "logo": "None", "latitude": 43.760922719632134, "longitude": -79.35775014331493}, "107796690RR0001": {"name": "ONTARIO ASSOCIATION OF ART GALLERIES", "designationCode": "C", "categoryCode": "50", "address": "395-401 RICHMOND ST WEST", "city": "TORONTO", "province": "ON", "country": "CA", "postalCode": "M5V3A8", "twitter": "None", "instagram": "None", "facebook": "None", "youtube": "None", "website": "None", "summary": "None", "logo": "None", "latitude": 43.64803297305114, "longitude": -79.39483379779568}, "137747812RR0001": {"name": "ONTARIO ASSOCIATION OF CHILDREN'S REHABILITATION SERVICES", "designationCode": "C", "categoryCode": "11", "address": "150 KILGOUR RD", "city": "TORONTO", "province": "ON", "country": "CA", "postalCode": "M4G1R8", "twitter": "None", "instagram": "None", "facebook": "None", "youtube": "None", "website": "None", "summary": "None", "logo": "None", "latitude": 43.71784623902094, "longitude": -79.37268689053018}, "107796708RR0001": {"name": "ONTARIO ASSOCIATION OF CHILDRENS AID SOCIETIES", "designationCode": "C", "categoryCode": "01", "address": "SUITE 308                     75 FRONT ST E", "city": "TORONTO", "province": "ON", "country": "CA", "postalCode": "M5E1V9", "twitter": "None", "instagram": "None", "facebook": "None", "youtube": "None", "website": "None", "summary": "None", "logo": "None"}, "890147796RR0001": {"name": "ONTARIO ASSOCIATION OF CRIME STOPPERS", "designationCode": "C", "categoryCode": "59", "address": "COURTYARDS OF CALEDON         18 KING STREET EAST", "city": "BOLTON", "province": "ON", "country": "CA", "postalCode": "L7E1E8", "twitter": "None", "instagram": "None", "facebook": "None", "youtube": "None", "website": "None", "summary": "None", "logo": "None", "latitude": 43.87977825425571, "longitude": -79.73799347134903}, "885260968RR0001": {"name": "ONTARIO ASSOCIATION OF FOOD BANKS", "designationCode": "C", "categoryCode": "09", "address": "501 - 555 RICHMOND ST W", "city": "TORONTO", "province": "ON", "country": "CA", "postalCode": "M5V3B1", "twitter": "None", "instagram": "None", "facebook": "None", "youtube": "None", "website": "None", "summary": "None", "logo": "None", "latitude": 43.64792255983254, "longitude": -79.39538964100468}, "859722837RR0001": {"name": "ONTARIO ASSOCIATION OF PHYSICS TEACHERS", "designationCode": "C", "categoryCode": "21", "address": "278 WARATAH AVE", "city": "NEWMARKET", "province": "ON", "country": "CA", "postalCode": "L3Y5J2", "twitter": "None", "instagram": "None", "facebook": "None", "youtube": "None", "website": "None", "summary": "None", "logo": "None", "latitude": 44.07305400000001, "longitude": -79.44301178033919}, "889528394RR0001": {"name": "ONTARIO ASSOCIATION OF RESIDENCES TREATING YOUTH", "designationCode": "C", "categoryCode": "01", "address": "550 ALDEN ROAD                SUITE 210", "city": "MARKHAM", "province": "ON", "country": "CA", "postalCode": "L3R6A8", "twitter": "None", "instagram": "None", "facebook": "None", "youtube": "None", "website": "None", "summary": "None", "logo": "None", "latitude": 43.83670020875385, "longitude": -79.33182628913909}, "119067411RR0001": {"name": "ONTARIO ASSOCIATION OF THE DEAF", "designationCode": "C", "categoryCode": "11", "address": "2395 BAYVIEW AVENUE", "city": "TORONTO", "province": "ON", "country": "CA", "postalCode": "M2L1A2", "twitter": "None", "instagram": "None", "facebook": "None", "youtube": "None", "website": "None", "summary": "None", "logo": "None", "latitude": 43.734641824600324, "longitude": -79.38153456526695}, "133080507RR0001": {"name": "ONTARIO ASSOCIATION OF YOUTH EMPLOYMENT CENTRES", "designationCode": "C", "categoryCode": "21", "address": "900 - 895 DON MILLS RD", "city": "NORTH YORK", "province": "ON", "country": "CA", "postalCode": "M3C1W3", "twitter": "None", "instagram": "None", "facebook": "None", "youtube": "None", "website": "None", "summary": "None", "logo": "None"}, "119067445RR0001": {"name": "ONTARIO AVIATION HISTORICAL SOCIETY", "designationCode": "C", "categoryCode": "50", "address": "P.O.BOX. 27", "city": "STN. CHELTENHAM", "province": "ON", "country": "CA", "postalCode": "L7C3L7", "twitter": "None", "instagram": "None", "facebook": "None", "youtube": "None", "website": "None", "summary": "None", "logo": "None", "latitude": 43.7573660834971, "longitude": -79.91556969199306}, "132712423RR0001": {"name": "ONTARIO BETHEL PARK BIBLE CAMP SOCIETY", "designationCode": "C", "categoryCode": "56", "address": "100 HOFFMAN ST", "city": "KITCHENER", "province": "ON", "country": "CA", "postalCode": "N2M3N1", "twitter": "None", "instagram": "None", "facebook": "None", "youtube": "None", "website": "None", "summary": "None", "logo": "None", "latitude": 43.43163680102698, "longitude": -80.48398222205539}, "873195960RR0001": {"name": "ONTARIO BIRD BANDING ASSOCIATION", "designationCode": "C", "categoryCode": "54", "address": "19 HARWOOD LANE", "city": "KANATA", "province": "ON", "country": "CA", "postalCode": "K2K1X7", "twitter": "None", "instagram": "None", "facebook": "None", "youtube": "None", "website": "None", "summary": "None", "logo": "None", "latitude": 45.38688717629371, "longitude": -75.97286881077918}, "119930295RR0001": {"name": "ONTARIO BLACK HISTORY SOCIETY", "designationCode": "C", "categoryCode": "21", "address": "402-10 ADELAIDE STREET EAST", "city": "TORONTO", "province": "ON", "country": "CA", "postalCode": "M5C1J3", "twitter": "None", "instagram": "None", "facebook": "None", "youtube": "None", "website": "None", "summary": "None", "logo": "None", "latitude": 43.65106129336214, "longitude": -79.3754558860496}, "107797904RR0001": {"name": "ONTARIO BRAIN INJURY ASSOCIATION", "designationCode": "C", "categoryCode": "11", "address": "PO BOX 2338", "city": "ST CATHARINES", "province": "ON", "country": "CA", "postalCode": "L2R7R9", "twitter": "None", "instagram": "None", "facebook": "None", "youtube": "None", "website": "None", "summary": "None", "logo": "None", "latitude": 43.15634700000005, "longitude": -79.24869349999993}, "891500647RR0001": {"name": "ONTARIO BRANCH OF THE INTERNATIONAL ORDER OF THE KING'S DAUGHTERS AND SONS", "designationCode": "C", "categoryCode": "47", "address": "2903 - 1755 RIVERSIDE DR", "city": "OTTAWA", "province": "ON", "country": "CA", "postalCode": "K1G3T6", "twitter": "None", "instagram": "None", "facebook": "None", "youtube": "None", "website": "None", "summary": "None", "logo": "None", "latitude": 45.40220842962675, "longitude": -75.6655649878819}, "119067494RR0001": {"name": "ONTARIO CAMP OF THE DEAF", "designationCode": "C", "categoryCode": "56", "address": "2395 BAYVIEW AVE", "city": "NORTH YORK", "province": "ON", "country": "CA", "postalCode": "M2L1A2", "twitter": "None", "instagram": "None", "facebook": "None", "youtube": "None", "website": "None", "summary": "None", "logo": "None", "latitude": 43.734641824600324, "longitude": -79.38153456526695}, "888127032RR0001": {"name": "ONTARIO CANADIAN GIRLS IN TRAINING ASSOCIATION", "designationCode": "C", "categoryCode": "49", "address": "BOX 371", "city": "NORWICH", "province": "ON", "country": "CA", "postalCode": "N0J1P0", "twitter": "None", "instagram": "None", "facebook": "None", "youtube": "None", "website": "None", "summary": "None", "logo": "None", "latitude": 42.98256600000006, "longitude": -80.60335999999994}, "878124148RR0001": {"name": "ONTARIO CENTRE FOR ECOLOGY", "designationCode": "C", "categoryCode": "21", "address": "202 - 4 GREENMEADOW CRT", "city": "ST CATHARINES", "province": "ON", "country": "CA", "postalCode": "L2N7P2", "twitter": "None", "instagram": "None", "facebook": "None", "youtube": "None", "website": "None", "summary": "None", "logo": "None", "latitude": 43.17954727312583, "longitude": -79.238383302326}, "107797136RR0001": {"name": "ONTARIO CEREBRAL PALSY SPORTS ASSOCIATION", "designationCode": "C", "categoryCode": "56", "address": "4744 BANK STREET              P.O. BOX 60082", "city": "OTTAWA", "province": "ON", "country": "CA", "postalCode": "K1T0K9", "twitter": "None", "instagram": "None", "facebook": "None", "youtube": "None", "website": "None", "summary": "None", "logo": "None", "latitude": 45.31999438299969, "longitude": -75.59353247951375}, "107797151RR0001": {"name": "ONTARIO CHAPEL BRITISH METHODIST EPISCOPAL CHURCH OF CANADA", "designationCode": "C", "categoryCode": "39", "address": "685 UNIVERSITY AVE EAST", "city": "WINDSOR", "province": "ON", "country": "CA", "postalCode": "N9A2Z6", "twitter": "None", "instagram": "None", "facebook": "None", "youtube": "None", "website": "None", "summary": "None", "logo": "None", "latitude": 42.31996946153861, "longitude": -83.02915439687816}, "118855568RR0001": {"name": "ONTARIO CHRISTIAN ASSEMBLY INCORPORATED", "designationCode": "C", "categoryCode": "49", "address": "PO BOX 194", "city": "SELKIRK", "province": "ON", "country": "CA", "postalCode": "N0A1P0", "twitter": "None", "instagram": "None", "facebook": "None", "youtube": "None", "website": "None", "summary": "None", "logo": "None", "latitude": 42.834250000000054, "longitude": -79.93206999999995}, "886918598RR0001": {"name": "ONTARIO CHRISTIAN FAMILY LIFE FOUNDATION", "designationCode": "C", "categoryCode": "09", "address": "150 JOHN STREET, 7TH FLOOR", "city": "TORONTO", "province": "ON", "country": "CA", "postalCode": "M5V3E3", "twitter": "None", "instagram": "None", "facebook": "None", "youtube": "None", "website": "None", "summary": "None", "logo": "None", "latitude": 43.649289712735914, "longitude": -79.39093521844872}, "859230476RR0001": {"name": "ONTARIO CHRISTIAN GLEANERS", "designationCode": "C", "categoryCode": "09", "address": "1550 MORRISON RD", "city": "CAMBRIDGE", "province": "ON", "country": "CA", "postalCode": "N1R5S2", "twitter": "None", "instagram": "None", "facebook": "None", "youtube": "None", "website": "None", "summary": "None", "logo": "None", "latitude": 43.340563978111945, "longitude": -80.25140859543393}, "119067551RR0001": {"name": "ONTARIO CHRISTIAN MISSIONARY CONFERENCE", "designationCode": "C", "categoryCode": "47", "address": "3207 COLEBROOK CRT", "city": "MISSISSAUGA", "province": "ON", "country": "CA", "postalCode": "L5N3E2", "twitter": "None", "instagram": "None", "facebook": "None", "youtube": "None", "website": "None", "summary": "None", "logo": "None", "latitude": 43.57374959951516, "longitude": -79.76103342587582}, "119067569RR0001": {"name": "ONTARIO CHRISTIAN MISSIONARY FELLOWSHIP", "designationCode": "C", "categoryCode": "36", "address": "39 EDWIN CARR ST", "city": "BOWMANVILLE", "province": "ON", "country": "CA", "postalCode": "L1C0R8", "twitter": "None", "instagram": "None", "facebook": "None", "youtube": "None", "website": "None", "summary": "None", "logo": "None", "latitude": 43.9337488744043, "longitude": -78.70687200137398}, "888716594RR0001": {"name": "ONTARIO CHURCH OF GOD IN CHRIST", "designationCode": "C", "categoryCode": "36", "address": "810 MERCER ST", "city": "WINDSOR", "province": "ON", "country": "CA", "postalCode": "N9A1N3", "twitter": "None", "instagram": "None", "facebook": "None", "youtube": "None", "website": "None", "summary": "None", "logo": "None", "latitude": 42.314196875670774, "longitude": -83.02988171187052}, "119288918RR0888": {"name": "ONTARIO CIRCUIT #18A OF JEHOVAH'S WITNESSES", "designationCode": "C", "categoryCode": "61", "address": "5 CARLYLE PLACE", "city": "KITCHENER", "province": "ON", "country": "CA", "postalCode": "N2P1R6", "twitter": "None", "instagram": "None", "facebook": "None", "youtube": "None", "website": "None", "summary": "None", "logo": "None", "latitude": 43.3940010777022, "longitude": -80.45274370442601}, "119288918RR0937": {"name": "ONTARIO CIRCUIT #9-B OF JEHOVAH'S WITNESSES", "designationCode": "C", "categoryCode": "61", "address": "243022 SIDEROAD 21 RR1", "city": "OWEN SOUND", "province": "ON", "country": "CA", "postalCode": "N4K5N3", "twitter": "None", "instagram": "None", "facebook": "None", "youtube": "None", "website": "None", "summary": "None", "logo": "None", "latitude": 44.59324068258541, "longitude": -80.89746513752564}, "119288918RR0515": {"name": "ONTARIO CIRCUIT NO 03A OF JEHOVAH'S WITNESSES", "designationCode": "C", "categoryCode": "61", "address": "PH104-40 BAYMILLS BLVD", "city": "SCARBOROUGH", "province": "ON", "country": "CA", "postalCode": "M1T3P5", "twitter": "None", "instagram": "None", "facebook": "None", "youtube": "None", "website": "None", "summary": "None", "logo": "None", "latitude": 43.78080821120669, "longitude": -79.30497562548307}, "119288918RR0516": {"name": "ONTARIO CIRCUIT NO 03B OF JEHOVAH'S WITNESSES", "designationCode": "C", "categoryCode": "61", "address": "60 BONSPIEL DR", "city": "SCARBOROUGH", "province": "ON", "country": "CA", "postalCode": "M1E5K5", "twitter": "None", "instagram": "None", "facebook": "None", "youtube": "None", "website": "None", "summary": "None", "logo": "None", "latitude": 43.79176862891686, "longitude": -79.19746379505438}, "119288918RR1202": {"name": "ONTARIO CIRCUIT NO 11A OF JEHOVAH'S WITNESSES", "designationCode": "C", "categoryCode": "61", "address": "PO BOX 1294                   998199 HWY 11 NORTH", "city": "NEW LISKEARD", "province": "ON", "country": "CA", "postalCode": "P0J1P0", "twitter": "None", "instagram": "None", "facebook": "None", "youtube": "None", "website": "None", "summary": "None", "logo": "None", "latitude": 47.56018628448158, "longitude": -79.6746734869143}, "119288918RR0840": {"name": "ONTARIO CIRCUIT NO 19-A OF JEHOVAH'S WITNESSES", "designationCode": "C", "categoryCode": "61", "address": "1938 BARSUDA DR", "city": "MISSISSAUGA", "province": "ON", "country": "CA", "postalCode": "L5J1V5", "twitter": "None", "instagram": "None", "facebook": "None", "youtube": "None", "website": "None", "summary": "None", "logo": "None", "latitude": 43.51954702302507, "longitude": -79.63463801315731}, "119288918RR0948": {"name": "ONTARIO CIRCUIT 017B OF JEHOVAH'S WITNESSES", "designationCode": "C", "categoryCode": "61", "address": "5 - 449 SIMCOE ST S", "city": "OSHAWA", "province": "ON", "country": "CA", "postalCode": "L1H4J7", "twitter": "None", "instagram": "None", "facebook": "None", "youtube": "None", "website": "None", "summary": "None", "logo": "None", "latitude": 43.871449406243805, "longitude": -78.83996067186318}, "119288918RR0973": {"name": "ONTARIO CIRCUIT 08A OF JEHOVAH'S WITNESSES", "designationCode": "C", "categoryCode": "61", "address": "36 TAYLOR AVE", "city": "CAMBRIDGE", "province": "ON", "country": "CA", "postalCode": "N1R5M4", "twitter": "None", "instagram": "None", "facebook": "None", "youtube": "None", "website": "None", "summary": "None", "logo": "None", "latitude": 43.35455991312254, "longitude": -80.29177325509242}, "119288918RR0856": {"name": "ONTARIO CIRCUIT 1-A OF JEHOVAH'S WITNESSES", "designationCode": "C", "categoryCode": "61", "address": "12 SOUTHCREST CRT", "city": "BRAMPTON", "province": "ON", "country": "CA", "postalCode": "L6P1T6", "twitter": "None", "instagram": "None", "facebook": "None", "youtube": "None", "website": "None", "summary": "None", "logo": "None", "latitude": 43.783746369698164, "longitude": -79.74324749345047}, "119288918RR0858": {"name": "ONTARIO CIRCUIT 1-B OF JEHOVAH'S WITNESSES", "designationCode": "C", "categoryCode": "61", "address": "BOX 4100", "city": "GEORGETOWN", "province": "ON", "country": "CA", "postalCode": "L7G4Y4", "twitter": "None", "instagram": "None", "facebook": "None", "youtube": "None", "website": "None", "summary": "None", "logo": "None", "latitude": 43.65006000000005, "longitude": -79.89909199999994}, "119288918RR0950": {"name": "ONTARIO CIRCUIT 10-A JEHOVAH'S WITNESSES", "designationCode": "C", "categoryCode": "61", "address": "82 STONEPATH CRES", "city": "STITTSVILLE", "province": "ON", "country": "CA", "postalCode": "K2S1S4", "twitter": "None", "instagram": "None", "facebook": "None", "youtube": "None", "website": "None", "summary": "None", "logo": "None", "latitude": 45.26028198138969, "longitude": -75.939536406169}, "119288918RR1169": {"name": "ONTARIO CIRCUIT 10B OF JEHOVAH'S WITNESSES", "designationCode": "C", "categoryCode": "61", "address": "13 RUE MARLENE-GOYET", "city": "GATINEAU", "province": "QC", "country": "CA", "postalCode": "J8P7E4", "twitter": "None", "instagram": "None", "facebook": "None", "youtube": "None", "website": "None", "summary": "None", "logo": "None"}, "119288918RR0936": {"name": "ONTARIO CIRCUIT 11B OF JEHOVAH'S WITNESSES", "designationCode": "C", "categoryCode": "61", "address": "382 ANTWERP AVE.", "city": "SUDBURY", "province": "ON", "country": "CA", "postalCode": "P3C4M7", "twitter": "None", "instagram": "None", "facebook": "None", "youtube": "None", "website": "None", "summary": "None", "logo": "None", "latitude": 46.50175363515667, "longitude": -81.00187318679086}, "119288918RR0886": {"name": "ONTARIO CIRCUIT 12-A OF JEHOVAH'S WITNESSES", "designationCode": "C", "categoryCode": "61", "address": "657 THISTLE CR.", "city": "THUNDERBAY", "province": "ON", "country": "CA", "postalCode": "P7E2S9", "twitter": "None", "instagram": "None", "facebook": "None", "youtube": "None", "website": "None", "summary": "None", "logo": "None", "latitude": 48.376836471550575, "longitude": -89.28811332393649}, "119288918RR0885": {"name": "ONTARIO CIRCUIT 12-B OF JEHOVAH'S WITNESSES", "designationCode": "C", "categoryCode": "61", "address": "50 ROBIN", "city": "SAULT-STE-MARIE", "province": "ON", "country": "CA", "postalCode": "P6A5X9", "twitter": "None", "instagram": "None", "facebook": "None", "youtube": "None", "website": "None", "summary": "None", "logo": "None", "latitude": 46.52338792449085, "longitude": -84.26417574828311}, "119288918RR0959": {"name": "ONTARIO CIRCUIT 12-C OF JEHOVAH'S WITNESSES", "designationCode": "C", "categoryCode": "61", "address": "7 GIROUX DRIVE", "city": "ESPANOLA", "province": "ON", "country": "CA", "postalCode": "P5E1N7", "twitter": "None", "instagram": "None", "facebook": "None", "youtube": "None", "website": "None", "summary": "None", "logo": "None", "latitude": 46.24106513073454, "longitude": -81.75776803851964}, "119288918RR1062": {"name": "ONTARIO CIRCUIT 13-B OF JEHOVAH'S WITNESSES", "designationCode": "C", "categoryCode": "61", "address": "14 FREDERICK ST.", "city": "BARRIE", "province": "ON", "country": "CA", "postalCode": "L4N2L5", "twitter": "None", "instagram": "None", "facebook": "None", "youtube": "None", "website": "None", "summary": "None", "logo": "None", "latitude": 44.37855927200066, "longitude": -79.69765474285875}, "119288918RR0926": {"name": "ONTARIO CIRCUIT 13A OF JEHOVAH'S WITNESSES", "designationCode": "C", "categoryCode": "61", "address": "16 DUVAL DR", "city": "BARRIE", "province": "ON", "country": "CA", "postalCode": "L4M6V2", "twitter": "None", "instagram": "None", "facebook": "None", "youtube": "None", "website": "None", "summary": "None", "logo": "None", "latitude": 44.41880197140635, "longitude": -79.71123211186442}, "119288918RR0852": {"name": "ONTARIO CIRCUIT 14-A OF JEHOVAH'S WITNESSES", "designationCode": "C", "categoryCode": "61", "address": "118 ASPENWOOD DRIVE", "city": "NEWMARKET", "province": "ON", "country": "CA", "postalCode": "L3X2R2", "twitter": "None", "instagram": "None", "facebook": "None", "youtube": "None", "website": "None", "summary": "None", "logo": "None", "latitude": 44.06714768552723, "longitude": -79.48853601373423}, "119288918RR0861": {"name": "ONTARIO CIRCUIT 14-B OF JEHOVAH'S WITNESSES", "designationCode": "C", "categoryCode": "61", "address": "102 HANTON CRES", "city": "BOLTON", "province": "ON", "country": "CA", "postalCode": "L7E2E4", "twitter": "None", "instagram": "None", "facebook": "None", "youtube": "None", "website": "None", "summary": "None", "logo": "None", "latitude": 43.869384795458416, "longitude": -79.71960331614619}, "119288918RR1005": {"name": "ONTARIO CIRCUIT 15-A OF JEHOVAH'S WITNESSES", "designationCode": "C", "categoryCode": "61", "address": "PO BOX 57043", "city": "HAMILTON", "province": "ON", "country": "CA", "postalCode": "L8P4W9", "twitter": "None", "instagram": "None", "facebook": "None", "youtube": "None", "website": "None", "summary": "None", "logo": "None", "latitude": 43.261962000000054, "longitude": -79.88800399999994}, "119288918RR1006": {"name": "ONTARIO CIRCUIT 15B OF JEHOVAH'S WITNESSES", "designationCode": "C", "categoryCode": "61", "address": "33 KIMBERLY DRIVE UNIT 44", "city": "HAMILTON", "province": "ON", "country": "CA", "postalCode": "L8K6N8", "twitter": "None", "instagram": "None", "facebook": "None", "youtube": "None", "website": "None", "summary": "None", "logo": "None", "latitude": 43.22919647484015, "longitude": -79.81356648566019}, "119288918RR1168": {"name": "ONTARIO CIRCUIT 16A OF JEHOVAH'S WITNESSES", "designationCode": "C", "categoryCode": "61", "address": "5470 PRINCE OF WALES", "city": "MONTREAL", "province": "QC", "country": "CA", "postalCode": "H4V2N3", "twitter": "None", "instagram": "None", "facebook": "None", "youtube": "None", "website": "None", "summary": "None", "logo": "None", "latitude": 45.47034947264712, "longitude": -73.64853180642268}, "119288918RR0893": {"name": "ONTARIO CIRCUIT 17A OF JEHOVAH'S WITNESSES", "designationCode": "C", "categoryCode": "61", "address": "2137 DAVIS ROAD               RR3", "city": "PETERBOROUGH", "province": "ON", "country": "CA", "postalCode": "K9J6X3", "twitter": "None", "instagram": "None", "facebook": "None", "youtube": "None", "website": "None", "summary": "None", "logo": "None", "latitude": 44.25976120679645, "longitude": -78.40754554260486}, "119288918RR0821": {"name": "ONTARIO CIRCUIT 18B OF JEHOVAH'S WITNESSES", "designationCode": "C", "categoryCode": "61", "address": "C9 - 490 DUTTON DR", "city": "WATERLOO", "province": "ON", "country": "CA", "postalCode": "N2L6H7", "twitter": "None", "instagram": "None", "facebook": "None", "youtube": "None", "website": "None", "summary": "None", "logo": "None", "latitude": 43.49395276244295, "longitude": -80.53872485967753}, "119288918RR0853": {"name": "ONTARIO CIRCUIT 19-B OF JEHOVAH'S WITNESSES", "designationCode": "C", "categoryCode": "61", "address": "1371 GOLDEN MEADOW TRAIL", "city": "OAKVILLE", "province": "ON", "country": "CA", "postalCode": "L6H3H1", "twitter": "None", "instagram": "None", "facebook": "None", "youtube": "None", "website": "None", "summary": "None", "logo": "None", "latitude": 43.47543474381104, "longitude": -79.69495884999131}, "119288918RR0859": {"name": "ONTARIO CIRCUIT 2-A OF JEHOVAH'S WITNESSES", "designationCode": "C", "categoryCode": "61", "address": "2 - 128 MAVETY ST", "city": "TORONTO", "province": "ON", "country": "CA", "postalCode": "M6P2L9", "twitter": "None", "instagram": "None", "facebook": "None", "youtube": "None", "website": "None", "summary": "None", "logo": "None", "latitude": 43.66221312600269, "longitude": -79.46441380656691}, "119288918RR0842": {"name": "ONTARIO CIRCUIT 2-B OF JEHOVAH'S WITNESSES", "designationCode": "C", "categoryCode": "61", "address": "2 WIRRAL COURT", "city": "TORONTO", "province": "ON", "country": "CA", "postalCode": "M1M1S4", "twitter": "None", "instagram": "None", "facebook": "None", "youtube": "None", "website": "None", "summary": "None", "logo": "None", "latitude": 43.71511034886614, "longitude": -79.24557343352188}, "119288918RR0930": {"name": "ONTARIO CIRCUIT 20A OF JEHOVAH'S WITNESSES", "designationCode": "C", "categoryCode": "61", "address": "10 QUEEN STREET,              P.O. BOX 842", "city": "KEMPTVILLE", "province": "ON", "country": "CA", "postalCode": "K0J1J0", "twitter": "None", "instagram": "None", "facebook": "None", "youtube": "None", "website": "None", "summary": "None", "logo": "None", "latitude": 45.53433433225451, "longitude": -77.09512148185888}, "119288918RR0967": {"name": "ONTARIO CIRCUIT 20B OF JEHOVAH'S WITNESSES", "designationCode": "C", "categoryCode": "61", "address": "1839 SPRINGRIDGE DR", "city": "ORLEANS", "province": "ON", "country": "CA", "postalCode": "K4A4P3", "twitter": "None", "instagram": "None", "facebook": "None", "youtube": "None", "website": "None", "summary": "None", "logo": "None", "latitude": 45.48248401584036, "longitude": -75.46607756301567}, "119288918RR0951": {"name": "ONTARIO CIRCUIT 21A OF JEHOVAH'S WITNESSES", "designationCode": "C", "categoryCode": "61", "address": "31 NUGENT RD", "city": "ETOBICOKE", "province": "ON", "country": "CA", "postalCode": "M9R1N2", "twitter": "None", "instagram": "None", "facebook": "None", "youtube": "None", "website": "None", "summary": "None", "logo": "None", "latitude": 43.69135048514059, "longitude": -79.55213302553523}, "119288918RR1177": {"name": "ONTARIO CIRCUIT 21B OF JEHOVAH'S WITNESSES", "designationCode": "C", "categoryCode": "61", "address": "21 DIANA DRIVE", "city": "TORONTO", "province": "ON", "country": "CA", "postalCode": "M3M2W2", "twitter": "None", "instagram": "None", "facebook": "None", "youtube": "None", "website": "None", "summary": "None", "logo": "None", "latitude": 43.74094967441874, "longitude": -79.48626885192455}, "119288918RR0927": {"name": "ONTARIO CIRCUIT 4A OF JEHOVAH'S WITNESSES", "designationCode": "C", "categoryCode": "61", "address": "2 MCBRIDE DR", "city": "ST CATHARINES", "province": "ON", "country": "CA", "postalCode": "L2S3Y4", "twitter": "None", "instagram": "None", "facebook": "None", "youtube": "None", "website": "None", "summary": "None", "logo": "None", "latitude": 43.1336797857349, "longitude": -79.26866641906649}, "119288918RR0914": {"name": "ONTARIO CIRCUIT 4B OF JEHOVAH'S WITNESSES", "designationCode": "C", "categoryCode": "61", "address": "6 CREEKSIDE DR.               PO BOX 579", "city": "ST DAVIDS", "province": "ON", "country": "CA", "postalCode": "L0S1P0", "twitter": "None", "instagram": "None", "facebook": "None", "youtube": "None", "website": "None", "summary": "None", "logo": "None", "latitude": 43.149395677372425, "longitude": -79.10628360754251}, "119288918RR1318": {"name": "ONTARIO CIRCUIT 5A OF JEHOVAH'S WITNESSES", "designationCode": "C", "categoryCode": "61", "address": "BOX 837                       135 PRINCE EDWARD STREET", "city": "BRIGHTON", "province": "ON", "country": "CA", "postalCode": "K0K1H0", "twitter": "None", "instagram": "None", "facebook": "None", "youtube": "None", "website": "None", "summary": "None", "logo": "None", "latitude": 44.034259703589306, "longitude": -77.73327961056634}, "119288918RR0925": {"name": "ONTARIO CIRCUIT 5B OF JEHOVAH'S WITNESSES", "designationCode": "C", "categoryCode": "61", "address": "2998 WALKER RD                RR 2", "city": "SYDENHAM", "province": "ON", "country": "CA", "postalCode": "K0H2T0", "twitter": "None", "instagram": "None", "facebook": "None", "youtube": "None", "website": "None", "summary": "None", "logo": "None", "latitude": 44.38879800000005, "longitude": -76.53117049999993}, "119288918RR0935": {"name": "ONTARIO CIRCUIT 6A OF JEHOVAH'S WITNESSES", "designationCode": "C", "categoryCode": "61", "address": "44 CORNISH STREET", "city": "LONDON", "province": "ON", "country": "CA", "postalCode": "N5W4M4", "twitter": "None", "instagram": "None", "facebook": "None", "youtube": "None", "website": "None", "summary": "None", "logo": "None", "latitude": 42.990056380806664, "longitude": -81.19099261613492}, "119288918RR0918": {"name": "ONTARIO CIRCUIT 6B OF JEHOVAH'S WITNESSES", "designationCode": "C", "categoryCode": "61", "address": "20747 DOWNIE LINE", "city": "RODNEY", "province": "ON", "country": "CA", "postalCode": "N0L2C0", "twitter": "None", "instagram": "None", "facebook": "None", "youtube": "None", "website": "None", "summary": "None", "logo": "None", "latitude": 42.55258339716662, "longitude": -81.73074425062038}, "119288918RR0999": {"name": "ONTARIO CIRCUIT 7-A OF JEHOVAH'S WITNESSES", "designationCode": "C", "categoryCode": "61", "address": "1485 FRONT RD.S", "city": "AMHERSTBURG", "province": "ON", "country": "CA", "postalCode": "N9V2M7", "twitter": "None", "instagram": "None", "facebook": "None", "youtube": "None", "website": "None", "summary": "None", "logo": "None", "latitude": 42.059674037191996, "longitude": -83.11343507129689}, "119288918RR1000": {"name": "ONTARIO CIRCUIT 7-B OF JEHOVAH'S WITNESSES", "designationCode": "C", "categoryCode": "61", "address": "11 OSGOODE COURT", "city": "SARNIA", "province": "ON", "country": "CA", "postalCode": "N7S4V9", "twitter": "None", "instagram": "None", "facebook": "None", "youtube": "None", "website": "None", "summary": "None", "logo": "None", "latitude": 43.00232960484653, "longitude": -82.36121216264806}, "119288918RR0955": {"name": "ONTARIO CIRCUIT 8B OF JEHOVAH'S WITNESSES", "designationCode": "C", "categoryCode": "61", "address": "113 - 163 FERGUSON DR", "city": "WOODSTOCK", "province": "ON", "country": "CA", "postalCode": "N4V1B1", "twitter": "None", "instagram": "None", "facebook": "None", "youtube": "None", "website": "None", "summary": "None", "logo": "None", "latitude": 43.11697178018202, "longitude": -80.74843360249012}, "119288918RR1031": {"name": "ONTARIO CIRCUIT 9-A OF JEHOVAH'S WITNESSES", "designationCode": "C", "categoryCode": "61", "address": "188 1ST AVE.S                 PO BOX 93", "city": "CHESLEY", "province": "ON", "country": "CA", "postalCode": "N0G1L0", "twitter": "None", "instagram": "None", "facebook": "None", "youtube": "None", "website": "None", "summary": "None", "logo": "None", "latitude": 44.29536103027365, "longitude": -81.09451291936537}, "833984768RR0001": {"name": "ONTARIO CLEAN AIR ALLIANCE RESEARCH INC.", "designationCode": "C", "categoryCode": "21", "address": "300-160 JOHN ST", "city": "TORONTO", "province": "ON", "country": "CA", "postalCode": "M5V2E5", "twitter": "None", "instagram": "None", "facebook": "None", "youtube": "None", "website": "None", "summary": "None", "logo": "None", "latitude": 43.64973071273591, "longitude": -79.39110621844871}, "883883415RR0001": {"name": "ONTARIO COALITION FOR BETTER CHILD CARE (OCBCC)-CHILD CARE EDUCATION ONTARIO INC.", "designationCode": "C", "categoryCode": "23", "address": "ROOM 9-234                    252 BLOOR STREET WEST", "city": "TORONTO", "province": "ON", "country": "CA", "postalCode": "M5S1V6", "twitter": "None", "instagram": "None", "facebook": "None", "youtube": "None", "website": "None", "summary": "None", "logo": "None", "latitude": 43.66784912245331, "longitude": -79.39836597005004}, "107797250RR0001": {"name": "ONTARIO COLLEGE OF ART & DESIGN", "designationCode": "C", "categoryCode": "20", "address": "100 MCCAUL ST", "city": "TORONTO", "province": "ON", "country": "CA", "postalCode": "M5T1W1", "twitter": "None", "instagram": "None", "facebook": "None", "youtube": "None", "website": "None", "summary": "None", "logo": "None", "latitude": 43.65304326810552, "longitude": -79.39094643424302}, "119067619RR0001": {"name": "ONTARIO COLLEGE OF ART & DESIGN FOUNDATION", "designationCode": "A", "categoryCode": "23", "address": "100 MCCAUL ST", "city": "TORONTO", "province": "ON", "country": "CA", "postalCode": "M5T1W1", "twitter": "None", "instagram": "None", "facebook": "None", "youtube": "None", "website": "None", "summary": "None", "logo": "None", "latitude": 43.65304326810552, "longitude": -79.39094643424302}, "895418200RR0001": {"name": "ONTARIO COLLEGE OF TEACHERS FOUNDATION / FONDATION DE L'ORDRE DES ENSEIGNANTS ET DES ENSEIGNANTES DE L'ONTARIO", "designationCode": "C", "categoryCode": "21", "address": "101 BLOOR STREET WEST", "city": "TORONTO", "province": "ON", "country": "CA", "postalCode": "M5S0A1", "twitter": "None", "instagram": "None", "facebook": "None", "youtube": "None", "website": "None", "summary": "None", "logo": "None", "latitude": 43.66927587480537, "longitude": -79.39137801220501}, "880755939RR0001": {"name": "ONTARIO COMMUNITY COUNCIL ON IMPAIRED DRIVING (OCCID) INC.", "designationCode": "C", "categoryCode": "59", "address": "106 - 1387 BAYVIEW AVENUE", "city": "TORONTO", "province": "ON", "country": "CA", "postalCode": "M4G3A5", "twitter": "None", "instagram": "None", "facebook": "None", "youtube": "None", "website": "None", "summary": "None", "logo": "None", "latitude": 43.70087893756125, "longitude": -79.37325797123347}, "140979980RR0001": {"name": "ONTARIO COMMUNITY JUSTICE ASSOCIATION (OCJA)", "designationCode": "C", "categoryCode": "59", "address": "17 - 975 ELGIN ST W", "city": "COBOURG", "province": "ON", "country": "CA", "postalCode": "K9A5J3", "twitter": "None", "instagram": "None", "facebook": "None", "youtube": "None", "website": "None", "summary": "None", "logo": "None", "latitude": 43.97389754697929, "longitude": -78.1881239739539}, "119067643RR0001": {"name": "ONTARIO COMMUNITY NEWSPAPERS FOUNDATION", "designationCode": "C", "categoryCode": "21", "address": "200 - 890 YONGE ST", "city": "TORONTO", "province": "ON", "country": "CA", "postalCode": "M4W3P4", "twitter": "None", "instagram": "None", "facebook": "None", "youtube": "None", "website": "None", "summary": "None", "logo": "None", "latitude": 43.67331929364074, "longitude": -79.38808451806206}, "130673262RR0001": {"name": "ONTARIO COMMUNITY OF THE SISTERS OF THE CHURCH", "designationCode": "C", "categoryCode": "20", "address": "1003-6 JOHN ST", "city": "OAKVILLE", "province": "ON", "country": "CA", "postalCode": "L6K3T1", "twitter": "None", "instagram": "None", "facebook": "None", "youtube": "None", "website": "None", "summary": "None", "logo": "None", "latitude": 43.44058094887897, "longitude": -79.67508835071158}, "134269505RR0001": {"name": "ONTARIO COMMUNITY SUPPORT ASSOCIATION / ASSOCIATION ONTARIENNE DE SOUTIEN COMMUNAUTAIRE", "designationCode": "C", "categoryCode": "09", "address": "104-970 LAWRENCE AVE W", "city": "TORONTO", "province": "ON", "country": "CA", "postalCode": "M6A3B6", "twitter": "None", "instagram": "None", "facebook": "None", "youtube": "None", "website": "None", "summary": "None", "logo": "None", "latitude": 43.713414238444024, "longitude": -79.45809593770547}, "891457285RR0001": {"name": "ONTARIO CONFERENCE OF SEPARATED AND DIVORCED CATHOLICS", "designationCode": "C", "categoryCode": "09", "address": "209-1069 WELLINGTON RD", "city": "LONDON", "province": "ON", "country": "CA", "postalCode": "N6E2H6", "twitter": "None", "instagram": "None", "facebook": "None", "youtube": "None", "website": "None", "summary": "None", "logo": "None", "latitude": 42.93560938966479, "longitude": -81.22394864412206}, "107797383RR0008": {"name": "ONTARIO CONFERENCE OF THE SEVENTH-DAY ADVENTIST CHURCH", "designationCode": "C", "categoryCode": "41", "address": "1110 KING STREET EAST", "city": "OSHAWA", "province": "ON", "country": "CA", "postalCode": "L1H1H8", "twitter": "None", "instagram": "None", "facebook": "None", "youtube": "None", "website": "None", "summary": "None", "logo": "None", "latitude": 43.90572443551245, "longitude": -78.82349944878531}, "119067676RR0001": {"name": "ONTARIO CONGREGATION OF THE SISTERS OF ST. JOHN THE BAPTIST", "designationCode": "C", "categoryCode": "46", "address": "329 MOHAWK ROAD WEST", "city": "HAMILTON", "province": "ON", "country": "CA", "postalCode": "L9C1W4", "twitter": "None", "instagram": "None", "facebook": "None", "youtube": "None", "website": "None", "summary": "None", "logo": "None", "latitude": 43.230358523948695, "longitude": -79.89527989203073}, "118878511RR0001": {"name": "ONTARIO CRAFTS COUNCIL", "designationCode": "C", "categoryCode": "22", "address": "1106 QUEEN ST W", "city": "TORONTO", "province": "ON", "country": "CA", "postalCode": "M6J1H9", "twitter": "None", "instagram": "None", "facebook": "None", "youtube": "None", "website": "None", "summary": "None", "logo": "None", "latitude": 43.64338219069178, "longitude": -79.4229987618731}}