{"119216737RR0001": {"name": "THE BOISSEVAIN AND MORTON FOUNDATION INCORPORATED", "designationCode": "A", "categoryCode": "03", "address": "P.O. BOX 1075", "city": "BOISSEVAIN", "province": "MB", "country": "CA", "postalCode": "R0K0E0", "twitter": "None", "instagram": "None", "facebook": "None", "youtube": "None", "website": "None", "summary": "None", "logo": "None", "latitude": 49.23156000000006, "longitude": -100.05945999999994}, "119216745RR0001": {"name": "THE BOLTON FOUNDATION", "designationCode": "B", "categoryCode": "05", "address": "843 PALMERSTON AVENUE", "city": "TORONTO", "province": "ON", "country": "CA", "postalCode": "M6G2R8", "twitter": "None", "instagram": "None", "facebook": "None", "youtube": "None", "website": "None", "summary": "None", "logo": "None", "latitude": 43.67130393173287, "longitude": -79.4162057784642}, "119216752RR0001": {"name": "THE BONANZA AND DISTRICT AGRICULTURAL SOCIETY", "designationCode": "C", "categoryCode": "56", "address": "P.O. BOX 42", "city": "BONANZA", "province": "AB", "country": "CA", "postalCode": "T0H0K0", "twitter": "None", "instagram": "None", "facebook": "None", "youtube": "None", "website": "None", "summary": "None", "logo": "None", "latitude": 55.927130000000034, "longitude": -119.81433999999996}, "887961795RR0001": {"name": "THE BOND FOUNDATION FOR ANIMAL WELFARE - LA FONDATION BOND POUR LE BIEN-ETRE DES ANIMAUX", "designationCode": "B", "categoryCode": "03", "address": "1000 DE LA GAUCHETIERE ST. W  SUITE 900", "city": "MONTREAL", "province": "QC", "country": "CA", "postalCode": "H3B5H4", "twitter": "None", "instagram": "None", "facebook": "None", "youtube": "None", "website": "None", "summary": "None", "logo": "None", "latitude": 45.49850304466516, "longitude": -73.56695768160344}, "118813450RR0001": {"name": "THE BONNECHERE BAPTIST CAMP INCORPORATED", "designationCode": "C", "categoryCode": "56", "address": "BOX 272", "city": "KILLALOE", "province": "ON", "country": "CA", "postalCode": "K0J2A0", "twitter": "None", "instagram": "None", "facebook": "None", "youtube": "None", "website": "None", "summary": "None", "logo": "None", "latitude": 45.56451000000004, "longitude": -77.41959999999995}, "855063970RR0001": {"name": "THE BONNIE LLOYD MEMORIAL SCHOLARSHIP TRUST", "designationCode": "B", "categoryCode": "25", "address": "17 RAY STREET", "city": "SAINT JOHN", "province": "NB", "country": "CA", "postalCode": "E2K2K3", "twitter": "None", "instagram": "None", "facebook": "None", "youtube": "None", "website": "None", "summary": "None", "logo": "None", "latitude": 45.294046711350916, "longitude": -66.10113896753988}, "869839555RR0001": {"name": "THE BONNYVILLE AND DISTRICT LITERACY SOCIETY", "designationCode": "C", "categoryCode": "21", "address": "BOX 8087", "city": "BONNYVILLE", "province": "AB", "country": "CA", "postalCode": "T9N2J4", "twitter": "None", "instagram": "None", "facebook": "None", "youtube": "None", "website": "None", "summary": "None", "logo": "None", "latitude": 54.267945000000054, "longitude": -110.75332399999994}, "106801657RR0001": {"name": "THE BONNYVILLE CANADIAN NATIVE FRIENDSHIP CENTRE", "designationCode": "C", "categoryCode": "09", "address": "BOX 5399", "city": "BONNYVILLE", "province": "AB", "country": "CA", "postalCode": "T9N2G5", "twitter": "None", "instagram": "None", "facebook": "None", "youtube": "None", "website": "None", "summary": "None", "logo": "None", "latitude": 54.267945000000054, "longitude": -110.75332399999994}, "131651432RR0001": {"name": "THE BONNYVILLE LIBRARY BOARD", "designationCode": "C", "categoryCode": "50", "address": "BOX 8058", "city": "BONNYVILLE", "province": "AB", "country": "CA", "postalCode": "T9N2J3", "twitter": "None", "instagram": "None", "facebook": "None", "youtube": "None", "website": "None", "summary": "None", "logo": "None", "latitude": 54.267945000000054, "longitude": -110.75332399999994}, "119216810RR0001": {"name": "THE BORDER LINE HOUSING COMPANY 1975 INC", "designationCode": "C", "categoryCode": "01", "address": "BOX 250", "city": "CARNDUFF", "province": "SK", "country": "CA", "postalCode": "S0C0S0", "twitter": "None", "instagram": "None", "facebook": "None", "youtube": "None", "website": "None", "summary": "None", "logo": "None", "latitude": 49.17721000000006, "longitude": -101.79901999999998}, "863053195RR0001": {"name": "THE BOREALIS FOUNDATION", "designationCode": "B", "categoryCode": "03", "address": "P.O. BOX 387", "city": "STITTSVILLE", "province": "ON", "country": "CA", "postalCode": "K2A1A5", "twitter": "None", "instagram": "None", "facebook": "None", "youtube": "None", "website": "None", "summary": "None", "logo": "None", "latitude": 45.26467000000008, "longitude": -75.92808999999994}, "861113868RR0001": {"name": "THE BOREALIS STRING QUARTET SOCIETY", "designationCode": "C", "categoryCode": "22", "address": "SUITE 1200, WATERFRONT CENTRE 200 BURRARD ST PO BOX 48600", "city": "VANCOUVER", "province": "BC", "country": "CA", "postalCode": "V7X1T2", "twitter": "None", "instagram": "None", "facebook": "None", "youtube": "None", "website": "None", "summary": "None", "logo": "None", "latitude": 49.2867400533782, "longitude": -123.11400005395502}, "892336967RR0001": {"name": "THE BOSCO SOCIETY FOR DISTURBED ADOLESCENTS", "designationCode": "C", "categoryCode": "09", "address": "128-145 KING EDWARD STREET.", "city": "COQUITLAM", "province": "BC", "country": "CA", "postalCode": "V3K6M2", "twitter": "None", "instagram": "None", "facebook": "None", "youtube": "None", "website": "None", "summary": "None", "logo": "None", "latitude": 49.236695444630385, "longitude": -122.86164044390924}, "119216836RR0001": {"name": "THE BOTANY CEMETERY", "designationCode": "C", "categoryCode": "59", "address": "22116 HOWARD RD               RR 3", "city": "KENT BRIDGE", "province": "ON", "country": "CA", "postalCode": "N0P1V0", "twitter": "None", "instagram": "None", "facebook": "None", "youtube": "None", "website": "None", "summary": "None", "logo": "None", "latitude": 42.472704344134286, "longitude": -81.99721045868174}, "888663796RR0001": {"name": "THE BOUGHTON TRUST", "designationCode": "B", "categoryCode": "22", "address": "300 - 851 4 ST SE", "city": "CALGARY", "province": "AB", "country": "CA", "postalCode": "T2G1P2", "twitter": "None", "instagram": "None", "facebook": "None", "youtube": "None", "website": "None", "summary": "None", "logo": "None", "latitude": 51.04486478963577, "longitude": -114.05327470115613}, "119216851RR0001": {"name": "THE BOW ISLAND EVANGELICAL FREE CHURCH", "designationCode": "C", "categoryCode": "39", "address": "BOX 8", "city": "BOW ISLAND", "province": "AB", "country": "CA", "postalCode": "T0K0G0", "twitter": "None", "instagram": "None", "facebook": "None", "youtube": "None", "website": "None", "summary": "None", "logo": "None", "latitude": 49.866524999999996, "longitude": -111.37141125}, "141050989RR0001": {"name": "THE BOWEN ISLAND ARTS COUNCIL", "designationCode": "C", "categoryCode": "22", "address": "PO BOX 211", "city": "BOWEN ISLAND", "province": "BC", "country": "CA", "postalCode": "V0N1G0", "twitter": "None", "instagram": "None", "facebook": "None", "youtube": "None", "website": "None", "summary": "None", "logo": "None", "latitude": 49.38112992339439, "longitude": -123.3307800379408}, "886443795RR0001": {"name": "THE BOWER PLACE COMMUNITY ASSOCIATION", "designationCode": "C", "categoryCode": "56", "address": "BOWER P.O. BOX 21024", "city": "RED DEER", "province": "AB", "country": "CA", "postalCode": "T4R2M1", "twitter": "None", "instagram": "None", "facebook": "None", "youtube": "None", "website": "None", "summary": "None", "logo": "None", "latitude": 52.26852300000006, "longitude": -113.80901299999994}, "898267471RR0001": {"name": "THE BOWRING PARK FOUNDATION INC.", "designationCode": "C", "categoryCode": "53", "address": "PO BOX 39085", "city": "ST. JOHN'S", "province": "NL", "country": "CA", "postalCode": "A1E5Y7", "twitter": "None", "instagram": "None", "facebook": "None", "youtube": "None", "website": "None", "summary": "None", "logo": "None", "latitude": 47.56082100000006, "longitude": -52.71219349999993}, "133475830RR0001": {"name": "THE BOX 43 ASSOCIATION", "designationCode": "C", "categoryCode": "50", "address": "PO BOX 30102 RPO UPPER JAMES", "city": "HAMILTON", "province": "ON", "country": "CA", "postalCode": "L9B0E4", "twitter": "None", "instagram": "None", "facebook": "None", "youtube": "None", "website": "None", "summary": "None", "logo": "None", "latitude": 43.20107345690633, "longitude": -79.89410636414543}, "897837027RR0001": {"name": "THE BOYNE VALLEY HOSTEL CORPORATION (1998) INC.", "designationCode": "C", "categoryCode": "09", "address": "BOX 1644", "city": "CARMAN", "province": "MB", "country": "CA", "postalCode": "R0G0J0", "twitter": "None", "instagram": "None", "facebook": "None", "youtube": "None", "website": "None", "summary": "None", "logo": "None", "latitude": 49.50860000000006, "longitude": -98.00231999999994}, "119216877RR0001": {"name": "THE BOYS AND GIRLS CLUB OF GRAND MANAN ISLAND INC.", "designationCode": "C", "categoryCode": "09", "address": "1021 ROUTE 776", "city": "GRAND MANAN", "province": "NB", "country": "CA", "postalCode": "E5G4E5", "twitter": "None", "instagram": "None", "facebook": "None", "youtube": "None", "website": "None", "summary": "None", "logo": "None", "latitude": 44.69318903979643, "longitude": -66.75364373220583}, "119216885RR0001": {"name": "THE BOYS AND GIRLS CLUB OF SAINT JOHN INC.", "designationCode": "C", "categoryCode": "09", "address": "1 PAUL HARRIS ST.             P.O. BOX 2441", "city": "SAINT JOHN", "province": "NB", "country": "CA", "postalCode": "E2L3V9", "twitter": "None", "instagram": "None", "facebook": "None", "youtube": "None", "website": "None", "summary": "None", "logo": "None", "latitude": 45.27837044936225, "longitude": -66.05283168872988}, "119216901RR0001": {"name": "THE BOYS AND GIRLS CLUBS OF CALGARY FOUNDATION", "designationCode": "A", "categoryCode": "03", "address": "731-13TH AVENUE NE", "city": "CALGARY", "province": "AB", "country": "CA", "postalCode": "T2E1C8", "twitter": "None", "instagram": "None", "facebook": "None", "youtube": "None", "website": "None", "summary": "None", "logo": "None", "latitude": 51.064108492353945, "longitude": -114.04706391618096}, "887401396RR0001": {"name": "THE BOYS FARM AND TRAINING SCHOOL FOUNDATION LA FONDATION DU BOYS FARM AND TRAINING SCHOOL", "designationCode": "A", "categoryCode": "23", "address": "5250 FERRIER, SUITE 520", "city": "MONTREAL", "province": "QC", "country": "CA", "postalCode": "H4P1L4", "twitter": "None", "instagram": "None", "facebook": "None", "youtube": "None", "website": "None", "summary": "None", "logo": "None", "latitude": 45.49819035913793, "longitude": -73.65688247778299}, "119216893RR0001": {"name": "THE BOYS' AND GIRLS' CLUB OF ST PAUL AND DISTRICT", "designationCode": "C", "categoryCode": "29", "address": "POST OFFICE BOX 1009", "city": "ST PAUL", "province": "AB", "country": "CA", "postalCode": "T0A3A0", "twitter": "None", "instagram": "None", "facebook": "None", "youtube": "None", "website": "None", "summary": "None", "logo": "None", "latitude": 53.99139000000008, "longitude": -111.28162999999995}, "889541249RR0001": {"name": "THE BOYS' BRIGADE IN CANADA INC.", "designationCode": "C", "categoryCode": "49", "address": "249, COUNTY ROAD #8", "city": "TOLEDO", "province": "ON", "country": "CA", "postalCode": "K0E1Y0", "twitter": "None", "instagram": "None", "facebook": "None", "youtube": "None", "website": "None", "summary": "None", "logo": "None", "latitude": 44.73430388005246, "longitude": -76.0045311078952}, "118815992RR0001": {"name": "THE BRABANT FOUNDATION", "designationCode": "B", "categoryCode": "53", "address": "36 HIGHCLIFFE AVE", "city": "HAMILTON", "province": "ON", "country": "CA", "postalCode": "L9A3L5", "twitter": "None", "instagram": "None", "facebook": "None", "youtube": "None", "website": "None", "summary": "None", "logo": "None", "latitude": 43.24362206717062, "longitude": -79.86695593132883}, "811635549RR0001": {"name": "THE BRADLEY MARK JOHNSTON EDUCATIONAL FOUNDATION", "designationCode": "B", "categoryCode": "22", "address": "433143 4TH LINE", "city": "AMARANTH", "province": "ON", "country": "CA", "postalCode": "L9W0P1", "twitter": "None", "instagram": "None", "facebook": "None", "youtube": "None", "website": "None", "summary": "None", "logo": "None", "latitude": 43.91407594483803, "longitude": -80.18392306377338}, "119216984RR0001": {"name": "THE BRADLEY MUSIC EDUCATION TRUST", "designationCode": "C", "categoryCode": "22", "address": "605 MORNING SIDEROAD", "city": "EAST GWILLIMBURY", "province": "ON", "country": "CA", "postalCode": "L9N0K7", "twitter": "None", "instagram": "None", "facebook": "None", "youtube": "None", "website": "None", "summary": "None", "logo": "None", "latitude": 44.078740895291624, "longitude": -79.51111743502243}, "891002420RR0001": {"name": "THE BRADSTREET FAMILY FOUNDATION", "designationCode": "B", "categoryCode": "53", "address": "24 HURNDALE AVENUE", "city": "TORONTO", "province": "ON", "country": "CA", "postalCode": "M4K1R7", "twitter": "None", "instagram": "None", "facebook": "None", "youtube": "None", "website": "None", "summary": "None", "logo": "None", "latitude": 43.677907248975586, "longitude": -79.35421656578563}, "130646367RR0001": {"name": "THE BRAEFOOT COMMUNITY ASSOCIATION", "designationCode": "C", "categoryCode": "56", "address": "1359 MCKENZIE AVENUE", "city": "VICTORIA", "province": "BC", "country": "CA", "postalCode": "V8P2M1", "twitter": "None", "instagram": "None", "facebook": "None", "youtube": "None", "website": "None", "summary": "None", "logo": "None", "latitude": 48.4720485340712, "longitude": -123.34807971261974}, "878941160RR0001": {"name": "THE BRAGG CREEK SNOWBIRDS SENIORS FELLOWSHIP", "designationCode": "C", "categoryCode": "56", "address": "P.O. BOX 135", "city": "BRAGG CREEK", "province": "AB", "country": "CA", "postalCode": "T0L0K0", "twitter": "None", "instagram": "None", "facebook": "None", "youtube": "None", "website": "None", "summary": "None", "logo": "None", "latitude": 50.951040000000035, "longitude": -114.56075999999996}, "846764470RR0001": {"name": "THE BRAMPTON POLONIA FOUNDATION", "designationCode": "A", "categoryCode": "03", "address": "107 - 20 POLONIA AVE", "city": "BRAMPTON", "province": "ON", "country": "CA", "postalCode": "L6Y0K9", "twitter": "None", "instagram": "None", "facebook": "None", "youtube": "None", "website": "None", "summary": "None", "logo": "None", "latitude": 43.64287992172089, "longitude": -79.76143988969345}, "887119345RR0001": {"name": "THE BRANCHTON VILLAGE LAND TRUST INC.", "designationCode": "C", "categoryCode": "59", "address": "27 JENKINGS CRT.", "city": "BRANCHTON", "province": "ON", "country": "CA", "postalCode": "N0B1L0", "twitter": "None", "instagram": "None", "facebook": "None", "youtube": "None", "website": "None", "summary": "None", "logo": "None", "latitude": 43.306432561515116, "longitude": -80.26279638043128}, "896594884RR0001": {"name": "THE BRANDON AREA COMMUNITY FOUNDATION INC.", "designationCode": "A", "categoryCode": "03", "address": "P.O. BOX 22096", "city": "BRANDON", "province": "MB", "country": "CA", "postalCode": "R7A6Y9", "twitter": "None", "instagram": "None", "facebook": "None", "youtube": "None", "website": "None", "summary": "None", "logo": "None", "latitude": 49.84965600000005, "longitude": -99.96197299999993}, "130122401RR0001": {"name": "THE BRANDON CRIME STOPPERS BOARD OF THE BRANDON CHAMBER OF COMMERCE", "designationCode": "C", "categoryCode": "59", "address": "1043 ROSSER AVE", "city": "BRANDON", "province": "MB", "country": "CA", "postalCode": "R7A0L5", "twitter": "None", "instagram": "None", "facebook": "None", "youtube": "None", "website": "None", "summary": "None", "logo": "None", "latitude": 49.8484935148594, "longitude": -99.952542}, "886844794RR0001": {"name": "THE BRANDON REGIONAL HEALTH CENTRE FOUNDATION INCORPORATED", "designationCode": "A", "categoryCode": "13", "address": "150 MCTAVISH AVE E", "city": "BRANDON", "province": "MB", "country": "CA", "postalCode": "R7A2B3", "twitter": "None", "instagram": "None", "facebook": "None", "youtube": "None", "website": "None", "summary": "None", "logo": "None", "latitude": 49.84050947013694, "longitude": -99.93688055398464}, "119217040RR0001": {"name": "THE BRANDON SCHOOL DIVISION NO 40", "designationCode": "C", "categoryCode": "20", "address": "1031 6TH ST", "city": "BRANDON", "province": "MB", "country": "CA", "postalCode": "R7A4K5", "twitter": "None", "instagram": "None", "facebook": "None", "youtube": "None", "website": "None", "summary": "None", "logo": "None", "latitude": 49.83437738128563, "longitude": -99.94589672015765}, "851741744RR0001": {"name": "THE BRANKSOME HALL FOUNDATION/FONDATION BRANKSOME HALL", "designationCode": "A", "categoryCode": "23", "address": "10 ELM AVENUE", "city": "TORONTO", "province": "ON", "country": "CA", "postalCode": "M4W1N4", "twitter": "None", "instagram": "None", "facebook": "None", "youtube": "None", "website": "None", "summary": "None", "logo": "None", "latitude": 43.67463412908976, "longitude": -79.37982899890348}, "119217057RR0001": {"name": "THE BRANSCOMBE FAMILY FOUNDATION", "designationCode": "B", "categoryCode": "03", "address": "4785 DRUMMOND ROAD", "city": "NIAGARA FALLS", "province": "ON", "country": "CA", "postalCode": "L2E6C8", "twitter": "None", "instagram": "None", "facebook": "None", "youtube": "None", "website": "None", "summary": "None", "logo": "None", "latitude": 43.10453699999999, "longitude": -79.09859867254282}, "889969465RR0001": {"name": "THE BRANT COUNTY CATHOLIC EDUCATION FUND", "designationCode": "C", "categoryCode": "21", "address": "322 FAIRVIEW DRIVE            P.O.BOX 217", "city": "BRANTFORD", "province": "ON", "country": "CA", "postalCode": "N3T5M8", "twitter": "None", "instagram": "None", "facebook": "None", "youtube": "None", "website": "None", "summary": "None", "logo": "None", "latitude": 43.17072320229123, "longitude": -80.2579933988114}, "118816891RR0001": {"name": "THE BRANT FOUNDATION FOR PERSONS WITH DEVELOPMENTAL NEEDS", "designationCode": "A", "categoryCode": "11", "address": "20 WELLINGTON ST., BOX 1510", "city": "BRANTFORD", "province": "ON", "country": "CA", "postalCode": "N3T5V6", "twitter": "None", "instagram": "None", "facebook": "None", "youtube": "None", "website": "None", "summary": "None", "logo": "None", "latitude": 43.14104346047075, "longitude": -80.26701511088346}, "867507774RR0001": {"name": "THE BRANT MEN OF SONG", "designationCode": "C", "categoryCode": "22", "address": "PO BOX 24015                  185 KING GEORGE RD", "city": "BRANTFORD", "province": "ON", "country": "CA", "postalCode": "N3R7S3", "twitter": "None", "instagram": "None", "facebook": "None", "youtube": "None", "website": "None", "summary": "None", "logo": "None", "latitude": 43.1730996197416, "longitude": -80.27787712874304}, "132093451RR0001": {"name": "THE BRANTFORD HORTICULTURAL SOCIETY", "designationCode": "C", "categoryCode": "56", "address": "477 ST PAUL AVE", "city": "BRANTFORD", "province": "ON", "country": "CA", "postalCode": "N3R4P4", "twitter": "None", "instagram": "None", "facebook": "None", "youtube": "None", "website": "None", "summary": "None", "logo": "None", "latitude": 43.16195607853892, "longitude": -80.27010513056165}, "865442420RR0001": {"name": "THE BRANTFORD JO EUN METHODIST CHURCH", "designationCode": "C", "categoryCode": "39", "address": "23-600 HYDEPARK RD", "city": "LONDON", "province": "ON", "country": "CA", "postalCode": "N6H5W8", "twitter": "None", "instagram": "None", "facebook": "None", "youtube": "None", "website": "None", "summary": "None", "logo": "None", "latitude": 42.97373028781235, "longitude": -81.31951424245472}, "128646254RR0001": {"name": "THE BRANTFORD MUSIC CLUB", "designationCode": "C", "categoryCode": "22", "address": "6 AVA ROAD", "city": "BRANTFORD", "province": "ON", "country": "CA", "postalCode": "N3T5G8", "twitter": "None", "instagram": "None", "facebook": "None", "youtube": "None", "website": "None", "summary": "None", "logo": "None", "latitude": 43.15566441935495, "longitude": -80.28539445493081}, "106807217RR0001": {"name": "THE BRANTFORD PUBLIC LIBRARY", "designationCode": "C", "categoryCode": "50", "address": "173 COLBORNE STREET", "city": "BRANTFORD", "province": "ON", "country": "CA", "postalCode": "N3T2G8", "twitter": "None", "instagram": "None", "facebook": "None", "youtube": "None", "website": "None", "summary": "None", "logo": "None", "latitude": 43.138509539529245, "longitude": -80.26299796280802}, "886120757RR0001": {"name": "THE BRANTFORD ROTARY SUNRISE FUND", "designationCode": "A", "categoryCode": "03", "address": "PO BOX 24009 RPO KING GEORGE", "city": "BRANTFORD", "province": "ON", "country": "CA", "postalCode": "N3R7X3", "twitter": "None", "instagram": "None", "facebook": "None", "youtube": "None", "website": "None", "summary": "None", "logo": "None", "latitude": 43.16121838010149, "longitude": -80.2732815563544}, "119217081RR0001": {"name": "THE BRANTWOOD FOUNDATION", "designationCode": "B", "categoryCode": "13", "address": "25 BELL LANE", "city": "BRANTFORD", "province": "ON", "country": "CA", "postalCode": "N3T1E1", "twitter": "None", "instagram": "None", "facebook": "None", "youtube": "None", "website": "None", "summary": "None", "logo": "None", "latitude": 43.126145033593666, "longitude": -80.28027349031927}, "845956077RR0001": {"name": "THE BRAS FAMILY FOUNDATION", "designationCode": "B", "categoryCode": "03", "address": "9715 WINSTON CHURCHILL BLVD.", "city": "BRAMPTON", "province": "ON", "country": "CA", "postalCode": "L6X0A4", "twitter": "None", "instagram": "None", "facebook": "None", "youtube": "None", "website": "None", "summary": "None", "logo": "None", "latitude": 43.641502276501384, "longitude": -79.84377463313005}, "860545292RR0001": {"name": "THE BRAWN FAMILY FOUNDATION", "designationCode": "B", "categoryCode": "03", "address": "2516 14A STREET SW", "city": "CALGARY", "province": "AB", "country": "CA", "postalCode": "T2T3X5", "twitter": "None", "instagram": "None", "facebook": "None", "youtube": "None", "website": "None", "summary": "None", "logo": "None", "latitude": 51.03158651457096, "longitude": -114.09585850124074}, "858318157RR0001": {"name": "THE BREAKTHROUGH COMMUNITY CHURCH (CANADA)", "designationCode": "C", "categoryCode": "39", "address": "6 LONGHOUSE PLACE", "city": "TORONTO", "province": "ON", "country": "CA", "postalCode": "M1H1N3", "twitter": "None", "instagram": "None", "facebook": "None", "youtube": "None", "website": "None", "summary": "None", "logo": "None", "latitude": 43.76078850152921, "longitude": -79.23481654512649}, "819361676RR0001": {"name": "THE BREAST CANCER RESEARCH FOUNDATION", "designationCode": "A", "categoryCode": "13", "address": "100 ALDEN ROAD", "city": "MARKHAM", "province": "ON", "country": "CA", "postalCode": "L3R4C1", "twitter": "None", "instagram": "None", "facebook": "None", "youtube": "None", "website": "None", "summary": "None", "logo": "None", "latitude": 43.830534443562534, "longitude": -79.33797985948368}, "894504810RR0001": {"name": "THE BREATH OF LIFE SOCIETY", "designationCode": "C", "categoryCode": "47", "address": "BOX 567", "city": "HAGENSBORG", "province": "BC", "country": "CA", "postalCode": "V0T1H0", "twitter": "None", "instagram": "None", "facebook": "None", "youtube": "None", "website": "None", "summary": "None", "logo": "None", "latitude": 52.39166399999999, "longitude": -126.5500215}, "899665053RR0001": {"name": "THE BRENDA CUPIDO MEMORIAL BREAST CANCER SERVICES", "designationCode": "C", "categoryCode": "09", "address": "1106 - 2 MOWAT AVE", "city": "KINGSTON", "province": "ON", "country": "CA", "postalCode": "K7M1K1", "twitter": "None", "instagram": "None", "facebook": "None", "youtube": "None", "website": "None", "summary": "None", "logo": "None", "latitude": 44.21758287316061, "longitude": -76.51980057995256}, "856344395RR0001": {"name": "THE BRENDA MILNER FOUNDATION/LA FONDATION BRENDA MILNER", "designationCode": "B", "categoryCode": "03", "address": "1250 RENE-LEVESQUE BOUL. W    46TH FLOOR", "city": "MONTREAL", "province": "QC", "country": "CA", "postalCode": "H3B4W8", "twitter": "None", "instagram": "None", "facebook": "None", "youtube": "None", "website": "None", "summary": "None", "logo": "None", "latitude": 45.497635797911244, "longitude": -73.57123025818045}, "105198873RR0001": {"name": "THE BRENDA STRAFFORD FOUNDATION LTD.", "designationCode": "C", "categoryCode": "10", "address": "4628 MONTGOMERY BLVD NW", "city": "CALGARY", "province": "AB", "country": "CA", "postalCode": "T3B0K7", "twitter": "None", "instagram": "None", "facebook": "None", "youtube": "None", "website": "None", "summary": "None", "logo": "None", "latitude": 51.06791931447276, "longitude": -114.16241879211152}, "889367793RR0001": {"name": "THE BRETTLER/MINTZ FOUNDATION", "designationCode": "B", "categoryCode": "03", "address": "147A BENTWORTH AVE", "city": "TORONTO", "province": "ON", "country": "CA", "postalCode": "M6A1P6", "twitter": "None", "instagram": "None", "facebook": "None", "youtube": "None", "website": "None", "summary": "None", "logo": "None", "latitude": 43.7199626724822, "longitude": -79.4665224031853}, "857334288RR0001": {"name": "THE BRIAN AND HEATHER SEMKOWSKI FAMILY FOUNDATION", "designationCode": "B", "categoryCode": "03", "address": "215 WINDERMERE ROAD", "city": "LONDON", "province": "ON", "country": "CA", "postalCode": "N6G2J6", "twitter": "None", "instagram": "None", "facebook": "None", "youtube": "None", "website": "None", "summary": "None", "logo": "None", "latitude": 43.01280615179771, "longitude": -81.28382445669118}, "858666779RR0001": {"name": "THE BRIAN LINEHAN CHARITABLE FOUNDATION", "designationCode": "B", "categoryCode": "05", "address": "BAY ADELAIDE CENTRE           333 BAY STREET, SUITE 3400", "city": "TORONTO", "province": "ON", "country": "CA", "postalCode": "M5H2S7", "twitter": "None", "instagram": "None", "facebook": "None", "youtube": "None", "website": "None", "summary": "None", "logo": "None", "latitude": 43.65025349737428, "longitude": -79.38084819908858}, "847416120RR0001": {"name": "THE BRIAN MAXWELL MEMORIAL SCHOLARSHIP FUND", "designationCode": "B", "categoryCode": "23", "address": "65 KIMBARK BLVD", "city": "NORTH YORK", "province": "ON", "country": "CA", "postalCode": "M5N2X9", "twitter": "None", "instagram": "None", "facebook": "None", "youtube": "None", "website": "None", "summary": "None", "logo": "None", "latitude": 43.71885532223438, "longitude": -79.41762715762609}, "141132654RR0001": {"name": "THE BRIDGE CHRISTIAN COMMUNITY SOCIETY", "designationCode": "C", "categoryCode": "39", "address": "4640 BAIN RD", "city": "BEASLEY", "province": "BC", "country": "CA", "postalCode": "V0G2G2", "twitter": "None", "instagram": "None", "facebook": "None", "youtube": "None", "website": "None", "summary": "None", "logo": "None", "latitude": 49.48164473016231, "longitude": -117.47170501229583}, "118916063RR0001": {"name": "THE BRIDGE CHURCH OF THE CHRISTIAN & MISSIONARY ALLIANCE IN CANADA, INCORPORATED", "designationCode": "C", "categoryCode": "39", "address": "325-3336 PORTAGE AVE", "city": "WINNIPEG", "province": "MB", "country": "CA", "postalCode": "R3K2H9", "twitter": "None", "instagram": "None", "facebook": "None", "youtube": "None", "website": "None", "summary": "None", "logo": "None", "latitude": 49.88219617272158, "longitude": -97.29699031691264}, "871121448RR0001": {"name": "THE BRIDGE COMMUNITY CHURCH OF BANCROFT", "designationCode": "C", "categoryCode": "39", "address": "29670-C HWY 62                BOX 1846", "city": "BANCROFT", "province": "ON", "country": "CA", "postalCode": "K0L1C0", "twitter": "None", "instagram": "None", "facebook": "None", "youtube": "None", "website": "None", "summary": "None", "logo": "None", "latitude": 45.10222855073513, "longitude": -77.87890240656884}, "118883867RR0001": {"name": "THE BRIDGE COMMUNITY CHURCH OF NORTH VANCOUVER", "designationCode": "C", "categoryCode": "31", "address": "1384 DEEP COVE RD", "city": "NORTH VANCOUVER", "province": "BC", "country": "CA", "postalCode": "V7G1S5", "twitter": "None", "instagram": "None", "facebook": "None", "youtube": "None", "website": "None", "summary": "None", "logo": "None", "latitude": 49.319306696087494, "longitude": -122.95356932402339}, "890630940RR0001": {"name": "THE BRIDGE FROM PRISON TO COMMUNITY (HAMILTON)", "designationCode": "C", "categoryCode": "59", "address": "319 BARTON STREET EAST", "city": "HAMILTON", "province": "ON", "country": "CA", "postalCode": "L8L2E6", "twitter": "None", "instagram": "None", "facebook": "None", "youtube": "None", "website": "None", "summary": "None", "logo": "None", "latitude": 43.26066303748044, "longitude": -79.85180622508516}, "829872969RR0001": {"name": "THE BRIDGE HOSPICE", "designationCode": "C", "categoryCode": "11", "address": "BOX 354                       137 OLD HASTINGS RD", "city": "WARKWORTH", "province": "ON", "country": "CA", "postalCode": "K0K3K0", "twitter": "None", "instagram": "None", "facebook": "None", "youtube": "None", "website": "None", "summary": "None", "logo": "None", "latitude": 44.201663006426074, "longitude": -77.89735827759566}, "895910222RR0001": {"name": "THE BRIDGE OF CHILLIWACK SOCIETY", "designationCode": "C", "categoryCode": "49", "address": "PO BOX 517", "city": "CHILLIWACK", "province": "BC", "country": "CA", "postalCode": "V2P7V5", "twitter": "None", "instagram": "None", "facebook": "None", "youtube": "None", "website": "None", "summary": "None", "logo": "None", "latitude": 49.15747500000006, "longitude": -121.95172249999993}, "863422994RR0001": {"name": "THE BRIDGE ON 20TH FELLOWSHIP CENTRE INC.", "designationCode": "C", "categoryCode": "49", "address": "1008 20TH ST W", "city": "SASKATOON", "province": "SK", "country": "CA", "postalCode": "S7M0Y7", "twitter": "None", "instagram": "None", "facebook": "None", "youtube": "None", "website": "None", "summary": "None", "logo": "None", "latitude": 52.12621647879262, "longitude": -106.68508183236193}, "860839455RR0001": {"name": "THE BRIDGE TO FAITH MINISTRIES SOCIETY", "designationCode": "C", "categoryCode": "49", "address": "13245 - 104 AVENUE            SUITE 105", "city": "SURREY", "province": "BC", "country": "CA", "postalCode": "V3T1V2", "twitter": "None", "instagram": "None", "facebook": "None", "youtube": "None", "website": "None", "summary": "None", "logo": "None", "latitude": 49.19167747489748, "longitude": -122.85519202553522}, "119221661RR0001": {"name": "THE BRIDGE YOUTH & FAMILY SERVICES SOCIETY", "designationCode": "C", "categoryCode": "09", "address": "8 - 2604 ENTERPRISE WAY", "city": "KELOWNA", "province": "BC", "country": "CA", "postalCode": "V1X7Y5", "twitter": "None", "instagram": "None", "facebook": "None", "youtube": "None", "website": "None", "summary": "None", "logo": "None", "latitude": 49.89086163534981, "longitude": -119.42460111818029}, "866528532RR0001": {"name": "THE BRIDGE, A MARKHAM COMMUNITY CHURCH", "designationCode": "C", "categoryCode": "36", "address": "5440 16TH AVE", "city": "MARKHAM", "province": "ON", "country": "CA", "postalCode": "L3P3J3", "twitter": "None", "instagram": "None", "facebook": "None", "youtube": "None", "website": "None", "summary": "None", "logo": "None", "latitude": 43.887029129666686, "longitude": -79.28287027979094}, "887311595RR0001": {"name": "THE BRITISH COLUMBIA CAMP FARTHEST OUT", "designationCode": "C", "categoryCode": "56", "address": "#128-13880 74TH AVE", "city": "SURREY", "province": "BC", "country": "CA", "postalCode": "V3W7E6", "twitter": "None", "instagram": "None", "facebook": "None", "youtube": "None", "website": "None", "summary": "None", "logo": "None", "latitude": 49.137216517889186, "longitude": -122.83720119317329}, "113813083RR0001": {"name": "THE BRITISH COLUMBIA CHORAL FEDERATION", "designationCode": "C", "categoryCode": "22", "address": "PO BOX 4397", "city": "VANCOUVER", "province": "BC", "country": "CA", "postalCode": "V6B3Z8", "twitter": "None", "instagram": "None", "facebook": "None", "youtube": "None", "website": "None", "summary": "None", "logo": "None", "latitude": 49.28024400000005, "longitude": -123.11294749999993}, "824186472RR0001": {"name": "THE BRITISH COLUMBIA CONFERENCE PROPERTY DEVELOPMENT COUNCIL OF THE UNITED CHURCH OF CANADA", "designationCode": "A", "categoryCode": "43", "address": "4383 RUMBLE ST", "city": "BURNABY", "province": "BC", "country": "CA", "postalCode": "V5J2A2", "twitter": "None", "instagram": "None", "facebook": "None", "youtube": "None", "website": "None", "summary": "None", "logo": "None", "latitude": 49.214919225604916, "longitude": -123.00559188656527}, "123042822RR0001": {"name": "THE BRITISH COLUMBIA CONSERVATION FOUNDATION", "designationCode": "C", "categoryCode": "54", "address": "206 17564 56A AVENUE", "city": "SURREY", "province": "BC", "country": "CA", "postalCode": "V3S1G3", "twitter": "None", "instagram": "None", "facebook": "None", "youtube": "None", "website": "None", "summary": "None", "logo": "None", "latitude": 49.105088466818735, "longitude": -122.73616235789716}, "119217180RR0001": {"name": "THE BRITISH COLUMBIA COUNCIL FOR FAMILIES", "designationCode": "C", "categoryCode": "09", "address": "#208-1847 WEST BROADWAY", "city": "VANCOUVER", "province": "BC", "country": "CA", "postalCode": "V6J1Y6", "twitter": "None", "instagram": "None", "facebook": "None", "youtube": "None", "website": "None", "summary": "None", "logo": "None", "latitude": 49.2637664787926, "longitude": -123.1468512485429}, "119217206RR0001": {"name": "THE BRITISH COLUMBIA DRAMA ASSOCIATION/THEATRE B C", "designationCode": "C", "categoryCode": "22", "address": "7 SEYMOUR ST W                OLD COURTHOUSE CULTURAL CENTRE", "city": "KAMLOOPS", "province": "BC", "country": "CA", "postalCode": "V2C1E4", "twitter": "None", "instagram": "None", "facebook": "None", "youtube": "None", "website": "None", "summary": "None", "logo": "None", "latitude": 50.67568500000006, "longitude": -120.34067749999994}, "886075399RR0001": {"name": "THE BRITISH COLUMBIA FAS RESOURCE SOCIETY", "designationCode": "C", "categoryCode": "11", "address": "2034 BANBURY RD", "city": "NORTH VANCOUVER", "province": "BC", "country": "CA", "postalCode": "V7G1W5", "twitter": "None", "instagram": "None", "facebook": "None", "youtube": "None", "website": "None", "summary": "None", "logo": "None", "latitude": 49.32508541909516, "longitude": -122.94917135287685}, "888150596RR0001": {"name": "THE BRITISH COLUMBIA FOLKLORE SOCIETY", "designationCode": "C", "categoryCode": "29", "address": "7345 SEABROOK RD", "city": "CENTRAL SAANICH", "province": "BC", "country": "CA", "postalCode": "V8M1M9", "twitter": "None", "instagram": "None", "facebook": "None", "youtube": "None", "website": "None", "summary": "None", "logo": "None", "latitude": 48.581995249990435, "longitude": -123.41683618185273}, "832534341RR0001": {"name": "THE BRITISH COLUMBIA FREQUENCY MODULATION COMMUNICATIONS ASSOCIATION", "designationCode": "C", "categoryCode": "59", "address": "SUITE 353, 4974 KINGSWAY AVE  BCFMCA", "city": "BURNABY", "province": "BC", "country": "CA", "postalCode": "V5H4M9", "twitter": "None", "instagram": "None", "facebook": "None", "youtube": "None", "website": "None", "summary": "None", "logo": "None", "latitude": 49.22615218964349, "longitude": -122.99276359020539}, "121521223RR0001": {"name": "THE BRITISH COLUMBIA GOLF HOUSE SOCIETY", "designationCode": "C", "categoryCode": "50", "address": "2545 BLANCA ST", "city": "VANCOUVER", "province": "BC", "country": "CA", "postalCode": "V6R4N1", "twitter": "None", "instagram": "None", "facebook": "None", "youtube": "None", "website": "None", "summary": "None", "logo": "None", "latitude": 49.264455914432894, "longitude": -123.21527302446452}, "889213575RR0001": {"name": "THE BRITISH COLUMBIA HISTORICAL FEDERATION", "designationCode": "C", "categoryCode": "52", "address": "PO BOX 448", "city": "FORT LANGLEY", "province": "BC", "country": "CA", "postalCode": "V1M2R7", "twitter": "None", "instagram": "None", "facebook": "None", "youtube": "None", "website": "None", "summary": "None", "logo": "None", "latitude": 49.16854007718262, "longitude": -122.57416995556595}, "852618933RR0001": {"name": "THE BRITISH COLUMBIA LIBRARY TRUSTEES ASSOCIATION", "designationCode": "C", "categoryCode": "50", "address": "108 - 9865 140 ST", "city": "SURREY", "province": "BC", "country": "CA", "postalCode": "V3T4M4", "twitter": "None", "instagram": "None", "facebook": "None", "youtube": "None", "website": "None", "summary": "None", "logo": "None", "latitude": 49.18171620483005, "longitude": -122.83432237013085}, "119217248RR0001": {"name": "THE BRITISH COLUMBIA LIONS SOCIETY FOR CHILDREN WITH DISABILITIES", "designationCode": "C", "categoryCode": "11", "address": "3981 OAK ST", "city": "VANCOUVER", "province": "BC", "country": "CA", "postalCode": "V6H4H5", "twitter": "None", "instagram": "None", "facebook": "None", "youtube": "None", "website": "None", "summary": "None", "logo": "None"}, "896593498RR0001": {"name": "THE BRITISH COLUMBIA PHOTOGRAPHY AND MEDIA ARTS SOCIETY", "designationCode": "C", "categoryCode": "22", "address": "101 CARRIE CATES CRT", "city": "NORTH VANCOUVER", "province": "BC", "country": "CA", "postalCode": "V7M3J4", "twitter": "None", "instagram": "None", "facebook": "None", "youtube": "None", "website": "None", "summary": "None", "logo": "None", "latitude": 49.3103553743708, "longitude": -123.08025717983674}, "889778197RR0001": {"name": "THE BRITISH COLUMBIA PIPERS' ASSOCIATION", "designationCode": "C", "categoryCode": "22", "address": "2720 WINDSOR STREET", "city": "VANCOUVER", "province": "BC", "country": "CA", "postalCode": "V5T4A2", "twitter": "None", "instagram": "None", "facebook": "None", "youtube": "None", "website": "None", "summary": "None", "logo": "None", "latitude": 49.260174401610016, "longitude": -123.08331007158534}, "119025179RR0001": {"name": "THE BRITISH COLUMBIA PRADER-WILLI SYNDROME ASSOCIATION", "designationCode": "C", "categoryCode": "09", "address": "3130 CHILCOTIN CRESCENT", "city": "KELOWNA", "province": "BC", "country": "CA", "postalCode": "V1V2N9", "twitter": "None", "instagram": "None", "facebook": "None", "youtube": "None", "website": "None", "summary": "None", "logo": "None", "latitude": 49.893497557435126, "longitude": -119.43874455486677}, "891325995RR0001": {"name": "THE BRITISH COLUMBIA REGIMENT (D C O ) TRUST", "designationCode": "A", "categoryCode": "05", "address": "620 BEATTY ST", "city": "VANCOUVER", "province": "BC", "country": "CA", "postalCode": "V6B2L9", "twitter": "None", "instagram": "None", "facebook": "None", "youtube": "None", "website": "None", "summary": "None", "logo": "None", "latitude": 49.27955670439736, "longitude": -123.11095752703577}, "891024390RR0001": {"name": "THE BRITISH COLUMBIA REGIMENT (DUKE OF CONNAUGHT'S OWN) (RCAC) MUSEUM SOCIETY", "designationCode": "C", "categoryCode": "50", "address": "208-1899 WILLINGDON AVENUE", "city": "BURNABY", "province": "BC", "country": "CA", "postalCode": "V5C5T1", "twitter": "None", "instagram": "None", "facebook": "None", "youtube": "None", "website": "None", "summary": "None", "logo": "None", "latitude": 49.267534163845426, "longitude": -123.00332640130463}, "859708331RR0001": {"name": "THE BRITISH COLUMBIA SEARCH DOG ASSOCIATION", "designationCode": "C", "categoryCode": "59", "address": "7145 LADNER ST", "city": "POWELL RIVER", "province": "BC", "country": "CA", "postalCode": "V8A5G1", "twitter": "None", "instagram": "None", "facebook": "None", "youtube": "None", "website": "None", "summary": "None", "logo": "None", "latitude": 49.82472965918396, "longitude": -124.51429324634985}, "890915945RR0001": {"name": "THE BRITISH COLUMBIA SOCIETY FOR ADVANCEMENT OF KOREAN STUDIES", "designationCode": "A", "categoryCode": "23", "address": "2240 LECLAIR DR", "city": "COQUITLAM", "province": "BC", "country": "CA", "postalCode": "V3K6P6", "twitter": "None", "instagram": "None", "facebook": "None", "youtube": "None", "website": "None", "summary": "None", "logo": "None", "latitude": 49.23949825976699, "longitude": -122.831547236165}, "842181364RR0001": {"name": "THE BRITISH COLUMBIA SOCIETY OF MODEL ENGINEERS", "designationCode": "C", "categoryCode": "52", "address": "120 WILLINGDON AVE N", "city": "BURNABY", "province": "BC", "country": "CA", "postalCode": "V5C6K1", "twitter": "None", "instagram": "None", "facebook": "None", "youtube": "None", "website": "None", "summary": "None", "logo": "None", "latitude": 49.28567401782777, "longitude": -123.00287681895553}, "889979480RR0001": {"name": "THE BRITISH METHODIST EPISCOPAL CHURCH CONFERENCE", "designationCode": "C", "categoryCode": "39", "address": "7 WOOD FERN WAY", "city": "NORTH YORK", "province": "ON", "country": "CA", "postalCode": "M2J4P6", "twitter": "None", "instagram": "None", "facebook": "None", "youtube": "None", "website": "None", "summary": "None", "logo": "None", "latitude": 43.79105583680535, "longitude": -79.35913810087149}, "891239048RR0001": {"name": "THE BRITISH METHODIST EPISCOPAL CHURCH NIAGARA FALLS", "designationCode": "C", "categoryCode": "39", "address": "5674 PEER STREET", "city": "NIAGARA FALLS", "province": "ON", "country": "CA", "postalCode": "L2G1X1", "twitter": "None", "instagram": "None", "facebook": "None", "youtube": "None", "website": "None", "summary": "None", "logo": "None", "latitude": 43.08771855785112, "longitude": -79.08849133083272}, "887547461RR0001": {"name": "THE BRITISH METHODIST EPISCOPAL CHURCH OF CANADA, OWEN SOUND", "designationCode": "C", "categoryCode": "39", "address": "245 11TH STREET WEST", "city": "OWEN SOUND", "province": "ON", "country": "CA", "postalCode": "N4K3S7", "twitter": "None", "instagram": "None", "facebook": "None", "youtube": "None", "website": "None", "summary": "None", "logo": "None", "latitude": 44.56908060892156, "longitude": -80.94711688037397}, "892743188RR0001": {"name": "THE BROADWAY CHRISTIAN FOUNDATION", "designationCode": "A", "categoryCode": "43", "address": "2700 EAST BROADWAY", "city": "VANCOUVER", "province": "BC", "country": "CA", "postalCode": "V5M1Y8", "twitter": "None", "instagram": "None", "facebook": "None", "youtube": "None", "website": "None", "summary": "None", "logo": "None", "latitude": 49.261982548907014, "longitude": -123.04891171870852}, "119217388RR0001": {"name": "THE BROCK STREET MISSION PETERBOROUGH", "designationCode": "C", "categoryCode": "01", "address": "217 MURRAY ST                 BOX 1445", "city": "PETERBOROUGH", "province": "ON", "country": "CA", "postalCode": "K9J7H6", "twitter": "None", "instagram": "None", "facebook": "None", "youtube": "None", "website": "None", "summary": "None", "logo": "None", "latitude": 44.308257477350296, "longitude": -78.32275311073923}, "108098674RR0001": {"name": "THE BROCKVILLE AND DISTRICT ECUMENICAL CARE COMMUNITY", "designationCode": "C", "categoryCode": "01", "address": "5 WALL STREET", "city": "BROCKVILLE", "province": "ON", "country": "CA", "postalCode": "K6V4R8", "twitter": "None", "instagram": "None", "facebook": "None", "youtube": "None", "website": "None", "summary": "None", "logo": "None", "latitude": 44.59087585525576, "longitude": -75.68495456120118}}