{"106893084RR0001": {"name": "LE CENTRE D'ART DE PREVILLE INC/PREVILLE FINE ARTS CENTER INC.", "designationCode": "C", "categoryCode": "22", "address": "394 AVENUE DE DULWICH", "city": "ST-LAMBERT", "province": "QC", "country": "CA", "postalCode": "J4P2Z3", "twitter": "None", "instagram": "None", "facebook": "None", "youtube": "None", "website": "None", "summary": "None", "logo": "None", "latitude": 45.50956955288813, "longitude": -73.50921039396395}, "142660166RR0001": {"name": "LE CENTRE D'ART LA MAISON JAUNE", "designationCode": "C", "categoryCode": "22", "address": "206 RUE CHRISTOPHE-COLOMB EST", "city": "QUEBEC", "province": "QC", "country": "CA", "postalCode": "G1K3S7", "twitter": "None", "instagram": "None", "facebook": "None", "youtube": "None", "website": "None", "summary": "None", "logo": "None", "latitude": 46.811110986169886, "longitude": -71.2275572422274}, "894151596RR0001": {"name": "LE CENTRE D'ENTRAIDE LA DESTINEE", "designationCode": "C", "categoryCode": "09", "address": "177 CHEMIN DE LA SAVANNE", "city": "GATINEAU", "province": "QC", "country": "CA", "postalCode": "J8T1R2", "twitter": "None", "instagram": "None", "facebook": "None", "youtube": "None", "website": "None", "summary": "None", "logo": "None", "latitude": 45.475016467684114, "longitude": -75.68363592062437}, "887390193RR0001": {"name": "LE CENTRE D'ETUDE DES NOIRS (QUEBEC) INC /BLACK STUDIES (QUEBEC) INC", "designationCode": "C", "categoryCode": "09", "address": "5879 COTE ST ANTOINE ROAD", "city": "MONTREAL", "province": "QC", "country": "CA", "postalCode": "H4A1S4", "twitter": "None", "instagram": "None", "facebook": "None", "youtube": "None", "website": "None", "summary": "None", "logo": "None", "latitude": 45.46928037774823, "longitude": -73.61960572719128}, "119011245RR0001": {"name": "LE CENTRE D'EXPOSITION DE MONT-LAURIER INC.", "designationCode": "C", "categoryCode": "22", "address": "385 RUE DUPONT", "city": "MONT-LAURIER", "province": "QC", "country": "CA", "postalCode": "J9L3N7", "twitter": "None", "instagram": "None", "facebook": "None", "youtube": "None", "website": "None", "summary": "None", "logo": "None", "latitude": 46.75173132252285, "longitude": -71.71015121054286}, "123370306RR0001": {"name": "LE CENTRE D'EXPOSITION L'IMAGIER", "designationCode": "C", "categoryCode": "22", "address": "9 RUE FRONT", "city": "GATINEAU", "province": "QC", "country": "CA", "postalCode": "J9H4W8", "twitter": "None", "instagram": "None", "facebook": "None", "youtube": "None", "website": "None", "summary": "None", "logo": "None", "latitude": 45.3953659977783, "longitude": -75.85460066766672}, "140897109RR0001": {"name": "LE CENTRE D'INTERVENTION-JEUNESSE DES MASKOUTAINS", "designationCode": "C", "categoryCode": "09", "address": "16675 AV.DESROCHERS", "city": "SAINT-HYACINTHE", "province": "QC", "country": "CA", "postalCode": "J2T3K3", "twitter": "None", "instagram": "None", "facebook": "None", "youtube": "None", "website": "None", "summary": "None", "logo": "None", "latitude": 45.61994963030186, "longitude": -72.93371918541166}, "107606592RR0001": {"name": "LE CENTRE DE B\u00c9N\u00c9VOLAT DE ST-HYACINTHE INC.", "designationCode": "C", "categoryCode": "09", "address": "1015, DESSAULLES", "city": "SAINT-HYACINTHE", "province": "QC", "country": "CA", "postalCode": "J2S2Y8", "twitter": "None", "instagram": "None", "facebook": "None", "youtube": "None", "website": "None", "summary": "None", "logo": "None", "latitude": 45.628019613364955, "longitude": -72.94504523714595}, "889459772RR0001": {"name": "LE CENTRE DE BENEVOLAT DE LA TUQUE", "designationCode": "C", "categoryCode": "09", "address": "497 ST-ANTOINE CP 125", "city": "LA TUQUE", "province": "QC", "country": "CA", "postalCode": "G9X3P1", "twitter": "None", "instagram": "None", "facebook": "None", "youtube": "None", "website": "None", "summary": "None", "logo": "None", "latitude": 47.44116874854291, "longitude": -72.78393063448546}, "106893282RR0001": {"name": "LE CENTRE DE BENEVOLAT LAC-TEMISCAMINGUE", "designationCode": "C", "categoryCode": "09", "address": "721A ROUTE 101 NORD", "city": "DUHAMEL OUEST", "province": "QC", "country": "CA", "postalCode": "J9V2E2", "twitter": "None", "instagram": "None", "facebook": "None", "youtube": "None", "website": "None", "summary": "None", "logo": "None", "latitude": 47.34088603258141, "longitude": -79.43704007264223}, "103019592RR0001": {"name": "LE CENTRE DE FEMMES L'ERIGE", "designationCode": "C", "categoryCode": "09", "address": "35 3E AVENUE OUEST", "city": "LA SARRE", "province": "QC", "country": "CA", "postalCode": "J9Z1G8", "twitter": "None", "instagram": "None", "facebook": "None", "youtube": "None", "website": "None", "summary": "None", "logo": "None", "latitude": 48.807509481245454, "longitude": -79.20746991618097}, "106893639RR0001": {"name": "LE CENTRE DE FEMMES L'ESSENTIELLE", "designationCode": "C", "categoryCode": "09", "address": "231 RUE BRILLON", "city": "BELOEIL", "province": "QC", "country": "CA", "postalCode": "J3G2T5", "twitter": "None", "instagram": "None", "facebook": "None", "youtube": "None", "website": "None", "summary": "None", "logo": "None", "latitude": 45.57093149016091, "longitude": -73.20362315318268}, "139462980RR0001": {"name": "LE CENTRE DE FEMMES LES UNES ET LES AUTRES INC", "designationCode": "C", "categoryCode": "09", "address": "741, MGR DUBOIS", "city": "SAINT-JEROME", "province": "QC", "country": "CA", "postalCode": "J7Y3X2", "twitter": "None", "instagram": "None", "facebook": "None", "youtube": "None", "website": "None", "summary": "None", "logo": "None", "latitude": 45.79280907908717, "longitude": -74.01364428475395}, "895619955RR0001": {"name": "LE CENTRE DE L'ECOUTE", "designationCode": "C", "categoryCode": "09", "address": "2551 RUE SAINT-DOMINIQUE", "city": "JONQUIERE", "province": "QC", "country": "CA", "postalCode": "G7X6J6", "twitter": "None", "instagram": "None", "facebook": "None", "youtube": "None", "website": "None", "summary": "None", "logo": "None", "latitude": 48.408797927385095, "longitude": -71.25755866584996}, "894709294RR0001": {"name": "LE CENTRE DE L'ENFANCE DE RIVIERES-DES-PRAIRIES INC.", "designationCode": "C", "categoryCode": "20", "address": "10950 BOUL PERRAS", "city": "MONTREAL", "province": "QC", "country": "CA", "postalCode": "H1C1B3", "twitter": "None", "instagram": "None", "facebook": "None", "youtube": "None", "website": "None", "summary": "None", "logo": "None", "latitude": 45.669151917621605, "longitude": -73.54679558895856}, "119011062RR0001": {"name": "LE CENTRE DE LA FAMILLE DES HAUTES-LAURENTIDES", "designationCode": "C", "categoryCode": "01", "address": "362 SALABERRY", "city": "MONT-LAURIER", "province": "QC", "country": "CA", "postalCode": "J9L1N7", "twitter": "None", "instagram": "None", "facebook": "None", "youtube": "None", "website": "None", "summary": "None", "logo": "None", "latitude": 46.54950313737098, "longitude": -75.50137231167415}, "890259393RR0001": {"name": "LE CENTRE DE LA JEUNESSE DU DIOC\u00c8SE DE CHICOUTIMI", "designationCode": "C", "categoryCode": "49", "address": "6939 BOUL. TALBOT", "city": "LATERRIERE", "province": "QC", "country": "CA", "postalCode": "G7N1W2", "twitter": "None", "instagram": "None", "facebook": "None", "youtube": "None", "website": "None", "summary": "None", "logo": "None", "latitude": 48.29476992741618, "longitude": -71.15692472961184}, "103019725RR0001": {"name": "LE CENTRE DE LA MONTAGNE", "designationCode": "C", "categoryCode": "52", "address": "1260 CH REMEMBRANCE", "city": "MONTR\u00c9AL", "province": "QC", "country": "CA", "postalCode": "H3H1A2", "twitter": "None", "instagram": "None", "facebook": "None", "youtube": "None", "website": "None", "summary": "None", "logo": "None", "latitude": 45.501623665272135, "longitude": -73.59348470272391}, "101944841RR0001": {"name": "LE CENTRE DE LA PETITE ENFANCE DES P'TITS MARINGOUINS", "designationCode": "C", "categoryCode": "01", "address": "99 RUE RUPERT                 CASE POSTALE 119", "city": "MATAGAMI", "province": "QC", "country": "CA", "postalCode": "J0Y2A0", "twitter": "None", "instagram": "None", "facebook": "None", "youtube": "None", "website": "None", "summary": "None", "logo": "None", "latitude": 49.759836477350305, "longitude": -77.62732063780368}, "101945541RR0001": {"name": "LE CENTRE DE LA PETITE ENFANCE LA GIBOULEE", "designationCode": "C", "categoryCode": "01", "address": "531, RUE HUBERDEAU", "city": "LAVAL", "province": "QC", "country": "CA", "postalCode": "H7X1P6", "twitter": "None", "instagram": "None", "facebook": "None", "youtube": "None", "website": "None", "summary": "None", "logo": "None", "latitude": 45.52131817765005, "longitude": -73.80522346116324}, "864297932RR0001": {"name": "LE CENTRE DE LA PETITE ENFANCE LES DECIBELS", "designationCode": "C", "categoryCode": "01", "address": "600, RUE JEAN-TALON EST       3E ETAGE", "city": "MONTREAL", "province": "QC", "country": "CA", "postalCode": "H2R3A8", "twitter": "None", "instagram": "None", "facebook": "None", "youtube": "None", "website": "None", "summary": "None", "logo": "None", "latitude": 45.53933328836064, "longitude": -73.6137571478739}, "897160511RR0001": {"name": "LE CENTRE DE LA PETITE ENFANCE LES PETITS LUTINS DE ROUSSIN", "designationCode": "C", "categoryCode": "01", "address": "12125, RUE NOTRE-DAME EST     #210", "city": "MONTREAL", "province": "QC", "country": "CA", "postalCode": "H1B2Y9", "twitter": "None", "instagram": "None", "facebook": "None", "youtube": "None", "website": "None", "summary": "None", "logo": "None", "latitude": 45.64067987705574, "longitude": -73.49013857836508}, "101944643RR0001": {"name": "LE CENTRE DE LA PETITE ENFANCE LES PETITS MURMURES", "designationCode": "C", "categoryCode": "01", "address": "13 RUE COUILLARD", "city": "QU\u00c9BEC", "province": "QC", "country": "CA", "postalCode": "G1R3S8", "twitter": "None", "instagram": "None", "facebook": "None", "youtube": "None", "website": "None", "summary": "None", "logo": "None", "latitude": 46.815365536211026, "longitude": -71.20740564363206}, "101946853RR0001": {"name": "LE CENTRE DE LA PETITE ENFANCE WHITESIDE TAYLOR/WHITESIDE TAYLOR CHILD CARE CENTER", "designationCode": "C", "categoryCode": "20", "address": "20551 RUE LAKESHORE", "city": "BAIE-D'URFE", "province": "QC", "country": "CA", "postalCode": "H9X1R3", "twitter": "None", "instagram": "None", "facebook": "None", "youtube": "None", "website": "None", "summary": "None", "logo": "None", "latitude": 45.405145709312244, "longitude": -73.93515153455911}, "106901887RR0001": {"name": "LE CENTRE DE PARRAINAGE CIVIQUE DE QU\u00c9BEC INC.", "designationCode": "C", "categoryCode": "09", "address": "281-245 RUE SOUMANDE", "city": "QU\u00c9BEC", "province": "QC", "country": "CA", "postalCode": "G1M3H6", "twitter": "None", "instagram": "None", "facebook": "None", "youtube": "None", "website": "None", "summary": "None", "logo": "None", "latitude": 46.818563848981704, "longitude": -71.25255374473375}, "107606717RR0001": {"name": "LE CENTRE DE PARRAINAGE DE LA JEUNESSE DE BEAUCE", "designationCode": "C", "categoryCode": "09", "address": "2640 BOUL DIONNE", "city": "SAINT-GEORGES", "province": "QC", "country": "CA", "postalCode": "G5Y3X8", "twitter": "None", "instagram": "None", "facebook": "None", "youtube": "None", "website": "None", "summary": "None", "logo": "None", "latitude": 46.11151055311927, "longitude": -70.67174053335417}, "888036126RR0001": {"name": "LE CENTRE DE PREVENTION DU SUICIDE DE LANAUDIERE", "designationCode": "C", "categoryCode": "09", "address": "145 RUE JETT\u00c9", "city": "NOTRE-DAME-DES-PRAIRIES", "province": "QC", "country": "CA", "postalCode": "J6E1H6", "twitter": "None", "instagram": "None", "facebook": "None", "youtube": "None", "website": "None", "summary": "None", "logo": "None", "latitude": 46.0401983022391, "longitude": -73.43354671827582}, "128841517RR0001": {"name": "LE CENTRE DE PRIERE L'ALLIANCE INC", "designationCode": "C", "categoryCode": "49", "address": "7505 BOUL PARENT", "city": "TROIS-RIVIERES", "province": "QC", "country": "CA", "postalCode": "G9A5E1", "twitter": "None", "instagram": "None", "facebook": "None", "youtube": "None", "website": "None", "summary": "None", "logo": "None", "latitude": 46.364184178458096, "longitude": -72.62692918679664}, "106902414RR0001": {"name": "LE CENTRE DE READAPTATION CARDIAQUE D'EDMUNDSTON INC./ EDMUNDSTON CARDIAC REHABILITATION CENTER INC.", "designationCode": "C", "categoryCode": "11", "address": "CP 372", "city": "EDMUNDSTON", "province": "NB", "country": "CA", "postalCode": "E3V3L1", "twitter": "None", "instagram": "None", "facebook": "None", "youtube": "None", "website": "None", "summary": "None", "logo": "None", "latitude": 47.37372000000006, "longitude": -68.32513249999994}, "119011146RR0001": {"name": "LE CENTRE DE RECHERCHE ET D'INFORMATION EN CONSOMMATION (C.R.I.C.) PORT-CARTIER", "designationCode": "C", "categoryCode": "59", "address": "1 RUE WOOD BUREAU 2           CP 204", "city": "PORT CARTIER", "province": "QC", "country": "CA", "postalCode": "G5B2G8", "twitter": "None", "instagram": "None", "facebook": "None", "youtube": "None", "website": "None", "summary": "None", "logo": "None", "latitude": 50.02275026729746, "longitude": -66.87660931002935}, "119011153RR0001": {"name": "LE CENTRE DE RENAISSANCE CATHOLIQUE DES LAURENTIDES", "designationCode": "C", "categoryCode": "46", "address": "255 CH DE LA RESERVE", "city": "SHAWINIGAN", "province": "QC", "country": "CA", "postalCode": "G9N0B8", "twitter": "None", "instagram": "None", "facebook": "None", "youtube": "None", "website": "None", "summary": "None", "logo": "None", "latitude": 46.54847564533414, "longitude": -72.77902204128867}, "119011179RR0001": {"name": "LE CENTRE DE RESSOURCEMENT INC.", "designationCode": "C", "categoryCode": "09", "address": "775 RUE DU COLLEGE", "city": "BATHURST", "province": "NB", "country": "CA", "postalCode": "E2A4B9", "twitter": "None", "instagram": "None", "facebook": "None", "youtube": "None", "website": "None", "summary": "None", "logo": "None"}, "899338545RR0001": {"name": "LE CENTRE DE RESSOURCES FAMILIALES DU COMTE DE KENT, INC", "designationCode": "C", "categoryCode": "09", "address": "202-149 RUE ACADIE", "city": "RICHIBUCTO", "province": "NB", "country": "CA", "postalCode": "E4W3V5", "twitter": "None", "instagram": "None", "facebook": "None", "youtube": "None", "website": "None", "summary": "None", "logo": "None", "latitude": 46.68601482099365, "longitude": -64.86315738447065}, "136924925RR0001": {"name": "LE CENTRE DE RESSOURCES SUR LA NON-VIOLENCE (C R N V ) INC", "designationCode": "C", "categoryCode": "21", "address": "75 RUE DU SQUARE-SIR-GEORGET  \u00c9TIENNE-CARTIERLOCAL 108", "city": "MONTREAL", "province": "QC", "country": "CA", "postalCode": "H4C3A1", "twitter": "None", "instagram": "None", "facebook": "None", "youtube": "None", "website": "None", "summary": "None", "logo": "None", "latitude": 45.47273916322333, "longitude": -73.58398005326347}, "836775924RR0001": {"name": "LE CENTRE DE SERVICES COMPTABLES, FINANCIERS ET ADMINISTRATIFS DES ORGANISMES CHR\u00c9TIENS / THE ACCOUNTING, FINANCIAL AND ADMINISTRATIVE SERVICE CENTER FOR CHRISTIAN CHARITIES", "designationCode": "C", "categoryCode": "03", "address": "5425, BOUL. LAURIER OUEST,    BUR. 106", "city": "SAINT-HYACINTHE", "province": "QC", "country": "CA", "postalCode": "J2S3V6", "twitter": "None", "instagram": "None", "facebook": "None", "youtube": "None", "website": "None", "summary": "None", "logo": "None", "latitude": 45.60485870852365, "longitude": -72.97947886242747}, "106896244RR0001": {"name": "LE CENTRE DES ARTS VISUELS / THE VISUAL ARTS CENTRE", "designationCode": "C", "categoryCode": "22", "address": "350 VICTORIA AVENUE", "city": "WESTMOUNT", "province": "QC", "country": "CA", "postalCode": "H3Z2N4", "twitter": "None", "instagram": "None", "facebook": "None", "youtube": "None", "website": "None", "summary": "None", "logo": "None", "latitude": 45.478299815136594, "longitude": -73.60199288455756}, "130229859RR0001": {"name": "LE CENTRE DES FEMMES DE LA BASSE-VILLE", "designationCode": "C", "categoryCode": "09", "address": "380 RUE SAINT-VALLIER O", "city": "QUEBEC", "province": "QC", "country": "CA", "postalCode": "G1K1K6", "twitter": "None", "instagram": "None", "facebook": "None", "youtube": "None", "website": "None", "summary": "None", "logo": "None", "latitude": 46.81207078019497, "longitude": -71.23881726132484}, "119011203RR0001": {"name": "LE CENTRE DES FEMMES DE LAVAL", "designationCode": "C", "categoryCode": "59", "address": "69 8IEME RUE", "city": "LAVAL", "province": "QC", "country": "CA", "postalCode": "H7N2C5", "twitter": "None", "instagram": "None", "facebook": "None", "youtube": "None", "website": "None", "summary": "None", "logo": "None", "latitude": 45.56233448932421, "longitude": -73.69116258090484}, "893676031RR0001": {"name": "LE CENTRE DES FEMMES DE POINTE-AUX-TREMBLES", "designationCode": "C", "categoryCode": "09", "address": "164-12125 RUE NOTRE-DAME EST", "city": "POINTE-AUX-TREMBLES", "province": "QC", "country": "CA", "postalCode": "H1B2Y9", "twitter": "None", "instagram": "None", "facebook": "None", "youtube": "None", "website": "None", "summary": "None", "logo": "None", "latitude": 45.64067987705574, "longitude": -73.49013857836508}, "868152117RR0001": {"name": "LE CENTRE DES ORGANISMES COMMUNAUTAIRES / THE CENTRE FOR COMMUNITY ORGANIZATIONS", "designationCode": "C", "categoryCode": "20", "address": "3680, RUE JEANNE-MANCE        SUITE 470", "city": "MONTREAL", "province": "QC", "country": "CA", "postalCode": "H2X2K5", "twitter": "None", "instagram": "None", "facebook": "None", "youtube": "None", "website": "None", "summary": "None", "logo": "None", "latitude": 45.51161383345846, "longitude": -73.57612466876323}, "125273755RR0001": {"name": "LE CENTRE DES TEXTILES CONTEMPORAINS DE MONTREAL/THE MONTREAL CENTRE FOR CONTEMPORARY TEXTILES", "designationCode": "C", "categoryCode": "20", "address": "501-5800 RUE SAINT-DENIS", "city": "MONTREAL", "province": "QC", "country": "CA", "postalCode": "H2S3L5", "twitter": "None", "instagram": "None", "facebook": "None", "youtube": "None", "website": "None", "summary": "None", "logo": "None", "latitude": 45.5303779644528, "longitude": -73.59744602019684}, "861861227RR0001": {"name": "LE CENTRE DIDACHE", "designationCode": "C", "categoryCode": "09", "address": "1871 BOUL ROSEMONT", "city": "MONTREAL", "province": "QC", "country": "CA", "postalCode": "H2G1S7", "twitter": "None", "instagram": "None", "facebook": "None", "youtube": "None", "website": "None", "summary": "None", "logo": "None", "latitude": 45.541483542068086, "longitude": -73.59066740360058}, "121137236RR0001": {"name": "LE CENTRE DU VIEUX MOULIN DE LASALLE", "designationCode": "C", "categoryCode": "09", "address": "7644 RUE EDOUARD", "city": "LASALLE", "province": "QC", "country": "CA", "postalCode": "H8P1T3", "twitter": "None", "instagram": "None", "facebook": "None", "youtube": "None", "website": "None", "summary": "None", "logo": "None", "latitude": 45.430718731606035, "longitude": -73.59450572254633}, "107607038RR0001": {"name": "LE CENTRE GOELAND INC.", "designationCode": "C", "categoryCode": "56", "address": "7151 ROUTE 11, R.R3", "city": "WELLINGTON", "province": "PE", "country": "CA", "postalCode": "C0B2E0", "twitter": "None", "instagram": "None", "facebook": "None", "youtube": "None", "website": "None", "summary": "None", "logo": "None", "latitude": 46.40568871106245, "longitude": -64.11759690244673}, "889928198RR0001": {"name": "LE CENTRE INTERNATIONAL DE LA PHOTOGRAPHIE INC.", "designationCode": "C", "categoryCode": "22", "address": "7496 RUE BOYER", "city": "MONTREAL", "province": "QC", "country": "CA", "postalCode": "H2R2R8", "twitter": "None", "instagram": "None", "facebook": "None", "youtube": "None", "website": "None", "summary": "None", "logo": "None", "latitude": 45.54381769856898, "longitude": -73.6174825237462}, "868472408RR0001": {"name": "LE CENTRE LA MESANGE", "designationCode": "C", "categoryCode": "09", "address": "121 1E RUE EST", "city": "SENNETERRE", "province": "QC", "country": "CA", "postalCode": "J0Y2M0", "twitter": "None", "instagram": "None", "facebook": "None", "youtube": "None", "website": "None", "summary": "None", "logo": "None", "latitude": 48.3931265342778, "longitude": -77.23278071328416}, "106889314RR0001": {"name": "LE CENTRE LE BEAU VOYAGE INC.", "designationCode": "C", "categoryCode": "57", "address": "4540 RUE GARNIER", "city": "MONTREAL", "province": "QC", "country": "CA", "postalCode": "H2J3S7", "twitter": "None", "instagram": "None", "facebook": "None", "youtube": "None", "website": "None", "summary": "None", "logo": "None", "latitude": 45.53124681513661, "longitude": -73.57738591009279}, "119011344RR0001": {"name": "LE CENTRE LOUISE-AMELIE, INC.", "designationCode": "C", "categoryCode": "09", "address": "CP 6001", "city": "STE-ANNE DES MONTS", "province": "QC", "country": "CA", "postalCode": "G4V2Y3", "twitter": "None", "instagram": "None", "facebook": "None", "youtube": "None", "website": "None", "summary": "None", "logo": "None", "latitude": 49.12917900000005, "longitude": -66.48636049999993}, "119011351RR0001": {"name": "LE CENTRE MARIE-LEONIE PARADIS", "designationCode": "C", "categoryCode": "49", "address": "1820 RUE GALT OUEST", "city": "SHERBROOKE", "province": "QC", "country": "CA", "postalCode": "J1K1H9", "twitter": "None", "instagram": "None", "facebook": "None", "youtube": "None", "website": "None", "summary": "None", "logo": "None", "latitude": 45.386774648475146, "longitude": -71.9172799320736}, "107607103RR0001": {"name": "LE CENTRE MECHTILDE", "designationCode": "C", "categoryCode": "01", "address": "C.P. 79182", "city": "GATINEAU", "province": "QC", "country": "CA", "postalCode": "J8Y6V2", "twitter": "None", "instagram": "None", "facebook": "None", "youtube": "None", "website": "None", "summary": "None", "logo": "None", "latitude": 45.428298000000055, "longitude": -75.71037049999994}, "134048180RR0001": {"name": "LE CENTRE MOI J'APPRENDS INC.", "designationCode": "C", "categoryCode": "20", "address": "100-1468 RUE LAURIER", "city": "ROCKLAND", "province": "ON", "country": "CA", "postalCode": "K4K1C7", "twitter": "None", "instagram": "None", "facebook": "None", "youtube": "None", "website": "None", "summary": "None", "logo": "None", "latitude": 45.5514462624147, "longitude": -75.28815029299084}, "880437165RR0001": {"name": "LE CENTRE OPTION-PREVENTION T.V.D.S.", "designationCode": "C", "categoryCode": "57", "address": "615 RUE PROVOST, BUREAU 1", "city": "LACHINE", "province": "QC", "country": "CA", "postalCode": "H8S1M5", "twitter": "None", "instagram": "None", "facebook": "None", "youtube": "None", "website": "None", "summary": "None", "logo": "None", "latitude": 45.44195954342439, "longitude": -73.66937399999999}, "888628476RR0001": {"name": "LE CENTRE POLYVALENT DES AINES FRANCOPHONES DE PORT COLBORNE", "designationCode": "C", "categoryCode": "09", "address": "184 MITCHELL ST", "city": "PORT COLBORNE", "province": "ON", "country": "CA", "postalCode": "L3K1Y1", "twitter": "None", "instagram": "None", "facebook": "None", "youtube": "None", "website": "None", "summary": "None", "logo": "None", "latitude": 42.88428933527612, "longitude": -79.24366902986304}, "103020822RR0001": {"name": "LE CENTRE RECREATIF DE ST. LEON INC.", "designationCode": "C", "categoryCode": "56", "address": "BOX 5032", "city": "ST LEON", "province": "MB", "country": "CA", "postalCode": "R0G2E0", "twitter": "None", "instagram": "None", "facebook": "None", "youtube": "None", "website": "None", "summary": "None", "logo": "None", "latitude": 49.363530000000026, "longitude": -98.58826999999997}, "119011385RR0001": {"name": "LE CENTRE RECREATIF ST-FRANCOIS D'ASSISE INC.", "designationCode": "C", "categoryCode": "56", "address": "16, ROYAL-ROUSSILLON", "city": "QUEBEC", "province": "QC", "country": "CA", "postalCode": "G1L2J7", "twitter": "None", "instagram": "None", "facebook": "None", "youtube": "None", "website": "None", "summary": "None", "logo": "None", "latitude": 46.82676942521201, "longitude": -71.23552111907777}, "119011393RR0001": {"name": "LE CENTRE REGAIN DE VIE INC.", "designationCode": "C", "categoryCode": "09", "address": "12 RUE TURGEON", "city": "ST. THERESE-DE-BLAINVILLE", "province": "QC", "country": "CA", "postalCode": "J7E3H3", "twitter": "None", "instagram": "None", "facebook": "None", "youtube": "None", "website": "None", "summary": "None", "logo": "None", "latitude": 45.63921336052288, "longitude": -73.84151108425172}, "119011401RR0001": {"name": "LE CENTRE REGIONAL DE LOISIRS CULTURELS INC.", "designationCode": "C", "categoryCode": "56", "address": "7 AURORA AVE", "city": "KAPUSKASING", "province": "ON", "country": "CA", "postalCode": "P5N1J6", "twitter": "None", "instagram": "None", "facebook": "None", "youtube": "None", "website": "None", "summary": "None", "logo": "None", "latitude": 49.419317558285904, "longitude": -82.43328287652558}, "137481081RR0001": {"name": "LE CENTRE RESIDENTIEL ET COMMUNAUTAIRE JACQUES CARTIER", "designationCode": "C", "categoryCode": "01", "address": "20 BOUL. CHAREST EST", "city": "QUEBEC", "province": "QC", "country": "CA", "postalCode": "G1K3G2", "twitter": "None", "instagram": "None", "facebook": "None", "youtube": "None", "website": "None", "summary": "None", "logo": "None", "latitude": 46.81146976048814, "longitude": -71.2303094171619}, "106902901RR0001": {"name": "LE CENTRE SOCIO-CULTUREL MANOIR LEBOUTILLIER INC.", "designationCode": "C", "categoryCode": "53", "address": "578 BOUL GRIFFON, CP 37       L'ANSE-AU-GRIFFON", "city": "GASPE", "province": "QC", "country": "CA", "postalCode": "G4X6A4", "twitter": "None", "instagram": "None", "facebook": "None", "youtube": "None", "website": "None", "summary": "None", "logo": "None", "latitude": 48.932570644411456, "longitude": -64.30166705955322}, "866747488RR0001": {"name": "LE CENTRE UNITAS", "designationCode": "C", "categoryCode": "39", "address": "7235 RUE PIERRE-CORNEILLE     APP 226", "city": "MONTREAL", "province": "QC", "country": "CA", "postalCode": "H1M1L3", "twitter": "None", "instagram": "None", "facebook": "None", "youtube": "None", "website": "None", "summary": "None", "logo": "None", "latitude": 45.59278690510112, "longitude": -73.54564083077447}, "896869153RR0001": {"name": "LE CENTRE VICTORIA POUR FEMMES (SUDBURY)", "designationCode": "C", "categoryCode": "09", "address": "C.P.308", "city": "SUDBURY", "province": "ON", "country": "CA", "postalCode": "P3E4P2", "twitter": "None", "instagram": "None", "facebook": "None", "youtube": "None", "website": "None", "summary": "None", "logo": "None", "latitude": 46.48958700000006, "longitude": -80.99011249999994}, "876316647RR0001": {"name": "LE CENTRE VIOMAX", "designationCode": "C", "categoryCode": "56", "address": "2275 AVENUE LAURIER EST", "city": "MONTREAL", "province": "QC", "country": "CA", "postalCode": "H2H2N8", "twitter": "None", "instagram": "None", "facebook": "None", "youtube": "None", "website": "None", "summary": "None", "logo": "None", "latitude": 45.540180972271735, "longitude": -73.57637612037584}, "130798051RR0001": {"name": "LE CENTRESPOIR-CHARLESBOURG INC", "designationCode": "C", "categoryCode": "09", "address": "7260, BOUL. CLOUTIER", "city": "QU\u00c9BEC", "province": "QC", "country": "CA", "postalCode": "G1H3E8", "twitter": "None", "instagram": "None", "facebook": "None", "youtube": "None", "website": "None", "summary": "None", "logo": "None", "latitude": 46.85359350207748, "longitude": -71.27384134566348}, "120585229RR0001": {"name": "LE CERCLE DE L'AMITIE DE CAP ST-IGNACE", "designationCode": "C", "categoryCode": "09", "address": "100 PLACE DE L'EGLISE", "city": "CAP ST IGNACE", "province": "QC", "country": "CA", "postalCode": "G0R1H0", "twitter": "None", "instagram": "None", "facebook": "None", "youtube": "None", "website": "None", "summary": "None", "logo": "None", "latitude": 47.037257939465846, "longitude": -70.456152416585}, "864130539RR0001": {"name": "LE CERCLE DES 4 VENTS", "designationCode": "C", "categoryCode": "09", "address": "4458, AVENUE DE LORIMIER", "city": "MONTREAL", "province": "QC", "country": "CA", "postalCode": "H2H2B2", "twitter": "None", "instagram": "None", "facebook": "None", "youtube": "None", "website": "None", "summary": "None", "logo": "None", "latitude": 45.534829789601375, "longitude": -73.57176549391181}, "869322545RR0001": {"name": "LE CERCLE SACERDOTAL DE MONTREAL", "designationCode": "C", "categoryCode": "39", "address": "630 SHERBROOKE OUEST          SUITE 400", "city": "MONTREAL", "province": "QC", "country": "CA", "postalCode": "H3A1E4", "twitter": "None", "instagram": "None", "facebook": "None", "youtube": "None", "website": "None", "summary": "None", "logo": "None", "latitude": 45.505404, "longitude": -73.5724035}, "119011450RR0001": {"name": "LE CERCLE ST-FRANCOIS D'ASSISE", "designationCode": "C", "categoryCode": "49", "address": "20, AVENUE FAIRMONT", "city": "OTTAWA", "province": "ON", "country": "CA", "postalCode": "K1Y2K2", "twitter": "None", "instagram": "None", "facebook": "None", "youtube": "None", "website": "None", "summary": "None", "logo": "None", "latitude": 45.40390513376432, "longitude": -75.72336519250946}, "107607319RR0001": {"name": "LE CHAPITRE DE QUEBEC", "designationCode": "C", "categoryCode": "49", "address": "CP 459 HAUTE VILLE", "city": "QUEBEC", "province": "QC", "country": "CA", "postalCode": "G1R4R6", "twitter": "None", "instagram": "None", "facebook": "None", "youtube": "None", "website": "None", "summary": "None", "logo": "None", "latitude": 46.81977000000006, "longitude": -71.23039999999997}, "135877207RR0001": {"name": "LE CHATEAU LOGUE INC.", "designationCode": "C", "categoryCode": "50", "address": "8 RUE COMEAU", "city": "MANIWAKI", "province": "QC", "country": "CA", "postalCode": "J9E2R8", "twitter": "None", "instagram": "None", "facebook": "None", "youtube": "None", "website": "None", "summary": "None", "logo": "None", "latitude": 46.382227594221675, "longitude": -75.966684356533}, "123873333RR0001": {"name": "LE CHENAIL INC", "designationCode": "C", "categoryCode": "23", "address": "C.P. 431", "city": "HAWKESBURY", "province": "ON", "country": "CA", "postalCode": "K6A2S2", "twitter": "None", "instagram": "None", "facebook": "None", "youtube": "None", "website": "None", "summary": "None", "logo": "None", "latitude": 45.60786600000006, "longitude": -74.61418399999994}, "103021598RR0001": {"name": "LE CHEZ NOUS DES ARTISTES INC.", "designationCode": "C", "categoryCode": "09", "address": "332-6055 RUE BEAUBIEN E", "city": "MONTREAL", "province": "QC", "country": "CA", "postalCode": "H1M3M5", "twitter": "None", "instagram": "None", "facebook": "None", "youtube": "None", "website": "None", "summary": "None", "logo": "None", "latitude": 45.59320668606367, "longitude": -73.55769425642677}, "130350242RR0001": {"name": "LE CHEZ-NOUS DE MERCIER-EST", "designationCode": "C", "categoryCode": "01", "address": "7958 HOCHELAGA", "city": "MONTREAL", "province": "QC", "country": "CA", "postalCode": "H1L2K8", "twitter": "None", "instagram": "None", "facebook": "None", "youtube": "None", "website": "None", "summary": "None", "logo": "None", "latitude": 45.594153733827724, "longitude": -73.52389830610556}, "103061511RR0001": {"name": "LE CHIC RESTO-POP INC.", "designationCode": "C", "categoryCode": "09", "address": "1500 AVENUE D'ORLEANS", "city": "MONTREAL", "province": "QC", "country": "CA", "postalCode": "H1W3R1", "twitter": "None", "instagram": "None", "facebook": "None", "youtube": "None", "website": "None", "summary": "None", "logo": "None", "latitude": 45.547217162906215, "longitude": -73.53804243686875}, "848405940RR0001": {"name": "LE CHIEN QUI CHANTE", "designationCode": "C", "categoryCode": "22", "address": "1789, RUE ST-ANDRE", "city": "MONTREAL", "province": "QC", "country": "CA", "postalCode": "H2L3T9", "twitter": "None", "instagram": "None", "facebook": "None", "youtube": "None", "website": "None", "summary": "None", "logo": "None", "latitude": 45.518330177650036, "longitude": -73.56235048055295}, "856170675RR0001": {"name": "LE CHOEUR D'ORLEANS", "designationCode": "C", "categoryCode": "22", "address": "1809 CHEMIN O'TOOLE", "city": "CUMBERLAND", "province": "ON", "country": "CA", "postalCode": "K4C1N2", "twitter": "None", "instagram": "None", "facebook": "None", "youtube": "None", "website": "None", "summary": "None", "logo": "None", "latitude": 45.48558365032582, "longitude": -75.42499135833079}, "867629107RR0001": {"name": "LE CHOEUR DE CHAMBRE DE RIMOUSKI INC.", "designationCode": "C", "categoryCode": "22", "address": "CASE POSTALE 1243", "city": "RIMOUSKI", "province": "QC", "country": "CA", "postalCode": "G5L8M2", "twitter": "None", "instagram": "None", "facebook": "None", "youtube": "None", "website": "None", "summary": "None", "logo": "None", "latitude": 48.41326500000005, "longitude": -68.62843699999993}, "135976488RR0001": {"name": "LE CHOEUR DE CHAMBRE TACTUS", "designationCode": "C", "categoryCode": "22", "address": "1245 AV. O'BRIEN", "city": "MONTR\u00c9AL", "province": "QC", "country": "CA", "postalCode": "H4L3W1", "twitter": "None", "instagram": "None", "facebook": "None", "youtube": "None", "website": "None", "summary": "None", "logo": "None", "latitude": 45.51780516071317, "longitude": -73.68377823423175}, "891862047RR0001": {"name": "LE CHOEUR DE L'OUTAOUAIS", "designationCode": "C", "categoryCode": "22", "address": "C.P 1653                      SUCC B", "city": "GATINEAU", "province": "QC", "country": "CA", "postalCode": "J8X3Y5", "twitter": "None", "instagram": "None", "facebook": "None", "youtube": "None", "website": "None", "summary": "None", "logo": "None", "latitude": 45.428298000000055, "longitude": -75.71037049999994}, "867293912RR0001": {"name": "LE CHOEUR DE RIMOUSKI INC.", "designationCode": "C", "categoryCode": "22", "address": "C.P. 1408", "city": "RIMOUSKI", "province": "QC", "country": "CA", "postalCode": "G5L8M3", "twitter": "None", "instagram": "None", "facebook": "None", "youtube": "None", "website": "None", "summary": "None", "logo": "None", "latitude": 48.44933700000006, "longitude": -68.52474349999993}, "119011500RR0001": {"name": "LE CHOEUR DU MOULIN", "designationCode": "C", "categoryCode": "22", "address": "PO BOX 503 STN MAIN", "city": "ROCKLAND", "province": "ON", "country": "CA", "postalCode": "K4K1K6", "twitter": "None", "instagram": "None", "facebook": "None", "youtube": "None", "website": "None", "summary": "None", "logo": "None", "latitude": 45.54602700000005, "longitude": -75.29304049999993}, "888370848RR0001": {"name": "LE CHOEUR LA BOHEME", "designationCode": "C", "categoryCode": "22", "address": "15 BOUL MAPLE", "city": "CHATEAUGUAY", "province": "QC", "country": "CA", "postalCode": "J6J2P7", "twitter": "None", "instagram": "None", "facebook": "None", "youtube": "None", "website": "None", "summary": "None", "logo": "None", "latitude": 45.36167892423106, "longitude": -73.73256785013554}, "119011526RR0001": {"name": "LE CHOEUR POLYPHONIQUE DE MONTREAL INC.-THE POLYPHONIC CHOIR OF MONTREAL INC.", "designationCode": "C", "categoryCode": "22", "address": "1071 RUE DE LA CATHEDRALE", "city": "MONTREAL", "province": "QC", "country": "CA", "postalCode": "H3B2V3", "twitter": "None", "instagram": "None", "facebook": "None", "youtube": "None", "website": "None", "summary": "None", "logo": "None", "latitude": 45.49842495504641, "longitude": -73.56775853690353}, "890099641RR0001": {"name": "LE CHOEUR SYMPHONIQUE DE SHERBROOKE", "designationCode": "C", "categoryCode": "22", "address": "C.P. 153                      SUCCURSALE PLACE DE LA CIT\u00c9", "city": "SHERBROOKE", "province": "QC", "country": "CA", "postalCode": "J1H5H8", "twitter": "None", "instagram": "None", "facebook": "None", "youtube": "None", "website": "None", "summary": "None", "logo": "None", "latitude": 45.39993924181269, "longitude": -71.89518081045317}, "856160106RR0001": {"name": "LE CHOEUR VIVACE DE LA MONTEREGIE", "designationCode": "C", "categoryCode": "22", "address": "8 RUE COTE", "city": "ST-BASILE-LE-GRAND", "province": "QC", "country": "CA", "postalCode": "J3N1A7", "twitter": "None", "instagram": "None", "facebook": "None", "youtube": "None", "website": "None", "summary": "None", "logo": "None", "latitude": 45.5319660607653, "longitude": -73.2841655405102}, "119011542RR0001": {"name": "LE CIMETIERE AGUDATH ACHIM INC.-THE AGUDATH ACHIM CEMETERY INC.", "designationCode": "C", "categoryCode": "59", "address": "6045 CAVENDISH BOULEVARD", "city": "MONTREAL", "province": "QC", "country": "CA", "postalCode": "H4W3B3", "twitter": "None", "instagram": "None", "facebook": "None", "youtube": "None", "website": "None", "summary": "None", "logo": "None", "latitude": 45.48084749267107, "longitude": -73.6715766923079}, "133564831RR0001": {"name": "LE CIMETIERE CATHOLIQUE DE VALLEYFIELD", "designationCode": "C", "categoryCode": "59", "address": "15, RUE SALABERRY EST", "city": "SALABERRY-DE-VALLEYFIELD", "province": "QC", "country": "CA", "postalCode": "J6T2G8", "twitter": "None", "instagram": "None", "facebook": "None", "youtube": "None", "website": "None", "summary": "None", "logo": "None", "latitude": 45.255971279904266, "longitude": -74.12073748750004}, "119251684RR0001": {"name": "LE CLUB BON ACCUEIL", "designationCode": "C", "categoryCode": "22", "address": "5110 AVENUE MANSON", "city": "POWELL RIVER", "province": "BC", "country": "CA", "postalCode": "V8A3P1", "twitter": "None", "instagram": "None", "facebook": "None", "youtube": "None", "website": "None", "summary": "None", "logo": "None", "latitude": 49.85446561645205, "longitude": -124.51113640579455}, "118865773RR0001": {"name": "LE CLUB D'AGE D'OR ACADIEN DE SHEDIAC INC.", "designationCode": "C", "categoryCode": "56", "address": "27 RUE SACKVILLE", "city": "SHEDIAC", "province": "NB", "country": "CA", "postalCode": "E4P2P9", "twitter": "None", "instagram": "None", "facebook": "None", "youtube": "None", "website": "None", "summary": "None", "logo": "None", "latitude": 46.21834957311457, "longitude": -64.5400780940039}, "119011567RR0001": {"name": "LE CLUB D'AGE D'OR DE BARACHOIS INC.", "designationCode": "C", "categoryCode": "56", "address": "1360 ROUTE 133", "city": "GRAND BARACHOIS", "province": "NB", "country": "CA", "postalCode": "E4P8G2", "twitter": "None", "instagram": "None", "facebook": "None", "youtube": "None", "website": "None", "summary": "None", "logo": "None", "latitude": 46.2245244975468, "longitude": -64.42103044134957}, "880122676RR0001": {"name": "LE CLUB D'AGE D'OR DOMREMY INC.", "designationCode": "C", "categoryCode": "56", "address": "PO BOX 53", "city": "DOMREMY", "province": "SK", "country": "CA", "postalCode": "S0K1G0", "twitter": "None", "instagram": "None", "facebook": "None", "youtube": "None", "website": "None", "summary": "None", "logo": "None", "latitude": 52.789660000000026, "longitude": -105.73282999999998}, "132009978RR0001": {"name": "LE CLUB DE RECHERCHE D'EMPLOIS DU PONTIAC", "designationCode": "C", "categoryCode": "09", "address": "80 RUE LESLIE                 CP 219", "city": "CAMPBELL'S BAY", "province": "QC", "country": "CA", "postalCode": "J0X1K0", "twitter": "None", "instagram": "None", "facebook": "None", "youtube": "None", "website": "None", "summary": "None", "logo": "None", "latitude": 45.73341085306928, "longitude": -76.6017548530693}, "880664149RR0001": {"name": "LE CLUB DES AINE(E)S DE NOTRE-DAME DES NEIGES LTEE", "designationCode": "C", "categoryCode": "56", "address": "129 RUE ARRAN", "city": "CAMPBELLTON", "province": "NB", "country": "CA", "postalCode": "E3N1M1", "twitter": "None", "instagram": "None", "facebook": "None", "youtube": "None", "website": "None", "summary": "None", "logo": "None", "latitude": 47.99976317626508, "longitude": -66.68096972482535}, "118865971RR0001": {"name": "LE CLUB DES FAMILLES DE DEMAIN INC.", "designationCode": "C", "categoryCode": "56", "address": "14115, PRINCE ARTHUR, BUR. 437", "city": "MONTR\u00c9AL", "province": "QC", "country": "CA", "postalCode": "H1A1A8", "twitter": "None", "instagram": "None", "facebook": "None", "youtube": "None", "website": "None", "summary": "None", "logo": "None", "latitude": 45.67149856953654, "longitude": -73.50907747258886}, "817006075RR0001": {"name": "LE CLUB DES SPORTS D.J. INC./D.J. SPORTS CLUB INC.", "designationCode": "C", "categoryCode": "09", "address": "201 - 525 RUE DOMINION", "city": "MONTREAL", "province": "QC", "country": "CA", "postalCode": "H3J2B4", "twitter": "None", "instagram": "None", "facebook": "None", "youtube": "None", "website": "None", "summary": "None", "logo": "None", "latitude": 45.48452789621432, "longitude": -73.5735421333316}, "891514788RR0001": {"name": "LE CLUB LIONS DE REPENTIGNY INC FONDS BIEN-ETRE", "designationCode": "C", "categoryCode": "09", "address": "50, RUE THOUIN", "city": "REPENTIGNY", "province": "QC", "country": "CA", "postalCode": "J6A4J4", "twitter": "None", "instagram": "None", "facebook": "None", "youtube": "None", "website": "None", "summary": "None", "logo": "None", "latitude": 45.73416390891028, "longitude": -73.45014598687135}, "137770533RR0001": {"name": "LE CLUB POPULAIRE DES CONSOMMATEURS DE LA POINTE ST-CHARLES", "designationCode": "C", "categoryCode": "09", "address": "1945, RUE MULLINS             PORTE 30", "city": "MONTREAL", "province": "QC", "country": "CA", "postalCode": "H3K1N9", "twitter": "None", "instagram": "None", "facebook": "None", "youtube": "None", "website": "None", "summary": "None", "logo": "None", "latitude": 45.48090306523738, "longitude": -73.56151176897089}, "889139846RR0001": {"name": "LE CLUB RECREATIF DE GRANDE-DIGUE INC", "designationCode": "C", "categoryCode": "56", "address": "468 ROUTE 530", "city": "GRANDE-DIGUE", "province": "NB", "country": "CA", "postalCode": "E4R5K3", "twitter": "None", "instagram": "None", "facebook": "None", "youtube": "None", "website": "None", "summary": "None", "logo": "None", "latitude": 46.294721708436924, "longitude": -64.5628698817498}, "132551805RR0001": {"name": "LE CLUB SAINT-LAURENT DES AVEUGLES (MONTREAL)", "designationCode": "C", "categoryCode": "59", "address": "2375 JEAN-TALON EST APP 11", "city": "MONTREAL", "province": "QC", "country": "CA", "postalCode": "H2E1W1", "twitter": "None", "instagram": "None", "facebook": "None", "youtube": "None", "website": "None", "summary": "None", "logo": "None", "latitude": 45.55269853817293, "longitude": -73.60287640302364}, "882806946RR0001": {"name": "LE COIN ALPHA", "designationCode": "C", "categoryCode": "20", "address": "101 - 227 RUE SAINT-GEORGES", "city": "SAINT-JEROME", "province": "QC", "country": "CA", "postalCode": "J7Z5A1", "twitter": "None", "instagram": "None", "facebook": "None", "youtube": "None", "website": "None", "summary": "None", "logo": "None", "latitude": 45.77441913350451, "longitude": -74.00280596055765}, "138439708RR0001": {"name": "LE COIN DU PARTAGE BEAUHARNOIS INC", "designationCode": "C", "categoryCode": "09", "address": "109 - 600 RUE ELLICE", "city": "BEAUHARNOIS", "province": "QC", "country": "CA", "postalCode": "J6N3P7", "twitter": "None", "instagram": "None", "facebook": "None", "youtube": "None", "website": "None", "summary": "None", "logo": "None", "latitude": 45.31367296641469, "longitude": -73.87731407576895}}