{"888255635RR0001": {"name": "NEW LIFE UNITED PENTECOSTAL CHURCH", "designationCode": "C", "categoryCode": "39", "address": "619 VICTORIA ST", "city": "DALHOUSIE", "province": "NB", "country": "CA", "postalCode": "E8C2V6", "twitter": "None", "instagram": "None", "facebook": "None", "youtube": "None", "website": "None", "summary": "None", "logo": "None", "latitude": 48.065793058346706, "longitude": -66.39890484787786}, "139512263RR0001": {"name": "NEW LIFE VICTORY FELLOWSHIP", "designationCode": "C", "categoryCode": "39", "address": "BOX 703", "city": "LAC LA BICHE", "province": "AB", "country": "CA", "postalCode": "T0A2C0", "twitter": "None", "instagram": "None", "facebook": "None", "youtube": "None", "website": "None", "summary": "None", "logo": "None", "latitude": 54.768200000000036, "longitude": -111.98244999999997}, "869353367RR0001": {"name": "NEW LIFE! CHRISTIAN MINISTRIES", "designationCode": "C", "categoryCode": "47", "address": "450 DUNDAS STREET WEST", "city": "TORONTO", "province": "ON", "country": "CA", "postalCode": "M5T1G7", "twitter": "None", "instagram": "None", "facebook": "None", "youtube": "None", "website": "None", "summary": "None", "logo": "None"}, "137963385RR0001": {"name": "NEW LISKEARD STEPPING STONES DAY CARE CENTRE", "designationCode": "C", "categoryCode": "20", "address": "PO BOX 159                    141 DYMOND AVENUE", "city": "NEW LISKEARD", "province": "ON", "country": "CA", "postalCode": "P0J1P0", "twitter": "None", "instagram": "None", "facebook": "None", "youtube": "None", "website": "None", "summary": "None", "logo": "None", "latitude": 47.51141042222811, "longitude": -79.67681204311087}, "898100235RR0001": {"name": "NEW LONDON COMMUNITY COMPLEX", "designationCode": "C", "categoryCode": "56", "address": "10227 RTE 6                   RR 6", "city": "KENSINGTON", "province": "PE", "country": "CA", "postalCode": "C0B1M0", "twitter": "None", "instagram": "None", "facebook": "None", "youtube": "None", "website": "None", "summary": "None", "logo": "None", "latitude": 46.44121945954752, "longitude": -63.627381163373386}, "119056273RR0001": {"name": "NEW MANNA MINISTRIES ASSOCIATION", "designationCode": "C", "categoryCode": "47", "address": "BOX 1325", "city": "VERNON", "province": "BC", "country": "CA", "postalCode": "V1T6N6", "twitter": "None", "instagram": "None", "facebook": "None", "youtube": "None", "website": "None", "summary": "None", "logo": "None", "latitude": 50.26567200000005, "longitude": -119.27378149999993}, "854334844RR0001": {"name": "NEW MARYLAND COMMUNITY SUPPORT GROUP INC.", "designationCode": "C", "categoryCode": "53", "address": "584 NEW MARYLAND HWY", "city": "NEW MARYLAND", "province": "NB", "country": "CA", "postalCode": "E3C1K1", "twitter": "None", "instagram": "None", "facebook": "None", "youtube": "None", "website": "None", "summary": "None", "logo": "None", "latitude": 45.88187189260766, "longitude": -66.69085923333678}, "135249878RR0001": {"name": "NEW MARYLAND HOME AND SCHOOL ASSOCIATION", "designationCode": "C", "categoryCode": "21", "address": "75 CLOVER ST", "city": "NEW MARYLAND", "province": "NB", "country": "CA", "postalCode": "E3C1C5", "twitter": "None", "instagram": "None", "facebook": "None", "youtube": "None", "website": "None", "summary": "None", "logo": "None", "latitude": 45.89740163030184, "longitude": -66.69182262141504}, "132305251RR0001": {"name": "NEW MARYLAND PASTORAL CHARGE - UNITED CHURCH OF CANADA", "designationCode": "C", "categoryCode": "44", "address": "166 PHILLIPS DR", "city": "NEW MARYLAND", "province": "NB", "country": "CA", "postalCode": "E3C1E8", "twitter": "None", "instagram": "None", "facebook": "None", "youtube": "None", "website": "None", "summary": "None", "logo": "None", "latitude": 45.88967698917997, "longitude": -66.69107356757463}, "890675622RR0001": {"name": "NEW MERCY MINISTRIES", "designationCode": "C", "categoryCode": "39", "address": "5112 HWY 62 SOUTH             RR7", "city": "BELLEVILLE", "province": "ON", "country": "CA", "postalCode": "K8N4Z7", "twitter": "None", "instagram": "None", "facebook": "None", "youtube": "None", "website": "None", "summary": "None", "logo": "None", "latitude": 44.135169485437544, "longitude": -77.3814739093292}, "825260482RR0001": {"name": "NEW MINAS BAPTIST CHURCH", "designationCode": "C", "categoryCode": "31", "address": "9453 COMMERCIAL STREET", "city": "NEW MINAS", "province": "NS", "country": "CA", "postalCode": "B4N3G3", "twitter": "None", "instagram": "None", "facebook": "None", "youtube": "None", "website": "None", "summary": "None", "logo": "None", "latitude": 45.07337427688738, "longitude": -64.43306708467787}, "107669848RR0003": {"name": "NEW MINAS SEVENTH-DAY ADVENTIST CHURCH", "designationCode": "C", "categoryCode": "41", "address": "121 SALISBURY RD", "city": "MONCTON", "province": "NB", "country": "CA", "postalCode": "E1E1A6", "twitter": "None", "instagram": "None", "facebook": "None", "youtube": "None", "website": "None", "summary": "None", "logo": "None", "latitude": 46.0711640413756, "longitude": -64.82144086984238}, "119056430RR0001": {"name": "NEW MINAS VOLUNTEER FIRE DEPARTMENT", "designationCode": "C", "categoryCode": "59", "address": "6 JONES ROAD", "city": "NEW MINAS", "province": "NS", "country": "CA", "postalCode": "B4N3N1", "twitter": "None", "instagram": "None", "facebook": "None", "youtube": "None", "website": "None", "summary": "None", "logo": "None", "latitude": 45.06744599999999, "longitude": -64.44972513624579}, "892774142RR0001": {"name": "NEW MISSIONS OF CANADA SOCIETY", "designationCode": "C", "categoryCode": "47", "address": "12427 AVENUE LANTHIER", "city": "MONTR\u00c9AL NORD", "province": "QC", "country": "CA", "postalCode": "H1G4R9", "twitter": "None", "instagram": "None", "facebook": "None", "youtube": "None", "website": "None", "summary": "None", "logo": "None", "latitude": 45.614720828207005, "longitude": -73.6325090899072}, "825150329RR0001": {"name": "NEW MOON RABBIT RESCUE", "designationCode": "C", "categoryCode": "54", "address": "P.O. BOX 24", "city": "NORTH GOWER", "province": "ON", "country": "CA", "postalCode": "K0A2T0", "twitter": "None", "instagram": "None", "facebook": "None", "youtube": "None", "website": "None", "summary": "None", "logo": "None", "latitude": 45.3567173236206, "longitude": -75.0434798516718}, "119056448RR0001": {"name": "NEW MUSIC CONCERTS", "designationCode": "C", "categoryCode": "22", "address": "157 CARLTON ST STE 203", "city": "TORONTO", "province": "ON", "country": "CA", "postalCode": "M5A2K3", "twitter": "None", "instagram": "None", "facebook": "None", "youtube": "None", "website": "None", "summary": "None", "logo": "None", "latitude": 43.66329280209485, "longitude": -79.37248637301637}, "861535524RR0001": {"name": "NEW NEWELLTON CEMETARY", "designationCode": "C", "categoryCode": "59", "address": "P.O. BOX 496", "city": "CLARK'S HARBOUR", "province": "NS", "country": "CA", "postalCode": "B0W1P0", "twitter": "None", "instagram": "None", "facebook": "None", "youtube": "None", "website": "None", "summary": "None", "logo": "None", "latitude": 43.44708000000003, "longitude": -65.63532999999995}, "872438551RR0001": {"name": "NEW OPPORTUNITIES FOR WOMEN (NOW) CANADA SOCIETY", "designationCode": "C", "categoryCode": "57", "address": "2970 TUTT STREET", "city": "KELOWNA", "province": "BC", "country": "CA", "postalCode": "V1Y8Z5", "twitter": "None", "instagram": "None", "facebook": "None", "youtube": "None", "website": "None", "summary": "None", "logo": "None", "latitude": 49.86378984734894, "longitude": -119.48980226822141}, "888078938RR0001": {"name": "NEW ORCHESTRA WORKSHOP SOCIETY", "designationCode": "C", "categoryCode": "22", "address": "1722 VICTORIA DR", "city": "VANCOUVER", "province": "BC", "country": "CA", "postalCode": "V5N4J8", "twitter": "None", "instagram": "None", "facebook": "None", "youtube": "None", "website": "None", "summary": "None", "logo": "None", "latitude": 49.269169844018705, "longitude": -123.06567050608818}, "890753064RR0001": {"name": "NEW PAGE FOUNDATION", "designationCode": "C", "categoryCode": "59", "address": "305-1037 EAST 8TH AVE", "city": "VANCOUVER", "province": "BC", "country": "CA", "postalCode": "V5T1V1", "twitter": "None", "instagram": "None", "facebook": "None", "youtube": "None", "website": "None", "summary": "None", "logo": "None", "latitude": 49.26340251875457, "longitude": -123.0823932485429}, "892507161RR0001": {"name": "NEW PATH FOUNDATION", "designationCode": "C", "categoryCode": "03", "address": "165 FERRIS LANE", "city": "BARRIE", "province": "ON", "country": "CA", "postalCode": "L4M2Y1", "twitter": "None", "instagram": "None", "facebook": "None", "youtube": "None", "website": "None", "summary": "None", "logo": "None", "latitude": 44.409245375238086, "longitude": -79.68919505355196}, "108094335RR0001": {"name": "NEW PATH YOUTH & FAMILY COUNSELLING SERVICES OF SIMCOE COUNTY", "designationCode": "C", "categoryCode": "09", "address": "165 FERRIS LANE", "city": "BARRIE", "province": "ON", "country": "CA", "postalCode": "L4M2Y1", "twitter": "None", "instagram": "None", "facebook": "None", "youtube": "None", "website": "None", "summary": "None", "logo": "None", "latitude": 44.409245375238086, "longitude": -79.68919505355196}, "857549745RR0001": {"name": "NEW PEAKS LEADERSHIP NETWORK", "designationCode": "C", "categoryCode": "39", "address": "1565 SUMMIT DR", "city": "KAMLOOPS", "province": "BC", "country": "CA", "postalCode": "V2E1E9", "twitter": "None", "instagram": "None", "facebook": "None", "youtube": "None", "website": "None", "summary": "None", "logo": "None", "latitude": 50.65793026672055, "longitude": -120.33891086147518}, "890250178RR0001": {"name": "NEW PERFORMANCE WORKS SOCIETY", "designationCode": "C", "categoryCode": "22", "address": "303-3102 MAIN ST.", "city": "VANCOUVER", "province": "BC", "country": "CA", "postalCode": "V5T3G7", "twitter": "None", "instagram": "None", "facebook": "None", "youtube": "None", "website": "None", "summary": "None", "logo": "None", "latitude": 49.257205292255776, "longitude": -123.10116061876066}, "889806774RR0001": {"name": "NEW REINLAND MENNONITE CHURCH OF ONTARIO", "designationCode": "C", "categoryCode": "34", "address": "406 MERSEA ROAD 6             RR 5", "city": "LEAMINGTON", "province": "ON", "country": "CA", "postalCode": "N8H3V8", "twitter": "None", "instagram": "None", "facebook": "None", "youtube": "None", "website": "None", "summary": "None", "logo": "None", "latitude": 42.09782807831222, "longitude": -82.61829953262402}, "119056505RR0001": {"name": "NEW RICHMOND PASTORAL CHARGE", "designationCode": "C", "categoryCode": "44", "address": "211 PERRON BLVD WEST", "city": "NEW RICHMOND", "province": "QC", "country": "CA", "postalCode": "G0C2B0", "twitter": "None", "instagram": "None", "facebook": "None", "youtube": "None", "website": "None", "summary": "None", "logo": "None", "latitude": 48.16667368024712, "longitude": -65.86885598669845}, "877925743RR0001": {"name": "NEW ROAD PENTECOSTAL CHURCH, DURHAM BRIDGE, N B INC", "designationCode": "C", "categoryCode": "39", "address": "GENERAL DELIVERY", "city": "DURHAM BRIDGE", "province": "NB", "country": "CA", "postalCode": "E6C1R4", "twitter": "None", "instagram": "None", "facebook": "None", "youtube": "None", "website": "None", "summary": "None", "logo": "None", "latitude": 46.12707600000006, "longitude": -66.60644299999993}, "888545092RR0001": {"name": "NEW ROCKPORT CHARITABLE TRUST", "designationCode": "B", "categoryCode": "39", "address": "3425 2 AVENUE SOUTH", "city": "LETHBRIDGE", "province": "AB", "country": "CA", "postalCode": "T1J4V1", "twitter": "None", "instagram": "None", "facebook": "None", "youtube": "None", "website": "None", "summary": "None", "logo": "None", "latitude": 49.696839530439966, "longitude": -112.78914308381903}, "874043649RR0001": {"name": "NEW ROSEDALE CHARITABLE TRUST", "designationCode": "C", "categoryCode": "39", "address": "780 SASKATCHEWAN AVE W", "city": "PORTAGE LA PRAIRIE", "province": "MB", "country": "CA", "postalCode": "R1N0M7", "twitter": "None", "instagram": "None", "facebook": "None", "youtube": "None", "website": "None", "summary": "None", "logo": "None", "latitude": 49.97373494820344, "longitude": -98.30132080652011}, "108090077RR0001": {"name": "NEW ROSS DISTRICT MUSEUM SOCIETY", "designationCode": "C", "categoryCode": "50", "address": "PO BOX 238", "city": "NEW ROSS", "province": "NS", "country": "CA", "postalCode": "B0J2M0", "twitter": "None", "instagram": "None", "facebook": "None", "youtube": "None", "website": "None", "summary": "None", "logo": "None", "latitude": 44.81169720085747, "longitude": -64.31451553404551}, "140171687RR0001": {"name": "NEW ROSS FIREFIGHTERS' AUXILIARY", "designationCode": "A", "categoryCode": "55", "address": "1693 FORTIES RD", "city": "NEW ROSS", "province": "NS", "country": "CA", "postalCode": "B0J2M0", "twitter": "None", "instagram": "None", "facebook": "None", "youtube": "None", "website": "None", "summary": "None", "logo": "None", "latitude": 44.73219955395599, "longitude": -64.56064038481736}, "893228866RR0001": {"name": "NEW ROSS UNITED BAPTIST CHURCH", "designationCode": "C", "categoryCode": "31", "address": "1159 FORTIES RD.              RR#1", "city": "NEW ROSS", "province": "NS", "country": "CA", "postalCode": "B0J2M0", "twitter": "None", "instagram": "None", "facebook": "None", "youtube": "None", "website": "None", "summary": "None", "logo": "None", "latitude": 44.73448341016361, "longitude": -64.52581024336075}, "891093999RR0001": {"name": "NEW ROSS VOLUNTEER FIRE DEPARTMENT", "designationCode": "C", "categoryCode": "59", "address": "4929 HIGHWAY 12               PO BOX 135", "city": "NEW ROSS", "province": "NS", "country": "CA", "postalCode": "B0J2M0", "twitter": "None", "instagram": "None", "facebook": "None", "youtube": "None", "website": "None", "summary": "None", "logo": "None", "latitude": 44.74021303767054, "longitude": -64.45893727226284}, "892110982RR0001": {"name": "NEW SALEM UNION CHURCH", "designationCode": "C", "categoryCode": "39", "address": "BOX 28", "city": "ADVOCATE HARBOUR", "province": "NS", "country": "CA", "postalCode": "B0M1A0", "twitter": "None", "instagram": "None", "facebook": "None", "youtube": "None", "website": "None", "summary": "None", "logo": "None", "latitude": 45.3470842121044, "longitude": -64.8172509909585}, "119056547RR0001": {"name": "NEW SARUM BAPTIST CHURCH", "designationCode": "C", "categoryCode": "31", "address": "433 FOREST AVE", "city": "ST THOMAS", "province": "ON", "country": "CA", "postalCode": "N5R5G2", "twitter": "None", "instagram": "None", "facebook": "None", "youtube": "None", "website": "None", "summary": "None", "logo": "None", "latitude": 42.77276914335027, "longitude": -81.1641440996704}, "119056554RR0001": {"name": "NEW SCOTLAND UNITED CHURCH", "designationCode": "C", "categoryCode": "44", "address": "392 TALBOT ST. E.", "city": "BLENHEIM", "province": "ON", "country": "CA", "postalCode": "N0P1A0", "twitter": "None", "instagram": "None", "facebook": "None", "youtube": "None", "website": "None", "summary": "None", "logo": "None", "latitude": 42.343523477090514, "longitude": -81.9854932539386}, "857726400RR0001": {"name": "NEW SONG CHRISTIAN LIFE CENTER", "designationCode": "B", "categoryCode": "36", "address": "2369-152A ST", "city": "SURREY", "province": "BC", "country": "CA", "postalCode": "V4A4P9", "twitter": "None", "instagram": "None", "facebook": "None", "youtube": "None", "website": "None", "summary": "None", "logo": "None", "latitude": 49.04506791618098, "longitude": -122.79990444284137}, "894256064RR0001": {"name": "NEW SONG CHURCH", "designationCode": "C", "categoryCode": "36", "address": "999 DROUILLARD ROAD", "city": "WINDSOR", "province": "ON", "country": "CA", "postalCode": "N8Y2P6", "twitter": "None", "instagram": "None", "facebook": "None", "youtube": "None", "website": "None", "summary": "None", "logo": "None", "latitude": 42.32184988398065, "longitude": -83.00037896338493}, "140726837RR0001": {"name": "NEW SONG CHURCH AND WORLD OUTREACH", "designationCode": "C", "categoryCode": "39", "address": "24 MCINTYRE PL                UNIT A", "city": "KITCHENER", "province": "ON", "country": "CA", "postalCode": "N2R1H7", "twitter": "None", "instagram": "None", "facebook": "None", "youtube": "None", "website": "None", "summary": "None", "logo": "None", "latitude": 43.40397675327477, "longitude": -80.47726299884617}, "119056588RR0001": {"name": "NEW SONG FELLOWSHIP", "designationCode": "C", "categoryCode": "39", "address": "896 WILLOW DRIVE", "city": "LONDON", "province": "ON", "country": "CA", "postalCode": "N6E1P1", "twitter": "None", "instagram": "None", "facebook": "None", "youtube": "None", "website": "None", "summary": "None", "logo": "None", "latitude": 42.941560651682146, "longitude": -81.22069537243945}, "119056596RR0001": {"name": "NEW ST. ANDREW'S PRESBYTERIAN CHURCH", "designationCode": "C", "categoryCode": "37", "address": "7659 HERON LINE", "city": "CHATAM", "province": "ON", "country": "CA", "postalCode": "N7M5J8", "twitter": "None", "instagram": "None", "facebook": "None", "youtube": "None", "website": "None", "summary": "None", "logo": "None", "latitude": 42.437989681169825, "longitude": -82.30822637255409}, "742005929RR0001": {"name": "NEW ST. JAMES PRESBYTERIAN CHURCH", "designationCode": "C", "categoryCode": "37", "address": "280 OXFORD STREET EAST", "city": "LONDON", "province": "ON", "country": "CA", "postalCode": "N6A1V4", "twitter": "None", "instagram": "None", "facebook": "None", "youtube": "None", "website": "None", "summary": "None", "logo": "None", "latitude": 42.99630588874117, "longitude": -81.25057065364402}, "893871061RR0001": {"name": "NEW ST. JAMES WOMEN'S MISSIONARY SOCIETY", "designationCode": "C", "categoryCode": "47", "address": "280 OXFORD STREET EAST", "city": "LONDON", "province": "ON", "country": "CA", "postalCode": "N6A1V4", "twitter": "None", "instagram": "None", "facebook": "None", "youtube": "None", "website": "None", "summary": "None", "logo": "None", "latitude": 42.99630588874117, "longitude": -81.25057065364402}, "885731232RR0001": {"name": "NEW STAGES PETERBOROUGH", "designationCode": "C", "categoryCode": "22", "address": "307-136 WARE STREET", "city": "PETERBOROUGH", "province": "ON", "country": "CA", "postalCode": "K9J2B8", "twitter": "None", "instagram": "None", "facebook": "None", "youtube": "None", "website": "None", "summary": "None", "logo": "None", "latitude": 44.29131581651414, "longitude": -78.31645613879911}, "107771859RR0001": {"name": "NEW STARTS FOR WOMEN INC.", "designationCode": "C", "categoryCode": "09", "address": "PO BOX 169", "city": "RED LAKE", "province": "ON", "country": "CA", "postalCode": "P0V2M0", "twitter": "None", "instagram": "None", "facebook": "None", "youtube": "None", "website": "None", "summary": "None", "logo": "None", "latitude": 51.017789973887886, "longitude": -93.82652994835257}, "119056620RR0001": {"name": "NEW STOCKHOLM EVANGELICAL LUTHERAN CHURCH", "designationCode": "C", "categoryCode": "32", "address": "BOX 123", "city": "STOCKHOLM", "province": "SK", "country": "CA", "postalCode": "S0A3Y0", "twitter": "None", "instagram": "None", "facebook": "None", "youtube": "None", "website": "None", "summary": "None", "logo": "None", "latitude": 50.856318000000016, "longitude": -102.3081885}, "864190228RR0001": {"name": "NEW STRIDE THOROUGHBRED ADOPTION SOCIETY", "designationCode": "C", "categoryCode": "54", "address": "PO BOX 10020 RPO OTTER-CO-OP", "city": "LANGLEY", "province": "BC", "country": "CA", "postalCode": "V4W3Z5", "twitter": "None", "instagram": "None", "facebook": "None", "youtube": "None", "website": "None", "summary": "None", "logo": "None", "latitude": 49.06808007660572, "longitude": -122.53692991719147}, "890804651RR0001": {"name": "NEW STRONG TOWER CHURCH", "designationCode": "C", "categoryCode": "39", "address": "63 BOOKER DRIVE", "city": "AJAX", "province": "ON", "country": "CA", "postalCode": "L1Z0J4", "twitter": "None", "instagram": "None", "facebook": "None", "youtube": "None", "website": "None", "summary": "None", "logo": "None", "latitude": 43.899061035230076, "longitude": -79.02517434595194}, "872535679RR0001": {"name": "NEW SUDBURY PENTECOSTAL CHURCH", "designationCode": "C", "categoryCode": "36", "address": "264 LEVESQUE ST", "city": "SUDBURY", "province": "ON", "country": "CA", "postalCode": "P3B3T4", "twitter": "None", "instagram": "None", "facebook": "None", "youtube": "None", "website": "None", "summary": "None", "logo": "None", "latitude": 46.49254189618566, "longitude": -80.90830866521482}, "130257736RR0001": {"name": "NEW TECUMSETH PUBLIC LIBRARY", "designationCode": "C", "categoryCode": "50", "address": "17 VICTORIA STREET E BOX 399", "city": "ALLISTON", "province": "ON", "country": "CA", "postalCode": "L9R1V6", "twitter": "None", "instagram": "None", "facebook": "None", "youtube": "None", "website": "None", "summary": "None", "logo": "None", "latitude": 44.154039783773, "longitude": -79.86871673812689}, "119056679RR0001": {"name": "NEW TESTAMENT BAPTIST CHURCH", "designationCode": "C", "categoryCode": "31", "address": "24 CHURCH HILL LANE           THE HAWK", "city": "SHEB.CO", "province": "NS", "country": "CA", "postalCode": "B0W1P0", "twitter": "None", "instagram": "None", "facebook": "None", "youtube": "None", "website": "None", "summary": "None", "logo": "None", "latitude": 43.45474200000005, "longitude": -65.64830299999993}, "119056703RR0001": {"name": "NEW TESTAMENT BAPTIST CHURCH", "designationCode": "A", "categoryCode": "31", "address": "7860 CHARNWOOD AVENUE", "city": "NIAGARA FALLS", "province": "ON", "country": "CA", "postalCode": "L2H3E2", "twitter": "None", "instagram": "None", "facebook": "None", "youtube": "None", "website": "None", "summary": "None", "logo": "None", "latitude": 43.07776305992859, "longitude": -79.1277554274337}, "890859010RR0001": {"name": "NEW TESTAMENT BAPTIST CHURCH", "designationCode": "C", "categoryCode": "31", "address": "20 ASHDALE AVE.", "city": "HALIFAX", "province": "NS", "country": "CA", "postalCode": "B3N2C8", "twitter": "None", "instagram": "None", "facebook": "None", "youtube": "None", "website": "None", "summary": "None", "logo": "None", "latitude": 44.65833801941837, "longitude": -63.63490093046346}, "119056661RR0001": {"name": "NEW TESTAMENT BAPTIST CHURCH CARLETON", "designationCode": "C", "categoryCode": "31", "address": "9 HIGHWAY 203", "city": "CARLETON", "province": "NS", "country": "CA", "postalCode": "B5A5P8", "twitter": "None", "instagram": "None", "facebook": "None", "youtube": "None", "website": "None", "summary": "None", "logo": "None", "latitude": 44.00712519323748, "longitude": -65.92721977833924}, "118870161RR0001": {"name": "NEW TESTAMENT BAPTIST CHURCH OF ABBOTSFORD", "designationCode": "C", "categoryCode": "31", "address": "5525 GLADWIN ROAD", "city": "ABBOTSFORD", "province": "BC", "country": "CA", "postalCode": "V4X1X8", "twitter": "None", "instagram": "None", "facebook": "None", "youtube": "None", "website": "None", "summary": "None", "logo": "None", "latitude": 49.098551903194675, "longitude": -122.31642599506564}, "139140602RR0001": {"name": "NEW TESTAMENT BAPTIST CHURCH OF EDMONTON", "designationCode": "C", "categoryCode": "31", "address": "26404 HIGHWAY 16 WEST", "city": "SPRUCE GROVE", "province": "AB", "country": "CA", "postalCode": "T7X3H5", "twitter": "None", "instagram": "None", "facebook": "None", "youtube": "None", "website": "None", "summary": "None", "logo": "None", "latitude": 53.570385882144436, "longitude": -113.78878368459158}, "119056745RR0001": {"name": "NEW TESTAMENT CHURCH OF GOD INCORPORATED", "designationCode": "C", "categoryCode": "39", "address": "35 NICOLLET AVE", "city": "WINNIPEG", "province": "MB", "country": "CA", "postalCode": "R2M4L7", "twitter": "None", "instagram": "None", "facebook": "None", "youtube": "None", "website": "None", "summary": "None", "logo": "None", "latitude": 49.82035687373753, "longitude": -97.11508280878861}, "119056752RR0001": {"name": "NEW TESTAMENT EVANGELISTIC CENTRE INC.", "designationCode": "C", "categoryCode": "39", "address": "98 MAXWELL ROAD", "city": "BARNESVILLE", "province": "NB", "country": "CA", "postalCode": "E5N3P8", "twitter": "None", "instagram": "None", "facebook": "None", "youtube": "None", "website": "None", "summary": "None", "logo": "None", "latitude": 45.441100214002944, "longitude": -65.69251905738851}, "133229757RR0001": {"name": "NEW TESTAMENT OUTREACH MINISTRIES INTERNATIONAL INC.", "designationCode": "C", "categoryCode": "39", "address": "BOX 4519", "city": "HAY RIVER", "province": "NT", "country": "CA", "postalCode": "X0E1G3", "twitter": "None", "instagram": "None", "facebook": "None", "youtube": "None", "website": "None", "summary": "None", "logo": "None"}, "134883149RR0001": {"name": "NEW THEATRE OF OTTAWA", "designationCode": "C", "categoryCode": "22", "address": "120 HAMILTON AVENUE NORTH", "city": "OTTAWA", "province": "ON", "country": "CA", "postalCode": "K1Y1C2", "twitter": "None", "instagram": "None", "facebook": "None", "youtube": "None", "website": "None", "summary": "None", "logo": "None", "latitude": 45.39785018650819, "longitude": -75.72856134736557}, "891231342RR0001": {"name": "NEW TORONTO NURSERY CO-OPERATIVE INC.", "designationCode": "C", "categoryCode": "20", "address": "153 LAKESHORE DRIVE", "city": "ETOBICOKE", "province": "ON", "country": "CA", "postalCode": "M8V2A1", "twitter": "None", "instagram": "None", "facebook": "None", "youtube": "None", "website": "None", "summary": "None", "logo": "None", "latitude": 43.594819787091204, "longitude": -79.50528776674919}, "107772139RR0001": {"name": "NEW TRIBES MISSION OF CANADA", "designationCode": "C", "categoryCode": "47", "address": "BOX 707", "city": "DURHAM", "province": "ON", "country": "CA", "postalCode": "N0G1R0", "twitter": "None", "instagram": "None", "facebook": "None", "youtube": "None", "website": "None", "summary": "None", "logo": "None", "latitude": 44.125520383994086, "longitude": -81.21636506037191}, "119056869RR0001": {"name": "NEW TUSKET UNITED BAPTIST CHURCH", "designationCode": "C", "categoryCode": "31", "address": "719 EASTON ROAD RR 2", "city": "WEYMOUTH", "province": "NS", "country": "CA", "postalCode": "B0W3T0", "twitter": "None", "instagram": "None", "facebook": "None", "youtube": "None", "website": "None", "summary": "None", "logo": "None", "latitude": 44.31319443883068, "longitude": -65.88148786066712}, "892150376RR0001": {"name": "NEW VENTURE PASTORAL CHARGE", "designationCode": "C", "categoryCode": "44", "address": "BOX 196", "city": "ANEROID", "province": "SK", "country": "CA", "postalCode": "S0N0C0", "twitter": "None", "instagram": "None", "facebook": "None", "youtube": "None", "website": "None", "summary": "None", "logo": "None", "latitude": 49.71616000000006, "longitude": -107.29713999999996}, "107772154RR0001": {"name": "NEW VIEW SOCIETY", "designationCode": "C", "categoryCode": "59", "address": "2050 MARY HILL RD", "city": "PORT COQUITLAM", "province": "BC", "country": "CA", "postalCode": "V3C2Z8", "twitter": "None", "instagram": "None", "facebook": "None", "youtube": "None", "website": "None", "summary": "None", "logo": "None", "latitude": 49.25363065392862, "longitude": -122.7786120383616}, "119056901RR0001": {"name": "NEW VISIONS TORONTO", "designationCode": "C", "categoryCode": "01", "address": "10 - 222 THE ESPLANADE", "city": "TORONTO", "province": "ON", "country": "CA", "postalCode": "M5A4M8", "twitter": "None", "instagram": "None", "facebook": "None", "youtube": "None", "website": "None", "summary": "None", "logo": "None", "latitude": 43.64947614351649, "longitude": -79.36547964100632}, "869400952RR0001": {"name": "NEW VOICE SOCIETY OF GREATER VANCOUVER", "designationCode": "C", "categoryCode": "11", "address": "10078-156 STREET", "city": "SURREY", "province": "BC", "country": "CA", "postalCode": "V3R4L5", "twitter": "None", "instagram": "None", "facebook": "None", "youtube": "None", "website": "None", "summary": "None", "logo": "None", "latitude": 49.18591615598132, "longitude": -122.78972909712058}, "119047512RR0001": {"name": "NEW WATERFORD & AREA CEMETERY SOCIETY", "designationCode": "C", "categoryCode": "59", "address": "3510 UNION HWY", "city": "RIVER RYAN", "province": "NS", "country": "CA", "postalCode": "B1H1B2", "twitter": "None", "instagram": "None", "facebook": "None", "youtube": "None", "website": "None", "summary": "None", "logo": "None", "latitude": 46.22986048946749, "longitude": -60.09079161710062}, "107951618RR0211": {"name": "NEW WATERFORD - THE SALVATION ARMY CHURCH", "designationCode": "C", "categoryCode": "40", "address": "P.O. BOX 396", "city": "NEW WATERFORD", "province": "NS", "country": "CA", "postalCode": "B1H4S5", "twitter": "None", "instagram": "None", "facebook": "None", "youtube": "None", "website": "None", "summary": "None", "logo": "None", "latitude": 46.25307600000005, "longitude": -60.09197299999994}, "119056943RR0001": {"name": "NEW WATERFORD CONSOLIDATED HOSPITAL CHARITABLE FOUNDATION", "designationCode": "A", "categoryCode": "13", "address": "417 SMITH STREET", "city": "NEW WATERFORD", "province": "NS", "country": "CA", "postalCode": "B1H3R3", "twitter": "None", "instagram": "None", "facebook": "None", "youtube": "None", "website": "None", "summary": "None", "logo": "None", "latitude": 46.24984007882738, "longitude": -60.086536321974584}, "107772246RR0001": {"name": "NEW WATERFORD PASTORAL CHARGE", "designationCode": "C", "categoryCode": "44", "address": "PO BOX 266", "city": "NEW WATERFORD", "province": "NS", "country": "CA", "postalCode": "B1H4N9", "twitter": "None", "instagram": "None", "facebook": "None", "youtube": "None", "website": "None", "summary": "None", "logo": "None", "latitude": 46.25307600000005, "longitude": -60.09197299999994}, "865411227RR0001": {"name": "NEW WATERFORD ROTARY TRUST FUND SOCIETY", "designationCode": "C", "categoryCode": "65", "address": "PO BOX 298", "city": "SIDNEY", "province": "NS", "country": "CA", "postalCode": "B1P6H1", "twitter": "None", "instagram": "None", "facebook": "None", "youtube": "None", "website": "None", "summary": "None", "logo": "None", "latitude": 46.137372000000056, "longitude": -60.19552249999994}, "107954299RR0001": {"name": "NEW WEST COMMUNITY BAPTIST CHURCH", "designationCode": "C", "categoryCode": "31", "address": "322 HOSPITAL ST.", "city": "NEW WESTMINSTER", "province": "BC", "country": "CA", "postalCode": "V3L3L4", "twitter": "None", "instagram": "None", "facebook": "None", "youtube": "None", "website": "None", "summary": "None", "logo": "None", "latitude": 49.22640548124544, "longitude": -122.89449102844941}, "756245726RR0001": {"name": "NEW WEST HOSPICE SOCIETY", "designationCode": "C", "categoryCode": "11", "address": "303-5 RENAISSANCE SQ", "city": "NEW WESTMINSTER", "province": "BC", "country": "CA", "postalCode": "V3M6K5", "twitter": "None", "instagram": "None", "facebook": "None", "youtube": "None", "website": "None", "summary": "None", "logo": "None", "latitude": 49.19955423477464, "longitude": -122.92456421686822}, "129638854RR0001": {"name": "NEW WEST THEATRE SOCIETY", "designationCode": "C", "categoryCode": "22", "address": "210A-12A STREET NORTH         SUITE 111", "city": "LETHBRIDGE", "province": "AB", "country": "CA", "postalCode": "T1H2J1", "twitter": "None", "instagram": "None", "facebook": "None", "youtube": "None", "website": "None", "summary": "None", "logo": "None", "latitude": 49.70184042402823, "longitude": -112.8285536776991}, "107772337RR0001": {"name": "NEW WESTMINSTER EVANGELICAL FREE CHURCH", "designationCode": "C", "categoryCode": "39", "address": "7895 CANADA WAY", "city": "BURNABY", "province": "BC", "country": "CA", "postalCode": "V3N3K8", "twitter": "None", "instagram": "None", "facebook": "None", "youtube": "None", "website": "None", "summary": "None", "logo": "None", "latitude": 49.217180963067804, "longitude": -122.93190934390313}, "140738006RR0001": {"name": "NEW WESTMINSTER FAMILY PLACE SOCIETY", "designationCode": "C", "categoryCode": "09", "address": "101-93 6TH ST", "city": "NEW WESTMINSTER", "province": "BC", "country": "CA", "postalCode": "V3L2Z8", "twitter": "None", "instagram": "None", "facebook": "None", "youtube": "None", "website": "None", "summary": "None", "logo": "None", "latitude": 49.20518171540853, "longitude": -122.91024030258079}, "892521568RR0001": {"name": "NEW WESTMINSTER FIRE FIGHTERS CHARITABLE SOCIETY", "designationCode": "C", "categoryCode": "13", "address": "1 SIXTH AVE E", "city": "NEW WESTMINSTER", "province": "BC", "country": "CA", "postalCode": "V3L4G6", "twitter": "None", "instagram": "None", "facebook": "None", "youtube": "None", "website": "None", "summary": "None", "logo": "None", "latitude": 49.219690968462274, "longitude": -122.9084010306187}, "889348264RR0001": {"name": "NEW WESTMINSTER FOUNDATION", "designationCode": "A", "categoryCode": "03", "address": "208 - 1144 STRATHAVEN DR", "city": "NORTH VANCOUVER", "province": "BC", "country": "CA", "postalCode": "V7H2Z6", "twitter": "None", "instagram": "None", "facebook": "None", "youtube": "None", "website": "None", "summary": "None", "logo": "None", "latitude": 49.31745715604591, "longitude": -122.98535116747996}, "119056992RR0001": {"name": "NEW WESTMINSTER HYACK FESTIVAL ASSOCIATION", "designationCode": "C", "categoryCode": "59", "address": "204-6TH STREET", "city": "NEW WESTMINSTER", "province": "BC", "country": "CA", "postalCode": "V3L3A1", "twitter": "None", "instagram": "None", "facebook": "None", "youtube": "None", "website": "None", "summary": "None", "logo": "None", "latitude": 49.20730048098566, "longitude": -122.91303153081535}, "830852323RR0001": {"name": "NEW WESTMINSTER ISLAMIC SOCIETY", "designationCode": "C", "categoryCode": "60", "address": "130-6660 GRAYBAR RD", "city": "RICHMOND", "province": "BC", "country": "CA", "postalCode": "V6W1H9", "twitter": "None", "instagram": "None", "facebook": "None", "youtube": "None", "website": "None", "summary": "None", "logo": "None", "latitude": 49.16658583236193, "longitude": -122.98970150882948}, "107772352RR0001": {"name": "NEW WESTMINSTER PRESBYTERIAN CHURCH", "designationCode": "C", "categoryCode": "37", "address": "1025 KING ST EAST", "city": "HAMILTON", "province": "ON", "country": "CA", "postalCode": "L8M1C9", "twitter": "None", "instagram": "None", "facebook": "None", "youtube": "None", "website": "None", "summary": "None", "logo": "None", "latitude": 43.25029401001198, "longitude": -79.83285192226914}, "889156790RR0001": {"name": "NEW WESTMINSTER SYMPHONY SOCIETY", "designationCode": "C", "categoryCode": "22", "address": "BOX 832", "city": "NEW WESTMINSTER", "province": "BC", "country": "CA", "postalCode": "V3L4Z8", "twitter": "None", "instagram": "None", "facebook": "None", "youtube": "None", "website": "None", "summary": "None", "logo": "None", "latitude": 49.20705600000005, "longitude": -122.90841349999994}, "119057032RR0001": {"name": "NEW WESTMINSTER VICTIM ASSISTANCE ASSOCIATION", "designationCode": "C", "categoryCode": "09", "address": "555 COLUMBIA ST", "city": "NEW WESTMINSTER", "province": "BC", "country": "CA", "postalCode": "V3L1B2", "twitter": "None", "instagram": "None", "facebook": "None", "youtube": "None", "website": "None", "summary": "None", "logo": "None", "latitude": 49.203377977263386, "longitude": -122.90760669250946}, "128727013RR0001": {"name": "NEW WINE COVENANT CHURCH OF OTTAWA", "designationCode": "C", "categoryCode": "39", "address": "3-2586 ST. JOSEPH BLVD", "city": "ORLEANS", "province": "ON", "country": "CA", "postalCode": "K1C1G3", "twitter": "None", "instagram": "None", "facebook": "None", "youtube": "None", "website": "None", "summary": "None", "logo": "None", "latitude": 45.47096977127953, "longitude": -75.52492884857767}, "876197104RR0001": {"name": "NEW WINE INTERNATIONAL", "designationCode": "C", "categoryCode": "39", "address": "1675 WICKERSON GATE", "city": "LONDON", "province": "ON", "country": "CA", "postalCode": "N6K0C3", "twitter": "None", "instagram": "None", "facebook": "None", "youtube": "None", "website": "None", "summary": "None", "logo": "None", "latitude": 42.944622539529256, "longitude": -81.34903971856428}, "119057065RR0001": {"name": "NEW WORKS OF ART CALGARY SOCIETY", "designationCode": "C", "categoryCode": "22", "address": "BOX 46012 INGLEWOOD RPO", "city": "CALGARY", "province": "AB", "country": "CA", "postalCode": "T2G5H7", "twitter": "None", "instagram": "None", "facebook": "None", "youtube": "None", "website": "None", "summary": "None", "logo": "None", "latitude": 51.04275304741815, "longitude": -114.01966341871173}, "139025258RR0001": {"name": "NEW YORK CHARITABLE TRUST", "designationCode": "B", "categoryCode": "39", "address": "3425 2 AVENUE SOUTH", "city": "LETHBRIDGE", "province": "AB", "country": "CA", "postalCode": "T1J4V1", "twitter": "None", "instagram": "None", "facebook": "None", "youtube": "None", "website": "None", "summary": "None", "logo": "None", "latitude": 49.696839530439966, "longitude": -112.78914308381903}, "892001603RR0001": {"name": "NEW YORK THEOLOGICAL EDUCATION (CANADA) CENTER, INC.", "designationCode": "C", "categoryCode": "20", "address": "220 ROYAL CREST. COURT        UNIT 9", "city": "MARKHAM", "province": "ON", "country": "CA", "postalCode": "L3R9Y2", "twitter": "None", "instagram": "None", "facebook": "None", "youtube": "None", "website": "None", "summary": "None", "logo": "None", "latitude": 43.84184210023631, "longitude": -79.32279868056423}, "895848430RR0001": {"name": "NEW-VISION MINISTRY OF MOUNT CARMEL", "designationCode": "C", "categoryCode": "39", "address": "82 KENDLETON DRIVE", "city": "REXDALE", "province": "ON", "country": "CA", "postalCode": "M9V1V5", "twitter": "None", "instagram": "None", "facebook": "None", "youtube": "None", "website": "None", "summary": "None", "logo": "None", "latitude": 43.736554373016375, "longitude": -79.58117280171948}, "877904458RR0001": {"name": "NEWARK NEIGHBOURS", "designationCode": "C", "categoryCode": "09", "address": "SUITE 150, BOX 1090", "city": "NIAGARA ON THE LAKE", "province": "ON", "country": "CA", "postalCode": "L0S1J0", "twitter": "None", "instagram": "None", "facebook": "None", "youtube": "None", "website": "None", "summary": "None", "logo": "None", "latitude": 43.23448500000005, "longitude": -79.16177149999993}, "107768665RR0001": {"name": "NEWBERN MEMORIAL CHINESE ALLIANCE CHURCH", "designationCode": "C", "categoryCode": "39", "address": "626 E. 58TH AVE.", "city": "VANCOUVER", "province": "BC", "country": "CA", "postalCode": "V5X1W2", "twitter": "None", "instagram": "None", "facebook": "None", "youtube": "None", "website": "None", "summary": "None", "logo": "None", "latitude": 49.217102488458806, "longitude": -123.09275113780367}, "119053932RR0001": {"name": "NEWBORN CHURCH OF GOD GROUND OF TRUTH", "designationCode": "C", "categoryCode": "39", "address": "2061 DAVENPORT RD", "city": "TORONTO", "province": "ON", "country": "CA", "postalCode": "M6N1C7", "twitter": "None", "instagram": "None", "facebook": "None", "youtube": "None", "website": "None", "summary": "None", "logo": "None", "latitude": 43.67047892977097, "longitude": -79.46001077491485}, "119053940RR0001": {"name": "NEWBORO UNITED CHURCH", "designationCode": "C", "categoryCode": "44", "address": "3989 CHEETHAM RD", "city": "PORTLAND", "province": "ON", "country": "CA", "postalCode": "K0G1V0", "twitter": "None", "instagram": "None", "facebook": "None", "youtube": "None", "website": "None", "summary": "None", "logo": "None", "latitude": 44.69868744688075, "longitude": -76.2671287052914}, "107768715RR0001": {"name": "NEWBROOK AGRICULTURAL & RECREATIONAL SOCIETY", "designationCode": "C", "categoryCode": "56", "address": "BOX 209", "city": "NEWBROOK", "province": "AB", "country": "CA", "postalCode": "T0A2P0", "twitter": "None", "instagram": "None", "facebook": "None", "youtube": "None", "website": "None", "summary": "None", "logo": "None", "latitude": 54.326100000000054, "longitude": -112.94303999999994}, "853462075RR0001": {"name": "NEWBROOK WESLEYAN STANDARD CHURCH CAMP", "designationCode": "C", "categoryCode": "39", "address": "937 ERIN WOODS DR SE", "city": "CALGARY", "province": "AB", "country": "CA", "postalCode": "T2B2X1", "twitter": "None", "instagram": "None", "facebook": "None", "youtube": "None", "website": "None", "summary": "None", "logo": "None", "latitude": 51.01711266028048, "longitude": -113.97289644491885}, "119054336RR0001": {"name": "NEWBURGH UNITED CHURCH", "designationCode": "C", "categoryCode": "44", "address": "PO BOX 188", "city": "NEWBURGH", "province": "ON", "country": "CA", "postalCode": "K0K2S0", "twitter": "None", "instagram": "None", "facebook": "None", "youtube": "None", "website": "None", "summary": "None", "logo": "None", "latitude": 44.279127, "longitude": -76.926582}, "888220068RR0001": {"name": "NEWCASTLE CHARITABLE FOUNDATION", "designationCode": "A", "categoryCode": "53", "address": "PO BOX 83028                  RPO CANYON MEADOWS", "city": "CALGARY", "province": "AB", "country": "CA", "postalCode": "T2W6G8", "twitter": "None", "instagram": "None", "facebook": "None", "youtube": "None", "website": "None", "summary": "None", "logo": "None", "latitude": 50.940459902708504, "longitude": -114.09453725526652}, "891279945RR0001": {"name": "NEWCASTLE FAMILY CONNECTION INC.", "designationCode": "C", "categoryCode": "59", "address": "3278 CONCESSION RD 3", "city": "NEWCASTLE", "province": "ON", "country": "CA", "postalCode": "L1B1L9", "twitter": "None", "instagram": "None", "facebook": "None", "youtube": "None", "website": "None", "summary": "None", "logo": "None", "latitude": 43.92962115462499, "longitude": -78.62220925036058}, "133897561RR0001": {"name": "NEWCASTLE FELLOWSHIP BAPTIST CHURCH", "designationCode": "C", "categoryCode": "31", "address": "200 KING AVENUE EAST", "city": "NEWCASTLE", "province": "ON", "country": "CA", "postalCode": "L1B1H5", "twitter": "None", "instagram": "None", "facebook": "None", "youtube": "None", "website": "None", "summary": "None", "logo": "None", "latitude": 43.9185041037817, "longitude": -78.58483755777408}}