{"861272557RR0001": {"name": "MCLEOD LAKE TSE'KHENE ELDERS SOCIETY", "designationCode": "C", "categoryCode": "56", "address": "61 SEKANI DRIVE               GENERAL DELIVERY", "city": "MCLEOD LAKE", "province": "BC", "country": "CA", "postalCode": "V0J2G0", "twitter": "None", "instagram": "None", "facebook": "None", "youtube": "None", "website": "None", "summary": "None", "logo": "None", "latitude": 54.984373272209886, "longitude": -123.04532489297632}, "119035939RR0001": {"name": "MCLURE FIRE FIGHTERS & RECREATION ASSOCIATION", "designationCode": "C", "categoryCode": "59", "address": "201 - 1967 TRANS CANADA HWY E", "city": "KAMLOOPS", "province": "BC", "country": "CA", "postalCode": "V2C4A4", "twitter": "None", "instagram": "None", "facebook": "None", "youtube": "None", "website": "None", "summary": "None", "logo": "None", "latitude": 50.67987098194653, "longitude": -120.27495791365274}, "853190742RR0001": {"name": "MCLURE WILDFIRE MONUMENT SOCIETY", "designationCode": "C", "categoryCode": "50", "address": "728 STONE ROAD", "city": "LOUIS CREEK", "province": "BC", "country": "CA", "postalCode": "V0E2E0", "twitter": "None", "instagram": "None", "facebook": "None", "youtube": "None", "website": "None", "summary": "None", "logo": "None", "latitude": 51.13303896767468, "longitude": -120.1179810018844}, "119035947RR0001": {"name": "MCMAN YOUTH, FAMILY & COMMUNITY SERVICES ASSOCIATION", "designationCode": "C", "categoryCode": "01", "address": "11016 - 127 STREET", "city": "EDMONTON", "province": "AB", "country": "CA", "postalCode": "T5M0T2", "twitter": "None", "instagram": "None", "facebook": "None", "youtube": "None", "website": "None", "summary": "None", "logo": "None", "latitude": 53.557739999999995, "longitude": -113.54121671818892}, "107684086RR0001": {"name": "MCMASTER CAMPUS MINISTRIES COUNCIL", "designationCode": "C", "categoryCode": "49", "address": "MCMASTER UNIVERSITY           UNIVERSITY CENTRE 231", "city": "HAMILTON", "province": "ON", "country": "CA", "postalCode": "L8S4S4", "twitter": "None", "instagram": "None", "facebook": "None", "youtube": "None", "website": "None", "summary": "None", "logo": "None", "latitude": 43.25792000000007, "longitude": -79.91929999999996}, "119035970RR0001": {"name": "MCMASTER DIVINITY COLLEGE", "designationCode": "C", "categoryCode": "20", "address": "MCMASTER UNIVERSITY           1280 MAIN ST W", "city": "HAMILTON", "province": "ON", "country": "CA", "postalCode": "L8S4K1", "twitter": "None", "instagram": "None", "facebook": "None", "youtube": "None", "website": "None", "summary": "None", "logo": "None", "latitude": 43.25792000000007, "longitude": -79.91929999999996}, "119035988RR0001": {"name": "MCMASTER UNIVERSITY", "designationCode": "C", "categoryCode": "20", "address": "GILMOUR HALL, ROOM 210        1280 MAIN STREET WEST", "city": "HAMILTON", "province": "ON", "country": "CA", "postalCode": "L8S4L8", "twitter": "None", "instagram": "None", "facebook": "None", "youtube": "None", "website": "None", "summary": "None", "logo": "None", "latitude": 43.25797708006465, "longitude": -79.91932472220606}, "878566546RR0001": {"name": "MCMASTER UNIVERSITY TRUST IN THE ESTATE OF HELEN E BRITTON", "designationCode": "B", "categoryCode": "25", "address": "1402 - 1 KING ST W", "city": "HAMILTON", "province": "ON", "country": "CA", "postalCode": "L8P1A4", "twitter": "None", "instagram": "None", "facebook": "None", "youtube": "None", "website": "None", "summary": "None", "logo": "None", "latitude": 43.26019321073324, "longitude": -79.88135629363086}, "897703765RR0001": {"name": "MCMICHAEL CANADIAN ART FOUNDATION", "designationCode": "A", "categoryCode": "23", "address": "10365 ISLINGTON AVE", "city": "KLEINBURG", "province": "ON", "country": "CA", "postalCode": "L0J1C0", "twitter": "None", "instagram": "None", "facebook": "None", "youtube": "None", "website": "None", "summary": "None", "logo": "None", "latitude": 43.84063456177493, "longitude": -79.62510870713866}, "868944182RR0001": {"name": "MCMILLAN FAMILY FOUNDATION", "designationCode": "B", "categoryCode": "03", "address": "4950 YONGE STREET, SUITE 400", "city": "TORONTO", "province": "ON", "country": "CA", "postalCode": "M2N6K1", "twitter": "None", "instagram": "None", "facebook": "None", "youtube": "None", "website": "None", "summary": "None", "logo": "None", "latitude": 43.764914169571306, "longitude": -79.4118300078476}, "119035996RR0001": {"name": "MCMURRAY GOSPEL ASSEMBLY", "designationCode": "C", "categoryCode": "39", "address": "10110 MAIN STREET", "city": "FORT MCMURRAY", "province": "AB", "country": "CA", "postalCode": "T9H2G7", "twitter": "None", "instagram": "None", "facebook": "None", "youtube": "None", "website": "None", "summary": "None", "logo": "None", "latitude": 56.729065200675116, "longitude": -111.37999387679594}, "872489331RR0001": {"name": "MCMURTRY GARDENS OF JUSTICE INC.", "designationCode": "C", "categoryCode": "56", "address": "405 - 7 SAINT THOMAS ST", "city": "TORONTO", "province": "ON", "country": "CA", "postalCode": "M5S2B7", "twitter": "None", "instagram": "None", "facebook": "None", "youtube": "None", "website": "None", "summary": "None", "logo": "None", "latitude": 43.66842403719198, "longitude": -79.39054930515327}, "828834077RR0001": {"name": "MCNALLY HOUSE HOSPICE", "designationCode": "C", "categoryCode": "01", "address": "148 CENTRAL AVENUE", "city": "GRIMSBY", "province": "ON", "country": "CA", "postalCode": "L3M4Z3", "twitter": "None", "instagram": "None", "facebook": "None", "youtube": "None", "website": "None", "summary": "None", "logo": "None", "latitude": 43.19076908240539, "longitude": -79.54123539800334}, "862233780RR0001": {"name": "MCNAUGHT HOMESTEAD PRESERVATION SOCIETY", "designationCode": "C", "categoryCode": "52", "address": "PO BOX 879", "city": "BEAVERLODGE", "province": "AB", "country": "CA", "postalCode": "T0H0C0", "twitter": "None", "instagram": "None", "facebook": "None", "youtube": "None", "website": "None", "summary": "None", "logo": "None", "latitude": 55.209100000000035, "longitude": -119.42957999999999}, "103605218RR0001": {"name": "MCNICOLL AVENUE CHILD CARE PROGRAM", "designationCode": "C", "categoryCode": "01", "address": "155 MCNICOLL AVENUE", "city": "NORTH YORK", "province": "ON", "country": "CA", "postalCode": "M2H2C1", "twitter": "None", "instagram": "None", "facebook": "None", "youtube": "None", "website": "None", "summary": "None", "logo": "None", "latitude": 43.79927587812361, "longitude": -79.35818400109652}, "119036028RR0001": {"name": "MCPHAIL CEMETERY", "designationCode": "C", "categoryCode": "59", "address": "985 COUNTY RD 41              RR #7", "city": "BRIGHTON", "province": "ON", "country": "CA", "postalCode": "K0K1H0", "twitter": "None", "instagram": "None", "facebook": "None", "youtube": "None", "website": "None", "summary": "None", "logo": "None", "latitude": 44.14047209618059, "longitude": -77.73419749105142}, "107684466RR0001": {"name": "MCPHAIL MEMORIAL BAPTIST CHURCH", "designationCode": "C", "categoryCode": "31", "address": "249 BRONSON AVE", "city": "OTTAWA", "province": "ON", "country": "CA", "postalCode": "K1R6H6", "twitter": "None", "instagram": "None", "facebook": "None", "youtube": "None", "website": "None", "summary": "None", "logo": "None", "latitude": 45.412784580356586, "longitude": -75.70648339728218}, "137761862RR0001": {"name": "MCPHERSON MUNICIPAL LIBRARY", "designationCode": "C", "categoryCode": "50", "address": "BOX 139", "city": "RYLEY", "province": "AB", "country": "CA", "postalCode": "T0B4A0", "twitter": "None", "instagram": "None", "facebook": "None", "youtube": "None", "website": "None", "summary": "None", "logo": "None", "latitude": 53.28344000000004, "longitude": -112.43517999999995}, "107685620RR0001": {"name": "MCS FOUNDATION LTD.", "designationCode": "C", "categoryCode": "20", "address": "9825-158 ST NW", "city": "EDMONTON", "province": "AB", "country": "CA", "postalCode": "T5P2X4", "twitter": "None", "instagram": "None", "facebook": "None", "youtube": "None", "website": "None", "summary": "None", "logo": "None", "latitude": 53.53710345045877, "longitude": -113.5937848289864}, "802286443RR0001": {"name": "MCYH Multi Generational Housing Society", "designationCode": "C", "categoryCode": "09", "address": "1800 - 510 GEORGIA ST W", "city": "VANCOUVER", "province": "BC", "country": "CA", "postalCode": "V6B0M3", "twitter": "None", "instagram": "None", "facebook": "None", "youtube": "None", "website": "None", "summary": "None", "logo": "None", "latitude": 49.281267759207665, "longitude": -123.11633309804196}, "133112292RR0001": {"name": "MDA EDUCATION FOUNDATION", "designationCode": "C", "categoryCode": "21", "address": "6248 50 ST NW", "city": "EDMONTON", "province": "AB", "country": "CA", "postalCode": "T6B2N7", "twitter": "None", "instagram": "None", "facebook": "None", "youtube": "None", "website": "None", "summary": "None", "logo": "None", "latitude": 53.4994527630813, "longitude": -113.41836774392166}, "899307854RR0001": {"name": "MDA MOOD DISORDERS ASSOCIATION OF BRITISH COLUMBIA", "designationCode": "C", "categoryCode": "09", "address": "1450-605 ROBSON ST", "city": "VANCOUVER", "province": "BC", "country": "CA", "postalCode": "V6B5J3", "twitter": "None", "instagram": "None", "facebook": "None", "youtube": "None", "website": "None", "summary": "None", "logo": "None", "latitude": 49.28091823731883, "longitude": -123.11907438493293}, "853352078RR0001": {"name": "MEADOW BROOK FELLOWSHIP", "designationCode": "C", "categoryCode": "34", "address": "219 TALBOT ST EAST            R.R. 3", "city": "LEAMINGTON", "province": "ON", "country": "CA", "postalCode": "N8H3V6", "twitter": "None", "instagram": "None", "facebook": "None", "youtube": "None", "website": "None", "summary": "None", "logo": "None", "latitude": 42.056683142331075, "longitude": -82.58529563265613}, "888599719RR0001": {"name": "MEADOW CREEK COMMUNITY CHURCH", "designationCode": "C", "categoryCode": "39", "address": "120 CLARENDON AVE", "city": "HAMILTON", "province": "ON", "country": "CA", "postalCode": "L9A3A5", "twitter": "None", "instagram": "None", "facebook": "None", "youtube": "None", "website": "None", "summary": "None", "logo": "None", "latitude": 43.23203559029698, "longitude": -79.87607501771366}, "806232070RR0001": {"name": "MEADOW GREEN ACADEMY SCHOLARSHIP FOUNDATION", "designationCode": "C", "categoryCode": "23", "address": "649 QUEENSWAY WEST", "city": "MISSISSAUGA", "province": "ON", "country": "CA", "postalCode": "L5B1C2", "twitter": "None", "instagram": "None", "facebook": "None", "youtube": "None", "website": "None", "summary": "None", "logo": "None", "latitude": 43.56051635001998, "longitude": -79.62287252337083}, "882301104RR0001": {"name": "MEADOW LAKE & DISTRICT HUMANE SOCIETY INC.", "designationCode": "C", "categoryCode": "54", "address": "BOX 944", "city": "MEADOW LAKE", "province": "SK", "country": "CA", "postalCode": "S9X1Y7", "twitter": "None", "instagram": "None", "facebook": "None", "youtube": "None", "website": "None", "summary": "None", "logo": "None", "latitude": 54.13326000000005, "longitude": -108.45203299999993}, "107685448RR0001": {"name": "MEADOW LAKE ALLIANCE CHURCH", "designationCode": "C", "categoryCode": "39", "address": "805 5TH ST W", "city": "MEADOW LAKE", "province": "SK", "country": "CA", "postalCode": "S9X1V1", "twitter": "None", "instagram": "None", "facebook": "None", "youtube": "None", "website": "None", "summary": "None", "logo": "None", "latitude": 54.12308283163344, "longitude": -108.443134087729}, "119036150RR0001": {"name": "MEADOW LAKE AND AREA EARLY CHILDHOOD SERVICES INCORPORATED", "designationCode": "C", "categoryCode": "11", "address": "BOX 2368", "city": "MEADOW LAKE", "province": "SK", "country": "CA", "postalCode": "S9X1Z5", "twitter": "None", "instagram": "None", "facebook": "None", "youtube": "None", "website": "None", "summary": "None", "logo": "None", "latitude": 54.13326000000005, "longitude": -108.45203299999993}, "891480840RR0001": {"name": "MEADOW LAKE AND DISTRICT MUSIC FESTIVAL ASSOCIATION INCORPORATED", "designationCode": "C", "categoryCode": "22", "address": "BOX 1995", "city": "MEADOW LAKE", "province": "SK", "country": "CA", "postalCode": "S9X1Z3", "twitter": "None", "instagram": "None", "facebook": "None", "youtube": "None", "website": "None", "summary": "None", "logo": "None", "latitude": 54.13326000000005, "longitude": -108.45203299999993}, "888985595RR0001": {"name": "MEADOW LAKE AND DISTRICT SCHOLARSHIP COMMITTEE INC.", "designationCode": "C", "categoryCode": "21", "address": "525-5TH STREET WEST", "city": "MEADOW LAKE", "province": "SK", "country": "CA", "postalCode": "S9X1B4", "twitter": "None", "instagram": "None", "facebook": "None", "youtube": "None", "website": "None", "summary": "None", "logo": "None", "latitude": 54.1263160513486, "longitude": -108.44312224524516}, "825461940RR0001": {"name": "MEADOW LAKE BRIDGE MINISTRIES INC.", "designationCode": "C", "categoryCode": "39", "address": "BOX 1094", "city": "MEADOW LAKE", "province": "SK", "country": "CA", "postalCode": "S9X1Y8", "twitter": "None", "instagram": "None", "facebook": "None", "youtube": "None", "website": "None", "summary": "None", "logo": "None", "latitude": 54.13326000000005, "longitude": -108.45203299999993}, "119036200RR0001": {"name": "MEADOW LAKE CONGREGATION OF JEHOVAH'S WITNESSES, SASKATCHEWAN", "designationCode": "C", "categoryCode": "61", "address": "412-7TH ST.EAST", "city": "MEADOW LAKE", "province": "SK", "country": "CA", "postalCode": "S9X1J4", "twitter": "None", "instagram": "None", "facebook": "None", "youtube": "None", "website": "None", "summary": "None", "logo": "None", "latitude": 54.12886006690707, "longitude": -108.41879376211064}, "854712007RR0001": {"name": "MEADOW LAKE HOSPITAL FOUNDATION INC.", "designationCode": "C", "categoryCode": "11", "address": "BOX 511", "city": "MEADOW LAKE", "province": "SK", "country": "CA", "postalCode": "S9X1Y4", "twitter": "None", "instagram": "None", "facebook": "None", "youtube": "None", "website": "None", "summary": "None", "logo": "None", "latitude": 54.13326000000005, "longitude": -108.45203299999993}, "137675575RR0001": {"name": "MEADOW LAKE OUTREACH MINISTRIES INC.", "designationCode": "C", "categoryCode": "47", "address": "PO BOX 1270", "city": "MEADOW LAKE", "province": "SK", "country": "CA", "postalCode": "S9X1Y9", "twitter": "None", "instagram": "None", "facebook": "None", "youtube": "None", "website": "None", "summary": "None", "logo": "None", "latitude": 54.13326000000005, "longitude": -108.45203299999993}, "108154188RR0001": {"name": "MEADOW LAKE PASTORAL CHARGE", "designationCode": "C", "categoryCode": "44", "address": "502 - 6TH AVE. W.", "city": "MEADOW LAKE", "province": "SK", "country": "CA", "postalCode": "S9X1C1", "twitter": "None", "instagram": "None", "facebook": "None", "youtube": "None", "website": "None", "summary": "None", "logo": "None", "latitude": 54.12616044944421, "longitude": -108.44188669692961}, "887087591RR0001": {"name": "MEADOW LAKE PENSIONERS AND SENIOR CITIZENS, #31, INC", "designationCode": "C", "categoryCode": "09", "address": "406 5TH AVE WEST", "city": "MEADOW LAKE", "province": "SK", "country": "CA", "postalCode": "S9X1B9", "twitter": "None", "instagram": "None", "facebook": "None", "youtube": "None", "website": "None", "summary": "None", "logo": "None", "latitude": 54.12749666594513, "longitude": -108.43852546402388}, "107685471RR0001": {"name": "MEADOW LAKE SOCIETY FOR CHRISTIAN EDUCATION INC.", "designationCode": "C", "categoryCode": "20", "address": "208 9TH AVE E", "city": "MEADOW LAKE", "province": "SK", "country": "CA", "postalCode": "S9X1G3", "twitter": "None", "instagram": "None", "facebook": "None", "youtube": "None", "website": "None", "summary": "None", "logo": "None", "latitude": 54.12173556047982, "longitude": -108.43215325084431}, "119036283RR0001": {"name": "MEADOW LEA UNITED CHURCH", "designationCode": "C", "categoryCode": "44", "address": "RR 1 BOX 52", "city": "MARQUETTE", "province": "MB", "country": "CA", "postalCode": "R0H0V0", "twitter": "None", "instagram": "None", "facebook": "None", "youtube": "None", "website": "None", "summary": "None", "logo": "None", "latitude": 50.053520234970804, "longitude": -97.7350905}, "107685653RR0001": {"name": "MEADOW MONTESSORI SCHOOL SOCIETY", "designationCode": "C", "categoryCode": "20", "address": "11391 DARTFORD ST", "city": "MAPLE RIDGE", "province": "BC", "country": "CA", "postalCode": "V2X1V6", "twitter": "None", "instagram": "None", "facebook": "None", "youtube": "None", "website": "None", "summary": "None", "logo": "None", "latitude": 49.20930899999999, "longitude": -122.64962557441264}, "870667698RR0001": {"name": "MEADOW PARK, SANDYS STREET, AUXILIARY", "designationCode": "C", "categoryCode": "19", "address": "110 SANDYS STREET", "city": "CHATHAM", "province": "ON", "country": "CA", "postalCode": "N7L4X3", "twitter": "None", "instagram": "None", "facebook": "None", "youtube": "None", "website": "None", "summary": "None", "logo": "None", "latitude": 42.406478809077086, "longitude": -82.19943437269926}, "891252116RR0001": {"name": "MEADOW RIDGE FOUNDATION", "designationCode": "A", "categoryCode": "03", "address": "22715 119TH AVENUE", "city": "MAPLE RIDGE", "province": "BC", "country": "CA", "postalCode": "V2X8S5", "twitter": "None", "instagram": "None", "facebook": "None", "youtube": "None", "website": "None", "summary": "None", "logo": "None", "latitude": 49.218975533181286, "longitude": -122.59285102553523}, "119275857RR0001": {"name": "MEADOWBROOK BIBLE CHAPEL", "designationCode": "C", "categoryCode": "39", "address": "411 MALABAR DRIVE", "city": "KINGSTON", "province": "ON", "country": "CA", "postalCode": "K7M8Z5", "twitter": "None", "instagram": "None", "facebook": "None", "youtube": "None", "website": "None", "summary": "None", "logo": "None", "latitude": 44.241417487304965, "longitude": -76.55128107998215}, "107685364RR0001": {"name": "MEADOWBROOK COMMUNITY CHURCH", "designationCode": "C", "categoryCode": "39", "address": "RR#3                          SITE 4 BOX 18", "city": "LACOMBE", "province": "AB", "country": "CA", "postalCode": "T4L2N3", "twitter": "None", "instagram": "None", "facebook": "None", "youtube": "None", "website": "None", "summary": "None", "logo": "None", "latitude": 52.463094000000055, "longitude": -113.73671149999993}, "107685398RR0001": {"name": "MEADOWCREST BAPTIST CHURCH", "designationCode": "C", "categoryCode": "31", "address": "40 VIPOND RD", "city": "BROOKLIN", "province": "ON", "country": "CA", "postalCode": "L1M1B3", "twitter": "None", "instagram": "None", "facebook": "None", "youtube": "None", "website": "None", "summary": "None", "logo": "None", "latitude": 43.95672212519461, "longitude": -78.96667006440065}, "889462065RR0001": {"name": "MEADOWEST PRESCHOOL INC", "designationCode": "C", "categoryCode": "20", "address": "9 - 6975 MEADOWVALE TOWN      CENTRE CIRCLE, SUITE 110", "city": "MISSISSAUGA", "province": "ON", "country": "CA", "postalCode": "L5N2V7", "twitter": "None", "instagram": "None", "facebook": "None", "youtube": "None", "website": "None", "summary": "None", "logo": "None", "latitude": 43.58037494168301, "longitude": -79.75835494192219}, "888413242RR0001": {"name": "MEADOWLANDS BAPTIST CHURCH", "designationCode": "C", "categoryCode": "39", "address": "2215 17TH STREET", "city": "EDMONTON", "province": "AB", "country": "CA", "postalCode": "T6T1J1", "twitter": "None", "instagram": "None", "facebook": "None", "youtube": "None", "website": "None", "summary": "None", "logo": "None", "latitude": 53.453217226783366, "longitude": -113.36908430459928}, "119288918RR0440": {"name": "MEADOWLANDS CONGREGATION OF JEHOVAH'S WITNESSES", "designationCode": "C", "categoryCode": "61", "address": "63 MEDHURST DRIVE", "city": "NEPEAN", "province": "ON", "country": "CA", "postalCode": "K2G4L5", "twitter": "None", "instagram": "None", "facebook": "None", "youtube": "None", "website": "None", "summary": "None", "logo": "None", "latitude": 45.336450434935536, "longitude": -75.74420383542035}, "891390791RR0001": {"name": "MEADOWLODGE BIBLE CAMP", "designationCode": "C", "categoryCode": "39", "address": "51511 RANGE ROAD 215", "city": "SHERWOOD PARK", "province": "AB", "country": "CA", "postalCode": "T8E1H1", "twitter": "None", "instagram": "None", "facebook": "None", "youtube": "None", "website": "None", "summary": "None", "logo": "None", "latitude": 53.441396168243635, "longitude": -113.07420697383054}, "118799048RR0001": {"name": "MEADOWOOD MANOR FOUNDATION INC.", "designationCode": "A", "categoryCode": "09", "address": "102-575 ST. ANNE'S ROAD", "city": "WINNIPEG", "province": "MB", "country": "CA", "postalCode": "R2M5B2", "twitter": "None", "instagram": "None", "facebook": "None", "youtube": "None", "website": "None", "summary": "None", "logo": "None", "latitude": 49.864423383462984, "longitude": -97.11096808268513}, "834078628RR0001": {"name": "MEADOWOOD PENTECOSTAL CHURCH", "designationCode": "C", "categoryCode": "36", "address": "P O BOX 28016 N PARK PLAZA", "city": "BRANTFORD", "province": "ON", "country": "CA", "postalCode": "N3R7X5", "twitter": "None", "instagram": "None", "facebook": "None", "youtube": "None", "website": "None", "summary": "None", "logo": "None", "latitude": 43.164344813079865, "longitude": -80.2649226702642}, "107685745RR0001": {"name": "MEADOWRIDGE SCHOOL SOCIETY", "designationCode": "C", "categoryCode": "21", "address": "12224 - 240TH STREET", "city": "MAPLE RIDGE", "province": "BC", "country": "CA", "postalCode": "V4R1N1", "twitter": "None", "instagram": "None", "facebook": "None", "youtube": "None", "website": "None", "summary": "None", "logo": "None", "latitude": 49.224546000000004, "longitude": -122.55707090394729}, "891715591RR0001": {"name": "MEADOWS ANIMAL WELFARE SOCIETY", "designationCode": "C", "categoryCode": "54", "address": "BOX 3377", "city": "MISSION", "province": "BC", "country": "CA", "postalCode": "V2V4J5", "twitter": "None", "instagram": "None", "facebook": "None", "youtube": "None", "website": "None", "summary": "None", "logo": "None", "latitude": 49.13294100000006, "longitude": -122.32108249999993}, "107685778RR0001": {"name": "MEADOWS WEST KIDS KARE INC.", "designationCode": "C", "categoryCode": "20", "address": "166 GARTON AVENUE", "city": "WINNIPEG", "province": "MB", "country": "CA", "postalCode": "R2R2R7", "twitter": "None", "instagram": "None", "facebook": "None", "youtube": "None", "website": "None", "summary": "None", "logo": "None", "latitude": 49.95008897691761, "longitude": -97.20025368809564}, "130558737RR0001": {"name": "MEADOWVALE BIBLE BAPTIST CHURCH", "designationCode": "C", "categoryCode": "31", "address": "2720 GANANOQUE DRIVE", "city": "MISSISSAUGA", "province": "ON", "country": "CA", "postalCode": "L5N2R2", "twitter": "None", "instagram": "None", "facebook": "None", "youtube": "None", "website": "None", "summary": "None", "logo": "None", "latitude": 43.59183487647883, "longitude": -79.76267294543844}, "119288918RR0520": {"name": "MEADOWVALE CONGREGATION OF JEHOVAH'S WITNESSES TORONTO ONTARIO", "designationCode": "C", "categoryCode": "61", "address": "3391 JUNEBERRY ROAD", "city": "MISSISSAUGA", "province": "ON", "country": "CA", "postalCode": "L5N7E8", "twitter": "None", "instagram": "None", "facebook": "None", "youtube": "None", "website": "None", "summary": "None", "logo": "None", "latitude": 43.577311985861726, "longitude": -79.77754895172816}, "862675113RR0001": {"name": "MEADOWVALE EAST APOSTOLIC CHURCH", "designationCode": "C", "categoryCode": "39", "address": "1510 WARDEN AVE", "city": "SCARBOROUGH", "province": "ON", "country": "CA", "postalCode": "M1R2S8", "twitter": "None", "instagram": "None", "facebook": "None", "youtube": "None", "website": "None", "summary": "None", "logo": "None", "latitude": 43.761690010820054, "longitude": -79.3008293955505}, "865654917RR0001": {"name": "MEADOWVALE FIRST BAPTIST CHURCH", "designationCode": "C", "categoryCode": "39", "address": "2720 GANANOQUE DRIVE", "city": "MISSISSAUGA", "province": "ON", "country": "CA", "postalCode": "L5N2R2", "twitter": "None", "instagram": "None", "facebook": "None", "youtube": "None", "website": "None", "summary": "None", "logo": "None", "latitude": 43.59183487647883, "longitude": -79.76267294543844}, "861881670RR0001": {"name": "MEADOWVALE ISLAMIC CENTRE INC.", "designationCode": "C", "categoryCode": "60", "address": "6508 WINSTON CHURCHILL BLVD", "city": "MISSISSAUGA", "province": "ON", "country": "CA", "postalCode": "L5N3W4", "twitter": "None", "instagram": "None", "facebook": "None", "youtube": "None", "website": "None", "summary": "None", "logo": "None", "latitude": 43.58110369190387, "longitude": -79.76147766475253}, "889528998RR0001": {"name": "MEADOWVALE KOREAN UNITED CHURCH", "designationCode": "C", "categoryCode": "44", "address": "1010 OLD DERRY ROAD W.", "city": "MISSISAUGA", "province": "ON", "country": "CA", "postalCode": "L5W1A1", "twitter": "None", "instagram": "None", "facebook": "None", "youtube": "None", "website": "None", "summary": "None", "logo": "None", "latitude": 43.62690213514927, "longitude": -79.72801134759672}, "119036374RR0001": {"name": "MEADOWVALE MUSIC THEATRE", "designationCode": "C", "categoryCode": "22", "address": "38 DALE DR", "city": "CHATHAM", "province": "ON", "country": "CA", "postalCode": "N7L5R4", "twitter": "None", "instagram": "None", "facebook": "None", "youtube": "None", "website": "None", "summary": "None", "logo": "None", "latitude": 42.40166180070989, "longitude": -82.22665923881938}, "107797383RR0071": {"name": "MEADOWVALE SEVENTH-DAY ADVENTIST CHURCH", "designationCode": "C", "categoryCode": "41", "address": "5920 MONTEVIDEO ROAD", "city": "MISSISSAUGA", "province": "ON", "country": "CA", "postalCode": "L5N3J5", "twitter": "None", "instagram": "None", "facebook": "None", "youtube": "None", "website": "None", "summary": "None", "logo": "None", "latitude": 43.58088560395858, "longitude": -79.74810176040121}, "123898389RR0001": {"name": "MEADOWVALE THEATRE", "designationCode": "C", "categoryCode": "22", "address": "6124 WABUKAYNE CRT", "city": "MISSISSAUGA", "province": "ON", "country": "CA", "postalCode": "L5N2B2", "twitter": "None", "instagram": "None", "facebook": "None", "youtube": "None", "website": "None", "summary": "None", "logo": "None", "latitude": 43.579949804605015, "longitude": -79.73774797587842}, "107685885RR0001": {"name": "MEADOWVALE WEST CHURCH CENTRE", "designationCode": "C", "categoryCode": "39", "address": "6945 MEADOWVALE               TOWN CENTRE CIRCLE", "city": "MISSISSAUGA", "province": "ON", "country": "CA", "postalCode": "L5N2W7", "twitter": "None", "instagram": "None", "facebook": "None", "youtube": "None", "website": "None", "summary": "None", "logo": "None", "latitude": 43.58247034641329, "longitude": -79.75725768269902}, "896768116RR0001": {"name": "MEADOWVIEW LUTHERN HISTORICAL SOCIETY", "designationCode": "C", "categoryCode": "50", "address": "5011 TWP RD 574", "city": "COUNTY OF BARRHEAD", "province": "AB", "country": "CA", "postalCode": "T7N0K9", "twitter": "None", "instagram": "None", "facebook": "None", "youtube": "None", "website": "None", "summary": "None", "logo": "None", "latitude": 53.94792300000006, "longitude": -114.61875649999993}, "119036390RR0001": {"name": "MEAFORD AND ST. VINCENT AGRICULTURAL SOCIETY", "designationCode": "C", "categoryCode": "56", "address": "620372 ROBSON RD              RR 3", "city": "HOLLAND CENTRE", "province": "ON", "country": "CA", "postalCode": "N0H1R0", "twitter": "None", "instagram": "None", "facebook": "None", "youtube": "None", "website": "None", "summary": "None", "logo": "None", "latitude": 44.39294401889514, "longitude": -80.76227488019168}, "108088212RR0001": {"name": "MEAFORD CO-OPERATIVE PRESCHOOL INC.", "designationCode": "C", "categoryCode": "20", "address": "134 MARGARET ST", "city": "MEAFORD", "province": "ON", "country": "CA", "postalCode": "N4L1C1", "twitter": "None", "instagram": "None", "facebook": "None", "youtube": "None", "website": "None", "summary": "None", "logo": "None", "latitude": 44.60360512908975, "longitude": -80.58483025036058}, "856196563RR0001": {"name": "MEAFORD HALL & CULTURE FOUNDATION", "designationCode": "C", "categoryCode": "56", "address": "1-12 NELSON ST E", "city": "MEAFORD", "province": "ON", "country": "CA", "postalCode": "N4L1N6", "twitter": "None", "instagram": "None", "facebook": "None", "youtube": "None", "website": "None", "summary": "None", "logo": "None", "latitude": 44.60817158826144, "longitude": -80.59091109693199}, "119036408RR0001": {"name": "MEAFORD HOSPITAL FOUNDATION", "designationCode": "A", "categoryCode": "13", "address": "229 NELSON ST W", "city": "MEAFORD", "province": "ON", "country": "CA", "postalCode": "N4L1A3", "twitter": "None", "instagram": "None", "facebook": "None", "youtube": "None", "website": "None", "summary": "None", "logo": "None", "latitude": 44.606262172692375, "longitude": -80.60031621850545}, "887587061RR0001": {"name": "MEAFORD NURSING HOME AUXILIARY", "designationCode": "C", "categoryCode": "19", "address": "135 WILLIAM STREET", "city": "MEAFORD", "province": "ON", "country": "CA", "postalCode": "N4L1T4", "twitter": "None", "instagram": "None", "facebook": "None", "youtube": "None", "website": "None", "summary": "None", "logo": "None", "latitude": 44.61199872880739, "longitude": -80.60066880653825}, "107686016RR0001": {"name": "MEAFORD UNITED CHURCH", "designationCode": "C", "categoryCode": "44", "address": "7 BOUCHER STREET EAST", "city": "MEAFORD", "province": "ON", "country": "CA", "postalCode": "N4L1E2", "twitter": "None", "instagram": "None", "facebook": "None", "youtube": "None", "website": "None", "summary": "None", "logo": "None", "latitude": 44.60494095459017, "longitude": -80.59050255658738}, "119288918RR0722": {"name": "MEAFORD, ONTARIO CONGREGATION OF JEHOVAH'S WITNESSES", "designationCode": "C", "categoryCode": "61", "address": "49 BRIDGE ST", "city": "MEAFORD", "province": "ON", "country": "CA", "postalCode": "N4L1B8", "twitter": "None", "instagram": "None", "facebook": "None", "youtube": "None", "website": "None", "summary": "None", "logo": "None", "latitude": 44.60732232275398, "longitude": -80.58703268792182}, "840524581RR0001": {"name": "MEAL EXCHANGE", "designationCode": "A", "categoryCode": "09", "address": "SUITE 365 401 RICHMOND ST WEST", "city": "TORONTO", "province": "ON", "country": "CA", "postalCode": "M5V3A8", "twitter": "None", "instagram": "None", "facebook": "None", "youtube": "None", "website": "None", "summary": "None", "logo": "None", "latitude": 43.64803297305114, "longitude": -79.39483379779568}, "119036507RR0001": {"name": "MEALS - ON - WHEELS (DRESDEN) INC.", "designationCode": "C", "categoryCode": "09", "address": "PO BOX 398", "city": "DRESDEN", "province": "ON", "country": "CA", "postalCode": "N0P1M0", "twitter": "None", "instagram": "None", "facebook": "None", "youtube": "None", "website": "None", "summary": "None", "logo": "None", "latitude": 42.58952000000005, "longitude": -82.17963999999995}, "107686198RR0001": {"name": "MEALS ON WHEELS (SUDBURY)", "designationCode": "C", "categoryCode": "09", "address": "1127 BANCROFT DRIVE", "city": "SUDBURY", "province": "ON", "country": "CA", "postalCode": "P3B1R6", "twitter": "None", "instagram": "None", "facebook": "None", "youtube": "None", "website": "None", "summary": "None", "logo": "None", "latitude": 46.49539334698942, "longitude": -80.9582731958652}, "119036499RR0001": {"name": "MEALS ON WHEELS - CORNWALL", "designationCode": "C", "categoryCode": "09", "address": "1900 MONTREAL ROAD", "city": "CORNWALL", "province": "ON", "country": "CA", "postalCode": "K6H7L1", "twitter": "None", "instagram": "None", "facebook": "None", "youtube": "None", "website": "None", "summary": "None", "logo": "None", "latitude": 45.02556403029573, "longitude": -74.68285752559254}, "889295572RR0001": {"name": "MEALS ON WHEELS - SIDNEY TOWNSHIP", "designationCode": "C", "categoryCode": "09", "address": "1062 HAMILTON RD", "city": "TRENTON", "province": "ON", "country": "CA", "postalCode": "K8V5P8", "twitter": "None", "instagram": "None", "facebook": "None", "youtube": "None", "website": "None", "summary": "None", "logo": "None", "latitude": 44.15553546768412, "longitude": -77.50149188926076}, "129895124RR0001": {"name": "MEALS ON WHEELS LONDON", "designationCode": "C", "categoryCode": "09", "address": "356 QUEENS AVE", "city": "LONDON", "province": "ON", "country": "CA", "postalCode": "N6B1X6", "twitter": "None", "instagram": "None", "facebook": "None", "youtube": "None", "website": "None", "summary": "None", "logo": "None", "latitude": 42.987276961451705, "longitude": -81.24222883279462}, "119036549RR0001": {"name": "MEALS ON WHEELS LUNENBURG, N.S.", "designationCode": "C", "categoryCode": "09", "address": "P.O.BOX ROGERS", "city": "LUNENBURG", "province": "NS", "country": "CA", "postalCode": "B0J2C0", "twitter": "None", "instagram": "None", "facebook": "None", "youtube": "None", "website": "None", "summary": "None", "logo": "None", "latitude": 44.36062800000006, "longitude": -64.33421299999993}, "119036580RR0001": {"name": "MEALS ON WHEELS OF FREDERICTON, INC.", "designationCode": "C", "categoryCode": "09", "address": "65 BRUNSWICK STREET", "city": "FREDERICTON", "province": "NB", "country": "CA", "postalCode": "E3B1G5", "twitter": "None", "instagram": "None", "facebook": "None", "youtube": "None", "website": "None", "summary": "None", "logo": "None", "latitude": 45.96439337333348, "longitude": -66.6524763918865}, "128882628RR0001": {"name": "MEALS ON WHEELS OF WINNIPEG INC", "designationCode": "C", "categoryCode": "59", "address": "174 HARGRAVE STREET", "city": "WINNIPEG", "province": "MB", "country": "CA", "postalCode": "R3C3N2", "twitter": "None", "instagram": "None", "facebook": "None", "youtube": "None", "website": "None", "summary": "None", "logo": "None", "latitude": 49.889618109902514, "longitude": -97.14278635861831}, "846717478RR0001": {"name": "MEALS ON WHEELS SOCIETY OF WILLIAMS LAKE", "designationCode": "C", "categoryCode": "09", "address": "BOX 4157", "city": "WILLIAMS LAKE", "province": "BC", "country": "CA", "postalCode": "V2G2V3", "twitter": "None", "instagram": "None", "facebook": "None", "youtube": "None", "website": "None", "summary": "None", "logo": "None", "latitude": 52.12864500000006, "longitude": -122.14108249999992}, "119036564RR0001": {"name": "MEALS ON WHEELS THOROLD - ST. CATHARINES", "designationCode": "C", "categoryCode": "09", "address": "227 BUNTING RD                UNIT L", "city": "ST. CATHARINES", "province": "ON", "country": "CA", "postalCode": "L2M3Y2", "twitter": "None", "instagram": "None", "facebook": "None", "youtube": "None", "website": "None", "summary": "None", "logo": "None", "latitude": 43.17385429808414, "longitude": -79.21012760372741}, "119036655RR0001": {"name": "MEALS ON WHEELS VOLUNTEER SERVICE", "designationCode": "C", "categoryCode": "09", "address": "6670 BAYERS ROAD", "city": "HALIFAX", "province": "NS", "country": "CA", "postalCode": "B3L2B5", "twitter": "None", "instagram": "None", "facebook": "None", "youtube": "None", "website": "None", "summary": "None", "logo": "None", "latitude": 44.65191610655563, "longitude": -63.61544104022174}, "107686180RR0001": {"name": "MEALS ON WHEELS, PORT COLBORNE, INC.", "designationCode": "C", "categoryCode": "09", "address": "260 SUGARLOAF ST. MAIN FLOOR E", "city": "PORT COLBORNE", "province": "ON", "country": "CA", "postalCode": "L3K2N7", "twitter": "None", "instagram": "None", "facebook": "None", "youtube": "None", "website": "None", "summary": "None", "logo": "None", "latitude": 42.88060201822141, "longitude": -79.25830501822139}, "887368082RR0001": {"name": "MEALS-ON-WHEELS, NIAGARA FALLS, ONTARIO, INC.", "designationCode": "C", "categoryCode": "09", "address": "GREATER NIAGARA GEN. HOSPITAL P.O. BOX 1018", "city": "NIAGARA FALLS", "province": "ON", "country": "CA", "postalCode": "L2E6X2", "twitter": "None", "instagram": "None", "facebook": "None", "youtube": "None", "website": "None", "summary": "None", "logo": "None", "latitude": 43.09406000000007, "longitude": -79.09113999999994}, "882868011RR0001": {"name": "MECHTA CHILDREN'S CENTER / CENTRE D'ENFANTS MECHTA", "designationCode": "C", "categoryCode": "09", "address": "2601 DE DIEPPE", "city": "LONGUEUIL", "province": "QC", "country": "CA", "postalCode": "J4L2K6", "twitter": "None", "instagram": "None", "facebook": "None", "youtube": "None", "website": "None", "summary": "None", "logo": "None", "latitude": 45.51813181155859, "longitude": -73.47027464403608}, "889745576RR0001": {"name": "MECUM COMMUNAUTE CHRETIENNE CON TEMPLATIVE (CCC) - MECUM CONTEMPLATIVE CHRISTIAN COMMUNITY(CCC)", "designationCode": "C", "categoryCode": "47", "address": "8598 AV DES RAPIDES", "city": "LASALLE", "province": "QC", "country": "CA", "postalCode": "H8P2W2", "twitter": "None", "instagram": "None", "facebook": "None", "youtube": "None", "website": "None", "summary": "None", "logo": "None", "latitude": 45.416539751024416, "longitude": -73.61818459893824}, "141028324RR0001": {"name": "MEDA CHARITABLE TRUST", "designationCode": "B", "categoryCode": "55", "address": "1575 LAUZON ROAD", "city": "WINDSOR", "province": "ON", "country": "CA", "postalCode": "N8S3N4", "twitter": "None", "instagram": "None", "facebook": "None", "youtube": "None", "website": "None", "summary": "None", "logo": "None", "latitude": 42.319665996653114, "longitude": -82.9352690844246}, "844446724RR0001": {"name": "MEDAHNIALEM ETHIOPIAN EVANGELICAL CHURCH", "designationCode": "C", "categoryCode": "39", "address": "1171 WOODBINE AVENUE", "city": "TORONTO", "province": "ON", "country": "CA", "postalCode": "M4C4E1", "twitter": "None", "instagram": "None", "facebook": "None", "youtube": "None", "website": "None", "summary": "None", "logo": "None", "latitude": 43.69127833694956, "longitude": -79.31516007920274}, "859811317RR0001": {"name": "MEDALLIC ART SOCIETY OF CANADA", "designationCode": "C", "categoryCode": "22", "address": "128 SILVERSTONE DRIVE", "city": "TORONTO", "province": "ON", "country": "CA", "postalCode": "M9V3G7", "twitter": "None", "instagram": "None", "facebook": "None", "youtube": "None", "website": "None", "summary": "None", "logo": "None", "latitude": 43.75099243767682, "longitude": -79.58967168806605}, "106835986RR0001": {"name": "MEDEBA BIBLE CAMP INCORPORATED", "designationCode": "C", "categoryCode": "56", "address": "BOX 138", "city": "WEST GUILFORD", "province": "ON", "country": "CA", "postalCode": "K0M2S0", "twitter": "None", "instagram": "None", "facebook": "None", "youtube": "None", "website": "None", "summary": "None", "logo": "None", "latitude": 45.10970504201179, "longitude": -78.5990180210059}, "869450783RR0001": {"name": "MEDECINS AUX PIEDS NUS - CANADA/BAREFOOT DOCTORS - CANADA (MAPN-CANADA)", "designationCode": "C", "categoryCode": "11", "address": "1871 BOULEVARD ROSEMONT", "city": "MONTR\u00c9AL", "province": "QC", "country": "CA", "postalCode": "H2G1S7", "twitter": "None", "instagram": "None", "facebook": "None", "youtube": "None", "website": "None", "summary": "None", "logo": "None", "latitude": 45.541483542068086, "longitude": -73.59066740360058}, "888081049RR0001": {"name": "MEDECINS DU MONDE", "designationCode": "C", "categoryCode": "11", "address": "338 SHERBROOKE EST", "city": "MONTREAL", "province": "QC", "country": "CA", "postalCode": "H2X1E6", "twitter": "None", "instagram": "None", "facebook": "None", "youtube": "None", "website": "None", "summary": "None", "logo": "None", "latitude": 45.51627706910385, "longitude": -73.56773000357802}, "873835565RR0001": {"name": "MEDHANIALEM EVANGELICAL CHURCH", "designationCode": "C", "categoryCode": "39", "address": "P.O. BOX 42065                ST. LAURENT", "city": "OTTAWA", "province": "ON", "country": "CA", "postalCode": "K1K4L8", "twitter": "None", "instagram": "None", "facebook": "None", "youtube": "None", "website": "None", "summary": "None", "logo": "None", "latitude": 45.4366961562365, "longitude": -75.64443699310992}, "866684798RR0001": {"name": "MEDHANIE ALEM ERITHREAN ORTHODOX TEWAHDO CHURCH", "designationCode": "C", "categoryCode": "39", "address": "1 RAMSDEN ROAD", "city": "TORONTO", "province": "ON", "country": "CA", "postalCode": "M6E2N1", "twitter": "None", "instagram": "None", "facebook": "None", "youtube": "None", "website": "None", "summary": "None", "logo": "None", "latitude": 43.69637080930822, "longitude": -79.45245676366211}, "862332947RR0001": {"name": "MEDIA VOICE GENERATION", "designationCode": "C", "categoryCode": "47", "address": "1295 N SERVICE RD", "city": "BURLINGTON", "province": "ON", "country": "CA", "postalCode": "L7R4X5", "twitter": "None", "instagram": "None", "facebook": "None", "youtube": "None", "website": "None", "summary": "None", "logo": "None", "latitude": 43.33626881605931, "longitude": -79.83474683259213}, "119036713RR0001": {"name": "MEDIAEVAL STUDIES FOUNDATION", "designationCode": "A", "categoryCode": "23", "address": "59 QUEEN'S PARK CRESCENT EAST,", "city": "TORONTO", "province": "ON", "country": "CA", "postalCode": "M5S2C4", "twitter": "None", "instagram": "None", "facebook": "None", "youtube": "None", "website": "None", "summary": "None", "logo": "None", "latitude": 43.66557560450681, "longitude": -79.39141453271992}, "890181092RR0001": {"name": "MEDIASMARTS/HABILOM\u00c9DIAS", "designationCode": "C", "categoryCode": "21", "address": "100 - 205 CATHERINE ST", "city": "OTTAWA", "province": "ON", "country": "CA", "postalCode": "K2P1C3", "twitter": "None", "instagram": "None", "facebook": "None", "youtube": "None", "website": "None", "summary": "None", "logo": "None", "latitude": 45.40981637082334, "longitude": -75.69140475786239}, "121152938RR0001": {"name": "MEDIATHEQUE MASKOUTAINE INC.", "designationCode": "C", "categoryCode": "50", "address": "2720 RUE DESSAULLES", "city": "SAINT-HYACINTHE", "province": "QC", "country": "CA", "postalCode": "J2S2V7", "twitter": "None", "instagram": "None", "facebook": "None", "youtube": "None", "website": "None", "summary": "None", "logo": "None", "latitude": 45.62117693868643, "longitude": -72.9578271189622}, "893783936RR0001": {"name": "MEDIATHEQUE PERE-LOUIS-LAMONTAGNE", "designationCode": "C", "categoryCode": "50", "address": "300 CHEMIN BEAVERBROOK", "city": "MIRAMICHI", "province": "NB", "country": "CA", "postalCode": "E1V1A1", "twitter": "None", "instagram": "None", "facebook": "None", "youtube": "None", "website": "None", "summary": "None", "logo": "None", "latitude": 47.008871218290665, "longitude": -65.5886148939803}}