{"118901891RR0001": {"name": "ESQUIMALT UNITED CHURCH", "designationCode": "C", "categoryCode": "44", "address": "500 ADMIRALS RD", "city": "VICTORIA", "province": "BC", "country": "CA", "postalCode": "V9A2N4", "twitter": "None", "instagram": "None", "facebook": "None", "youtube": "None", "website": "None", "summary": "None", "logo": "None", "latitude": 48.42847897446478, "longitude": -123.41699337500692}, "831982707RR0001": {"name": "ESRSS Daycare Inc.", "designationCode": "C", "categoryCode": "01", "address": "1015-2ND STREET SOUTH         BOX 748", "city": "SWAN RIVER", "province": "MB", "country": "CA", "postalCode": "R0L1Z0", "twitter": "None", "instagram": "None", "facebook": "None", "youtube": "None", "website": "None", "summary": "None", "logo": "None", "latitude": 52.103424666137975, "longitude": -101.26039873473233}, "118799444RR0001": {"name": "ESSA AND DISTRICT AGRICULTURAL SOCIETY", "designationCode": "C", "categoryCode": "56", "address": "PO BOX 1099", "city": "THORNTON", "province": "ON", "country": "CA", "postalCode": "L0L2N0", "twitter": "None", "instagram": "None", "facebook": "None", "youtube": "None", "website": "None", "summary": "None", "logo": "None", "latitude": 44.27268917121078, "longitude": -79.71914624026316}, "107310906RR0001": {"name": "ESSA PUBLIC LIBRARY BOARD", "designationCode": "C", "categoryCode": "50", "address": "8505 COUNTY ROAD 10 UNIT 1", "city": "ANGUS", "province": "ON", "country": "CA", "postalCode": "L0M1B1", "twitter": "None", "instagram": "None", "facebook": "None", "youtube": "None", "website": "None", "summary": "None", "logo": "None", "latitude": 44.31220631585774, "longitude": -79.88443181196354}, "118901917RR0001": {"name": "ESSA ROAD PRESBYTERIAN CHURCH", "designationCode": "C", "categoryCode": "37", "address": "59 ESSA RD", "city": "BARRIE", "province": "ON", "country": "CA", "postalCode": "L4N3K4", "twitter": "None", "instagram": "None", "facebook": "None", "youtube": "None", "website": "None", "summary": "None", "logo": "None", "latitude": 44.37221363640305, "longitude": -79.69201776851915}, "118901933RR0001": {"name": "ESSEN PRESBYTERIAN CHURCH", "designationCode": "C", "categoryCode": "37", "address": "76 ARMEDA CLOW CRESCENT", "city": "ANGUS", "province": "ON", "country": "CA", "postalCode": "L0M1B2", "twitter": "None", "instagram": "None", "facebook": "None", "youtube": "None", "website": "None", "summary": "None", "logo": "None", "latitude": 44.326913866783954, "longitude": -79.89302981040473}, "897629440RR0002": {"name": "ESSENTIAL FURNISHINGS OF HAMILTON-WENTWORTH SOCIAL SERVICES", "designationCode": "C", "categoryCode": "09", "address": "75 WENTWORTH STR SOUTH UNIT 1", "city": "HAMILTON", "province": "ON", "country": "CA", "postalCode": "L8N2Y6", "twitter": "None", "instagram": "None", "facebook": "None", "youtube": "None", "website": "None", "summary": "None", "logo": "None", "latitude": 43.24998988807803, "longitude": -79.84982255618195}, "867322547RR0001": {"name": "ESSEX AREA FOOD BANK", "designationCode": "C", "categoryCode": "09", "address": "492 COUNTY RD 8               BOX 3", "city": "ESSEX", "province": "ON", "country": "CA", "postalCode": "N8M2Y1", "twitter": "None", "instagram": "None", "facebook": "None", "youtube": "None", "website": "None", "summary": "None", "logo": "None", "latitude": 42.17862941098908, "longitude": -82.84776689531888}, "107310955RR0001": {"name": "ESSEX BAPTIST CHURCH", "designationCode": "C", "categoryCode": "31", "address": "71 MAIDSTONE AVE E", "city": "ESSEX", "province": "ON", "country": "CA", "postalCode": "N8M2J3", "twitter": "None", "instagram": "None", "facebook": "None", "youtube": "None", "website": "None", "summary": "None", "logo": "None", "latitude": 42.17794984617627, "longitude": -82.82262070883824}, "118857051RR0001": {"name": "ESSEX CHRISTIAN REFORMED CHURCH", "designationCode": "C", "categoryCode": "39", "address": "276 TALBOT ST. S.", "city": "ESSEX", "province": "ON", "country": "CA", "postalCode": "N8M1B8", "twitter": "None", "instagram": "None", "facebook": "None", "youtube": "None", "website": "None", "summary": "None", "logo": "None", "latitude": 42.16746360204887, "longitude": -82.81104290899941}, "107311086RR0001": {"name": "ESSEX COMMUNITY SERVICES", "designationCode": "C", "categoryCode": "59", "address": "7-35 VICTORIA AVE", "city": "ESSEX", "province": "ON", "country": "CA", "postalCode": "N8M1M4", "twitter": "None", "instagram": "None", "facebook": "None", "youtube": "None", "website": "None", "summary": "None", "logo": "None", "latitude": 42.174726332347944, "longitude": -82.82431704243002}, "889251880RR0001": {"name": "ESSEX COUNTY AGRICULTURAL HALL OF FAME ASSOCIATION", "designationCode": "C", "categoryCode": "50", "address": "6565 DISPUTED RD", "city": "WINDSOR", "province": "ON", "country": "CA", "postalCode": "N9H1X8", "twitter": "None", "instagram": "None", "facebook": "None", "youtube": "None", "website": "None", "summary": "None", "logo": "None", "latitude": 42.23184863377006, "longitude": -83.03063314842538}, "891405797RR0001": {"name": "ESSEX COUNTY CHAPTER OF NEW VOICES", "designationCode": "C", "categoryCode": "11", "address": "4170 ST CLAIR ST", "city": "LASALLE", "province": "ON", "country": "CA", "postalCode": "N9H2N4", "twitter": "None", "instagram": "None", "facebook": "None", "youtube": "None", "website": "None", "summary": "None", "logo": "None", "latitude": 42.24378194195977, "longitude": -83.02529435002093}, "118901990RR0001": {"name": "ESSEX COUNTY CHINESE CANADIAN ASSOCIATION", "designationCode": "C", "categoryCode": "56", "address": "1420 TECUMSEH ROAD EAST", "city": "WINDSOR", "province": "ON", "country": "CA", "postalCode": "N8W1C1", "twitter": "None", "instagram": "None", "facebook": "None", "youtube": "None", "website": "None", "summary": "None", "logo": "None", "latitude": 42.30043518347842, "longitude": -83.00451939384838}, "857798979RR0001": {"name": "ESSEX COUNTY COP CAMP", "designationCode": "B", "categoryCode": "09", "address": "INTERCHANGE 21 HWY 401        BOX 910", "city": "ESSEX", "province": "ON", "country": "CA", "postalCode": "N8M2Y2", "twitter": "None", "instagram": "None", "facebook": "None", "youtube": "None", "website": "None", "summary": "None", "logo": "None", "latitude": 42.23857040581536, "longitude": -82.79612481984506}, "135980134RR0001": {"name": "ESSEX COUNTY FIELD NATURALISTS' CLUB", "designationCode": "C", "categoryCode": "52", "address": "5200 MATCHETTE RD", "city": "WINDSOR", "province": "ON", "country": "CA", "postalCode": "N9C4E8", "twitter": "None", "instagram": "None", "facebook": "None", "youtube": "None", "website": "None", "summary": "None", "logo": "None", "latitude": 42.26485009207572, "longitude": -83.07412810594572}, "892046046RR0001": {"name": "ESSEX COUNTY FIREFIGHTERS' BURN UNIT FOUNDATION", "designationCode": "A", "categoryCode": "11", "address": "615 STEVEN DR", "city": "WINDSOR", "province": "ON", "country": "CA", "postalCode": "N9J3A5", "twitter": "None", "instagram": "None", "facebook": "None", "youtube": "None", "website": "None", "summary": "None", "logo": "None", "latitude": 42.24724883151657, "longitude": -83.08901341506375}, "107311029RR0001": {"name": "ESSEX COUNTY HISTORICAL SOCIETY", "designationCode": "C", "categoryCode": "52", "address": "BOX 342", "city": "ESSEX", "province": "ON", "country": "CA", "postalCode": "N8M2Y3", "twitter": "None", "instagram": "None", "facebook": "None", "youtube": "None", "website": "None", "summary": "None", "logo": "None", "latitude": 42.17281800000005, "longitude": -82.81968199999993}, "888969284RR0001": {"name": "ESSEX COUNTY LIBRARY BOARD", "designationCode": "C", "categoryCode": "50", "address": "101-360 FAIRVIEW AVE W", "city": "ESSEX", "province": "ON", "country": "CA", "postalCode": "N8M1Y3", "twitter": "None", "instagram": "None", "facebook": "None", "youtube": "None", "website": "None", "summary": "None", "logo": "None", "latitude": 42.161572190638566, "longitude": -82.82693013588201}, "118902071RR0001": {"name": "ESSEX COUNTY PHARMACISTS' ASSOCIATION BURSARY FUND", "designationCode": "B", "categoryCode": "21", "address": "6234 WALES COURT", "city": "LASALLE", "province": "ON", "country": "CA", "postalCode": "N9J3R7", "twitter": "None", "instagram": "None", "facebook": "None", "youtube": "None", "website": "None", "summary": "None", "logo": "None", "latitude": 42.24423397924401, "longitude": -83.08223912473012}, "868405028RR0001": {"name": "ESSEX COUNTY STEAM & GAS ENGINE MUSEUM", "designationCode": "C", "categoryCode": "50", "address": "11081 11TH CONCESSION         PO BOX 1176", "city": "MCGREGOR", "province": "ON", "country": "CA", "postalCode": "N0R1J0", "twitter": "None", "instagram": "None", "facebook": "None", "youtube": "None", "website": "None", "summary": "None", "logo": "None", "latitude": 42.139018596417394, "longitude": -82.95803740875574}, "118902097RR0001": {"name": "ESSEX COUNTY 4-H LEADERS ASSOCIATION", "designationCode": "C", "categoryCode": "29", "address": "P.O. BOX 394", "city": "ESSEX", "province": "ON", "country": "CA", "postalCode": "N8M2Y4", "twitter": "None", "instagram": "None", "facebook": "None", "youtube": "None", "website": "None", "summary": "None", "logo": "None", "latitude": 42.17281800000005, "longitude": -82.81968199999993}, "813150984RR0001": {"name": "ESSEX GOSPEL COMMUNITY CHURCH", "designationCode": "C", "categoryCode": "36", "address": "335 TALBOT ST S", "city": "ESSEX", "province": "ON", "country": "CA", "postalCode": "N8M3A4", "twitter": "None", "instagram": "None", "facebook": "None", "youtube": "None", "website": "None", "summary": "None", "logo": "None", "latitude": 42.16646408241405, "longitude": -82.80897670429474}, "118902147RR0001": {"name": "ESSEX PASTORAL CHARGE", "designationCode": "C", "categoryCode": "44", "address": "53 TALBOT ST S", "city": "ESSEX", "province": "ON", "country": "CA", "postalCode": "N8M1B1", "twitter": "None", "instagram": "None", "facebook": "None", "youtube": "None", "website": "None", "summary": "None", "logo": "None", "latitude": 42.17207681067385, "longitude": -82.81869426877667}, "118902162RR0001": {"name": "ESSEX REGION CONSERVATION FOUNDATION", "designationCode": "A", "categoryCode": "53", "address": "311-360 FAIRVIEW AVE W", "city": "ESSEX", "province": "ON", "country": "CA", "postalCode": "N8M1Y6", "twitter": "None", "instagram": "None", "facebook": "None", "youtube": "None", "website": "None", "summary": "None", "logo": "None", "latitude": 42.161572190638566, "longitude": -82.82693013588201}, "130921877RR0001": {"name": "ESSEX RETIREES SOCIAL CLUB", "designationCode": "C", "categoryCode": "56", "address": "32 RUSSELL STREET", "city": "ESSEX", "province": "ON", "country": "CA", "postalCode": "N8M1G3", "twitter": "None", "instagram": "None", "facebook": "None", "youtube": "None", "website": "None", "summary": "None", "logo": "None", "latitude": 42.1727348144484, "longitude": -82.82337787325527}, "890107790RR0001": {"name": "ESSEX YOUTH CENTRE", "designationCode": "C", "categoryCode": "09", "address": "242 TALBOT STREET NORTH", "city": "ESSEX", "province": "ON", "country": "CA", "postalCode": "N8M2E1", "twitter": "None", "instagram": "None", "facebook": "None", "youtube": "None", "website": "None", "summary": "None", "logo": "None", "latitude": 42.17910377323784, "longitude": -82.82744739593186}, "132586082RR0001": {"name": "ESSEX-KENT MENNONITE HISTORICAL ASSOCIATION", "designationCode": "C", "categoryCode": "50", "address": "31 PICKWICK DR", "city": "LEAMINGTON", "province": "ON", "country": "CA", "postalCode": "N8H4T5", "twitter": "None", "instagram": "None", "facebook": "None", "youtube": "None", "website": "None", "summary": "None", "logo": "None", "latitude": 42.04543645628715, "longitude": -82.5897178482023}, "866234222RR0001": {"name": "ESSONVILLE HISTORIC CHURCH COMMITTEE", "designationCode": "C", "categoryCode": "52", "address": "1123 SUNSET COTTAGE RD", "city": "TORY HILL", "province": "ON", "country": "CA", "postalCode": "K0L2Y0", "twitter": "None", "instagram": "None", "facebook": "None", "youtube": "None", "website": "None", "summary": "None", "logo": "None", "latitude": 45.01661825873895, "longitude": -78.24932307078159}, "101688448RR0001": {"name": "ESTAIRE-WANUP VOLUNTEER FIRE BRIGADE INCORPORATED", "designationCode": "C", "categoryCode": "59", "address": "9775 ESTAIRE RD", "city": "SUDBURY", "province": "ON", "country": "CA", "postalCode": "P3E4N1", "twitter": "None", "instagram": "None", "facebook": "None", "youtube": "None", "website": "None", "summary": "None", "logo": "None"}, "118902212RR0002": {"name": "ESTATE OF ABRAM DAVID FROESE EDUCATIONAL TRUST", "designationCode": "B", "categoryCode": "25", "address": "(THE CANADA TRUST CO.)        PO BOX 10085", "city": "VANCOUVER", "province": "BC", "country": "CA", "postalCode": "V7Y1B6", "twitter": "None", "instagram": "None", "facebook": "None", "youtube": "None", "website": "None", "summary": "None", "logo": "None", "latitude": 49.28294993392596, "longitude": -123.11892994113924}, "118902220RR0001": {"name": "ESTATE OF ALMIRA GROVER FOLEY", "designationCode": "B", "categoryCode": "05", "address": "1402 - 1 KING ST W", "city": "HAMILTON", "province": "ON", "country": "CA", "postalCode": "L8P1A4", "twitter": "None", "instagram": "None", "facebook": "None", "youtube": "None", "website": "None", "summary": "None", "logo": "None", "latitude": 43.26019321073324, "longitude": -79.88135629363086}, "883473928RR0001": {"name": "ESTATE OF AMALIE BARRON", "designationCode": "B", "categoryCode": "05", "address": "155 WELLINGTON STREET WEST    20TH FLOOR", "city": "TORONTO", "province": "ON", "country": "CA", "postalCode": "M5V3K7", "twitter": "None", "instagram": "None", "facebook": "None", "youtube": "None", "website": "None", "summary": "None", "logo": "None", "latitude": 43.64596585316531, "longitude": -79.38574575644876}, "890581549RR0001": {"name": "ESTATE OF JAMES E PORTER SCHOLARSHIP TRUST", "designationCode": "B", "categoryCode": "21", "address": "(THE CANADA TRUST CO.)        PO BOX 10085", "city": "VANCOUVER", "province": "BC", "country": "CA", "postalCode": "V7Y1B6", "twitter": "None", "instagram": "None", "facebook": "None", "youtube": "None", "website": "None", "summary": "None", "logo": "None", "latitude": 49.28294993392596, "longitude": -123.11892994113924}, "826769747RR0001": {"name": "ESTATE OF THE LATE SIDNEY MILTON MEDINE - BISHOP'S TRUST", "designationCode": "B", "categoryCode": "25", "address": "155 WELLINGTON ST. WEST       20TH FLOOR", "city": "TORONTO", "province": "ON", "country": "CA", "postalCode": "M5V3K7", "twitter": "None", "instagram": "None", "facebook": "None", "youtube": "None", "website": "None", "summary": "None", "logo": "None", "latitude": 43.64596585316531, "longitude": -79.38574575644876}, "119288918RR0867": {"name": "ESTE CONGREGATION OF JEHOVAH'S WITNESSES, TORONTO, ONTARIO", "designationCode": "C", "categoryCode": "61", "address": "701 ELLESMERE RD", "city": "SCARBOROUGH", "province": "ON", "country": "CA", "postalCode": "M1P2W1", "twitter": "None", "instagram": "None", "facebook": "None", "youtube": "None", "website": "None", "summary": "None", "logo": "None", "latitude": 43.763910896445466, "longitude": -79.28908519135561}, "869619478RR0001": {"name": "ESTERHAZY & DISTRICT ASSOCIATION FOR COMMUNITY LIVING CORP", "designationCode": "C", "categoryCode": "01", "address": "BOX 159", "city": "ESTERHAZY", "province": "SK", "country": "CA", "postalCode": "S0A0X0", "twitter": "None", "instagram": "None", "facebook": "None", "youtube": "None", "website": "None", "summary": "None", "logo": "None", "latitude": 50.65157000000005, "longitude": -102.05784999999997}, "118902261RR0001": {"name": "ESTERHAZY & DISTRICT DONOR'S CHOICE INC.", "designationCode": "A", "categoryCode": "05", "address": "PO BOX 974", "city": "ESTERHAZY", "province": "SK", "country": "CA", "postalCode": "S0A0X0", "twitter": "None", "instagram": "None", "facebook": "None", "youtube": "None", "website": "None", "summary": "None", "logo": "None", "latitude": 50.65157000000005, "longitude": -102.05784999999997}, "107342743RR0001": {"name": "ESTERHAZY BAPTIST CHURCH INC.", "designationCode": "C", "categoryCode": "31", "address": "BOX 131", "city": "ESTERHAZY", "province": "SK", "country": "CA", "postalCode": "S0A0X0", "twitter": "None", "instagram": "None", "facebook": "None", "youtube": "None", "website": "None", "summary": "None", "logo": "None", "latitude": 50.65157000000005, "longitude": -102.05784999999997}, "119288918RR0285": {"name": "ESTERHAZY CONGREGATION OF JEHOVAH'S WITNESSES", "designationCode": "C", "categoryCode": "61", "address": "BOX 1464", "city": "ESTERHAZY", "province": "SK", "country": "CA", "postalCode": "S0A0X0", "twitter": "None", "instagram": "None", "facebook": "None", "youtube": "None", "website": "None", "summary": "None", "logo": "None", "latitude": 50.65157000000005, "longitude": -102.05784999999997}, "118902287RR0001": {"name": "ESTERHAZY GOLDEN JETS INC.", "designationCode": "C", "categoryCode": "56", "address": "PO BOX 1488", "city": "ESTERHAZY", "province": "SK", "country": "CA", "postalCode": "S0A0X0", "twitter": "None", "instagram": "None", "facebook": "None", "youtube": "None", "website": "None", "summary": "None", "logo": "None", "latitude": 50.65157000000005, "longitude": -102.05784999999997}, "890553878RR0001": {"name": "ESTERHAZY'S FULL GOSPEL FELLOWSHIP", "designationCode": "C", "categoryCode": "39", "address": "BOX 1473", "city": "ESTERHAZY", "province": "SK", "country": "CA", "postalCode": "S0A0X0", "twitter": "None", "instagram": "None", "facebook": "None", "youtube": "None", "website": "None", "summary": "None", "logo": "None", "latitude": 50.65157000000005, "longitude": -102.05784999999997}, "871397816RR0001": {"name": "ESTEVAN ART GALLERY & MUSEUM INC.", "designationCode": "C", "categoryCode": "50", "address": "118-4TH ST", "city": "ESTEVAN", "province": "SK", "country": "CA", "postalCode": "S4A0T4", "twitter": "None", "instagram": "None", "facebook": "None", "youtube": "None", "website": "None", "summary": "None", "logo": "None", "latitude": 49.13141160982079, "longitude": -102.97046925295754}, "118902311RR0001": {"name": "ESTEVAN ARTS COUNCIL INC.", "designationCode": "C", "categoryCode": "22", "address": "701 SOURIS AVE", "city": "ESTEVAN", "province": "SK", "country": "CA", "postalCode": "S4A2T1", "twitter": "None", "instagram": "None", "facebook": "None", "youtube": "None", "website": "None", "summary": "None", "logo": "None", "latitude": 49.142664923927704, "longitude": -102.99147871648171}, "827911215RR0001": {"name": "ESTEVAN CHURCH OF GOD", "designationCode": "C", "categoryCode": "39", "address": "1920 WELLOCK ROAD", "city": "ESTEVAN", "province": "SK", "country": "CA", "postalCode": "S4A1X5", "twitter": "None", "instagram": "None", "facebook": "None", "youtube": "None", "website": "None", "summary": "None", "logo": "None", "latitude": 49.1544232358592, "longitude": -102.99379129508893}, "876661562RR0001": {"name": "ESTEVAN DAY CARE CO-OPERATIVE", "designationCode": "C", "categoryCode": "01", "address": "322 SOURIS AVE N", "city": "ESTEVAN", "province": "SK", "country": "CA", "postalCode": "S4A1J7", "twitter": "None", "instagram": "None", "facebook": "None", "youtube": "None", "website": "None", "summary": "None", "logo": "None", "latitude": 49.15236552844942, "longitude": -102.99173248063893}, "118902451RR0001": {"name": "ESTEVAN DIVERSIFIED SERVICES INC.", "designationCode": "C", "categoryCode": "59", "address": "1339-6TH STREET", "city": "ESTEVAN", "province": "SK", "country": "CA", "postalCode": "S4A1B2", "twitter": "None", "instagram": "None", "facebook": "None", "youtube": "None", "website": "None", "summary": "None", "logo": "None", "latitude": 49.14303045557721, "longitude": -102.99600876017703}, "882870025RR0001": {"name": "ESTEVAN FAMILY RESOURCE CENTRE INC.", "designationCode": "C", "categoryCode": "09", "address": "BOX 663", "city": "ESTEVAN", "province": "SK", "country": "CA", "postalCode": "S4A2A6", "twitter": "None", "instagram": "None", "facebook": "None", "youtube": "None", "website": "None", "summary": "None", "logo": "None", "latitude": 49.140249000000054, "longitude": -102.99454999999993}, "124280595RR0001": {"name": "ESTEVAN GOSPEL CHAPEL", "designationCode": "C", "categoryCode": "39", "address": "1202 2ND ST", "city": "ESTEVAN", "province": "SK", "country": "CA", "postalCode": "S4A0M2", "twitter": "None", "instagram": "None", "facebook": "None", "youtube": "None", "website": "None", "summary": "None", "logo": "None", "latitude": 49.13876161110331, "longitude": -102.99649458092915}, "898190863RR0001": {"name": "ESTEVAN HUMANE SOCIETY INC.", "designationCode": "C", "categoryCode": "54", "address": "PO BOX 1095", "city": "ESTEVAN", "province": "SK", "country": "CA", "postalCode": "S4A2H7", "twitter": "None", "instagram": "None", "facebook": "None", "youtube": "None", "website": "None", "summary": "None", "logo": "None", "latitude": 49.140249000000054, "longitude": -102.99454999999993}, "106930142RR0001": {"name": "ESTEVAN PUBLIC LIBRARY", "designationCode": "C", "categoryCode": "50", "address": "701 SOURIS AVENUE", "city": "ESTEVAN", "province": "SK", "country": "CA", "postalCode": "S4A2T1", "twitter": "None", "instagram": "None", "facebook": "None", "youtube": "None", "website": "None", "summary": "None", "logo": "None", "latitude": 49.142664923927704, "longitude": -102.99147871648171}, "870875952RR0001": {"name": "ESTEVAN ROTARY CLUB FOUNDATION INC", "designationCode": "A", "categoryCode": "63", "address": "P.O. BOX 29", "city": "ESTEVAN", "province": "SK", "country": "CA", "postalCode": "S4A2A2", "twitter": "None", "instagram": "None", "facebook": "None", "youtube": "None", "website": "None", "summary": "None", "logo": "None", "latitude": 49.140249000000054, "longitude": -102.99454999999993}, "118902444RR0001": {"name": "ESTEVAN TRINITY LUTHERAN CHURCH", "designationCode": "C", "categoryCode": "32", "address": "738-2ND ST", "city": "ESTEVAN", "province": "SK", "country": "CA", "postalCode": "S4A2B3", "twitter": "None", "instagram": "None", "facebook": "None", "youtube": "None", "website": "None", "summary": "None", "logo": "None", "latitude": 49.13519508285222, "longitude": -102.98699098289454}, "887387231RR0001": {"name": "ESTHER HOUSE INC", "designationCode": "C", "categoryCode": "57", "address": "1785 PORTAGE AVENUE", "city": "WINNIPEG", "province": "MB", "country": "CA", "postalCode": "R3J0E8", "twitter": "None", "instagram": "None", "facebook": "None", "youtube": "None", "website": "None", "summary": "None", "logo": "None", "latitude": 49.878895493219325, "longitude": -97.21205311088346}, "819603671RR0001": {"name": "ESTIM CHARITABLE TRUST", "designationCode": "B", "categoryCode": "05", "address": "3336 RADCLIFFE AVENUE", "city": "WEST VANCOUVER", "province": "BC", "country": "CA", "postalCode": "V7V1G6", "twitter": "None", "instagram": "None", "facebook": "None", "youtube": "None", "website": "None", "summary": "None", "logo": "None", "latitude": 49.34078469995397, "longitude": -123.20872531002937}, "892451568RR0001": {"name": "ESTMERE CEMETERY SOCIETY", "designationCode": "C", "categoryCode": "59", "address": "1223 ESTMERE RR#1", "city": "LITTLE NARROWS VICT CO.", "province": "NS", "country": "CA", "postalCode": "B0E1T0", "twitter": "None", "instagram": "None", "facebook": "None", "youtube": "None", "website": "None", "summary": "None", "logo": "None", "latitude": 45.992286456951966, "longitude": -60.983337360176925}, "107409229RR0001": {"name": "ESTON COLLEGE", "designationCode": "C", "categoryCode": "39", "address": "BOX 579", "city": "ESTON", "province": "SK", "country": "CA", "postalCode": "S0L1A0", "twitter": "None", "instagram": "None", "facebook": "None", "youtube": "None", "website": "None", "summary": "None", "logo": "None", "latitude": 51.15382000000005, "longitude": -108.75371999999999}, "118902519RR0001": {"name": "ESTON FULL GOSPEL CHURCH", "designationCode": "C", "categoryCode": "39", "address": "P.O. BOX 580", "city": "ESTON", "province": "SK", "country": "CA", "postalCode": "S0L1A0", "twitter": "None", "instagram": "None", "facebook": "None", "youtube": "None", "website": "None", "summary": "None", "logo": "None", "latitude": 51.15382000000005, "longitude": -108.75371999999999}, "892393240RR0001": {"name": "ESTON MUSIC FESTIVAL ASSOC INC", "designationCode": "C", "categoryCode": "22", "address": "PO BOX 471", "city": "ESTON", "province": "SK", "country": "CA", "postalCode": "S0L1A0", "twitter": "None", "instagram": "None", "facebook": "None", "youtube": "None", "website": "None", "summary": "None", "logo": "None", "latitude": 51.15382000000005, "longitude": -108.75371999999999}, "865957534RR0001": {"name": "ESTON OPEN DOOR HEALING CENTRE INC.", "designationCode": "C", "categoryCode": "10", "address": "P.O. BOX 430", "city": "ESTON", "province": "SK", "country": "CA", "postalCode": "S0L1A0", "twitter": "None", "instagram": "None", "facebook": "None", "youtube": "None", "website": "None", "summary": "None", "logo": "None", "latitude": 51.15382000000005, "longitude": -108.75371999999999}, "889875191RR0001": {"name": "ESTONIAN ARTS CENTRE", "designationCode": "C", "categoryCode": "22", "address": "958 BROADVIEW AVE             RM 204", "city": "TORONTO", "province": "ON", "country": "CA", "postalCode": "M4K2R6", "twitter": "None", "instagram": "None", "facebook": "None", "youtube": "None", "website": "None", "summary": "None", "logo": "None", "latitude": 43.68181216042472, "longitude": -79.35754685778159}, "107351538RR0001": {"name": "ESTONIAN BAPTIST CHURCH OF TORONTO", "designationCode": "C", "categoryCode": "31", "address": "883 BROADVIEW AVE", "city": "TORONTO", "province": "ON", "country": "CA", "postalCode": "M4K2P9", "twitter": "None", "instagram": "None", "facebook": "None", "youtube": "None", "website": "None", "summary": "None", "logo": "None", "latitude": 43.68045457562472, "longitude": -79.35784526250828}, "118902535RR0001": {"name": "ESTONIAN CHURCH FOUNDATION", "designationCode": "C", "categoryCode": "49", "address": "6520 OAK STREET", "city": "VANCOUVER", "province": "BC", "country": "CA", "postalCode": "V6P3Z2", "twitter": "None", "instagram": "None", "facebook": "None", "youtube": "None", "website": "None", "summary": "None", "logo": "None", "latitude": 49.22620049125743, "longitude": -123.12831200161611}, "892338369RR0001": {"name": "ESTONIAN ECUMENICAL RELIEF ORGANIZATION", "designationCode": "C", "categoryCode": "09", "address": "110 HIGHBOURNE ROAD", "city": "TORONTO", "province": "ON", "country": "CA", "postalCode": "M5P2J6", "twitter": "None", "instagram": "None", "facebook": "None", "youtube": "None", "website": "None", "summary": "None", "logo": "None", "latitude": 43.70092786733221, "longitude": -79.40586513503371}, "889516449RR0001": {"name": "ESTONIAN EVANGELICAL CHURCH", "designationCode": "C", "categoryCode": "39", "address": "2396 WEST 8TH AVENUE", "city": "VANCOUVER", "province": "BC", "country": "CA", "postalCode": "V6K2A9", "twitter": "None", "instagram": "None", "facebook": "None", "youtube": "None", "website": "None", "summary": "None", "logo": "None", "latitude": 49.264838510098905, "longitude": -123.15978297016561}, "101690436RR0001": {"name": "ESTONIAN RELIEF COMMITTEE IN CANADA", "designationCode": "C", "categoryCode": "09", "address": "40 OLD KINGSTON RD", "city": "SCARBOROUGH", "province": "ON", "country": "CA", "postalCode": "M1E3J5", "twitter": "None", "instagram": "None", "facebook": "None", "youtube": "None", "website": "None", "summary": "None", "logo": "None", "latitude": 43.7752538884527, "longitude": -79.18250659913978}, "118902592RR0001": {"name": "ESTONIAN SCOUTS AND GUIDES IN CANADA", "designationCode": "C", "categoryCode": "29", "address": "5105 50 OLD KINGSTON RD.", "city": "SCARBOROUGH", "province": "ON", "country": "CA", "postalCode": "M1E4Y1", "twitter": "None", "instagram": "None", "facebook": "None", "youtube": "None", "website": "None", "summary": "None", "logo": "None", "latitude": 43.77585362978225, "longitude": -79.18194644552442}, "118902600RR0001": {"name": "ESTONIAN UNITED BAPTIST CHURCH OF VANCOUVER", "designationCode": "C", "categoryCode": "31", "address": "2088 132A STREET", "city": "SURREY", "province": "BC", "country": "CA", "postalCode": "V4A9K2", "twitter": "None", "instagram": "None", "facebook": "None", "youtube": "None", "website": "None", "summary": "None", "logo": "None"}, "118790559RR0001": {"name": "ESTRIE-AIDE INC.", "designationCode": "C", "categoryCode": "09", "address": "345 WELLINGTON SUD", "city": "SHERBROOKE", "province": "QC", "country": "CA", "postalCode": "J1H5E2", "twitter": "None", "instagram": "None", "facebook": "None", "youtube": "None", "website": "None", "summary": "None", "logo": "None", "latitude": 45.39638854065443, "longitude": -71.88744633308308}, "891363749RR0001": {"name": "ESTUARY CHARITABLE TRUST", "designationCode": "B", "categoryCode": "39", "address": "50-1ST AVE NE", "city": "SWIFT CURRENT", "province": "SK", "country": "CA", "postalCode": "S9H4W4", "twitter": "None", "instagram": "None", "facebook": "None", "youtube": "None", "website": "None", "summary": "None", "logo": "None", "latitude": 50.282664378132, "longitude": -107.79863205289816}, "846030815RR0001": {"name": "ETA Colleges International", "designationCode": "C", "categoryCode": "20", "address": "16379 THE GORE ROAD", "city": "CALEDON", "province": "ON", "country": "CA", "postalCode": "L7E0X4", "twitter": "None", "instagram": "None", "facebook": "None", "youtube": "None", "website": "None", "summary": "None", "logo": "None", "latitude": 43.90598925817951, "longitude": -79.84536348381386}, "892277633RR0001": {"name": "ETERNAL BREAD OF LIFE MINISTRIES", "designationCode": "C", "categoryCode": "39", "address": "97 PARSELL SQ", "city": "SCARBOROUGH", "province": "ON", "country": "CA", "postalCode": "M1B2A5", "twitter": "None", "instagram": "None", "facebook": "None", "youtube": "None", "website": "None", "summary": "None", "logo": "None", "latitude": 43.79659961726012, "longitude": -79.21596454206808}, "845373547RR0001": {"name": "ETERNAL INVESTMENT FOUNDATION", "designationCode": "B", "categoryCode": "03", "address": "70 SNIDERCROFT ROAD UNIT H", "city": "CONCORD", "province": "ON", "country": "CA", "postalCode": "L4K2K3", "twitter": "None", "instagram": "None", "facebook": "None", "youtube": "None", "website": "None", "summary": "None", "logo": "None", "latitude": 43.78873436395574, "longitude": -79.49922679075522}, "872824016RR0001": {"name": "ETERNAL LIFE APOSTOLIC MINISTRIES OF ONTARIO", "designationCode": "C", "categoryCode": "39", "address": "2-139 DEVON RD", "city": "BRAMPTON", "province": "ON", "country": "CA", "postalCode": "L6T5L8", "twitter": "None", "instagram": "None", "facebook": "None", "youtube": "None", "website": "None", "summary": "None", "logo": "None", "latitude": 43.73661620653214, "longitude": -79.68402595553734}, "889965414RR0001": {"name": "ETERNAL ROCK / ROCHA ETERNA MINISTRY INC.", "designationCode": "C", "categoryCode": "39", "address": "9 BOON AVENUE", "city": "TORONTO", "province": "ON", "country": "CA", "postalCode": "M6E3Z2", "twitter": "None", "instagram": "None", "facebook": "None", "youtube": "None", "website": "None", "summary": "None", "logo": "None", "latitude": 43.6777537574297, "longitude": -79.44637812404078}, "893179374RR0001": {"name": "ETERNAL WORD TELEVISION NETWORK, INC", "designationCode": "C", "categoryCode": "49", "address": "30 ROLARK DRIVE", "city": "SCARBOROUGH", "province": "ON", "country": "CA", "postalCode": "M1R4G2", "twitter": "None", "instagram": "None", "facebook": "None", "youtube": "None", "website": "None", "summary": "None", "logo": "None", "latitude": 43.765238266403415, "longitude": -79.29465543773415}, "118902675RR0001": {"name": "ETHEL V. LEAVER FOUNDATION", "designationCode": "B", "categoryCode": "03", "address": "1479 ASHINGTON COURT", "city": "MISSISSAUGA", "province": "ON", "country": "CA", "postalCode": "L5C1R5", "twitter": "None", "instagram": "None", "facebook": "None", "youtube": "None", "website": "None", "summary": "None", "logo": "None", "latitude": 43.559560078279105, "longitude": -79.66697835694487}, "894117860RR0001": {"name": "ETHELBERT & DISTRICT MUSEUM INC.", "designationCode": "C", "categoryCode": "50", "address": "BOX 338", "city": "ETHELBERT", "province": "MB", "country": "CA", "postalCode": "R0L0T0", "twitter": "None", "instagram": "None", "facebook": "None", "youtube": "None", "website": "None", "summary": "None", "logo": "None", "latitude": 51.52507000000003, "longitude": -100.39846999999997}, "118902642RR0001": {"name": "ETHELBERT UNITED CHURCH", "designationCode": "C", "categoryCode": "44", "address": "BOX 80", "city": "ETHELBERT", "province": "MB", "country": "CA", "postalCode": "R0L0T0", "twitter": "None", "instagram": "None", "facebook": "None", "youtube": "None", "website": "None", "summary": "None", "logo": "None", "latitude": 51.52507000000003, "longitude": -100.39846999999997}, "811276989RR0001": {"name": "ETHIM - Amazing Prayer Arena", "designationCode": "C", "categoryCode": "39", "address": "83 DARRAS CRT", "city": "BRAMPTON", "province": "ON", "country": "CA", "postalCode": "L6T1W7", "twitter": "None", "instagram": "None", "facebook": "None", "youtube": "None", "website": "None", "summary": "None", "logo": "None", "latitude": 43.71509214931621, "longitude": -79.70291027589579}, "855016267RR0001": {"name": "ETHIOPIAID CANADA", "designationCode": "C", "categoryCode": "09", "address": "900-275 SLATER STREET", "city": "OTTAWA", "province": "ON", "country": "CA", "postalCode": "K1P5H9", "twitter": "None", "instagram": "None", "facebook": "None", "youtube": "None", "website": "None", "summary": "None", "logo": "None", "latitude": 45.418732385250046, "longitude": -75.7012450535806}, "138393814RR0001": {"name": "ETHIOPIAN ASSOCIATION IN THE GREATER TORONTO AREA AND SURROUNDING REGIONS", "designationCode": "C", "categoryCode": "09", "address": "1950 DANFORTH", "city": "TORONTO", "province": "ON", "country": "CA", "postalCode": "M4C1J4", "twitter": "None", "instagram": "None", "facebook": "None", "youtube": "None", "website": "None", "summary": "None", "logo": "None", "latitude": 43.68512014683472, "longitude": -79.31554915543305}, "871473740RR0001": {"name": "ETHIOPIAN EVANGELICAL CHURCH IN CALGARY", "designationCode": "C", "categoryCode": "34", "address": "PO BOX 21044                  665 8TH STREET SW", "city": "CALGARY", "province": "AB", "country": "CA", "postalCode": "T2P4H5", "twitter": "None", "instagram": "None", "facebook": "None", "youtube": "None", "website": "None", "summary": "None", "logo": "None", "latitude": 51.04723699056495, "longitude": -114.08121521513048}, "890169998RR0001": {"name": "ETHIOPIAN EVANGELICAL CHURCH IN OTTAWA", "designationCode": "C", "categoryCode": "39", "address": "PO BOX 38067                  RPO RIDEAUVIEW", "city": "OTTAWA", "province": "ON", "country": "CA", "postalCode": "K2C3Y7", "twitter": "None", "instagram": "None", "facebook": "None", "youtube": "None", "website": "None", "summary": "None", "logo": "None", "latitude": 45.37817022669368, "longitude": -75.70426511295189}, "886184522RR0001": {"name": "ETHIOPIAN EVANGELICAL CHURCH IN TORONTO", "designationCode": "C", "categoryCode": "39", "address": "PO BOX 205 STN DON MILLS", "city": "NORTH YORK", "province": "ON", "country": "CA", "postalCode": "M3C2S2", "twitter": "None", "instagram": "None", "facebook": "None", "youtube": "None", "website": "None", "summary": "None", "logo": "None", "latitude": 43.70566232484685, "longitude": -79.33386344904338}, "880835434RR0001": {"name": "ETHIOPIAN EVANGELICAL CHURCH OF EDMONTON", "designationCode": "C", "categoryCode": "36", "address": "12840-57 STREET NW", "city": "EDMONTON", "province": "AB", "country": "CA", "postalCode": "T5A0E6", "twitter": "None", "instagram": "None", "facebook": "None", "youtube": "None", "website": "None", "summary": "None", "logo": "None", "latitude": 53.58702594754459, "longitude": -113.42916777647272}, "806465340RR0001": {"name": "ETHIOPIAN NORTH AMERICAN HEALTH PROVIDERS ASSOCIATION INC.", "designationCode": "C", "categoryCode": "20", "address": "188 ROY ST.", "city": "EDMONTON", "province": "AB", "country": "CA", "postalCode": "T6R2A8", "twitter": "None", "instagram": "None", "facebook": "None", "youtube": "None", "website": "None", "summary": "None", "logo": "None", "latitude": 53.47442911766414, "longitude": -113.59718609481196}, "887952497RR0001": {"name": "ETHIOPIAN ORTHODOX CHURCH OF CANADA", "designationCode": "C", "categoryCode": "39", "address": "80 TYCOS DRIVE", "city": "NORTH YORK", "province": "ON", "country": "CA", "postalCode": "M6B1V9", "twitter": "None", "instagram": "None", "facebook": "None", "youtube": "None", "website": "None", "summary": "None", "logo": "None", "latitude": 43.705026154624996, "longitude": -79.45630913379296}, "881547673RR0001": {"name": "ETHIOPIAN ORTHODOX TEWAHDO CHURCH DEBRE SELAM MEDHANE ALEM IN EDMONTON", "designationCode": "C", "categoryCode": "39", "address": "11403-124 ST", "city": "EDMONTON", "province": "AB", "country": "CA", "postalCode": "T5M0K4", "twitter": "None", "instagram": "None", "facebook": "None", "youtube": "None", "website": "None", "summary": "None", "logo": "None", "latitude": 53.56386836081137, "longitude": -113.53592422295036}, "871081717RR0001": {"name": "ETHIOPIAN ORTHODOX TEWAHEDO CHURCH IN CANADA MEDHANE ALEM", "designationCode": "C", "categoryCode": "39", "address": "23 DENISON ROAD EAST", "city": "TORONTO", "province": "ON", "country": "CA", "postalCode": "M9N1B6", "twitter": "None", "instagram": "None", "facebook": "None", "youtube": "None", "website": "None", "summary": "None", "logo": "None", "latitude": 43.69666994751593, "longitude": -79.50617474672522}, "881552095RR0001": {"name": "ETHIOPIAN ORTHODOX TEWAHEDO CHURCH IN WINNIPEG INC.", "designationCode": "C", "categoryCode": "39", "address": "353 MOUNTAIN AVE", "city": "WINNIPEG", "province": "MB", "country": "CA", "postalCode": "R2W1J9", "twitter": "None", "instagram": "None", "facebook": "None", "youtube": "None", "website": "None", "summary": "None", "logo": "None", "latitude": 49.920766888164245, "longitude": -97.13301465124944}, "833052673RR0001": {"name": "ETHIOPIAN ORTHODOX TEWAHEDO SAINT MARY'S CHURCH", "designationCode": "C", "categoryCode": "39", "address": "797 PROSPECT RD", "city": "GOODWOOD", "province": "NS", "country": "CA", "postalCode": "B3T1P3", "twitter": "None", "instagram": "None", "facebook": "None", "youtube": "None", "website": "None", "summary": "None", "logo": "None", "latitude": 44.60151494061969, "longitude": -63.67539447420498}, "844090373RR0001": {"name": "ETHIOPIAN ORTHODOX TEWAHEDO ST. TEKLE HAIMANOT CHURCH IN OTTAWA", "designationCode": "C", "categoryCode": "39", "address": "915 MERIVALE ROAD", "city": "OTTAWA", "province": "ON", "country": "CA", "postalCode": "K1Z6A1", "twitter": "None", "instagram": "None", "facebook": "None", "youtube": "None", "website": "None", "summary": "None", "logo": "None", "latitude": 45.38315323896362, "longitude": -75.73274640365884}, "823251343RR0002": {"name": "ETHIOPIAN ORTHODOX TEWOHEDO MEDHANEALEM CHURCH", "designationCode": "C", "categoryCode": "39", "address": "579 LOGAN AVE", "city": "WINDSOR", "province": "ON", "country": "CA", "postalCode": "N8X2V7", "twitter": "None", "instagram": "None", "facebook": "None", "youtube": "None", "website": "None", "summary": "None", "logo": "None", "latitude": 42.295631407149955, "longitude": -83.01456210115994}, "864233358RR0001": {"name": "ETHNOS MINISTRIES", "designationCode": "C", "categoryCode": "47", "address": "293 KNIGHTSBRIDGE WAY", "city": "KELOWNA", "province": "BC", "country": "CA", "postalCode": "V1V2A9", "twitter": "None", "instagram": "None", "facebook": "None", "youtube": "None", "website": "None", "summary": "None", "logo": "None", "latitude": 49.91798004302038, "longitude": -119.47431856867117}, "123977191RR0001": {"name": "ETOBICOKE CENTENNIAL CHOIR", "designationCode": "C", "categoryCode": "22", "address": "1105 - 299 MILL RD", "city": "ETOBICOKE", "province": "ON", "country": "CA", "postalCode": "M9C4V9", "twitter": "None", "instagram": "None", "facebook": "None", "youtube": "None", "website": "None", "summary": "None", "logo": "None", "latitude": 43.63801254180827, "longitude": -79.58256377930094}, "126841303RR0001": {"name": "ETOBICOKE CHRISTIAN FELLOWSHIP", "designationCode": "C", "categoryCode": "49", "address": "54 MILLVIEW CRES", "city": "REXDALE", "province": "ON", "country": "CA", "postalCode": "M9W3K5", "twitter": "None", "instagram": "None", "facebook": "None", "youtube": "None", "website": "None", "summary": "None", "logo": "None", "latitude": 43.723391500144245, "longitude": -79.5898676653877}, "141096750RR0001": {"name": "ETOBICOKE COMMUNITY CONCERT BAND", "designationCode": "C", "categoryCode": "22", "address": "3044 BLOOR ST W SUITE 194", "city": "ETOBICOKE", "province": "ON", "country": "CA", "postalCode": "M8X2Y8", "twitter": "None", "instagram": "None", "facebook": "None", "youtube": "None", "website": "None", "summary": "None", "logo": "None", "latitude": 43.64719192499933, "longitude": -79.51272316718315}, "129748547RR0001": {"name": "ETOBICOKE HISTORICAL SOCIETY", "designationCode": "C", "categoryCode": "52", "address": "T. MONTGOMERY'S INN           4709 DUNDAS STREET WEST", "city": "ETOBICOKE", "province": "ON", "country": "CA", "postalCode": "M9A1A8", "twitter": "None", "instagram": "None", "facebook": "None", "youtube": "None", "website": "None", "summary": "None", "logo": "None", "latitude": 43.651919973887914, "longitude": -79.52580993392586}, "866655053RR0001": {"name": "ETOBICOKE HORTICULTURAL SOCIETY", "designationCode": "C", "categoryCode": "99", "address": "BOX 174-STATION D", "city": "ETOBICOKE", "province": "ON", "country": "CA", "postalCode": "M9A4X2", "twitter": "None", "instagram": "None", "facebook": "None", "youtube": "None", "website": "None", "summary": "None", "logo": "None", "latitude": 43.64439900000005, "longitude": -79.56714049999994}}