{"775915127RR0001": {"name": "Les fl\u00e2neurs erratiques", "designationCode": "C", "categoryCode": "22", "address": "2197 CH DU RELAIS", "city": "VAL-MORIN", "province": "QC", "country": "CA", "postalCode": "J0T2R0", "twitter": "None", "instagram": "None", "facebook": "None", "youtube": "None", "website": "None", "summary": "None", "logo": "None", "latitude": 46.00216740354326, "longitude": -74.15027800594395}, "143123271RR0001": {"name": "Les fr\u00e8res et soeurs d'\u00c9milie Nelligan", "designationCode": "C", "categoryCode": "11", "address": "14115 RUE PRINCE-ARTHUR       BUREAU 423", "city": "MONTREAL", "province": "QC", "country": "CA", "postalCode": "H1A1A8", "twitter": "None", "instagram": "None", "facebook": "None", "youtube": "None", "website": "None", "summary": "None", "logo": "None", "latitude": 45.67149856953654, "longitude": -73.50907747258886}, "868580663RR0001": {"name": "Les habitations D\u00e9gelis inc.", "designationCode": "C", "categoryCode": "09", "address": "310, AVE. PRINCIPALE", "city": "D\u00c9GELIS", "province": "QC", "country": "CA", "postalCode": "G5T1M4", "twitter": "None", "instagram": "None", "facebook": "None", "youtube": "None", "website": "None", "summary": "None", "logo": "None", "latitude": 47.54822975434264, "longitude": -68.65012741217026}, "144208501RR0001": {"name": "Les habitations-des-c\u00f4nes", "designationCode": "C", "categoryCode": "09", "address": "306 RUE PRINCIPALE", "city": "SAINT-MODESTE", "province": "QC", "country": "CA", "postalCode": "G0L3W0", "twitter": "None", "instagram": "None", "facebook": "None", "youtube": "None", "website": "None", "summary": "None", "logo": "None", "latitude": 47.82984827032721, "longitude": -69.40556119496229}, "896431483RR0001": {"name": "Les jeunes entreprises de la r\u00e9gion du Haut-Yamaska inc.", "designationCode": "C", "categoryCode": "21", "address": "1300 BOUL INDUSTRIEL", "city": "GRANBY", "province": "QC", "country": "CA", "postalCode": "J2J0E5", "twitter": "None", "instagram": "None", "facebook": "None", "youtube": "None", "website": "None", "summary": "None", "logo": "None", "latitude": 45.372221175711324, "longitude": -72.7771781402361}, "815477559RR0001": {"name": "Les logements de personnes \u00e2g\u00e9es de St-Ars\u00e8ne", "designationCode": "C", "categoryCode": "09", "address": "5, RUE DE LA FABRIQUE", "city": "ST-ARS\u00c8NE", "province": "QC", "country": "CA", "postalCode": "G0L2K0", "twitter": "None", "instagram": "None", "facebook": "None", "youtube": "None", "website": "None", "summary": "None", "logo": "None", "latitude": 47.91451427808883, "longitude": -69.4334150923018}, "803490713RR0001": {"name": "Les logements l'appartenance", "designationCode": "B", "categoryCode": "09", "address": "1 - 85 RUE DE MUY", "city": "BOUCHERVILLE", "province": "QC", "country": "CA", "postalCode": "J4B4T2", "twitter": "None", "instagram": "None", "facebook": "None", "youtube": "None", "website": "None", "summary": "None", "logo": "None", "latitude": 45.615190600871486, "longitude": -73.4532711421315}, "817475304RR0001": {"name": "Les minist\u00e8res impact Qu\u00e9bec / Impact Qu\u00e9bec Ministries", "designationCode": "C", "categoryCode": "39", "address": "PO BOX 1582", "city": "TROIS-RIVI\u00c8RES", "province": "QC", "country": "CA", "postalCode": "G9A5L6", "twitter": "None", "instagram": "None", "facebook": "None", "youtube": "None", "website": "None", "summary": "None", "logo": "None", "latitude": 46.34016900000006, "longitude": -72.54503449999993}, "810928093RR0001": {"name": "Les oeuvres Kiwanis Jonqui\u00e8re", "designationCode": "A", "categoryCode": "03", "address": "P.O. BOX 1011", "city": "JONQUI\u00c8RE", "province": "QC", "country": "CA", "postalCode": "G7S4K6", "twitter": "None", "instagram": "None", "facebook": "None", "youtube": "None", "website": "None", "summary": "None", "logo": "None", "latitude": 48.41346300000005, "longitude": -71.25355249999993}, "804198315RR0001": {"name": "Les petites soeurs et petits fr\u00e8res de l'esp\u00e9rance", "designationCode": "C", "categoryCode": "09", "address": "556 RUE DU JUGE-GUIBAULT", "city": "JOLIETTE", "province": "QC", "country": "CA", "postalCode": "J6E4W8", "twitter": "None", "instagram": "None", "facebook": "None", "youtube": "None", "website": "None", "summary": "None", "logo": "None", "latitude": 46.034559355271426, "longitude": -73.44571416859034}, "868166406RR0001": {"name": "Les petits archets", "designationCode": "C", "categoryCode": "22", "address": "908 BERNARD-PILON", "city": "MCMASTERVILLE", "province": "QC", "country": "CA", "postalCode": "J3G5W8", "twitter": "None", "instagram": "None", "facebook": "None", "youtube": "None", "website": "None", "summary": "None", "logo": "None", "latitude": 45.55471350262573, "longitude": -73.22747088677926}, "896593308RR0001": {"name": "Les petits dolphins", "designationCode": "C", "categoryCode": "09", "address": "110 RUE DU COLLEGE", "city": "SAINT-ADOLPHE-D'HOWARD", "province": "QC", "country": "CA", "postalCode": "J0T2B0", "twitter": "None", "instagram": "None", "facebook": "None", "youtube": "None", "website": "None", "summary": "None", "logo": "None", "latitude": 45.9699838842691, "longitude": -74.33726171634258}, "837642370RR0001": {"name": "Les petits soleils de la Pointe-de-l'\u00cele", "designationCode": "C", "categoryCode": "09", "address": "14115, RUE PRINCE-ARTHUR EST  BUREAU 257", "city": "MONTR\u00c9AL", "province": "QC", "country": "CA", "postalCode": "H1A1A8", "twitter": "None", "instagram": "None", "facebook": "None", "youtube": "None", "website": "None", "summary": "None", "logo": "None", "latitude": 45.67149856953654, "longitude": -73.50907747258886}, "800666331RR0001": {"name": "Les productions musicales kal\u00e9idoscope", "designationCode": "C", "categoryCode": "22", "address": "9961, RUE BERRI", "city": "MONTR\u00c9AL", "province": "QC", "country": "CA", "postalCode": "H3L2G5", "twitter": "None", "instagram": "None", "facebook": "None", "youtube": "None", "website": "None", "summary": "None", "logo": "None", "latitude": 45.551353964769916, "longitude": -73.65770620814827}, "863947099RR0001": {"name": "Les productions musicales l'Artishow", "designationCode": "C", "categoryCode": "22", "address": "217, RUE MONTCALM, PORTE 202", "city": "GATINEAU", "province": "QC", "country": "CA", "postalCode": "J8Y6X1", "twitter": "None", "instagram": "None", "facebook": "None", "youtube": "None", "website": "None", "summary": "None", "logo": "None", "latitude": 45.43097310072727, "longitude": -75.73150992674121}, "107618217RR0001": {"name": "Les programmes \u00e9ducatifs JA Qu\u00e9bec", "designationCode": "C", "categoryCode": "59", "address": "300 RUE DU SAINT-SACREMENT    BUREAU 505", "city": "MONTREAL", "province": "QC", "country": "CA", "postalCode": "H2Y1X4", "twitter": "None", "instagram": "None", "facebook": "None", "youtube": "None", "website": "None", "summary": "None", "logo": "None", "latitude": 45.502092902014056, "longitude": -73.55716874935096}, "825400930RR0001": {"name": "Les r\u00e9sidences communautaires de Lac-Bouchette inc.", "designationCode": "C", "categoryCode": "09", "address": "99, ROUTE DE L'ERMITAGE", "city": "LAC-BOUCHETTE", "province": "QC", "country": "CA", "postalCode": "G0W1V0", "twitter": "None", "instagram": "None", "facebook": "None", "youtube": "None", "website": "None", "summary": "None", "logo": "None", "latitude": 48.259200721594034, "longitude": -72.18324849598929}, "810793331RR0001": {"name": "Les r\u00e9sidences de l'Achigan", "designationCode": "C", "categoryCode": "09", "address": "74 RUE DR WILFRID LOCAT", "city": "SAINT-ROCH-DE-L'ACHIGAN", "province": "QC", "country": "CA", "postalCode": "J0K3H0", "twitter": "None", "instagram": "None", "facebook": "None", "youtube": "None", "website": "None", "summary": "None", "logo": "None", "latitude": 45.85265281206925, "longitude": -73.5927140239104}, "815862008RR0001": {"name": "Les religieuses de J\u00e9sus-Marie", "designationCode": "C", "categoryCode": "49", "address": "294 RUE SAINT-JOSEPH", "city": "L\u00c9VIS", "province": "QC", "country": "CA", "postalCode": "G6V1G2", "twitter": "None", "instagram": "None", "facebook": "None", "youtube": "None", "website": "None", "summary": "None", "logo": "None", "latitude": 46.82563876458425, "longitude": -71.16543293669835}, "820591436RR0001": {"name": "Les scouts du district de l'\u00c9rable Inc.", "designationCode": "C", "categoryCode": "29", "address": "75 RUE CHARTIER", "city": "SHERBROOKE", "province": "QC", "country": "CA", "postalCode": "J1J3A9", "twitter": "None", "instagram": "None", "facebook": "None", "youtube": "None", "website": "None", "summary": "None", "logo": "None", "latitude": 45.40003233527614, "longitude": -71.91735112242465}, "126288216RR0001": {"name": "Les soeurs missionnaires de l'Immacul\u00e9e Conception / The Missionary Sisters of the Immaculate Conception", "designationCode": "C", "categoryCode": "46", "address": "121 AV MAPLEWOOD", "city": "OUTREMONT", "province": "QC", "country": "CA", "postalCode": "H2V2M2", "twitter": "None", "instagram": "None", "facebook": "None", "youtube": "None", "website": "None", "summary": "None", "logo": "None", "latitude": 45.51406449128608, "longitude": -73.60149308009679}, "852660836RR0001": {"name": "Les Ambassadeurs de J\u00e9sus Christ", "designationCode": "C", "categoryCode": "36", "address": "129 EAST AVENUE", "city": "SCARBOROUGH", "province": "ON", "country": "CA", "postalCode": "M1C3K9", "twitter": "None", "instagram": "None", "facebook": "None", "youtube": "None", "website": "None", "summary": "None", "logo": "None", "latitude": 43.78475302859364, "longitude": -79.1332674751286}, "827079104RR0001": {"name": "Les Ami(e)s du Manoir St-Joseph", "designationCode": "C", "categoryCode": "09", "address": "24 RUE REID                   C.P. 609", "city": "CAMPBELL'S BAY", "province": "QC", "country": "CA", "postalCode": "J0X1K0", "twitter": "None", "instagram": "None", "facebook": "None", "youtube": "None", "website": "None", "summary": "None", "logo": "None", "latitude": 45.730042437705485, "longitude": -76.59686942541448}, "119014157RR0001": {"name": "Les Amis de l'Abb\u00e9 Ren\u00e9 Tanguay", "designationCode": "A", "categoryCode": "55", "address": "100, 4E AVENUE", "city": "LA POCATIERE", "province": "QC", "country": "CA", "postalCode": "G0R1Z0", "twitter": "None", "instagram": "None", "facebook": "None", "youtube": "None", "website": "None", "summary": "None", "logo": "None", "latitude": 47.36699289757065, "longitude": -70.03980789130864}, "840512909RR0001": {"name": "Les Amis de la Saint-Camille", "designationCode": "C", "categoryCode": "09", "address": "381 RAOUL", "city": "SAINT-COLOMBAN", "province": "QC", "country": "CA", "postalCode": "J5K2C4", "twitter": "None", "instagram": "None", "facebook": "None", "youtube": "None", "website": "None", "summary": "None", "logo": "None", "latitude": 45.71682778850486, "longitude": -74.09643427947383}, "813490323RR0001": {"name": "Les Amis de L'\u00c9glise Patrimoniale de l'Acadie", "designationCode": "C", "categoryCode": "52", "address": "265 1RE RUE", "city": "SAINT-JEAN-SUR-RICHELIEU", "province": "QC", "country": "CA", "postalCode": "J2X3A5", "twitter": "None", "instagram": "None", "facebook": "None", "youtube": "None", "website": "None", "summary": "None", "logo": "None", "latitude": 45.31480338383642, "longitude": -73.2476079300881}, "890053754RR0001": {"name": "Les Amis de Marie de St-C\u00f4me Inc.", "designationCode": "C", "categoryCode": "09", "address": "1250 ALPHONSE MARION", "city": "SAINT-C\u00d4ME", "province": "QC", "country": "CA", "postalCode": "J0K2B0", "twitter": "None", "instagram": "None", "facebook": "None", "youtube": "None", "website": "None", "summary": "None", "logo": "None", "latitude": 46.27446238135492, "longitude": -73.77121210075592}, "804996452RR0001": {"name": "Les Amis de Samuel", "designationCode": "C", "categoryCode": "09", "address": "302-5650 BOUL. HENRI-BOURASSA", "city": "QU\u00c9BEC", "province": "QC", "country": "CA", "postalCode": "G1H7N5", "twitter": "None", "instagram": "None", "facebook": "None", "youtube": "None", "website": "None", "summary": "None", "logo": "None", "latitude": 46.85126210023632, "longitude": -71.25272646583777}, "853385508RR0001": {"name": "Les Amis Juifs du Mile-End / Mile-End Chavurah", "designationCode": "C", "categoryCode": "49", "address": "5739 RUE CLARK", "city": "MONTR\u00c9AL", "province": "QC", "country": "CA", "postalCode": "H2T2V5", "twitter": "None", "instagram": "None", "facebook": "None", "youtube": "None", "website": "None", "summary": "None", "logo": "None", "latitude": 45.5266111737549, "longitude": -73.60217104273191}, "744101528RR0001": {"name": "Les Anges de l'Espoir ACI (action concert\u00e9e internationale) THE ANGELS OF HOPE ICA (INTERNATIONAL CONCERTED ACTION)", "designationCode": "C", "categoryCode": "09", "address": "10315, TERRASSE FLEURY", "city": "MONTREAL", "province": "QC", "country": "CA", "postalCode": "H3L3L5", "twitter": "None", "instagram": "None", "facebook": "None", "youtube": "None", "website": "None", "summary": "None", "logo": "None", "latitude": 45.540121347221344, "longitude": -73.67075601373423}, "119014462RR0001": {"name": "Les Ap\u00f4tres de l'amour infini Canada / The Apostles of Infinite Love Canada", "designationCode": "C", "categoryCode": "46", "address": "C.P. 4478", "city": "MONT-TREMBLANT", "province": "QC", "country": "CA", "postalCode": "J8E1A1", "twitter": "None", "instagram": "None", "facebook": "None", "youtube": "None", "website": "None", "summary": "None", "logo": "None", "latitude": 46.11832800000006, "longitude": -74.60168299999994}, "869898395RR0001": {"name": "Les Ateliers d'Antoine", "designationCode": "C", "categoryCode": "09", "address": "4800 RUE DE ROUEN             BUREAU 100", "city": "MONTREAL", "province": "QC", "country": "CA", "postalCode": "H1V3T4", "twitter": "None", "instagram": "None", "facebook": "None", "youtube": "None", "website": "None", "summary": "None", "logo": "None", "latitude": 45.55859796058633, "longitude": -73.54008433859434}, "100338797RR0001": {"name": "Les Augustines de la Mis\u00e9ricorde de J\u00e9sus du Monast\u00e8re Saint-Augustin", "designationCode": "C", "categoryCode": "46", "address": "260, BOUL. LANGELIER", "city": "QUEBEC", "province": "QC", "country": "CA", "postalCode": "G1K5N1", "twitter": "None", "instagram": "None", "facebook": "None", "youtube": "None", "website": "None", "summary": "None", "logo": "None", "latitude": 46.8144777418778, "longitude": -71.23229006607409}, "805535812RR0001": {"name": "Les Auxiliaires B\u00e9n\u00e9voles du Centre d'H\u00e9bergement de Windsor", "designationCode": "C", "categoryCode": "19", "address": "23 RUE AMBROISE-DEARDEN", "city": "WINDSOR", "province": "QC", "country": "CA", "postalCode": "J1S1G8", "twitter": "None", "instagram": "None", "facebook": "None", "youtube": "None", "website": "None", "summary": "None", "logo": "None", "latitude": 45.57044496615489, "longitude": -72.00463347420497}, "123089393RR0001": {"name": "Les B\u00e9n\u00e9voles du centre hospitalier r\u00e9gional de Lanaudi\u00e8re, CHRDL", "designationCode": "C", "categoryCode": "19", "address": "1000, BOULEVARD ST-ANNE", "city": "ST-CHARLES BORROM\u00c9E", "province": "QC", "country": "CA", "postalCode": "J6E6J2", "twitter": "None", "instagram": "None", "facebook": "None", "youtube": "None", "website": "None", "summary": "None", "logo": "None", "latitude": 46.03767297827174, "longitude": -73.45490341639764}, "771519899RR0001": {"name": "Les Bons Amis", "designationCode": "C", "categoryCode": "11", "address": "240 DES B\u00c9GONIAS", "city": "ST-CONSTANT", "province": "QC", "country": "CA", "postalCode": "J5C1N5", "twitter": "None", "instagram": "None", "facebook": "None", "youtube": "None", "website": "None", "summary": "None", "logo": "None", "latitude": 45.40064334999131, "longitude": -73.55994650793451}, "847926565RR0001": {"name": "Les Bons D\u00e9jeuners d'Argenteuil Inc.", "designationCode": "C", "categoryCode": "09", "address": "430 GRACE", "city": "LACHUTE", "province": "QC", "country": "CA", "postalCode": "J8H1M6", "twitter": "None", "instagram": "None", "facebook": "None", "youtube": "None", "website": "None", "summary": "None", "logo": "None", "latitude": 45.65362175434264, "longitude": -74.33615508353057}, "733294698RR0001": {"name": "Les Chiens Togo", "designationCode": "C", "categoryCode": "11", "address": "207 - 308 RUE MONTSABRE", "city": "BELOEIL", "province": "QC", "country": "CA", "postalCode": "J3G2H5", "twitter": "None", "instagram": "None", "facebook": "None", "youtube": "None", "website": "None", "summary": "None", "logo": "None", "latitude": 45.556986910677225, "longitude": -73.21165285983876}, "784605115RR0001": {"name": "Les Cimeti\u00e8res de la Seigneurie en Bellechasse", "designationCode": "C", "categoryCode": "59", "address": "105 RUE PRINCIPALE", "city": "SAINT-MICHEL-DE-BELLECHASSE", "province": "QC", "country": "CA", "postalCode": "G0R3S0", "twitter": "None", "instagram": "None", "facebook": "None", "youtube": "None", "website": "None", "summary": "None", "logo": "None", "latitude": 46.87588048600597, "longitude": -70.90746447169481}, "106679152RR0001": {"name": "Les Cisterciens r\u00e9form\u00e9s du Monast\u00e8re de Notre-Dame-des-Prairies", "designationCode": "C", "categoryCode": "46", "address": "PO BOX 310", "city": "HOLLAND", "province": "MB", "country": "CA", "postalCode": "R0G0X0", "twitter": "None", "instagram": "None", "facebook": "None", "youtube": "None", "website": "None", "summary": "None", "logo": "None", "latitude": 49.7686281543147, "longitude": -97.632704369717}, "119044204RR0001": {"name": "Les Clarisses de Sherbrooke", "designationCode": "C", "categoryCode": "46", "address": "313 RUE QUEEN                 (SECTEUR LENNOXVILLE)", "city": "SHERBROOKE", "province": "QC", "country": "CA", "postalCode": "J1M1K8", "twitter": "None", "instagram": "None", "facebook": "None", "youtube": "None", "website": "None", "summary": "None", "logo": "None", "latitude": 45.37797585532968, "longitude": -71.86651025815085}, "835257429RR0001": {"name": "Les Classiques des sciences sociales", "designationCode": "C", "categoryCode": "50", "address": "159 RUE BEAUPR\u00c9", "city": "SAGUENAY", "province": "QC", "country": "CA", "postalCode": "G7G4E5", "twitter": "None", "instagram": "None", "facebook": "None", "youtube": "None", "website": "None", "summary": "None", "logo": "None", "latitude": 48.449505845951926, "longitude": -71.06693023163467}, "843312380RR0001": {"name": "Les Compagnons de Chaudi\u00e8re-Bassin", "designationCode": "C", "categoryCode": "52", "address": "1172 CHEMIN DU SAULT", "city": "SAINT-ROMUALD", "province": "QC", "country": "CA", "postalCode": "G6W2M9", "twitter": "None", "instagram": "None", "facebook": "None", "youtube": "None", "website": "None", "summary": "None", "logo": "None", "latitude": 46.737717014426735, "longitude": -71.27129594849686}, "838683126RR0001": {"name": "Les Cuisines de l'Amiti\u00e9", "designationCode": "C", "categoryCode": "09", "address": "2210-1 RUE ANDRE", "city": "BROSSARD", "province": "QC", "country": "CA", "postalCode": "J4Z2X8", "twitter": "None", "instagram": "None", "facebook": "None", "youtube": "None", "website": "None", "summary": "None", "logo": "None", "latitude": 45.47870145155528, "longitude": -73.46240927021165}, "892716861RR0001": {"name": "Les Cuisines Collectives de la Mont\u00e9r\u00e9gie", "designationCode": "C", "categoryCode": "09", "address": "120-170 RUE ST-ANTOINE NORD", "city": "GRANBY", "province": "QC", "country": "CA", "postalCode": "J2G5G8", "twitter": "None", "instagram": "None", "facebook": "None", "youtube": "None", "website": "None", "summary": "None", "logo": "None", "latitude": 45.406239965715216, "longitude": -72.72721565888182}, "890931371RR0001": {"name": "Les Editions Historia Ecclesiae Catholicae Canadensis Inc./Historia Ecclesiae Catholicae Canadensis Publications Inc.", "designationCode": "C", "categoryCode": "29", "address": "10 ST. MARY STREET SUITE 508", "city": "TORONTO", "province": "ON", "country": "CA", "postalCode": "M4Y1P9", "twitter": "None", "instagram": "None", "facebook": "None", "youtube": "None", "website": "None", "summary": "None", "logo": "None", "latitude": 43.667966146834715, "longitude": -79.38609990397595}, "805783701RR0001": {"name": "Les Fabulateurs", "designationCode": "C", "categoryCode": "22", "address": "279, RUE ORLEANS", "city": "SAINT-EUSTACHE", "province": "QC", "country": "CA", "postalCode": "J7P4Z5", "twitter": "None", "instagram": "None", "facebook": "None", "youtube": "None", "website": "None", "summary": "None", "logo": "None", "latitude": 45.575864495989286, "longitude": -73.8842750923018}, "817271927RR0001": {"name": "Les Fonds Sonitus Vitae", "designationCode": "B", "categoryCode": "22", "address": "245 21E AV", "city": "DEUX-MONTAGNES", "province": "QC", "country": "CA", "postalCode": "J7R4H3", "twitter": "None", "instagram": "None", "facebook": "None", "youtube": "None", "website": "None", "summary": "None", "logo": "None", "latitude": 45.536186639477116, "longitude": -73.9052834995673}, "811819242RR0001": {"name": "Les Habitations du Centre multiethnique de Qu\u00e9bec Inc", "designationCode": "C", "categoryCode": "09", "address": "200 RUE DORCHESTER", "city": "QUEBEC", "province": "QC", "country": "CA", "postalCode": "G1K5Z1", "twitter": "None", "instagram": "None", "facebook": "None", "youtube": "None", "website": "None", "summary": "None", "logo": "None", "latitude": 46.81579530610556, "longitude": -71.22903665119118}, "817027642RR0001": {"name": "Les Habitations Paradoxe", "designationCode": "C", "categoryCode": "09", "address": "5959 BOUL MONK", "city": "MONTREAL", "province": "QC", "country": "CA", "postalCode": "H4E3H5", "twitter": "None", "instagram": "None", "facebook": "None", "youtube": "None", "website": "None", "summary": "None", "logo": "None", "latitude": 45.45873502969018, "longitude": -73.59614452738155}, "851997502RR0001": {"name": "Les Incompl\u00e8tes", "designationCode": "C", "categoryCode": "22", "address": "232 - 310 BOUL LANGELIER", "city": "QUEBEC", "province": "QC", "country": "CA", "postalCode": "G1K5N3", "twitter": "None", "instagram": "None", "facebook": "None", "youtube": "None", "website": "None", "summary": "None", "logo": "None", "latitude": 46.81331749624909, "longitude": -71.23192445533486}, "805253382RR0001": {"name": "Les Jardins Fun\u00e9raires de l'Autre Rive", "designationCode": "C", "categoryCode": "59", "address": "4105 RTE DES RIVIERES", "city": "LEVIS", "province": "QC", "country": "CA", "postalCode": "G6J1J3", "twitter": "None", "instagram": "None", "facebook": "None", "youtube": "None", "website": "None", "summary": "None", "logo": "None", "latitude": 46.65172745226694, "longitude": -71.30132751866735}, "859542805RR0001": {"name": "Les Maisons Transitionnelles 03", "designationCode": "C", "categoryCode": "09", "address": "1-3970 CAVENDISH BLVD", "city": "MONTREAL", "province": "QC", "country": "CA", "postalCode": "H4B2N3", "twitter": "None", "instagram": "None", "facebook": "None", "youtube": "None", "website": "None", "summary": "None", "logo": "None", "latitude": 45.46467966192526, "longitude": -73.63116270679195}, "820077592RR0001": {"name": "Les Minist\u00e9res Repartir \u00e0 Z\u00e9ro", "designationCode": "B", "categoryCode": "39", "address": "4847 RUE DE ROUEN", "city": "MONTREAL", "province": "QC", "country": "CA", "postalCode": "H1V1H6", "twitter": "None", "instagram": "None", "facebook": "None", "youtube": "None", "website": "None", "summary": "None", "logo": "None", "latitude": 45.559196307807674, "longitude": -73.53978797449344}, "713094290RR0001": {"name": "Les Minist\u00e8res des Chapelles Routi\u00e8res", "designationCode": "C", "categoryCode": "39", "address": "1277 RUE PRINCIPALE", "city": "SAINT-BLAISE-SUR-RICHELIEU", "province": "QC", "country": "CA", "postalCode": "J0J1W0", "twitter": "None", "instagram": "None", "facebook": "None", "youtube": "None", "website": "None", "summary": "None", "logo": "None", "latitude": 45.22252430945244, "longitude": -73.30398813240798}, "830749719RR0001": {"name": "Les Minist\u00e8res Mario Cyr", "designationCode": "C", "categoryCode": "47", "address": "164, RUE CORMIER", "city": "DRUMMONDVILLE", "province": "QC", "country": "CA", "postalCode": "J2C7Z6", "twitter": "None", "instagram": "None", "facebook": "None", "youtube": "None", "website": "None", "summary": "None", "logo": "None", "latitude": 45.89486350320266, "longitude": -72.5269163166658}, "864275037RR0001": {"name": "Les Missions R\u00e9demptoristes", "designationCode": "C", "categoryCode": "50", "address": "10018, AVENUE ROYALE", "city": "SAINTE-ANNE-DE-BEAUPRE", "province": "QC", "country": "CA", "postalCode": "G0A3C0", "twitter": "None", "instagram": "None", "facebook": "None", "youtube": "None", "website": "None", "summary": "None", "logo": "None", "latitude": 47.025011014946315, "longitude": -70.92776782093631}, "837334010RR0001": {"name": "Les Ms. Choir Inc.", "designationCode": "C", "categoryCode": "22", "address": "5 SYMONDS PLACE", "city": "ST. JOHN'S", "province": "NL", "country": "CA", "postalCode": "A1E3A5", "twitter": "None", "instagram": "None", "facebook": "None", "youtube": "None", "website": "None", "summary": "None", "logo": "None", "latitude": 47.55001005467713, "longitude": -52.73060097388786}, "870820768RR0001": {"name": "Les Muses: centre des arts de la sc\u00e8ne", "designationCode": "C", "categoryCode": "22", "address": "317 - 5017 RUE SAINT-HUBERT", "city": "MONTREAL", "province": "QC", "country": "CA", "postalCode": "H2J2X9", "twitter": "None", "instagram": "None", "facebook": "None", "youtube": "None", "website": "None", "summary": "None", "logo": "None", "latitude": 45.528736294217666, "longitude": -73.5871125345376}, "107619272RR0002": {"name": "Les Oblates missionnaires de Marie Immacul\u00e9e / The Oblate Missionaries of Mary Immaculate / Las Oblatas Misioneras de M aria Inmaculada", "designationCode": "C", "categoryCode": "46", "address": "7625 BOUL PARENT", "city": "TROIS-RIVIERES", "province": "QC", "country": "CA", "postalCode": "G9A5E1", "twitter": "None", "instagram": "None", "facebook": "None", "youtube": "None", "website": "None", "summary": "None", "logo": "None", "latitude": 46.36596196696296, "longitude": -72.62960900181767}, "892906769RR0001": {"name": "Les Oeuvres de la Communaut\u00e9 J\u00e9sus-est-Seigneur Inc.", "designationCode": "C", "categoryCode": "49", "address": "833 RUE PERREAULT EST", "city": "ROUYN-NORANDA", "province": "QC", "country": "CA", "postalCode": "J9X5H5", "twitter": "None", "instagram": "None", "facebook": "None", "youtube": "None", "website": "None", "summary": "None", "logo": "None", "latitude": 48.23802042772218, "longitude": -78.99339941603674}, "130917966RR0001": {"name": "Les Oeuvres de M\u00e8re d'Youville", "designationCode": "C", "categoryCode": "09", "address": "138 SAINT-PIERRE", "city": "MONTREAL", "province": "QC", "country": "CA", "postalCode": "H2Y2L7", "twitter": "None", "instagram": "None", "facebook": "None", "youtube": "None", "website": "None", "summary": "None", "logo": "None", "latitude": 45.50057051982242, "longitude": -73.55478442688543}, "118868405RR0001": {"name": "Les Oeuvres du Club Richelieu Salaberry-de-Valleyfield", "designationCode": "A", "categoryCode": "65", "address": "57, RUE VICTORIA", "city": "SALABERRY-DE-VALLEYFIELD", "province": "QC", "country": "CA", "postalCode": "J6T1A1", "twitter": "None", "instagram": "None", "facebook": "None", "youtube": "None", "website": "None", "summary": "None", "logo": "None", "latitude": 45.257619637775015, "longitude": -74.11922030376829}, "118847573RR0001": {"name": "Les Oeuvres du P\u00e8re Sablon", "designationCode": "C", "categoryCode": "56", "address": "4265, AVENUE PAPINEAU", "city": "MONTREAL", "province": "QC", "country": "CA", "postalCode": "H2H1T3", "twitter": "None", "instagram": "None", "facebook": "None", "youtube": "None", "website": "None", "summary": "None", "logo": "None", "latitude": 45.531162123261375, "longitude": -73.57075917413027}, "717032924RR0001": {"name": "Les Oeuvres Fracarita Canada", "designationCode": "C", "categoryCode": "11", "address": "1445 RUE NOTRE-DAME", "city": "SAINT-SULPICE", "province": "QC", "country": "CA", "postalCode": "J5W3V8", "twitter": "None", "instagram": "None", "facebook": "None", "youtube": "None", "website": "None", "summary": "None", "logo": "None", "latitude": 45.83143002363063, "longitude": -73.33660906691081}, "132537754RR0001": {"name": "Les Partenaires communautaires Jeffery Hale / Jeffery Hale Community Partners", "designationCode": "C", "categoryCode": "11", "address": "1270 CHEMIN STE FOY SUITE 1124", "city": "QUEBEC", "province": "QC", "country": "CA", "postalCode": "G1S2M4", "twitter": "None", "instagram": "None", "facebook": "None", "youtube": "None", "website": "None", "summary": "None", "logo": "None", "latitude": 46.795915761948145, "longitude": -71.251954217053}, "804487577RR0001": {"name": "Les Pers\u00e9ides, soutien au deuil p\u00e9inatal", "designationCode": "C", "categoryCode": "11", "address": "171 CHEMIN DES BOIS-FRANCS", "city": "STONEHAM", "province": "QC", "country": "CA", "postalCode": "G3C2A1", "twitter": "None", "instagram": "None", "facebook": "None", "youtube": "None", "website": "None", "summary": "None", "logo": "None", "latitude": 46.99986633386249, "longitude": -71.38510062259755}, "881735385RR0001": {"name": "Les Petits Chanteurs de Laval", "designationCode": "C", "categoryCode": "22", "address": "430 - 5E RUE", "city": "LAVAL", "province": "QC", "country": "CA", "postalCode": "H7N1Z6", "twitter": "None", "instagram": "None", "facebook": "None", "youtube": "None", "website": "None", "summary": "None", "logo": "None", "latitude": 45.5505508623119, "longitude": -73.71812824352259}, "119092245RR0001": {"name": "Les Petits Violons Inc.", "designationCode": "C", "categoryCode": "22", "address": "5316 BOUL SAINT-LAURENT", "city": "MONTREAL", "province": "QC", "country": "CA", "postalCode": "H2T1S1", "twitter": "None", "instagram": "None", "facebook": "None", "youtube": "None", "website": "None", "summary": "None", "logo": "None", "latitude": 45.524637807923234, "longitude": -73.5963642752033}, "840554547RR0001": {"name": "Les Porteurs de musique", "designationCode": "C", "categoryCode": "22", "address": "202, JACQUES-CARTIER EST", "city": "CHICOUTIMI", "province": "QC", "country": "CA", "postalCode": "G7H6R8", "twitter": "None", "instagram": "None", "facebook": "None", "youtube": "None", "website": "None", "summary": "None", "logo": "None", "latitude": 48.42631653563412, "longitude": -71.06143100291419}, "844632182RR0001": {"name": "Les Productions Figlio Society", "designationCode": "C", "categoryCode": "22", "address": "104-336 1ST AVE E", "city": "VANCOUVER", "province": "BC", "country": "CA", "postalCode": "V5T4R6", "twitter": "None", "instagram": "None", "facebook": "None", "youtube": "None", "website": "None", "summary": "None", "logo": "None", "latitude": 49.267835582001375, "longitude": -123.09651320970615}, "890030927RR0001": {"name": "Les Productions Porte Parole", "designationCode": "C", "categoryCode": "22", "address": "704 - 4060 ST LAURENT BLVD", "city": "MONTREAL", "province": "QC", "country": "CA", "postalCode": "H2W1Y9", "twitter": "None", "instagram": "None", "facebook": "None", "youtube": "None", "website": "None", "summary": "None", "logo": "None", "latitude": 45.517032829563334, "longitude": -73.57964470540696}, "119918852RR0001": {"name": "Les Quatre Ruches Inc.", "designationCode": "C", "categoryCode": "59", "address": "50 RUE DU MARCH\u00c9", "city": "SALABERRY -DE VALLEYFIELD", "province": "QC", "country": "CA", "postalCode": "J6T1P4", "twitter": "None", "instagram": "None", "facebook": "None", "youtube": "None", "website": "None", "summary": "None", "logo": "None", "latitude": 45.254368141006324, "longitude": -74.13400495005473}, "816534200RR0001": {"name": "Les R\u00e9sidences du Bel \u00c2ge de la Vall\u00e9e du Li\u00e8vre", "designationCode": "C", "categoryCode": "09", "address": "52 RUE ELISABETH-CHAUVIN", "city": "GATINEAU", "province": "QC", "country": "CA", "postalCode": "J8L0W7", "twitter": "None", "instagram": "None", "facebook": "None", "youtube": "None", "website": "None", "summary": "None", "logo": "None", "latitude": 45.57943757227784, "longitude": -75.40188030238332}, "813279866RR0001": {"name": "Les R\u00e9sidences Jodin Inc.", "designationCode": "C", "categoryCode": "09", "address": "465 BOUL HEBERT NORD", "city": "EDMUNDSTON", "province": "NB", "country": "CA", "postalCode": "E3V0E9", "twitter": "None", "instagram": "None", "facebook": "None", "youtube": "None", "website": "None", "summary": "None", "logo": "None", "latitude": 47.38504834577515, "longitude": -68.31004406678547}, "144888120RR0001": {"name": "Les R\u00e9sidences Sainte-Famille de Tring-Jonction", "designationCode": "C", "categoryCode": "09", "address": "309 RUE DE LA SALLE", "city": "TRING-JONCTION", "province": "QC", "country": "CA", "postalCode": "G0N1X0", "twitter": "None", "instagram": "None", "facebook": "None", "youtube": "None", "website": "None", "summary": "None", "logo": "None"}, "143113231RR0001": {"name": "Les R\u00e9sidences T\u00e9miscaming", "designationCode": "C", "categoryCode": "09", "address": "10 RUE HUMPHREY", "city": "TEMISCAMING", "province": "QC", "country": "CA", "postalCode": "J0Z3R0", "twitter": "None", "instagram": "None", "facebook": "None", "youtube": "None", "website": "None", "summary": "None", "logo": "None", "latitude": 46.72143041799864, "longitude": -79.09427999748983}, "800994873RR0001": {"name": "Les Semeurs d'Espoir", "designationCode": "C", "categoryCode": "59", "address": "147 AV DE LA MONTAGNE", "city": "SAINT-TITE-DES-CAPS", "province": "QC", "country": "CA", "postalCode": "G0A4J0", "twitter": "None", "instagram": "None", "facebook": "None", "youtube": "None", "website": "None", "summary": "None", "logo": "None", "latitude": 47.122579132379315, "longitude": -70.78787626738436}, "822488243RR0001": {"name": "Les Services Hippolytois de Partage", "designationCode": "C", "categoryCode": "09", "address": "785, CHEMIN DU LAC ACHIGAN", "city": "ST-HIPPOLYTE", "province": "QC", "country": "CA", "postalCode": "J8A2V1", "twitter": "None", "instagram": "None", "facebook": "None", "youtube": "None", "website": "None", "summary": "None", "logo": "None", "latitude": 45.95336066582039, "longitude": -73.97596246904043}, "860415983RR0001": {"name": "Les Soeurs du Sacr\u00e9-Coeur de J\u00e9sus (Canada)", "designationCode": "C", "categoryCode": "46", "address": "137 RUE STEWART", "city": "OTTAWA", "province": "ON", "country": "CA", "postalCode": "K1N6J2", "twitter": "None", "instagram": "None", "facebook": "None", "youtube": "None", "website": "None", "summary": "None", "logo": "None", "latitude": 45.42745427589579, "longitude": -75.68297458203001}, "800991093RR0001": {"name": "Les Terebinthes de la Justice", "designationCode": "C", "categoryCode": "39", "address": "3188 WORLD SERIES CRT", "city": "MISSISSAUGA", "province": "ON", "country": "CA", "postalCode": "L5N7N8", "twitter": "None", "instagram": "None", "facebook": "None", "youtube": "None", "website": "None", "summary": "None", "logo": "None", "latitude": 43.589682473195374, "longitude": -79.78362425434263}, "132568692RR0001": {"name": "Les Toupies inc.", "designationCode": "C", "categoryCode": "20", "address": "45 DE LA DIGUE AVE", "city": "WINNIPEG", "province": "MB", "country": "CA", "postalCode": "R3V1M7", "twitter": "None", "instagram": "None", "facebook": "None", "youtube": "None", "website": "None", "summary": "None", "logo": "None", "latitude": 49.766398863782854, "longitude": -97.15192323235583}, "815612346RR0001": {"name": "Les Voix Ferr\u00e9es Ensemble Vocal", "designationCode": "C", "categoryCode": "22", "address": "215 RUE SAINT-ZOTIQUE E", "city": "MONTREAL", "province": "QC", "country": "CA", "postalCode": "H2S1L2", "twitter": "None", "instagram": "None", "facebook": "None", "youtube": "None", "website": "None", "summary": "None", "logo": "None", "latitude": 45.53366484791383, "longitude": -73.61024426521999}, "119307031RR0001": {"name": "Les YMCA du Qu\u00e9bec / The YMCAS of Qu\u00e9bec Inc.", "designationCode": "C", "categoryCode": "49", "address": "1435 RUE DRUMMOND             4E ETAGE", "city": "MONTREAL", "province": "QC", "country": "CA", "postalCode": "H3G1W3", "twitter": "None", "instagram": "None", "facebook": "None", "youtube": "None", "website": "None", "summary": "None", "logo": "None", "latitude": 45.49910007940431, "longitude": -73.5751696086331}, "144489671RR0001": {"name": "Les 7 Doigts de la Main", "designationCode": "C", "categoryCode": "22", "address": "2111 BOUL SAINT-LAURENT", "city": "MONTREAL", "province": "QC", "country": "CA", "postalCode": "H2X2T5", "twitter": "None", "instagram": "None", "facebook": "None", "youtube": "None", "website": "None", "summary": "None", "logo": "None", "latitude": 45.51219217765004, "longitude": -73.56870103883676}, "897564951RR0001": {"name": "Lesbian Gay Bi Trans Youth Line", "designationCode": "C", "categoryCode": "09", "address": "PO BOX 73118 RPO WOOD STREET", "city": "TORONTO", "province": "ON", "country": "CA", "postalCode": "M4Y2W5", "twitter": "None", "instagram": "None", "facebook": "None", "youtube": "None", "website": "None", "summary": "None", "logo": "None", "latitude": 43.66254965637268, "longitude": -79.38086268428545}, "864454095RR0001": {"name": "Lesser Slave Forest Education Society", "designationCode": "C", "categoryCode": "29", "address": "1201 MAIN ST SE", "city": "SLAVE LAKE", "province": "AB", "country": "CA", "postalCode": "T0G2A3", "twitter": "None", "instagram": "None", "facebook": "None", "youtube": "None", "website": "None", "summary": "None", "logo": "None", "latitude": 55.29486070303691, "longitude": -114.7715162507323}, "826078966RR0001": {"name": "Lesser Slave Watershed Council", "designationCode": "C", "categoryCode": "52", "address": "PO BOX 2607", "city": "HIGH PRAIRIE", "province": "AB", "country": "CA", "postalCode": "T0G1E0", "twitter": "None", "instagram": "None", "facebook": "None", "youtube": "None", "website": "None", "summary": "None", "logo": "None", "latitude": 55.43288000000007, "longitude": -116.48133999999999}, "810594564RR0001": {"name": "Lessons for Living Ministries", "designationCode": "C", "categoryCode": "41", "address": "2099 SOLAR PLACE", "city": "OSHAWA", "province": "ON", "country": "CA", "postalCode": "L1L0A3", "twitter": "None", "instagram": "None", "facebook": "None", "youtube": "None", "website": "None", "summary": "None", "logo": "None", "latitude": 43.95230728533087, "longitude": -78.89009014138169}, "842953580RR0001": {"name": "Lest We Forget Community Veterans Committee Inc.", "designationCode": "C", "categoryCode": "59", "address": "PO BOX 1452", "city": "SUMMERSIDE", "province": "PE", "country": "CA", "postalCode": "C1N4K4", "twitter": "None", "instagram": "None", "facebook": "None", "youtube": "None", "website": "None", "summary": "None", "logo": "None", "latitude": 46.39407900000006, "longitude": -63.791980999999936}, "800776924RR0001": {"name": "Let Faith Arise Ministries Incorporated", "designationCode": "C", "categoryCode": "47", "address": "P.O. BOX 24075 BROAD STREET", "city": "REGINA", "province": "SK", "country": "CA", "postalCode": "S4P4J8", "twitter": "None", "instagram": "None", "facebook": "None", "youtube": "None", "website": "None", "summary": "None", "logo": "None", "latitude": 50.43119439121853, "longitude": -104.60422623418226}, "811086958RR0001": {"name": "Let Go Let God Ministries", "designationCode": "C", "categoryCode": "45", "address": "PO BOX 904                    159 OTTAWA AVE.", "city": "MORRIS", "province": "MB", "country": "CA", "postalCode": "R0G1K0", "twitter": "None", "instagram": "None", "facebook": "None", "youtube": "None", "website": "None", "summary": "None", "logo": "None", "latitude": 49.35383769178055, "longitude": -97.36630609742805}, "839107018RR0001": {"name": "Let Kids Play Foundation", "designationCode": "C", "categoryCode": "09", "address": "720 BATHURST ST", "city": "TORONTO", "province": "ON", "country": "CA", "postalCode": "M5S2R4", "twitter": "None", "instagram": "None", "facebook": "None", "youtube": "None", "website": "None", "summary": "None", "logo": "None", "latitude": 43.66323143574358, "longitude": -79.41047606191914}, "122310931RR0001": {"name": "Lethbridge & District Japanese Garden Society", "designationCode": "C", "categoryCode": "50", "address": "P.O. BOX 751", "city": "LETHBRIDGE", "province": "AB", "country": "CA", "postalCode": "T1J3Z6", "twitter": "None", "instagram": "None", "facebook": "None", "youtube": "None", "website": "None", "summary": "None", "logo": "None", "latitude": 49.69383000000006, "longitude": -112.83373249999994}, "727575920RR0001": {"name": "Lethbridge and District Music and Speech Arts Festival Society", "designationCode": "C", "categoryCode": "22", "address": "4B - 740 4 AVE S", "city": "LETHBRIDGE", "province": "AB", "country": "CA", "postalCode": "T1J0N9", "twitter": "None", "instagram": "None", "facebook": "None", "youtube": "None", "website": "None", "summary": "None", "logo": "None", "latitude": 49.69438321218233, "longitude": -112.83632879413861}, "129542833RR0001": {"name": "Lethbridge Bridge Community Church of the Nazarene", "designationCode": "C", "categoryCode": "39", "address": "2914 16 AVE. N.", "city": "LETHBRIDGE", "province": "AB", "country": "CA", "postalCode": "T1H5E9", "twitter": "None", "instagram": "None", "facebook": "None", "youtube": "None", "website": "None", "summary": "None", "logo": "None", "latitude": 49.7206295323159, "longitude": -112.79808016763806}, "837479674RR0001": {"name": "Lethbridge Korean Community Church", "designationCode": "C", "categoryCode": "37", "address": "715 - 13 STREET NORTH", "city": "LETHBRIDGE", "province": "AB", "country": "CA", "postalCode": "T1H2T2", "twitter": "None", "instagram": "None", "facebook": "None", "youtube": "None", "website": "None", "summary": "None", "logo": "None", "latitude": 49.709503718647134, "longitude": -112.82405868627671}, "860299726RR0001": {"name": "Lethbridge Legal Guidance Society", "designationCode": "C", "categoryCode": "59", "address": "423 - 5 STREET SOUTH", "city": "LETHBRIDGE", "province": "AB", "country": "CA", "postalCode": "T1J2B6", "twitter": "None", "instagram": "None", "facebook": "None", "youtube": "None", "website": "None", "summary": "None", "logo": "None", "latitude": 49.69392668661492, "longitude": -112.84005690425245}, "805840337RR0002": {"name": "Lethbridge Pregnancy Care Centre", "designationCode": "C", "categoryCode": "01", "address": "PO BOX 935 STN MAIN", "city": "LETHBRIDGE", "province": "AB", "country": "CA", "postalCode": "T1J3Z8", "twitter": "None", "instagram": "None", "facebook": "None", "youtube": "None", "website": "None", "summary": "None", "logo": "None", "latitude": 49.69383000000006, "longitude": -112.83373249999994}, "107623076RR0001": {"name": "Lethbridge Therapeutic Riding Association", "designationCode": "C", "categoryCode": "56", "address": "24 - 205015 HIGHWAY 512", "city": "LETHBRIDGE COUNTY", "province": "AB", "country": "CA", "postalCode": "T1J5N8", "twitter": "None", "instagram": "None", "facebook": "None", "youtube": "None", "website": "None", "summary": "None", "logo": "None", "latitude": 49.697982762207666, "longitude": -112.68929102243554}}