{"871538443RR0001": {"name": "COBDEN UNION CEMETERY", "designationCode": "C", "categoryCode": "59", "address": "BOX 519", "city": "COBDEN", "province": "ON", "country": "CA", "postalCode": "K0J1K0", "twitter": "None", "instagram": "None", "facebook": "None", "youtube": "None", "website": "None", "summary": "None", "logo": "None", "latitude": 45.58931694899529, "longitude": -76.94864445565497}, "106950793RR0001": {"name": "COBEQUID ARTS COUNCIL", "designationCode": "C", "categoryCode": "22", "address": "605 PRINCE ST", "city": "TRURO", "province": "NS", "country": "CA", "postalCode": "B2N1G2", "twitter": "None", "instagram": "None", "facebook": "None", "youtube": "None", "website": "None", "summary": "None", "logo": "None", "latitude": 45.365405362225, "longitude": -63.28317971994926}, "898454350RR0002": {"name": "COBEQUID COMMUNITY HEALTH CENTRE FOUNDATION", "designationCode": "A", "categoryCode": "15", "address": "40 FREER LANE", "city": "LOWER SACKVILLE", "province": "NS", "country": "CA", "postalCode": "B4C0A2", "twitter": "None", "instagram": "None", "facebook": "None", "youtube": "None", "website": "None", "summary": "None", "logo": "None", "latitude": 44.7579502308237, "longitude": -63.66059080394118}, "119288918RR0287": {"name": "COBEQUID CONGREGATION OF JEHOVAH'S WITNESSES", "designationCode": "C", "categoryCode": "61", "address": "51 JAMES ST.", "city": "TRURO", "province": "NS", "country": "CA", "postalCode": "B2N2Z9", "twitter": "None", "instagram": "None", "facebook": "None", "youtube": "None", "website": "None", "summary": "None", "logo": "None", "latitude": 45.35209016319465, "longitude": -63.29662613500505}, "118866656RR0001": {"name": "COBEQUID EDUCATIONAL CENTRE SCHOLARSHIP & AWARDS ASSOCIATION", "designationCode": "C", "categoryCode": "21", "address": "34 LORNE ST", "city": "TRURO", "province": "NS", "country": "CA", "postalCode": "B2N3K3", "twitter": "None", "instagram": "None", "facebook": "None", "youtube": "None", "website": "None", "summary": "None", "logo": "None", "latitude": 45.368955952276444, "longitude": -63.27942945282376}, "118866698RR0001": {"name": "COBEQUID ROAD UNITED BAPTIST CHURCH", "designationCode": "C", "categoryCode": "31", "address": "526 COBEQUID RD", "city": "LOWER SACKVILLE", "province": "NS", "country": "CA", "postalCode": "B4C3Y7", "twitter": "None", "instagram": "None", "facebook": "None", "youtube": "None", "website": "None", "summary": "None", "logo": "None", "latitude": 44.76698359674521, "longitude": -63.646551931184604}, "895837912RR0001": {"name": "COBEQUID WILDLIFE REHABILITATION CENTRE", "designationCode": "C", "categoryCode": "54", "address": "2220 IRWIN LAKE ROAD", "city": "BROOKFIELD", "province": "NS", "country": "CA", "postalCode": "B0N1C0", "twitter": "None", "instagram": "None", "facebook": "None", "youtube": "None", "website": "None", "summary": "None", "logo": "None", "latitude": 45.30065506691082, "longitude": -63.318237311558576}, "873455828RR0001": {"name": "COBOCONK FOOD BANK", "designationCode": "C", "categoryCode": "09", "address": "P.O.BOX 322                   HIGHWAY 35 7TH CONCESSION", "city": "COBOCONK", "province": "ON", "country": "CA", "postalCode": "K0M1K0", "twitter": "None", "instagram": "None", "facebook": "None", "youtube": "None", "website": "None", "summary": "None", "logo": "None", "latitude": 44.69337468047105, "longitude": -78.80472863566145}, "107951618RR0320": {"name": "COBOURG COMMUNITY CHURCH OF THE SALVATION ARMY", "designationCode": "C", "categoryCode": "40", "address": "59 BALLANTINE ST.", "city": "COBOURG", "province": "ON", "country": "CA", "postalCode": "K9A5G8", "twitter": "None", "instagram": "None", "facebook": "None", "youtube": "None", "website": "None", "summary": "None", "logo": "None", "latitude": 43.97422055006084, "longitude": -78.17498213641868}, "130752793RR0001": {"name": "COBOURG DAY CARE INC.", "designationCode": "C", "categoryCode": "20", "address": "325 ALEXANDRIA DRIVE", "city": "COBOURG", "province": "ON", "country": "CA", "postalCode": "K9A5B2", "twitter": "None", "instagram": "None", "facebook": "None", "youtube": "None", "website": "None", "summary": "None", "logo": "None", "latitude": 43.976730710984945, "longitude": -78.15953228888577}, "879869121RR0001": {"name": "COBOURG MUSEUM FOUNDATION INC", "designationCode": "C", "categoryCode": "50", "address": "55 KING STREET WEST", "city": "COBOURG", "province": "ON", "country": "CA", "postalCode": "K9A2M2", "twitter": "None", "instagram": "None", "facebook": "None", "youtube": "None", "website": "None", "summary": "None", "logo": "None", "latitude": 43.95954364933675, "longitude": -78.167535550425}, "106951064RR0001": {"name": "COCHIN BAPTIST CHURCH", "designationCode": "C", "categoryCode": "31", "address": "BOX 58", "city": "COCHIN", "province": "SK", "country": "CA", "postalCode": "S0M0L0", "twitter": "None", "instagram": "None", "facebook": "None", "youtube": "None", "website": "None", "summary": "None", "logo": "None", "latitude": 53.08125000000007, "longitude": -108.33882999999997}, "889358065RR0001": {"name": "COCHRANE & AREA VICTIM SERVICES SOCIETY", "designationCode": "C", "categoryCode": "59", "address": "359 - 1ST STREET EAST", "city": "COCHRANE", "province": "AB", "country": "CA", "postalCode": "T4C1Y7", "twitter": "None", "instagram": "None", "facebook": "None", "youtube": "None", "website": "None", "summary": "None", "logo": "None", "latitude": 51.18747875434262, "longitude": -114.46061829421767}, "899746028RR0001": {"name": "COCHRANE - SMOOTH ROCK FALLS VICTIM CRISIS ASSISTANCE AND REFERRAL SERVICES", "designationCode": "C", "categoryCode": "09", "address": "P.O. BOX 2592", "city": "COCHRANE", "province": "ON", "country": "CA", "postalCode": "P0L1C0", "twitter": "None", "instagram": "None", "facebook": "None", "youtube": "None", "website": "None", "summary": "None", "logo": "None", "latitude": 49.07076000000005, "longitude": -81.00274849999994}, "118866789RR0001": {"name": "COCHRANE ACTIVETTES FOOD BANK", "designationCode": "C", "categoryCode": "09", "address": "BOX 535", "city": "COCHRANE", "province": "AB", "country": "CA", "postalCode": "T4C1A7", "twitter": "None", "instagram": "None", "facebook": "None", "youtube": "None", "website": "None", "summary": "None", "logo": "None", "latitude": 51.19089900000006, "longitude": -114.46804249999994}, "118866797RR0001": {"name": "COCHRANE AGRICULTURAL SOCIETY", "designationCode": "C", "categoryCode": "56", "address": "PO BOX 2552", "city": "COCHRANE", "province": "ON", "country": "CA", "postalCode": "P0L1C0", "twitter": "None", "instagram": "None", "facebook": "None", "youtube": "None", "website": "None", "summary": "None", "logo": "None", "latitude": 49.07076000000005, "longitude": -81.00274849999994}, "119293025RR0003": {"name": "COCHRANE ALLIANCE CHURCH", "designationCode": "C", "categoryCode": "39", "address": "902 GLENBOW DRIVE", "city": "COCHRANE", "province": "AB", "country": "CA", "postalCode": "T4C1J2", "twitter": "None", "instagram": "None", "facebook": "None", "youtube": "None", "website": "None", "summary": "None", "logo": "None", "latitude": 51.193654435512435, "longitude": -114.48066501985107}, "898488226RR0001": {"name": "COCHRANE AND AREA HUMANE SOCIETY", "designationCode": "C", "categoryCode": "54", "address": "62 GRIFFIN INDUSTRIAL POINT", "city": "COCHRANE", "province": "AB", "country": "CA", "postalCode": "T4C0A3", "twitter": "None", "instagram": "None", "facebook": "None", "youtube": "None", "website": "None", "summary": "None", "logo": "None", "latitude": 51.18414447517344, "longitude": -114.45179199176218}, "856553979RR0001": {"name": "COCHRANE BLOCK PARENT PROGRAM", "designationCode": "C", "categoryCode": "59", "address": "PO BOX 1477", "city": "COCHRANE", "province": "ON", "country": "CA", "postalCode": "P0L1C0", "twitter": "None", "instagram": "None", "facebook": "None", "youtube": "None", "website": "None", "summary": "None", "logo": "None", "latitude": 49.07076000000005, "longitude": -81.00274849999994}, "118866839RR0001": {"name": "COCHRANE CEMETERY", "designationCode": "C", "categoryCode": "59", "address": "344 JAMES STREET", "city": "MOUNT FOREST", "province": "ON", "country": "CA", "postalCode": "N0G2L3", "twitter": "None", "instagram": "None", "facebook": "None", "youtube": "None", "website": "None", "summary": "None", "logo": "None", "latitude": 43.97819687039065, "longitude": -80.7340443400949}, "119288918RR0953": {"name": "COCHRANE CONGREGATION OF JEHOVAH'S WITNESSES", "designationCode": "C", "categoryCode": "61", "address": "141 HWY 11 SOUTH", "city": "COCHRANE", "province": "ON", "country": "CA", "postalCode": "P0L1C0", "twitter": "None", "instagram": "None", "facebook": "None", "youtube": "None", "website": "None", "summary": "None", "logo": "None", "latitude": 49.05892572680071, "longitude": -81.0379175390237}, "119288918RR1302": {"name": "COCHRANE CONGREGATION OF JEHOVAH'S WITNESSES, ALBERTA", "designationCode": "C", "categoryCode": "61", "address": "114 FIRESIDE PLACE", "city": "COCHRANE", "province": "AB", "country": "CA", "postalCode": "T4C0R4", "twitter": "None", "instagram": "None", "facebook": "None", "youtube": "None", "website": "None", "summary": "None", "logo": "None", "latitude": 51.161150388020026, "longitude": -114.47312018246882}, "888886868RR0001": {"name": "COCHRANE CONSEIL NO 1917 FIDEICOMMIS DE CHARITE", "designationCode": "A", "categoryCode": "65", "address": "TRUSTEE MAURICE CHARRON       P O BOX 1625, 216-6TH AVENUE", "city": "COCHRANE", "province": "ON", "country": "CA", "postalCode": "P0L1C0", "twitter": "None", "instagram": "None", "facebook": "None", "youtube": "None", "website": "None", "summary": "None", "logo": "None", "latitude": 49.064030066916004, "longitude": -81.02495371248853}, "101039329RR0001": {"name": "COCHRANE CREATIVE PLAYSCHOOL SOCIETY", "designationCode": "C", "categoryCode": "20", "address": "P.O. BOX 1312", "city": "COCHRANE", "province": "AB", "country": "CA", "postalCode": "T4C1B3", "twitter": "None", "instagram": "None", "facebook": "None", "youtube": "None", "website": "None", "summary": "None", "logo": "None", "latitude": 51.19089900000006, "longitude": -114.46804249999994}, "133629097RR0001": {"name": "COCHRANE ECOLOGICAL INSTITUTE COCHRANE WILDLIFE RESERVE SOCIETY", "designationCode": "C", "categoryCode": "54", "address": "PO BOX 484", "city": "COCHRANE", "province": "AB", "country": "CA", "postalCode": "T4C1A7", "twitter": "None", "instagram": "None", "facebook": "None", "youtube": "None", "website": "None", "summary": "None", "logo": "None", "latitude": 51.19089900000006, "longitude": -114.46804249999994}, "896656030RR0001": {"name": "COCHRANE FOOD BANK INC./LA BANQUE ALIMENTAIRE DE COCHRANE INC.", "designationCode": "C", "categoryCode": "09", "address": "PO BOX 1437", "city": "COCHRANE", "province": "ON", "country": "CA", "postalCode": "P0L1C0", "twitter": "None", "instagram": "None", "facebook": "None", "youtube": "None", "website": "None", "summary": "None", "logo": "None", "latitude": 49.07076000000005, "longitude": -81.00274849999994}, "899088421RR0001": {"name": "COCHRANE FOOTHILLS PROTECTIVE ASSOCIATION", "designationCode": "C", "categoryCode": "59", "address": "BOX 603", "city": "COCHRANE", "province": "AB", "country": "CA", "postalCode": "T4C1A7", "twitter": "None", "instagram": "None", "facebook": "None", "youtube": "None", "website": "None", "summary": "None", "logo": "None", "latitude": 51.19089900000006, "longitude": -114.46804249999994}, "866947146RR0001": {"name": "COCHRANE HISTORICAL & ARCHIVAL PRESERVATION SOCIETY", "designationCode": "C", "categoryCode": "52", "address": "BOX 2104", "city": "COCHRANE", "province": "AB", "country": "CA", "postalCode": "T4C1B8", "twitter": "None", "instagram": "None", "facebook": "None", "youtube": "None", "website": "None", "summary": "None", "logo": "None", "latitude": 51.19089900000006, "longitude": -114.46804249999994}, "891718363RR0001": {"name": "COCHRANE LIONS CLUB ANNUAL CHRISTMAS TELETHON", "designationCode": "C", "categoryCode": "09", "address": "1 - 178 FOURTH AVE", "city": "COCHRANE", "province": "ON", "country": "CA", "postalCode": "P0L1C0", "twitter": "None", "instagram": "None", "facebook": "None", "youtube": "None", "website": "None", "summary": "None", "logo": "None", "latitude": 49.063265748542904, "longitude": -81.02815107100844}, "118866862RR0001": {"name": "COCHRANE SCHOOL BANDS PARENT ASSOCIATION", "designationCode": "C", "categoryCode": "22", "address": "529 - 4 AVENUE NORTH", "city": "COCHRANE", "province": "AB", "country": "CA", "postalCode": "T4C1Y6", "twitter": "None", "instagram": "None", "facebook": "None", "youtube": "None", "website": "None", "summary": "None", "logo": "None", "latitude": 51.19659539212893, "longitude": -114.47144418779901}, "867622110RR0001": {"name": "COCHRANE SEARCH AND RESCUE ASSOCIATION", "designationCode": "C", "categoryCode": "59", "address": "1234 STN MAIN", "city": "COCHRANE", "province": "AB", "country": "CA", "postalCode": "T4C1B3", "twitter": "None", "instagram": "None", "facebook": "None", "youtube": "None", "website": "None", "summary": "None", "logo": "None", "latitude": 51.19089900000006, "longitude": -114.46804249999994}, "106951270RR0001": {"name": "COCHRANE STREET UNITED CHURCH", "designationCode": "C", "categoryCode": "44", "address": "81 COCHRANE ST", "city": "ST. JOHN'S", "province": "NL", "country": "CA", "postalCode": "A1C3L7", "twitter": "None", "instagram": "None", "facebook": "None", "youtube": "None", "website": "None", "summary": "None", "logo": "None", "latitude": 47.571127538605, "longitude": -52.70430719584805}, "118866870RR0001": {"name": "COCHRANE TEMISKAMING CHILDREN'S TREATMENT CENTRE", "designationCode": "C", "categoryCode": "11", "address": "1 - 733 ROSS AVE E", "city": "TIMMINS", "province": "ON", "country": "CA", "postalCode": "P4N8S8", "twitter": "None", "instagram": "None", "facebook": "None", "youtube": "None", "website": "None", "summary": "None", "logo": "None", "latitude": 48.485925952652714, "longitude": -81.31351966007911}, "121719447RR0001": {"name": "COCHRANE TEMISKAMING RESOURCE CENTRE", "designationCode": "C", "categoryCode": "09", "address": "600, TOKE STREET", "city": "TIMMINS", "province": "ON", "country": "CA", "postalCode": "P4N6W1", "twitter": "None", "instagram": "None", "facebook": "None", "youtube": "None", "website": "None", "summary": "None", "logo": "None", "latitude": 48.488269092726945, "longitude": -81.31824570673847}, "890137383RR0001": {"name": "COCHRANE-IROQUOIS FALLS BOARD OF EDUCATION BURSARY FUND", "designationCode": "C", "categoryCode": "21", "address": "44 ANSON DRIVE", "city": "IROQUOIS FALLS", "province": "ON", "country": "CA", "postalCode": "P0K1E0", "twitter": "None", "instagram": "None", "facebook": "None", "youtube": "None", "website": "None", "summary": "None", "logo": "None", "latitude": 48.76866115313401, "longitude": -80.68261393020822}, "864122643RR0002": {"name": "COCHRANE-TEMISKAMING YOUTH FOR CHRIST INC.", "designationCode": "C", "categoryCode": "39", "address": "23 GOLDEN AVE.", "city": "SOUTH PORCUPINE", "province": "ON", "country": "CA", "postalCode": "P0N1H0", "twitter": "None", "instagram": "None", "facebook": "None", "youtube": "None", "website": "None", "summary": "None", "logo": "None", "latitude": 48.477162829103754, "longitude": -81.214299}, "823319314RR0001": {"name": "CODA Qu\u00e9bec", "designationCode": "C", "categoryCode": "11", "address": "3967 RUE DES TURQUOISES", "city": "L\u00c9VIS", "province": "QC", "country": "CA", "postalCode": "G6W0C3", "twitter": "None", "instagram": "None", "facebook": "None", "youtube": "None", "website": "None", "summary": "None", "logo": "None", "latitude": 46.77414542048013, "longitude": -71.1935975197355}, "118834878RR0001": {"name": "CODE", "designationCode": "C", "categoryCode": "29", "address": "321 CHAPEL ST", "city": "OTTAWA", "province": "ON", "country": "CA", "postalCode": "K1N7Z2", "twitter": "None", "instagram": "None", "facebook": "None", "youtube": "None", "website": "None", "summary": "None", "logo": "None", "latitude": 45.426905758266436, "longitude": -75.67762573033662}, "126294263RR0001": {"name": "CODES D'ACCES", "designationCode": "C", "categoryCode": "22", "address": "400 AVENUE ATLANTIC           SUITE 601", "city": "OUTREMONT", "province": "QC", "country": "CA", "postalCode": "H2V1A5", "twitter": "None", "instagram": "None", "facebook": "None", "youtube": "None", "website": "None", "summary": "None", "logo": "None", "latitude": 45.52717729447747, "longitude": -73.61663305964014}, "843617143RR0001": {"name": "CODESA CHARITABLE TRUST", "designationCode": "B", "categoryCode": "39", "address": "3425-2ND AVENUE SOUTH         MEYERS NORRIS PENNY", "city": "LETHBRIDGE", "province": "AB", "country": "CA", "postalCode": "T1J4V1", "twitter": "None", "instagram": "None", "facebook": "None", "youtube": "None", "website": "None", "summary": "None", "logo": "None", "latitude": 49.69686300000005, "longitude": -112.79001949999994}, "892682733RR0001": {"name": "CODYS BAPTIST CHURCH", "designationCode": "C", "categoryCode": "31", "address": "839 ROUTE 710", "city": "CODYS", "province": "NB", "country": "CA", "postalCode": "E4C1B7", "twitter": "None", "instagram": "None", "facebook": "None", "youtube": "None", "website": "None", "summary": "None", "logo": "None", "latitude": 45.8721617288913, "longitude": -65.84083683535235}, "118866953RR0001": {"name": "COE HILL AGRICULTURAL SOCIETY", "designationCode": "C", "categoryCode": "56", "address": "BOX 208", "city": "COE HILL", "province": "ON", "country": "CA", "postalCode": "K0L1P0", "twitter": "None", "instagram": "None", "facebook": "None", "youtube": "None", "website": "None", "summary": "None", "logo": "None", "latitude": 44.862280000000055, "longitude": -77.83811999999995}, "106951452RR0001": {"name": "COE HILL GOSPEL CHURCH", "designationCode": "C", "categoryCode": "39", "address": "P.O. BOX 89", "city": "COE HILL", "province": "ON", "country": "CA", "postalCode": "K0L1P0", "twitter": "None", "instagram": "None", "facebook": "None", "youtube": "None", "website": "None", "summary": "None", "logo": "None", "latitude": 44.862280000000055, "longitude": -77.83811999999995}, "832866875RR0001": {"name": "COEUR DU VILLAGE, PRODUCTIONS", "designationCode": "C", "categoryCode": "22", "address": "4C RUE MAPLE", "city": "SUTTON", "province": "QC", "country": "CA", "postalCode": "J0E2K0", "twitter": "None", "instagram": "None", "facebook": "None", "youtube": "None", "website": "None", "summary": "None", "logo": "None", "latitude": 45.1068839229316, "longitude": -72.61500755621022}, "106896848RR0001": {"name": "COFORCE Inc.", "designationCode": "C", "categoryCode": "09", "address": "11301, RUE MIRABEAU", "city": "ANJOU", "province": "QC", "country": "CA", "postalCode": "H1J2S2", "twitter": "None", "instagram": "None", "facebook": "None", "youtube": "None", "website": "None", "summary": "None", "logo": "None", "latitude": 45.61841235639661, "longitude": -73.58809194252424}, "889458378RR0001": {"name": "COGNASHENE COMMUNITY CHURCH", "designationCode": "C", "categoryCode": "39", "address": "59 EASTMOUNT AVE", "city": "TORONTO", "province": "ON", "country": "CA", "postalCode": "M4K1V2", "twitter": "None", "instagram": "None", "facebook": "None", "youtube": "None", "website": "None", "summary": "None", "logo": "None", "latitude": 43.679486725489184, "longitude": -79.36016515292287}, "815200688RR0001": {"name": "COGWA Canada", "designationCode": "C", "categoryCode": "39", "address": "575 CENTRAL AVENUE            PO BOX 222", "city": "FORT ERIE", "province": "ON", "country": "CA", "postalCode": "L2A5M9", "twitter": "None", "instagram": "None", "facebook": "None", "youtube": "None", "website": "None", "summary": "None", "logo": "None", "latitude": 42.930368161809696, "longitude": -78.91896800432784}, "892342825RR0001": {"name": "COHEN AND MANTON FOUNDATION / FONDATION COHEN ET MANTON", "designationCode": "B", "categoryCode": "03", "address": "6950 COTE ST-LUC ROAD         SUITE 705", "city": "MONTREAL", "province": "QC", "country": "CA", "postalCode": "H4V2Z9", "twitter": "None", "instagram": "None", "facebook": "None", "youtube": "None", "website": "None", "summary": "None", "logo": "None", "latitude": 45.4675285175434, "longitude": -73.6522851609443}, "118867027RR0001": {"name": "COLBORNE LODGE INCORPORATED", "designationCode": "C", "categoryCode": "01", "address": "133 COLBORNE STREET WEST", "city": "LINDSAY", "province": "ON", "country": "CA", "postalCode": "K9V3T6", "twitter": "None", "instagram": "None", "facebook": "None", "youtube": "None", "website": "None", "summary": "None", "logo": "None", "latitude": 44.35799941574243, "longitude": -78.75062564613474}, "866905227RR0001": {"name": "COLBORNE PENTECOSTAL CHURCH", "designationCode": "C", "categoryCode": "36", "address": "PO BOX 218", "city": "COLBORNE", "province": "ON", "country": "CA", "postalCode": "K0K1S0", "twitter": "None", "instagram": "None", "facebook": "None", "youtube": "None", "website": "None", "summary": "None", "logo": "None", "latitude": 44.47739277748983, "longitude": -77.31137062647974}, "106951650RR0001": {"name": "COLBORNE STREET UNITED CHURCH", "designationCode": "C", "categoryCode": "44", "address": "711 COLBORNE STREET", "city": "LONDON", "province": "ON", "country": "CA", "postalCode": "N6A3Z4", "twitter": "None", "instagram": "None", "facebook": "None", "youtube": "None", "website": "None", "summary": "None", "logo": "None", "latitude": 42.9963294457269, "longitude": -81.2447849925555}, "893338574RR0001": {"name": "COLBY DRIVE BIBLE CHAPEL", "designationCode": "C", "categoryCode": "39", "address": "131 COLBY DRIVE", "city": "DARTMOUTH", "province": "NS", "country": "CA", "postalCode": "B2V1Y2", "twitter": "None", "instagram": "None", "facebook": "None", "youtube": "None", "website": "None", "summary": "None", "logo": "None", "latitude": 44.66548646153861, "longitude": -63.48373114989312}, "891602997RR0001": {"name": "COLBY VILLAGE ELEMENTARY SCHOOL PARENT-TEACHER ORGANIZATION", "designationCode": "C", "categoryCode": "21", "address": "92 COLBY DR", "city": "DARTMOUTH", "province": "NS", "country": "CA", "postalCode": "B2V1J4", "twitter": "None", "instagram": "None", "facebook": "None", "youtube": "None", "website": "None", "summary": "None", "logo": "None", "latitude": 44.6661752667492, "longitude": -63.48482727321275}, "889702593RR0001": {"name": "COLCHESTER ADULT LEARNING ASSOCIATION", "designationCode": "C", "categoryCode": "21", "address": "36 ARTHUR ST", "city": "TRURO", "province": "NS", "country": "CA", "postalCode": "B2N1X5", "twitter": "None", "instagram": "None", "facebook": "None", "youtube": "None", "website": "None", "summary": "None", "logo": "None", "latitude": 45.3605357176989, "longitude": -63.28789670009819}, "118867100RR0001": {"name": "COLCHESTER AND DISTRICT AGRICULTURAL SOCIETY", "designationCode": "C", "categoryCode": "56", "address": "PO BOX 3123 STN MAIN", "city": "SHERWOOD PARK", "province": "AB", "country": "CA", "postalCode": "T8H2T1", "twitter": "None", "instagram": "None", "facebook": "None", "youtube": "None", "website": "None", "summary": "None", "logo": "None", "latitude": 53.52731700000005, "longitude": -113.29574299999993}, "859439267RR0001": {"name": "COLCHESTER CHRISTIAN ACADEMY ASSOCIATION", "designationCode": "C", "categoryCode": "20", "address": "PO BOX 403", "city": "TRURO", "province": "NS", "country": "CA", "postalCode": "B2N5C5", "twitter": "None", "instagram": "None", "facebook": "None", "youtube": "None", "website": "None", "summary": "None", "logo": "None", "latitude": 45.36602700000006, "longitude": -63.289042999999936}, "106951718RR0001": {"name": "COLCHESTER COMMUNITY WORKSHOPS", "designationCode": "C", "categoryCode": "09", "address": "168 ARTHUR STREET", "city": "TRURO", "province": "NS", "country": "CA", "postalCode": "B2N1Y4", "twitter": "None", "instagram": "None", "facebook": "None", "youtube": "None", "website": "None", "summary": "None", "logo": "None", "latitude": 45.3618708087313, "longitude": -63.28073512057832}, "864928999RR0001": {"name": "COLCHESTER COMMUNITY WORKSHOPS FOUNDATION", "designationCode": "A", "categoryCode": "03", "address": "168 ARTHUR STREET", "city": "TRURO", "province": "NS", "country": "CA", "postalCode": "B2N1Y4", "twitter": "None", "instagram": "None", "facebook": "None", "youtube": "None", "website": "None", "summary": "None", "logo": "None", "latitude": 45.3618708087313, "longitude": -63.28073512057832}, "889971792RR0002": {"name": "COLCHESTER EAST HANTS BRANCH CANADIAN MENTAL HEALTH ASSOCIATION", "designationCode": "C", "categoryCode": "11", "address": "P.O. BOX 1413", "city": "TRURO", "province": "NS", "country": "CA", "postalCode": "B2N5V2", "twitter": "None", "instagram": "None", "facebook": "None", "youtube": "None", "website": "None", "summary": "None", "logo": "None", "latitude": 45.36602700000006, "longitude": -63.289042999999936}, "885434407RR0001": {"name": "COLCHESTER EAST HANTS COMMUNITY HOSPICE SOCIETY", "designationCode": "C", "categoryCode": "01", "address": "89 QUEEN ST.", "city": "TRURO", "province": "NS", "country": "CA", "postalCode": "B2N2B2", "twitter": "None", "instagram": "None", "facebook": "None", "youtube": "None", "website": "None", "summary": "None", "logo": "None", "latitude": 45.36641941719059, "longitude": -63.28184894587114}, "891540940RR0001": {"name": "COLCHESTER GROUND SEARCH AND RESCUE ASSOCIATION (E.M.O.)", "designationCode": "C", "categoryCode": "59", "address": "PO BOX 1622", "city": "TRURO", "province": "NS", "country": "CA", "postalCode": "B2N5V3", "twitter": "None", "instagram": "None", "facebook": "None", "youtube": "None", "website": "None", "summary": "None", "logo": "None", "latitude": 45.36602700000006, "longitude": -63.289042999999936}, "118867134RR0001": {"name": "COLCHESTER HISTORICAL SOCIETY", "designationCode": "C", "categoryCode": "50", "address": "29 YOUNG ST", "city": "TRURO", "province": "NS", "country": "CA", "postalCode": "B2N3W3", "twitter": "None", "instagram": "None", "facebook": "None", "youtube": "None", "website": "None", "summary": "None", "logo": "None", "latitude": 45.36369783680535, "longitude": -63.27935671161072}, "118867142RR0001": {"name": "COLCHESTER REGIONAL HOSPITAL AUXILIARY", "designationCode": "C", "categoryCode": "19", "address": "22 SAXONHURST DR", "city": "BIBLE HILL", "province": "NS", "country": "CA", "postalCode": "B6L4G6", "twitter": "None", "instagram": "None", "facebook": "None", "youtube": "None", "website": "None", "summary": "None", "logo": "None", "latitude": 45.37593071438067, "longitude": -63.22802705857227}, "118867167RR0001": {"name": "COLCHESTER SOUTH AND HARROW AGRICULTURAL SOCIETY", "designationCode": "C", "categoryCode": "56", "address": "ATTN: TREASURER               PO BOX 555", "city": "HARROW", "province": "ON", "country": "CA", "postalCode": "N0R1G0", "twitter": "None", "instagram": "None", "facebook": "None", "youtube": "None", "website": "None", "summary": "None", "logo": "None", "latitude": 42.04188600000006, "longitude": -83.01052699999994}, "890721343RR0001": {"name": "COLCHESTER STROKE CLUB", "designationCode": "C", "categoryCode": "11", "address": "55 PARK ST", "city": "TRURO", "province": "NS", "country": "CA", "postalCode": "B2N3J5", "twitter": "None", "instagram": "None", "facebook": "None", "youtube": "None", "website": "None", "summary": "None", "logo": "None", "latitude": 45.37028338550986, "longitude": -63.28479604382842}, "855941332RR0001": {"name": "COLCHESTER-EAST HANTS PUBLIC LIBRARY FOUNDATION", "designationCode": "A", "categoryCode": "53", "address": "754 PRINCE STREET", "city": "TRURO", "province": "NS", "country": "CA", "postalCode": "B2N1G9", "twitter": "None", "instagram": "None", "facebook": "None", "youtube": "None", "website": "None", "summary": "None", "logo": "None", "latitude": 45.36478661945315, "longitude": -63.27843641494021}, "106951742RR0001": {"name": "COLCHESTER-EAST HANTS REGIONAL LIBRARY", "designationCode": "C", "categoryCode": "50", "address": "754 PRINCE ST", "city": "TRURO", "province": "NS", "country": "CA", "postalCode": "B2N1G9", "twitter": "None", "instagram": "None", "facebook": "None", "youtube": "None", "website": "None", "summary": "None", "logo": "None", "latitude": 45.36478661945315, "longitude": -63.27843641494021}, "890673940RR0001": {"name": "COLD LAKE AMBULANCE SOCIETY", "designationCode": "C", "categoryCode": "19", "address": "5201B 55 STREET", "city": "COLD LAKE", "province": "AB", "country": "CA", "postalCode": "T9M1W2", "twitter": "None", "instagram": "None", "facebook": "None", "youtube": "None", "website": "None", "summary": "None", "logo": "None", "latitude": 54.41451029421329, "longitude": -110.21451969902017}, "119246635RR0007": {"name": "COLD LAKE BRANCH, NAVY LEAGUE OF CANADA", "designationCode": "C", "categoryCode": "29", "address": "P.O. BOX 7214", "city": "BONNYVILLE", "province": "AB", "country": "CA", "postalCode": "T9N2H6", "twitter": "None", "instagram": "None", "facebook": "None", "youtube": "None", "website": "None", "summary": "None", "logo": "None", "latitude": 54.267945000000054, "longitude": -110.75332399999994}, "839960051RR0001": {"name": "COLD LAKE COMMUNITY CHURCH AFFILIATED WITH P.A.O.C.", "designationCode": "C", "categoryCode": "39", "address": "PO BOX 1628", "city": "COLD LAKE", "province": "AB", "country": "CA", "postalCode": "T9M1P4", "twitter": "None", "instagram": "None", "facebook": "None", "youtube": "None", "website": "None", "summary": "None", "logo": "None", "latitude": 54.46502700000005, "longitude": -110.17379149999994}, "118945252RR0001": {"name": "COLD LAKE CONGREGATION OF JEHOVAH'S WITNESSES", "designationCode": "C", "categoryCode": "61", "address": "SECRETARY                     BOX 600", "city": "COLD LAKE", "province": "AB", "country": "CA", "postalCode": "T9M1P2", "twitter": "None", "instagram": "None", "facebook": "None", "youtube": "None", "website": "None", "summary": "None", "logo": "None", "latitude": 54.46502700000005, "longitude": -110.17379149999994}, "866602584RR0001": {"name": "COLD LAKE CORNERSTONE FAMILY CHURCH", "designationCode": "C", "categoryCode": "39", "address": "231 LAKESIDE GREEN COURT", "city": "CHESTEMERE", "province": "AB", "country": "CA", "postalCode": "T1X1C8", "twitter": "None", "instagram": "None", "facebook": "None", "youtube": "None", "website": "None", "summary": "None", "logo": "None", "latitude": 51.03955424923541, "longitude": -113.83294477771346}, "892246042RR0001": {"name": "COLD LAKE MUSIC FESTIVAL ASSOCIATION", "designationCode": "C", "categoryCode": "22", "address": "BOX 424", "city": "COLD LAKE", "province": "AB", "country": "CA", "postalCode": "T9M1P1", "twitter": "None", "instagram": "None", "facebook": "None", "youtube": "None", "website": "None", "summary": "None", "logo": "None", "latitude": 54.46502700000005, "longitude": -110.17379149999994}, "895793032RR0001": {"name": "COLD LAKE NATIVE FRIENDSHIP CENTRE SOCIETY", "designationCode": "C", "categoryCode": "56", "address": "BOX 1978", "city": "COLD LAKE", "province": "AB", "country": "CA", "postalCode": "T9M1P4", "twitter": "None", "instagram": "None", "facebook": "None", "youtube": "None", "website": "None", "summary": "None", "logo": "None", "latitude": 54.46502700000005, "longitude": -110.17379149999994}, "892925769RR0001": {"name": "COLD LAKE PALLIATIVE CARE SOCIETY", "designationCode": "C", "categoryCode": "11", "address": "UNIT 3 MARINAMALL, BOX 8125   901-10 STREET", "city": "COLD LAKE", "province": "AB", "country": "CA", "postalCode": "T9M1N1", "twitter": "None", "instagram": "None", "facebook": "None", "youtube": "None", "website": "None", "summary": "None", "logo": "None", "latitude": 54.46393627909013, "longitude": -110.17323555021872}, "898843289RR0001": {"name": "COLD LAKE REGIONAL HOSPITAL FOUNDATION", "designationCode": "A", "categoryCode": "13", "address": "314 25 ST", "city": "COLD LAKE", "province": "AB", "country": "CA", "postalCode": "T9M1G6", "twitter": "None", "instagram": "None", "facebook": "None", "youtube": "None", "website": "None", "summary": "None", "logo": "None", "latitude": 54.469601524150875, "longitude": -110.19813607245261}, "891595415RR0001": {"name": "COLD LAKE VICTIM SERVICES SOCIETY", "designationCode": "C", "categoryCode": "59", "address": "BOX 8125", "city": "COLD LAKE", "province": "AB", "country": "CA", "postalCode": "T9M1N4", "twitter": "None", "instagram": "None", "facebook": "None", "youtube": "None", "website": "None", "summary": "None", "logo": "None", "latitude": 54.41037000000006, "longitude": -110.21576749999993}, "106951858RR0001": {"name": "COLDBROOK BAPTIST CHURCH", "designationCode": "C", "categoryCode": "31", "address": "1392 SOUTH BISHOP RD", "city": "COLDBROOK", "province": "NS", "country": "CA", "postalCode": "B4R1B7", "twitter": "None", "instagram": "None", "facebook": "None", "youtube": "None", "website": "None", "summary": "None", "logo": "None", "latitude": 45.06212188649079, "longitude": -64.59904613304315}, "896838034RR0001": {"name": "COLDSPRINGS PASTORAL CHARGE", "designationCode": "C", "categoryCode": "44", "address": "8536 WILLIS ROAD RR#6", "city": "COBOURG", "province": "ON", "country": "CA", "postalCode": "K9A4J9", "twitter": "None", "instagram": "None", "facebook": "None", "youtube": "None", "website": "None", "summary": "None", "logo": "None", "latitude": 44.05717316558646, "longitude": -78.21312819478848}, "118867324RR0001": {"name": "COLDSTREAM BAPTIST CHURCH", "designationCode": "C", "categoryCode": "31", "address": "7694 ROUTE 104", "city": "COLDSTREAM", "province": "NB", "country": "CA", "postalCode": "E7P3M4", "twitter": "None", "instagram": "None", "facebook": "None", "youtube": "None", "website": "None", "summary": "None", "logo": "None", "latitude": 46.3416203651213, "longitude": -67.46633108509232}, "119288918RR1472": {"name": "COLDSTREAM CONGREGATION OF JEHOVAH'S WITNESSES", "designationCode": "C", "categoryCode": "61", "address": "PO BOX 643", "city": "VERNON", "province": "BC", "country": "CA", "postalCode": "V1T6M6", "twitter": "None", "instagram": "None", "facebook": "None", "youtube": "None", "website": "None", "summary": "None", "logo": "None", "latitude": 50.26567200000005, "longitude": -119.27378149999993}, "118867282RR0001": {"name": "COLDSTREAM MONTHLY MEETING OF THE RELIGIOUS SOCIETY OF FRIENDS (QUAKERS)", "designationCode": "C", "categoryCode": "39", "address": "303 QUAKER LANE               RR#2", "city": "ILDERTON", "province": "ON", "country": "CA", "postalCode": "N0M2A0", "twitter": "None", "instagram": "None", "facebook": "None", "youtube": "None", "website": "None", "summary": "None", "logo": "None", "latitude": 43.0184434612788, "longitude": -81.50284110115994}, "135187870RR0001": {"name": "COLDSTREAM PASTORAL CHARGE", "designationCode": "C", "categoryCode": "44", "address": "110 SALMON RIVER ROAD", "city": "VALLEY", "province": "NS", "country": "CA", "postalCode": "B6L2S5", "twitter": "None", "instagram": "None", "facebook": "None", "youtube": "None", "website": "None", "summary": "None", "logo": "None", "latitude": 45.39259082402339, "longitude": -63.20376461298959}, "118867332RR0001": {"name": "COLDSTREAM WOMEN'S INSTITUTE", "designationCode": "C", "categoryCode": "59", "address": "7702 ROUTE 104", "city": "COLDSTREAM", "province": "NB", "country": "CA", "postalCode": "E7P3M6", "twitter": "None", "instagram": "None", "facebook": "None", "youtube": "None", "website": "None", "summary": "None", "logo": "None", "latitude": 46.34137702830944, "longitude": -67.46752609955908}, "869852046RR0001": {"name": "COLDWATER AND DISTRICT AGRICULTURAL SOCIETY", "designationCode": "C", "categoryCode": "56", "address": "BOX 339", "city": "COLDWATER", "province": "ON", "country": "CA", "postalCode": "L0K1E0", "twitter": "None", "instagram": "None", "facebook": "None", "youtube": "None", "website": "None", "summary": "None", "logo": "None", "latitude": 44.68099200000006, "longitude": -79.62548749999993}, "889454773RR0001": {"name": "COLDWATER CANADIANA HERITAGE MUSEUM", "designationCode": "C", "categoryCode": "50", "address": "1474 WOODROW ROAD", "city": "COLDWATER", "province": "ON", "country": "CA", "postalCode": "L0K1E0", "twitter": "None", "instagram": "None", "facebook": "None", "youtube": "None", "website": "None", "summary": "None", "logo": "None", "latitude": 44.69748409498486, "longitude": -79.64194261163327}, "888558467RR0001": {"name": "COLDWATER MILL HERITAGE FOUNDATION", "designationCode": "C", "categoryCode": "52", "address": "PO BOX 747", "city": "COLDWATER", "province": "ON", "country": "CA", "postalCode": "L0K1E0", "twitter": "None", "instagram": "None", "facebook": "None", "youtube": "None", "website": "None", "summary": "None", "logo": "None", "latitude": 44.68099200000006, "longitude": -79.62548749999993}, "118867340RR0001": {"name": "COLDWATER SENIORS' APARTMENT INC.", "designationCode": "C", "categoryCode": "09", "address": "11 MILL ST.", "city": "COLDWATER", "province": "ON", "country": "CA", "postalCode": "L0K1E0", "twitter": "None", "instagram": "None", "facebook": "None", "youtube": "None", "website": "None", "summary": "None", "logo": "None", "latitude": 44.70761259334101, "longitude": -79.64612996185572}, "118867357RR0001": {"name": "COLDWATER UNITED CHURCH", "designationCode": "C", "categoryCode": "44", "address": "PO BOX 44", "city": "COLDWATER", "province": "ON", "country": "CA", "postalCode": "L0K1E0", "twitter": "None", "instagram": "None", "facebook": "None", "youtube": "None", "website": "None", "summary": "None", "logo": "None", "latitude": 44.68099200000006, "longitude": -79.62548749999993}, "862823374RR0001": {"name": "COLDWELL COMMUNITY FOUNDATION INC.", "designationCode": "A", "categoryCode": "03", "address": "PO BOX 154                    35 MAIN ST", "city": "LUNDAR", "province": "MB", "country": "CA", "postalCode": "R0C1Y0", "twitter": "None", "instagram": "None", "facebook": "None", "youtube": "None", "website": "None", "summary": "None", "logo": "None", "latitude": 50.695560169023956, "longitude": -98.03373024392434}, "119288918RR1182": {"name": "COLE HARBOUR CONGREGATION OF JEHOVAH'S WITNESSES", "designationCode": "C", "categoryCode": "61", "address": "116 RITCEY CRESCENT", "city": "DARTMOUTH", "province": "NS", "country": "CA", "postalCode": "B2W6J8", "twitter": "None", "instagram": "None", "facebook": "None", "youtube": "None", "website": "None", "summary": "None", "logo": "None", "latitude": 44.67691296113457, "longitude": -63.47225188943365}, "870288933RR0001": {"name": "COLE HARBOUR PARKS AND TRAILS ASSOCIATION", "designationCode": "C", "categoryCode": "56", "address": "51 FOREST HILLS PARKWAY #13", "city": "DARTMOUTH", "province": "NS", "country": "CA", "postalCode": "B2W6C6", "twitter": "None", "instagram": "None", "facebook": "None", "youtube": "None", "website": "None", "summary": "None", "logo": "None", "latitude": 44.68395660782506, "longitude": -63.49090238929035}, "106952153RR0001": {"name": "COLE HARBOUR RURAL HERITAGE SOCIETY", "designationCode": "C", "categoryCode": "52", "address": "471 POPLAR DRIVE", "city": "DARTMOUTH", "province": "NS", "country": "CA", "postalCode": "B2W4L2", "twitter": "None", "instagram": "None", "facebook": "None", "youtube": "None", "website": "None", "summary": "None", "logo": "None", "latitude": 44.67293173602078, "longitude": -63.499716464221656}, "132726266RR0001": {"name": "COLE HARBOUR WOODSIDE UNITED CHURCH", "designationCode": "C", "categoryCode": "44", "address": "15 BISSETT ROAD", "city": "DARTMOUTH", "province": "NS", "country": "CA", "postalCode": "B2V2T1", "twitter": "None", "instagram": "None", "facebook": "None", "youtube": "None", "website": "None", "summary": "None", "logo": "None", "latitude": 44.6716247432628, "longitude": -63.47750812089545}, "118867399RR0001": {"name": "COLE LAKE FREE METHODIST CHURCH", "designationCode": "C", "categoryCode": "39", "address": "9399 ROAD 38", "city": "GODFREY", "province": "ON", "country": "CA", "postalCode": "K0H1T0", "twitter": "None", "instagram": "None", "facebook": "None", "youtube": "None", "website": "None", "summary": "None", "logo": "None", "latitude": 44.285354999999996, "longitude": -76.57004924999998}, "106952112RR0001": {"name": "COLEBROOK PASTORAL CHARGE", "designationCode": "C", "categoryCode": "44", "address": "5441-125A STREET", "city": "SURREY", "province": "BC", "country": "CA", "postalCode": "V3X1W4", "twitter": "None", "instagram": "None", "facebook": "None", "youtube": "None", "website": "None", "summary": "None", "logo": "None", "latitude": 49.10150661226845, "longitude": -122.87455492120128}, "138369921RR0001": {"name": "COLEL CHABAD LUBAVITCH FOUNDATION OF ISRAEL", "designationCode": "C", "categoryCode": "21", "address": "4770 KENT AVENUE              SUITE 302", "city": "MONTREAL", "province": "QC", "country": "CA", "postalCode": "H3W1H2", "twitter": "None", "instagram": "None", "facebook": "None", "youtube": "None", "website": "None", "summary": "None", "logo": "None", "latitude": 45.49504317762139, "longitude": -73.63834658546382}, "106952195RR0001": {"name": "COLEMAN CHRISTIAN ASSEMBLY", "designationCode": "C", "categoryCode": "39", "address": "BOX 783", "city": "COLEMAN", "province": "AB", "country": "CA", "postalCode": "T0K0M0", "twitter": "None", "instagram": "None", "facebook": "None", "youtube": "None", "website": "None", "summary": "None", "logo": "None", "latitude": 49.4888173371808, "longitude": -113.95073569884576}, "118867415RR0001": {"name": "COLEMAN SCHOLARSHIP AND GRANT ASSOCIATION", "designationCode": "B", "categoryCode": "21", "address": "1802, 11969 JASPER AVE", "city": "EDMONTON", "province": "AB", "country": "CA", "postalCode": "T5K0P1", "twitter": "None", "instagram": "None", "facebook": "None", "youtube": "None", "website": "None", "summary": "None", "logo": "None", "latitude": 53.54088000000006, "longitude": -113.52898699999994}, "810033704RR0001": {"name": "COLES ISLAND UNITED BAPTIST CHURCH INC.", "designationCode": "C", "categoryCode": "31", "address": "209 STARKEY ROAD", "city": "CODY'S QUEENS CO.", "province": "NB", "country": "CA", "postalCode": "E4C2R5", "twitter": "None", "instagram": "None", "facebook": "None", "youtube": "None", "website": "None", "summary": "None", "logo": "None", "latitude": 45.89757192056144, "longitude": -65.80719231387323}}