{"852372739RR0001": {"name": "FIRST METROPOLITAN UNITED CHURCH FOUNDATION", "designationCode": "B", "categoryCode": "43", "address": "932 BALMORAL RD", "city": "VICTORIA", "province": "BC", "country": "CA", "postalCode": "V8T1A8", "twitter": "None", "instagram": "None", "facebook": "None", "youtube": "None", "website": "None", "summary": "None", "logo": "None", "latitude": 48.42893547879262, "longitude": -123.35801999847078}, "118918507RR0001": {"name": "FIRST MISSIONARY CHURCH", "designationCode": "C", "categoryCode": "39", "address": "39 SHALOM ST", "city": "PEMBROKE", "province": "ON", "country": "CA", "postalCode": "K8A0J6", "twitter": "None", "instagram": "None", "facebook": "None", "youtube": "None", "website": "None", "summary": "None", "logo": "None", "latitude": 45.80758878518663, "longitude": -77.14987783103427}, "890108483RR0001": {"name": "FIRST NATION HEALING CENTRE INC", "designationCode": "C", "categoryCode": "01", "address": "BOX 365", "city": "KOOKSTATAK", "province": "MB", "country": "CA", "postalCode": "R0C1S0", "twitter": "None", "instagram": "None", "facebook": "None", "youtube": "None", "website": "None", "summary": "None", "logo": "None", "latitude": 51.44233000000003, "longitude": -97.37408999999997}, "118776376RR0001": {"name": "FIRST NATION'S PENTECOSTAL CHURCHES INC.", "designationCode": "C", "categoryCode": "39", "address": "PO BOX 183", "city": "SCANTERBURY", "province": "MB", "country": "CA", "postalCode": "R0E1W0", "twitter": "None", "instagram": "None", "facebook": "None", "youtube": "None", "website": "None", "summary": "None", "logo": "None", "latitude": 50.376040000000046, "longitude": -96.62983999999994}, "866749518RR0001": {"name": "FIRST NATIONS ADULT AND HIGHER EDUCATION CONSORTIUM", "designationCode": "C", "categoryCode": "20", "address": "PO BOX 1250", "city": "SIKSIKA", "province": "AB", "country": "CA", "postalCode": "T0J3W0", "twitter": "None", "instagram": "None", "facebook": "None", "youtube": "None", "website": "None", "summary": "None", "logo": "None", "latitude": 50.853423516106545, "longitude": -113.01955794170736}, "893880575RR0001": {"name": "FIRST NATIONS ALLIANCE CHURCH", "designationCode": "C", "categoryCode": "39", "address": "12235-50TH ST.", "city": "EDMONTON", "province": "AB", "country": "CA", "postalCode": "T5W3C7", "twitter": "None", "instagram": "None", "facebook": "None", "youtube": "None", "website": "None", "summary": "None", "logo": "None", "latitude": 53.57789941326678, "longitude": -113.41833777070259}, "895893386RR0001": {"name": "FIRST NATIONS ALLIANCE CHURCHES OF CANADA", "designationCode": "C", "categoryCode": "39", "address": "44 TENTLER STREET", "city": "WINNIPEG", "province": "MB", "country": "CA", "postalCode": "R2R0L1", "twitter": "None", "instagram": "None", "facebook": "None", "youtube": "None", "website": "None", "summary": "None", "logo": "None", "latitude": 49.91783508964741, "longitude": -97.20259035991731}, "860180058RR0001": {"name": "FIRST NATIONS CHILD AND FAMILY CARING SOCIETY OF CANADA", "designationCode": "C", "categoryCode": "09", "address": "401-309 COOPER ST", "city": "OTTAWA", "province": "ON", "country": "CA", "postalCode": "K2P0G5", "twitter": "None", "instagram": "None", "facebook": "None", "youtube": "None", "website": "None", "summary": "None", "logo": "None", "latitude": 45.417332283109175, "longitude": -75.6938818960701}, "887374593RR0001": {"name": "FIRST NATIONS COMMUNITY CHURCH OF WINNIPEG", "designationCode": "C", "categoryCode": "39", "address": "44 TENTLER STREET", "city": "WINNIPEG", "province": "MB", "country": "CA", "postalCode": "R2R0L1", "twitter": "None", "instagram": "None", "facebook": "None", "youtube": "None", "website": "None", "summary": "None", "logo": "None", "latitude": 49.91783508964741, "longitude": -97.20259035991731}, "108156118RR0001": {"name": "FIRST NATIONS FRIENDSHIP CENTRE", "designationCode": "C", "categoryCode": "59", "address": "2904 29 AVE", "city": "VERNON", "province": "BC", "country": "CA", "postalCode": "V1T1Y7", "twitter": "None", "instagram": "None", "facebook": "None", "youtube": "None", "website": "None", "summary": "None", "logo": "None", "latitude": 50.262941474032104, "longitude": -119.270034}, "864327127RR0001": {"name": "FIRST NATIONS MISSIONS FELLOWSHIP", "designationCode": "C", "categoryCode": "47", "address": "81 CURLEW DRIVE", "city": "NORTH YORK", "province": "ON", "country": "CA", "postalCode": "M3A2P8", "twitter": "None", "instagram": "None", "facebook": "None", "youtube": "None", "website": "None", "summary": "None", "logo": "None", "latitude": 43.742497696607074, "longitude": -79.31677704630992}, "871790572RR0001": {"name": "FIRST NATIONS SCHOOLS ASSOCIATION", "designationCode": "C", "categoryCode": "21", "address": "113-100 PARK ROYAL SOUTH", "city": "WEST VANCOUVER", "province": "BC", "country": "CA", "postalCode": "V7T1A2", "twitter": "None", "instagram": "None", "facebook": "None", "youtube": "None", "website": "None", "summary": "None", "logo": "None"}, "119140192RR0001": {"name": "FIRST NATIONS UNIVERSITY OF CANADA INC.", "designationCode": "C", "categoryCode": "20", "address": "1 FIRST NATIONS WAY", "city": "REGINA", "province": "SK", "country": "CA", "postalCode": "S4S7K2", "twitter": "None", "instagram": "None", "facebook": "None", "youtube": "None", "website": "None", "summary": "None", "logo": "None"}, "119246833RR0001": {"name": "FIRST NETHERLANDS REFORMED CHRISTIAN SCHOOL", "designationCode": "C", "categoryCode": "20", "address": "4171 15TH ST PO BOX 69", "city": "JORDAN STATION", "province": "ON", "country": "CA", "postalCode": "L0R1S0", "twitter": "None", "instagram": "None", "facebook": "None", "youtube": "None", "website": "None", "summary": "None", "logo": "None", "latitude": 43.16568930697095, "longitude": -79.34994596725234}, "826217671RR0001": {"name": "FIRST NORTH RIVER BAPTIST CHURCH INC.", "designationCode": "C", "categoryCode": "31", "address": "573 BLAKNEY ROAD", "city": "FAWCETT HILL", "province": "NB", "country": "CA", "postalCode": "E4Z2V5", "twitter": "None", "instagram": "None", "facebook": "None", "youtube": "None", "website": "None", "summary": "None", "logo": "None", "latitude": 45.99270834872967, "longitude": -65.20100346008168}, "864585310RR0001": {"name": "FIRST OCEANSIDE APOSTOLIC CHURCH", "designationCode": "C", "categoryCode": "39", "address": "PO BOX 1785", "city": "PARKSVILLE", "province": "BC", "country": "CA", "postalCode": "V9P2H6", "twitter": "None", "instagram": "None", "facebook": "None", "youtube": "None", "website": "None", "summary": "None", "logo": "None", "latitude": 49.31968200000006, "longitude": -124.31365099999994}, "886263599RR0001": {"name": "FIRST ONEIDA BAPTIST CHURCH", "designationCode": "C", "categoryCode": "31", "address": "529 OLD TRAIL RD", "city": "SOUTHWOLD", "province": "ON", "country": "CA", "postalCode": "N0L2G0", "twitter": "None", "instagram": "None", "facebook": "None", "youtube": "None", "website": "None", "summary": "None", "logo": "None", "latitude": 42.827776329117675, "longitude": -81.43191133744604}, "118918556RR0001": {"name": "FIRST PACIFIC THEATRE SOCIETY", "designationCode": "C", "categoryCode": "22", "address": "1440 12TH AVE W", "city": "VANCOUVER", "province": "BC", "country": "CA", "postalCode": "V6H1M8", "twitter": "None", "instagram": "None", "facebook": "None", "youtube": "None", "website": "None", "summary": "None", "logo": "None", "latitude": 49.26071949567217, "longitude": -123.13682148127411}, "107387227RR0001": {"name": "FIRST PENTECOSTAL CHURCH", "designationCode": "C", "categoryCode": "39", "address": "149 WILSON DR", "city": "WHITEHORSE", "province": "YT", "country": "CA", "postalCode": "Y1A0C7", "twitter": "None", "instagram": "None", "facebook": "None", "youtube": "None", "website": "None", "summary": "None", "logo": "None", "latitude": 60.704653431040384, "longitude": -135.09912061723145}, "107833394RR0017": {"name": "FIRST PENTECOSTAL CHURCH", "designationCode": "C", "categoryCode": "36", "address": "P.O. BOX 482                  58 PREMIER DRIVE", "city": "CORNER BROOK", "province": "NL", "country": "CA", "postalCode": "A2H6E6", "twitter": "None", "instagram": "None", "facebook": "None", "youtube": "None", "website": "None", "summary": "None", "logo": "None", "latitude": 48.95967705897082, "longitude": -57.93080007853253}, "107387235RR0001": {"name": "FIRST PENTECOSTAL CHURCH (DOAKTOWN) INC.", "designationCode": "C", "categoryCode": "36", "address": "8 HAZELTON ROAD", "city": "DOAKTOWN", "province": "NB", "country": "CA", "postalCode": "E9C1N6", "twitter": "None", "instagram": "None", "facebook": "None", "youtube": "None", "website": "None", "summary": "None", "logo": "None", "latitude": 46.563279683334194, "longitude": -66.11692432082074}, "885275156RR0001": {"name": "FIRST PENTECOSTAL CHURCH MISSIONARY EBENEZER OF CANADA", "designationCode": "C", "categoryCode": "36", "address": "2947 WINDJAMMER RD.", "city": "MISSISSAUGA", "province": "ON", "country": "CA", "postalCode": "L5L1S8", "twitter": "None", "instagram": "None", "facebook": "None", "youtube": "None", "website": "None", "summary": "None", "logo": "None", "latitude": 43.52849187927745, "longitude": -79.68468209022433}, "897232963RR0001": {"name": "FIRST PENTECOSTAL CHURCH OF GREATER BELLEVILLE", "designationCode": "C", "categoryCode": "36", "address": "490 DUNDAS STREET W.          P.O. BOX 22040", "city": "BELLEVILLE", "province": "ON", "country": "CA", "postalCode": "K8N5V7", "twitter": "None", "instagram": "None", "facebook": "None", "youtube": "None", "website": "None", "summary": "None", "logo": "None", "latitude": 44.141412496807526, "longitude": -77.423067444284}, "872590328RR0001": {"name": "FIRST PEOPLES' CULTURAL FOUNDATION", "designationCode": "A", "categoryCode": "53", "address": "1A BOAT RAMP RD", "city": "BRENTWOOD BAY", "province": "BC", "country": "CA", "postalCode": "V8M1N9", "twitter": "None", "instagram": "None", "facebook": "None", "youtube": "None", "website": "None", "summary": "None", "logo": "None", "latitude": 48.58079085951214, "longitude": -123.46606185913053}, "890251382RR0001": {"name": "FIRST PLACE MATERNAL HEALTH OPTIONS INC.", "designationCode": "C", "categoryCode": "09", "address": "PO BOX 91036 RPO SIGNATURE CTR", "city": "KANATA", "province": "ON", "country": "CA", "postalCode": "K2T0A3", "twitter": "None", "instagram": "None", "facebook": "None", "youtube": "None", "website": "None", "summary": "None", "logo": "None", "latitude": 45.301722000000055, "longitude": -75.90703399999994}, "126357243RR0001": {"name": "FIRST PORTUGUESE CANADIAN CULTURAL CENTRE OF TORONTO", "designationCode": "C", "categoryCode": "20", "address": "60 CALEDONIA ROAD", "city": "TORONTO", "province": "ON", "country": "CA", "postalCode": "M6E4S4", "twitter": "None", "instagram": "None", "facebook": "None", "youtube": "None", "website": "None", "summary": "None", "logo": "None", "latitude": 43.676750683305535, "longitude": -79.45537571238918}, "118918622RR0001": {"name": "FIRST PORTUGUESE EVANGELICAL CHURCH OF TORONTO", "designationCode": "C", "categoryCode": "39", "address": "132 NASSAU ST", "city": "TORONTO", "province": "ON", "country": "CA", "postalCode": "M5T1M7", "twitter": "None", "instagram": "None", "facebook": "None", "youtube": "None", "website": "None", "summary": "None", "logo": "None", "latitude": 43.65461023065373, "longitude": -79.40535604316459}, "107387284RR0001": {"name": "FIRST PRESBYTERIAN CHURCH", "designationCode": "C", "categoryCode": "37", "address": "208 MACLEAN ST.", "city": "NEW GLASGOW", "province": "NS", "country": "CA", "postalCode": "B2H4M9", "twitter": "None", "instagram": "None", "facebook": "None", "youtube": "None", "website": "None", "summary": "None", "logo": "None", "latitude": 45.586842252870746, "longitude": -62.643047218420044}, "107387342RR0001": {"name": "FIRST PRESBYTERIAN CHURCH", "designationCode": "C", "categoryCode": "37", "address": "200 MAPLE STREET", "city": "COLLINGWOOD", "province": "ON", "country": "CA", "postalCode": "L9Y2R2", "twitter": "None", "instagram": "None", "facebook": "None", "youtube": "None", "website": "None", "summary": "None", "logo": "None", "latitude": 44.49850534854982, "longitude": -80.21977622994247}, "107387367RR0001": {"name": "FIRST PRESBYTERIAN CHURCH", "designationCode": "C", "categoryCode": "37", "address": "60 FIFTH ST S", "city": "CHATHAM", "province": "ON", "country": "CA", "postalCode": "N7M4V7", "twitter": "None", "instagram": "None", "facebook": "None", "youtube": "None", "website": "None", "summary": "None", "logo": "None", "latitude": 42.40492631128511, "longitude": -82.18525504855933}, "118918630RR0001": {"name": "FIRST PRESBYTERIAN CHURCH", "designationCode": "C", "categoryCode": "37", "address": "RR #1", "city": "HOPEWELL", "province": "NS", "country": "CA", "postalCode": "B0K1C0", "twitter": "None", "instagram": "None", "facebook": "None", "youtube": "None", "website": "None", "summary": "None", "logo": "None", "latitude": 45.482710000000054, "longitude": -62.697589999999934}, "118918655RR0001": {"name": "FIRST PRESBYTERIAN CHURCH", "designationCode": "C", "categoryCode": "37", "address": "242 SOUTH FOORD STREET        PO BOX 132", "city": "STELLARTON", "province": "NS", "country": "CA", "postalCode": "B0K1S0", "twitter": "None", "instagram": "None", "facebook": "None", "youtube": "None", "website": "None", "summary": "None", "logo": "None", "latitude": 45.55649558705376, "longitude": -62.660496387076066}, "118918689RR0001": {"name": "FIRST PRESBYTERIAN CHURCH", "designationCode": "C", "categoryCode": "37", "address": "P.O BOX 885                   10 CHURCH ST.", "city": "BROCKVILLE", "province": "ON", "country": "CA", "postalCode": "K6V5W1", "twitter": "None", "instagram": "None", "facebook": "None", "youtube": "None", "website": "None", "summary": "None", "logo": "None", "latitude": 44.590337412170264, "longitude": -75.68632734375889}, "118918713RR0001": {"name": "FIRST PRESBYTERIAN CHURCH", "designationCode": "C", "categoryCode": "37", "address": "785 KILMAN RD", "city": "FENWICK", "province": "ON", "country": "CA", "postalCode": "L0S1C0", "twitter": "None", "instagram": "None", "facebook": "None", "youtube": "None", "website": "None", "summary": "None", "logo": "None", "latitude": 43.07043750216346, "longitude": -79.35753349570084}, "118918796RR0001": {"name": "FIRST PRESBYTERIAN CHURCH", "designationCode": "C", "categoryCode": "37", "address": "200 FIFTH AVE SOUTH", "city": "KENORA", "province": "ON", "country": "CA", "postalCode": "P9N2A4", "twitter": "None", "instagram": "None", "facebook": "None", "youtube": "None", "website": "None", "summary": "None", "logo": "None", "latitude": 49.76505145628715, "longitude": -94.48495239800334}, "118918804RR0001": {"name": "FIRST PRESBYTERIAN CHURCH", "designationCode": "C", "categoryCode": "37", "address": "17 ROYAL RD S", "city": "PORTAGE LA PRAIRIE", "province": "MB", "country": "CA", "postalCode": "R1N1T8", "twitter": "None", "instagram": "None", "facebook": "None", "youtube": "None", "website": "None", "summary": "None", "logo": "None", "latitude": 49.97254123673969, "longitude": -98.29008306874582}, "118918812RR0001": {"name": "FIRST PRESBYTERIAN CHURCH", "designationCode": "C", "categoryCode": "37", "address": "61 PICARDY PLACE", "city": "WINNIPEG", "province": "MB", "country": "CA", "postalCode": "R3G0X6", "twitter": "None", "instagram": "None", "facebook": "None", "youtube": "None", "website": "None", "summary": "None", "logo": "None", "latitude": 49.885766055802314, "longitude": -97.1656009565756}, "118918820RR0001": {"name": "FIRST PRESBYTERIAN CHURCH", "designationCode": "C", "categoryCode": "37", "address": "339 12TH ST", "city": "BRANDON", "province": "MB", "country": "CA", "postalCode": "R7A4M3", "twitter": "None", "instagram": "None", "facebook": "None", "youtube": "None", "website": "None", "summary": "None", "logo": "None", "latitude": 49.844628, "longitude": -99.95413991156467}, "118918853RR0001": {"name": "FIRST PRESBYTERIAN CHURCH", "designationCode": "C", "categoryCode": "37", "address": "1139 PINE AVE", "city": "TRAIL", "province": "BC", "country": "CA", "postalCode": "V1R4E2", "twitter": "None", "instagram": "None", "facebook": "None", "youtube": "None", "website": "None", "summary": "None", "logo": "None", "latitude": 49.09627283403538, "longitude": -117.71118204466514}, "118918861RR0001": {"name": "FIRST PRESBYTERIAN CHURCH", "designationCode": "C", "categoryCode": "37", "address": "335-7TH ST", "city": "NEW WESTMINSTER", "province": "BC", "country": "CA", "postalCode": "V3M3K9", "twitter": "None", "instagram": "None", "facebook": "None", "youtube": "None", "website": "None", "summary": "None", "logo": "None", "latitude": 49.208825306892194, "longitude": -122.91726067637545}, "129895835RR0001": {"name": "FIRST PRESBYTERIAN CHURCH", "designationCode": "C", "categoryCode": "37", "address": "233 4TH AVENUE EAST", "city": "PRINCE RUPERT", "province": "BC", "country": "CA", "postalCode": "V8J1N4", "twitter": "None", "instagram": "None", "facebook": "None", "youtube": "None", "website": "None", "summary": "None", "logo": "None", "latitude": 54.315618882335876, "longitude": -130.31784976245}, "131569261RR0001": {"name": "FIRST PRESBYTERIAN CHURCH", "designationCode": "C", "categoryCode": "37", "address": "P O BOX 1249", "city": "PICTOU", "province": "NS", "country": "CA", "postalCode": "B0K1H0", "twitter": "None", "instagram": "None", "facebook": "None", "youtube": "None", "website": "None", "summary": "None", "logo": "None"}, "132007089RR0001": {"name": "FIRST PRESBYTERIAN CHURCH", "designationCode": "C", "categoryCode": "37", "address": "639 GREY STREET", "city": "THUNDER BAY", "province": "ON", "country": "CA", "postalCode": "P7E2E4", "twitter": "None", "instagram": "None", "facebook": "None", "youtube": "None", "website": "None", "summary": "None", "logo": "None", "latitude": 48.37470227699234, "longitude": -89.2757918272547}, "132643800RR0001": {"name": "FIRST PRESBYTERIAN CHURCH", "designationCode": "C", "categoryCode": "37", "address": "10025-105 STREET", "city": "EDMONTON", "province": "AB", "country": "CA", "postalCode": "T5J1C8", "twitter": "None", "instagram": "None", "facebook": "None", "youtube": "None", "website": "None", "summary": "None", "logo": "None", "latitude": 53.53966845045878, "longitude": -113.50107528902446}, "140315052RR0001": {"name": "FIRST PRESBYTERIAN CHURCH", "designationCode": "C", "categoryCode": "37", "address": "257 PEMBROKE STREET WEST", "city": "PEMBROKE", "province": "ON", "country": "CA", "postalCode": "K8A5N3", "twitter": "None", "instagram": "None", "facebook": "None", "youtube": "None", "website": "None", "summary": "None", "logo": "None", "latitude": 45.82441684488408, "longitude": -77.11899018500763}, "887592798RR0001": {"name": "FIRST PRESBYTERIAN CHURCH FOUNDATION,", "designationCode": "C", "categoryCode": "37", "address": "61 PICARDY PLACE", "city": "WINNIPEG", "province": "MB", "country": "CA", "postalCode": "R3G0X6", "twitter": "None", "instagram": "None", "facebook": "None", "youtube": "None", "website": "None", "summary": "None", "logo": "None", "latitude": 49.885766055802314, "longitude": -97.1656009565756}, "129193124RR0001": {"name": "FIRST PRESBYTERIAN CHURCH,", "designationCode": "C", "categoryCode": "37", "address": "BOX 663", "city": "SEAFORTH", "province": "ON", "country": "CA", "postalCode": "N0K1W0", "twitter": "None", "instagram": "None", "facebook": "None", "youtube": "None", "website": "None", "summary": "None", "logo": "None", "latitude": 43.55304000000007, "longitude": -81.39369999999997}, "132490301RR0001": {"name": "FIRST PRESBYTERIAN CHURCH,", "designationCode": "C", "categoryCode": "37", "address": "176 ELM ST", "city": "PORT COLBORNE", "province": "ON", "country": "CA", "postalCode": "L3K4N6", "twitter": "None", "instagram": "None", "facebook": "None", "youtube": "None", "website": "None", "summary": "None", "logo": "None", "latitude": 42.884658, "longitude": -79.25488802654483}, "133851683RR0001": {"name": "FIRST PRESBYTERIAN CHURCH,", "designationCode": "C", "categoryCode": "37", "address": "2170 ALBERT STREET", "city": "REGINA", "province": "SK", "country": "CA", "postalCode": "S4P2T9", "twitter": "None", "instagram": "None", "facebook": "None", "youtube": "None", "website": "None", "summary": "None", "logo": "None", "latitude": 50.44420304385709, "longitude": -104.61815610967138}, "889991485RR0001": {"name": "FIRST PRESBYTERIAN CHURCH,", "designationCode": "C", "categoryCode": "37", "address": "P.O. BOX 12", "city": "QUEENSTON", "province": "ON", "country": "CA", "postalCode": "L0S1L0", "twitter": "None", "instagram": "None", "facebook": "None", "youtube": "None", "website": "None", "summary": "None", "logo": "None", "latitude": 43.16473931428416, "longitude": -79.14752240703967}, "108082199RR0001": {"name": "FIRST PROTESTANT REFORMED CHURCH OF EDMONTON", "designationCode": "C", "categoryCode": "39", "address": "15911 107A AVE", "city": "EDMONTON", "province": "AB", "country": "CA", "postalCode": "T5P0Z3", "twitter": "None", "instagram": "None", "facebook": "None", "youtube": "None", "website": "None", "summary": "None", "logo": "None", "latitude": 53.55186953952926, "longitude": -113.596551}, "860047711RR0001": {"name": "FIRST Robotics Canada", "designationCode": "C", "categoryCode": "21", "address": "PO BOX 518, PICKERING MAIN", "city": "PICKERING", "province": "ON", "country": "CA", "postalCode": "L1V2R7", "twitter": "None", "instagram": "None", "facebook": "None", "youtube": "None", "website": "None", "summary": "None", "logo": "None"}, "118918911RR0001": {"name": "FIRST RAGGED ISLAND UNITED BAPTIST CHURCH", "designationCode": "C", "categoryCode": "31", "address": "206 PLEASANT ST-RD", "city": "LOCKEPORT", "province": "NS", "country": "CA", "postalCode": "B0T1L0", "twitter": "None", "instagram": "None", "facebook": "None", "youtube": "None", "website": "None", "summary": "None", "logo": "None", "latitude": 43.720731115182645, "longitude": -65.09825049728735}, "107387607RR0001": {"name": "FIRST REFORMED CHURCH", "designationCode": "C", "categoryCode": "39", "address": "632 LACROIX ST", "city": "CHATHAM", "province": "ON", "country": "CA", "postalCode": "N7M2X4", "twitter": "None", "instagram": "None", "facebook": "None", "youtube": "None", "website": "None", "summary": "None", "logo": "None", "latitude": 42.38391229306382, "longitude": -82.1713818165789}, "107868564RR0001": {"name": "FIRST REGULAR BAPTIST CHURCH", "designationCode": "C", "categoryCode": "31", "address": "121 QUEEN STREET EAST         PO BOX 782", "city": "DRESDEN", "province": "ON", "country": "CA", "postalCode": "N0P1M0", "twitter": "None", "instagram": "None", "facebook": "None", "youtube": "None", "website": "None", "summary": "None", "logo": "None", "latitude": 42.590929485140606, "longitude": -82.17913469608747}, "107387656RR0001": {"name": "FIRST REVIVAL PENTECOSTAL CHURCH INC.", "designationCode": "C", "categoryCode": "39", "address": "112 MCLAREN LANE", "city": "NAKAWIC", "province": "NB", "country": "CA", "postalCode": "E6G1B6", "twitter": "None", "instagram": "None", "facebook": "None", "youtube": "None", "website": "None", "summary": "None", "logo": "None", "latitude": 45.997892486814045, "longitude": -67.23957176960606}, "118918978RR0001": {"name": "FIRST ROMANIAN BAPTIST CHURCH", "designationCode": "C", "categoryCode": "31", "address": "1710 GLASGOW ST", "city": "KITCHENER", "province": "ON", "country": "CA", "postalCode": "N2N0A7", "twitter": "None", "instagram": "None", "facebook": "None", "youtube": "None", "website": "None", "summary": "None", "logo": "None", "latitude": 43.42655290423576, "longitude": -80.56237173858824}, "118918986RR0001": {"name": "FIRST RUSSIAN CONGREGATION OF RODFESOLIUM ANSEKIEV", "designationCode": "C", "categoryCode": "42", "address": "25 BELLEVUE AVE", "city": "TORONTO", "province": "ON", "country": "CA", "postalCode": "M5T2N5", "twitter": "None", "instagram": "None", "facebook": "None", "youtube": "None", "website": "None", "summary": "None", "logo": "None", "latitude": 43.65371539661835, "longitude": -79.40310887979703}, "888037199RR0001": {"name": "FIRST SABLE RIVER UNITED BAPTIST CHURCH", "designationCode": "C", "categoryCode": "31", "address": "119 OLD #3 HIGHWAY", "city": "SABLE RIVER", "province": "NS", "country": "CA", "postalCode": "B0T1V0", "twitter": "None", "instagram": "None", "facebook": "None", "youtube": "None", "website": "None", "summary": "None", "logo": "None", "latitude": 43.83592053611646, "longitude": -65.0658289260758}, "118919000RR0001": {"name": "FIRST SACKVILLE PRESBYTERIAN CHURCH N.S.", "designationCode": "C", "categoryCode": "37", "address": "60 BEAVER BANK ROAD", "city": "LOWER-SACKVILLE", "province": "NS", "country": "CA", "postalCode": "B4C2S9", "twitter": "None", "instagram": "None", "facebook": "None", "youtube": "None", "website": "None", "summary": "None", "logo": "None", "latitude": 44.78199049515258, "longitude": -63.69188116336755}, "118919018RR0001": {"name": "FIRST SASKATCHEWAN LUTHERAN CHURCH", "designationCode": "C", "categoryCode": "32", "address": "BOX 177", "city": "LANGHAM", "province": "SK", "country": "CA", "postalCode": "S0K2L0", "twitter": "None", "instagram": "None", "facebook": "None", "youtube": "None", "website": "None", "summary": "None", "logo": "None"}, "118919034RR0001": {"name": "FIRST SOUTH CEMETERY CO. LTD.", "designationCode": "C", "categoryCode": "59", "address": "R.R. 2", "city": "LUNENBURG", "province": "NS", "country": "CA", "postalCode": "B0J2C0", "twitter": "None", "instagram": "None", "facebook": "None", "youtube": "None", "website": "None", "summary": "None", "logo": "None", "latitude": 44.37886006217898, "longitude": -64.31792993782098}, "133923771RR0001": {"name": "FIRST ST JOHN'S LUTHERAN CHURCH,", "designationCode": "C", "categoryCode": "32", "address": "107A ADELAIDE ST              BOX 475", "city": "MITCHELL", "province": "ON", "country": "CA", "postalCode": "N0K1N0", "twitter": "None", "instagram": "None", "facebook": "None", "youtube": "None", "website": "None", "summary": "None", "logo": "None", "latitude": 43.46521851535241, "longitude": -81.19745176746248}, "137406310RR0001": {"name": "FIRST ST PAUL'S LUTHERAN CHURCH,", "designationCode": "C", "categoryCode": "32", "address": "3620 NAFZIGER ROAD", "city": "WELLESLEY", "province": "ON", "country": "CA", "postalCode": "N0B2T0", "twitter": "None", "instagram": "None", "facebook": "None", "youtube": "None", "website": "None", "summary": "None", "logo": "None", "latitude": 43.47246423925209, "longitude": -80.764939889895}, "107387862RR0001": {"name": "FIRST ST. MATTHEWS' LUTHERAN CHURCH", "designationCode": "C", "categoryCode": "32", "address": "425 10TH AVENUE", "city": "HANOVER", "province": "ON", "country": "CA", "postalCode": "N4N2P1", "twitter": "None", "instagram": "None", "facebook": "None", "youtube": "None", "website": "None", "summary": "None", "logo": "None", "latitude": 44.1513760438571, "longitude": -81.02621783579572}, "107387805RR0001": {"name": "FIRST STAGE CHILD CARE CENTRE", "designationCode": "C", "categoryCode": "01", "address": "2580 KIPLING AVE", "city": "ETOBICOKE", "province": "ON", "country": "CA", "postalCode": "M9V3B2", "twitter": "None", "instagram": "None", "facebook": "None", "youtube": "None", "website": "None", "summary": "None", "logo": "None", "latitude": 43.747381699117255, "longitude": -79.58407300634704}, "896363116RR0001": {"name": "FIRST STEP OPTIONS", "designationCode": "C", "categoryCode": "09", "address": "337 MURRAY ST", "city": "PEMBROKE", "province": "ON", "country": "CA", "postalCode": "K8A4P3", "twitter": "None", "instagram": "None", "facebook": "None", "youtube": "None", "website": "None", "summary": "None", "logo": "None", "latitude": 45.821283255063776, "longitude": -77.12134261460572}, "878867712RR0001": {"name": "FIRST STEP TUTORIALS CENTER", "designationCode": "C", "categoryCode": "09", "address": "3639 RUE L.O. DAVID", "city": "MONTREAL", "province": "QC", "country": "CA", "postalCode": "H2A1P2", "twitter": "None", "instagram": "None", "facebook": "None", "youtube": "None", "website": "None", "summary": "None", "logo": "None", "latitude": 45.564293545386285, "longitude": -73.59897641745037}, "119302297RR0001": {"name": "FIRST STEP WOMEN'S SHELTER", "designationCode": "C", "categoryCode": "09", "address": "P.O. BOX 1208", "city": "SIOUX LOOKOUT", "province": "ON", "country": "CA", "postalCode": "P8T1B8", "twitter": "None", "instagram": "None", "facebook": "None", "youtube": "None", "website": "None", "summary": "None", "logo": "None", "latitude": 50.09808300000006, "longitude": -91.91503249999994}, "894013267RR0001": {"name": "FIRST STEPS EARLY INTERVENTION ASSOCIATION", "designationCode": "C", "categoryCode": "01", "address": "PO BOX 640", "city": "MAHONE BAY", "province": "NS", "country": "CA", "postalCode": "B0J2E0", "twitter": "None", "instagram": "None", "facebook": "None", "youtube": "None", "website": "None", "summary": "None", "logo": "None", "latitude": 44.5107664683721, "longitude": -64.5603343504879}, "867772519RR0001": {"name": "FIRST STEPS HOUSING PROJECT INC.", "designationCode": "C", "categoryCode": "01", "address": "75 ADELAIDE STREET", "city": "SAINT JOHN", "province": "NB", "country": "CA", "postalCode": "E2K1W4", "twitter": "None", "instagram": "None", "facebook": "None", "youtube": "None", "website": "None", "summary": "None", "logo": "None", "latitude": 45.276755532056086, "longitude": -66.080461546223}, "895359826RR0001": {"name": "FIRST STEPS: STUDENT CHILD CARE CENTRE INC.", "designationCode": "C", "categoryCode": "01", "address": "1791-110 ST", "city": "NORTH BATTLEFORD", "province": "SK", "country": "CA", "postalCode": "S9A2Y2", "twitter": "None", "instagram": "None", "facebook": "None", "youtube": "None", "website": "None", "summary": "None", "logo": "None", "latitude": 52.78183709484959, "longitude": -108.2843325285529}, "891318644RR0001": {"name": "FIRST UKRAINIAN PENTECOSTAL CHURCH,", "designationCode": "C", "categoryCode": "36", "address": "118 NINTH ST", "city": "ETOBICOKE", "province": "ON", "country": "CA", "postalCode": "M8V3E4", "twitter": "None", "instagram": "None", "facebook": "None", "youtube": "None", "website": "None", "summary": "None", "logo": "None", "latitude": 43.599951, "longitude": -79.50754786842735}, "130375652RR0001": {"name": "FIRST UNITARIAN CHURCH OF VICTORIA", "designationCode": "C", "categoryCode": "39", "address": "5575 WEST SAANICH RD", "city": "VICTORIA", "province": "BC", "country": "CA", "postalCode": "V9E2G1", "twitter": "None", "instagram": "None", "facebook": "None", "youtube": "None", "website": "None", "summary": "None", "logo": "None", "latitude": 48.53394255730285, "longitude": -123.43767498851706}, "860106848RR0001": {"name": "FIRST UNITARIAN CHURCH OF VICTORIA FOUNDATION", "designationCode": "A", "categoryCode": "43", "address": "5575 WEST SAANICH ROAD", "city": "VICTORIA", "province": "BC", "country": "CA", "postalCode": "V9E2G1", "twitter": "None", "instagram": "None", "facebook": "None", "youtube": "None", "website": "None", "summary": "None", "logo": "None", "latitude": 48.53394255730285, "longitude": -123.43767498851706}, "107387953RR0001": {"name": "FIRST UNITARIAN CONGREGATION OF OTTAWA", "designationCode": "C", "categoryCode": "39", "address": "30 CLEARY AVE", "city": "OTTAWA", "province": "ON", "country": "CA", "postalCode": "K2A4A1", "twitter": "None", "instagram": "None", "facebook": "None", "youtube": "None", "website": "None", "summary": "None", "logo": "None", "latitude": 45.381881502654394, "longitude": -75.7718032598243}, "851846816RR0001": {"name": "FIRST UNITARIAN CONGREGATION OF TORONTO,", "designationCode": "C", "categoryCode": "39", "address": "175 ST. CLAIR AVENUE WEST", "city": "TORONTO", "province": "ON", "country": "CA", "postalCode": "M4V1P7", "twitter": "None", "instagram": "None", "facebook": "None", "youtube": "None", "website": "None", "summary": "None", "logo": "None", "latitude": 43.68633070716731, "longitude": -79.40244829502572}, "830236949RR0001": {"name": "FIRST UNITARIAN FELLOWSHIP OF NANAIMO", "designationCode": "C", "categoryCode": "39", "address": "1-595 TOWNSITE ROAD", "city": "NANAIMO", "province": "BC", "country": "CA", "postalCode": "V9S1K9", "twitter": "None", "instagram": "None", "facebook": "None", "youtube": "None", "website": "None", "summary": "None", "logo": "None", "latitude": 49.176912728796296, "longitude": -123.95475154471518}, "129963047RR0001": {"name": "FIRST UNITARIAN UNIVERSALIST CHURCH OF WINNIPEG INC", "designationCode": "C", "categoryCode": "39", "address": "603 WELLINGTON CRES", "city": "WINNIPEG", "province": "MB", "country": "CA", "postalCode": "R3M0A7", "twitter": "None", "instagram": "None", "facebook": "None", "youtube": "None", "website": "None", "summary": "None", "logo": "None", "latitude": 49.87729340665901, "longitude": -97.16388592174955}, "118919141RR0001": {"name": "FIRST UNITED BAPTIST CHURCH", "designationCode": "C", "categoryCode": "31", "address": "896 EAST RIVER ROAD", "city": "NEW GLASGOW", "province": "NS", "country": "CA", "postalCode": "B2H3S7", "twitter": "None", "instagram": "None", "facebook": "None", "youtube": "None", "website": "None", "summary": "None", "logo": "None", "latitude": 45.571497594611884, "longitude": -62.6424909421343}, "118919158RR0001": {"name": "FIRST UNITED BAPTIST CHURCH", "designationCode": "C", "categoryCode": "31", "address": "759 PRINCE ST", "city": "TRURO", "province": "NS", "country": "CA", "postalCode": "B2N1G7", "twitter": "None", "instagram": "None", "facebook": "None", "youtube": "None", "website": "None", "summary": "None", "logo": "None", "latitude": 45.364835355011635, "longitude": -63.27832061059501}, "107388076RR0001": {"name": "FIRST UNITED CHURCH", "designationCode": "C", "categoryCode": "44", "address": "347 RICHMOND RD", "city": "OTTAWA", "province": "ON", "country": "CA", "postalCode": "K2A0E7", "twitter": "None", "instagram": "None", "facebook": "None", "youtube": "None", "website": "None", "summary": "None", "logo": "None", "latitude": 45.391818937301444, "longitude": -75.75454697088675}, "107388175RR0001": {"name": "FIRST UNITED CHURCH", "designationCode": "C", "categoryCode": "44", "address": "223 3RD AVE NE", "city": "SWIFT CURRENT", "province": "SK", "country": "CA", "postalCode": "S9H2G6", "twitter": "None", "instagram": "None", "facebook": "None", "youtube": "None", "website": "None", "summary": "None", "logo": "None", "latitude": 50.28555670191585, "longitude": -107.79597853632661}, "107388233RR0001": {"name": "FIRST UNITED CHURCH", "designationCode": "C", "categoryCode": "44", "address": "721 BERNARD AVE", "city": "KELOWNA", "province": "BC", "country": "CA", "postalCode": "V1Y6P6", "twitter": "None", "instagram": "None", "facebook": "None", "youtube": "None", "website": "None", "summary": "None", "logo": "None", "latitude": 49.88620153309642, "longitude": -119.48785604149533}, "107388266RR0001": {"name": "FIRST UNITED CHURCH", "designationCode": "C", "categoryCode": "44", "address": "1180 KINGFISHER AVE S", "city": "KITIMAT", "province": "BC", "country": "CA", "postalCode": "V8C1G4", "twitter": "None", "instagram": "None", "facebook": "None", "youtube": "None", "website": "None", "summary": "None", "logo": "None", "latitude": 54.05630387578723, "longitude": -128.63287306822798}, "107388274RR0001": {"name": "FIRST UNITED CHURCH", "designationCode": "C", "categoryCode": "44", "address": "636-6TH AVE WEST", "city": "PRINCE RUPERT", "province": "BC", "country": "CA", "postalCode": "V8J1Z9", "twitter": "None", "instagram": "None", "facebook": "None", "youtube": "None", "website": "None", "summary": "None", "logo": "None", "latitude": 54.309492288244925, "longitude": -130.32405949092197}, "107388373RR0001": {"name": "FIRST UNITED CHURCH", "designationCode": "C", "categoryCode": "44", "address": "P.O. BOX 325", "city": "TRENTON", "province": "NS", "country": "CA", "postalCode": "B0K1X0", "twitter": "None", "instagram": "None", "facebook": "None", "youtube": "None", "website": "None", "summary": "None", "logo": "None", "latitude": 45.62400273902701, "longitude": -62.64792410764862}, "107976748RR0001": {"name": "FIRST UNITED CHURCH", "designationCode": "C", "categoryCode": "44", "address": "RR1 5244 HIGHWAY 3", "city": "SHERKSTON", "province": "ON", "country": "CA", "postalCode": "L0S1R0", "twitter": "None", "instagram": "None", "facebook": "None", "youtube": "None", "website": "None", "summary": "None", "logo": "None", "latitude": 42.892160996143105, "longitude": -79.12764334483647}, "108082215RR0001": {"name": "FIRST UNITED CHURCH", "designationCode": "C", "categoryCode": "44", "address": "10409-100TH AVENUE", "city": "FORT SASKATCHEWAN", "province": "AB", "country": "CA", "postalCode": "T8L1Z3", "twitter": "None", "instagram": "None", "facebook": "None", "youtube": "None", "website": "None", "summary": "None", "logo": "None", "latitude": 53.71344801690822, "longitude": -113.21007081207817}, "118919190RR0001": {"name": "FIRST UNITED CHURCH", "designationCode": "C", "categoryCode": "44", "address": "19 PARK STREET", "city": "CORNER BROOK", "province": "NL", "country": "CA", "postalCode": "A2H2W8", "twitter": "None", "instagram": "None", "facebook": "None", "youtube": "None", "website": "None", "summary": "None", "logo": "None", "latitude": 48.95140636164807, "longitude": -57.94475798681403}, "118919273RR0001": {"name": "FIRST UNITED CHURCH", "designationCode": "C", "categoryCode": "44", "address": "151 LAKESHORE ROAD WEST", "city": "MISSISSAUGA", "province": "ON", "country": "CA", "postalCode": "L5H1G3", "twitter": "None", "instagram": "None", "facebook": "None", "youtube": "None", "website": "None", "summary": "None", "logo": "None", "latitude": 43.54852374490756, "longitude": -79.58901023628057}, "118919281RR0001": {"name": "FIRST UNITED CHURCH", "designationCode": "C", "categoryCode": "44", "address": "15 WELLINGTON STREET", "city": "CAMBRIDGE", "province": "ON", "country": "CA", "postalCode": "N1R3Y4", "twitter": "None", "instagram": "None", "facebook": "None", "youtube": "None", "website": "None", "summary": "None", "logo": "None", "latitude": 43.35962192561605, "longitude": -80.31135557227783}, "118919299RR0001": {"name": "FIRST UNITED CHURCH", "designationCode": "C", "categoryCode": "44", "address": "16 WILLIAM ST. WEST", "city": "WATERLOO", "province": "ON", "country": "CA", "postalCode": "N2L1J3", "twitter": "None", "instagram": "None", "facebook": "None", "youtube": "None", "website": "None", "summary": "None", "logo": "None", "latitude": 43.46151167889079, "longitude": -80.52166247657091}, "118919307RR0001": {"name": "FIRST UNITED CHURCH", "designationCode": "C", "categoryCode": "44", "address": "435 21ST ST W", "city": "OWEN SOUND", "province": "ON", "country": "CA", "postalCode": "N4K4E5", "twitter": "None", "instagram": "None", "facebook": "None", "youtube": "None", "website": "None", "summary": "None", "logo": "None", "latitude": 44.582769714380674, "longitude": -80.9499959207686}, "118919315RR0001": {"name": "FIRST UNITED CHURCH", "designationCode": "C", "categoryCode": "44", "address": "7 CURTIS STREET", "city": "ST THOMAS", "province": "ON", "country": "CA", "postalCode": "N5P1H3", "twitter": "None", "instagram": "None", "facebook": "None", "youtube": "None", "website": "None", "summary": "None", "logo": "None", "latitude": 42.78003882769891, "longitude": -81.20220147396668}, "118919331RR0001": {"name": "FIRST UNITED CHURCH", "designationCode": "C", "categoryCode": "44", "address": "BOX 878", "city": "MELVILLE", "province": "SK", "country": "CA", "postalCode": "S0A2P0", "twitter": "None", "instagram": "None", "facebook": "None", "youtube": "None", "website": "None", "summary": "None", "logo": "None", "latitude": 50.87164886256234, "longitude": -103.09293300498788}, "118919349RR0001": {"name": "FIRST UNITED CHURCH", "designationCode": "C", "categoryCode": "44", "address": "BOX 195", "city": "BIG RIVER", "province": "SK", "country": "CA", "postalCode": "S0J0E0", "twitter": "None", "instagram": "None", "facebook": "None", "youtube": "None", "website": "None", "summary": "None", "logo": "None", "latitude": 53.83341000000007, "longitude": -107.01782999999995}, "118919364RR0001": {"name": "FIRST UNITED CHURCH", "designationCode": "C", "categoryCode": "44", "address": "BOX 940", "city": "HANNA", "province": "AB", "country": "CA", "postalCode": "T0J1P0", "twitter": "None", "instagram": "None", "facebook": "None", "youtube": "None", "website": "None", "summary": "None", "logo": "None", "latitude": 51.64780345530559, "longitude": -111.93814762829588}, "118919372RR0001": {"name": "FIRST UNITED CHURCH", "designationCode": "C", "categoryCode": "44", "address": "5115 51 AVE", "city": "WETASKIWIN", "province": "AB", "country": "CA", "postalCode": "T9A0V3", "twitter": "None", "instagram": "None", "facebook": "None", "youtube": "None", "website": "None", "summary": "None", "logo": "None", "latitude": 52.97081552120739, "longitude": -113.37760369331751}, "129260352RR0001": {"name": "FIRST UNITED CHURCH", "designationCode": "C", "categoryCode": "44", "address": "P.O. BOX 185                  PRINCE STREET", "city": "TRURO", "province": "NS", "country": "CA", "postalCode": "B2N5C1", "twitter": "None", "instagram": "None", "facebook": "None", "youtube": "None", "website": "None", "summary": "None", "logo": "None", "latitude": 45.36524915901727, "longitude": -63.28200181927177}}