{"868894379RR0001": {"name": "STS CYRIL & METHODIUS HERITAGE CHURCH INCORPORATED", "designationCode": "C", "categoryCode": "50", "address": "P O BOX 92", "city": "GIMLI", "province": "MB", "country": "CA", "postalCode": "R0C1B0", "twitter": "None", "instagram": "None", "facebook": "None", "youtube": "None", "website": "None", "summary": "None", "logo": "None", "latitude": 50.30677349294383, "longitude": -96.92898988377391}, "119201093RR0001": {"name": "STS CYRIL & METHODY MACEDONO BULGARIAN ORTHODOX CATHEDRAL", "designationCode": "C", "categoryCode": "39", "address": "237 SACKVILLE ST", "city": "TORONTO", "province": "ON", "country": "CA", "postalCode": "M5A3G1", "twitter": "None", "instagram": "None", "facebook": "None", "youtube": "None", "website": "None", "summary": "None", "logo": "None", "latitude": 43.66032958979166, "longitude": -79.36306752911324}, "119201135RR0001": {"name": "STS GABRIEL & MARCIEN R C CHAPEL", "designationCode": "C", "categoryCode": "38", "address": "581 RUE DES MEURONS", "city": "WINNIPEG", "province": "MB", "country": "CA", "postalCode": "R2H2P6", "twitter": "None", "instagram": "None", "facebook": "None", "youtube": "None", "website": "None", "summary": "None", "logo": "None", "latitude": 49.89129070552255, "longitude": -97.1121628003345}, "119201416RR0001": {"name": "STS PETER & PAUL UKRAINIAN CATHOLIC PARISH", "designationCode": "C", "categoryCode": "38", "address": "BOX 455", "city": "WADENA", "province": "SK", "country": "CA", "postalCode": "S0A4J0", "twitter": "None", "instagram": "None", "facebook": "None", "youtube": "None", "website": "None", "summary": "None", "logo": "None", "latitude": 51.94407000000007, "longitude": -103.79973999999999}, "889133062RR0001": {"name": "STS PETER & PAUL'S UKRAINIAN CATHOLIC PARISH", "designationCode": "C", "categoryCode": "38", "address": "BOX 23", "city": "RAMA", "province": "SK", "country": "CA", "postalCode": "S0A3H0", "twitter": "None", "instagram": "None", "facebook": "None", "youtube": "None", "website": "None", "summary": "None", "logo": "None", "latitude": 51.75918600000006, "longitude": -102.99896449999993}, "130122559RR0001": {"name": "STS PETER AND PAUL UKRAINIAN CATHOLIC PARISH", "designationCode": "C", "categoryCode": "38", "address": "390 MARION ST", "city": "WINNIPEG", "province": "MB", "country": "CA", "postalCode": "R2H0V5", "twitter": "None", "instagram": "None", "facebook": "None", "youtube": "None", "website": "None", "summary": "None", "logo": "None", "latitude": 49.881947502885524, "longitude": -97.10939000138497}, "889733374RR0001": {"name": "STS PETER AND PAUL UKRAINIAN CATHOLIC PARISH", "designationCode": "C", "categoryCode": "38", "address": "BOX 379", "city": "MUNDARE", "province": "AB", "country": "CA", "postalCode": "T0B3H0", "twitter": "None", "instagram": "None", "facebook": "None", "youtube": "None", "website": "None", "summary": "None", "logo": "None", "latitude": 53.594760000000065, "longitude": -112.33641999999998}, "119201366RR0001": {"name": "STS PETER AND PAUL UKRAINIAN COMMUNITY HOMES", "designationCode": "C", "categoryCode": "09", "address": "221 MILNER AVE", "city": "SCARBOROUGH", "province": "ON", "country": "CA", "postalCode": "M1S4P4", "twitter": "None", "instagram": "None", "facebook": "None", "youtube": "None", "website": "None", "summary": "None", "logo": "None", "latitude": 43.788604454873514, "longitude": -79.24046332705315}, "890924996RR0001": {"name": "STS PETER AND PAUL UKRAINIAN GREEK ORTHODOX CONGREGATION", "designationCode": "C", "categoryCode": "39", "address": "BOX 1792", "city": "CANORA", "province": "SK", "country": "CA", "postalCode": "S0A0L0", "twitter": "None", "instagram": "None", "facebook": "None", "youtube": "None", "website": "None", "summary": "None", "logo": "None", "latitude": 51.62535661313478, "longitude": -102.4443087080291}, "119202315RR0001": {"name": "STS VLADIMIR AND OLGA CHURCH", "designationCode": "C", "categoryCode": "38", "address": "601 LAKE TRAIL DRIVE", "city": "WINDSOR", "province": "ON", "country": "CA", "postalCode": "N8X4M3", "twitter": "None", "instagram": "None", "facebook": "None", "youtube": "None", "website": "None", "summary": "None", "logo": "None", "latitude": 42.24083767187992, "longitude": -82.9948431095854}, "886133198RR0001": {"name": "STS VOLODYMYR AND OLHA UKRAINIAN CATHOLIC CHURCH (CAWAJA BEACH)", "designationCode": "C", "categoryCode": "38", "address": "5 BROOK AVENUE", "city": "TINY", "province": "ON", "country": "CA", "postalCode": "L0L2J0", "twitter": "None", "instagram": "None", "facebook": "None", "youtube": "None", "website": "None", "summary": "None", "logo": "None", "latitude": 44.707776641698814, "longitude": -79.99931648900707}, "119109817RR0146": {"name": "STS. CYRIL & METHODIUS CHURCH", "designationCode": "C", "categoryCode": "38", "address": "1532 ALEXIS ROAD", "city": "WINDSOR", "province": "ON", "country": "CA", "postalCode": "N8Y4P2", "twitter": "None", "instagram": "None", "facebook": "None", "youtube": "None", "website": "None", "summary": "None", "logo": "None", "latitude": 42.31198032866231, "longitude": -82.9917652594281}, "118849470RR0033": {"name": "STS. CYRIL AND METHODIUS PARISH", "designationCode": "C", "categoryCode": "38", "address": "472 E 8TH AVE", "city": "NEW WESTMINSTER", "province": "BC", "country": "CA", "postalCode": "V3L4L2", "twitter": "None", "instagram": "None", "facebook": "None", "youtube": "None", "website": "None", "summary": "None", "logo": "None", "latitude": 49.23160605687017, "longitude": -122.89450371244743}, "119110450RR0069": {"name": "STS. CYRIL AND METHODIUS PARISH OF HAMILTON", "designationCode": "C", "categoryCode": "38", "address": "204 PARK STREET NORTH", "city": "HAMILTON", "province": "ON", "country": "CA", "postalCode": "L8R2N7", "twitter": "None", "instagram": "None", "facebook": "None", "youtube": "None", "website": "None", "summary": "None", "logo": "None", "latitude": 43.26377610629585, "longitude": -79.86927067941039}, "107307191RR0026": {"name": "STS. DONATIEN ET ROGATIEN PARISH", "designationCode": "C", "categoryCode": "38", "address": "BOX 26", "city": "PRUD'HOMME", "province": "SK", "country": "CA", "postalCode": "S0K3K0", "twitter": "None", "instagram": "None", "facebook": "None", "youtube": "None", "website": "None", "summary": "None", "logo": "None", "latitude": 52.33337000000006, "longitude": -105.90114999999997}, "107020331RR0019": {"name": "STS. JOHN AND PAUL PARISH", "designationCode": "C", "categoryCode": "38", "address": "727 NEW MARYLAND HIGHWAY", "city": "NEW MARYLAND", "province": "NB", "country": "CA", "postalCode": "E3C1P7", "twitter": "None", "instagram": "None", "facebook": "None", "youtube": "None", "website": "None", "summary": "None", "logo": "None", "latitude": 45.876626320722146, "longitude": -66.69424689638927}, "108038225RR0001": {"name": "STS. PETER & PAUL CHURCH", "designationCode": "C", "categoryCode": "38", "address": "1490 MARKHAM ROAD", "city": "SCARBOROUGH", "province": "ON", "country": "CA", "postalCode": "M1B2V9", "twitter": "None", "instagram": "None", "facebook": "None", "youtube": "None", "website": "None", "summary": "None", "logo": "None", "latitude": 43.78878512542577, "longitude": -79.23686588605717}, "896034816RR0001": {"name": "STS. PETER & PAUL COUNCIL NO. 11337 CHARITABLE WELFARE TRUST", "designationCode": "A", "categoryCode": "63", "address": "4081 CHELMSFORD COURT", "city": "MISSISSAUGA", "province": "ON", "country": "CA", "postalCode": "L5B2X2", "twitter": "None", "instagram": "None", "facebook": "None", "youtube": "None", "website": "None", "summary": "None", "logo": "None", "latitude": 43.5826503605229, "longitude": -79.65294614458433}, "107876468RR0029": {"name": "STS. PETER & PAUL PARISH", "designationCode": "C", "categoryCode": "38", "address": "MAURICE LEWIS", "city": "KINGS COVE", "province": "NL", "country": "CA", "postalCode": "A0C1S0", "twitter": "None", "instagram": "None", "facebook": "None", "youtube": "None", "website": "None", "summary": "None", "logo": "None", "latitude": 48.56633700000006, "longitude": -53.33861149999993}, "118849470RR0030": {"name": "STS. PETER AND PAUL", "designationCode": "C", "categoryCode": "38", "address": "1425 W 39TH AVE", "city": "VANCOUVER", "province": "BC", "country": "CA", "postalCode": "V6M1T2", "twitter": "None", "instagram": "None", "facebook": "None", "youtube": "None", "website": "None", "summary": "None", "logo": "None", "latitude": 49.23625150822298, "longitude": -123.13800247293557}, "119109791RR0010": {"name": "STS. PETER AND PAUL CHURCH", "designationCode": "C", "categoryCode": "38", "address": "300 CHAFFEY STREET", "city": "WELLAND", "province": "ON", "country": "CA", "postalCode": "L3B2Y8", "twitter": "None", "instagram": "None", "facebook": "None", "youtube": "None", "website": "None", "summary": "None", "logo": "None", "latitude": 42.96994247155058, "longitude": -79.24422008151042}, "107020331RR0017": {"name": "STS. PETER AND PAUL PARISH", "designationCode": "C", "categoryCode": "38", "address": "5 BARTIBOG CHURCH RD", "city": "BARTIBOG BRIDGE", "province": "NB", "country": "CA", "postalCode": "E1V7H4", "twitter": "None", "instagram": "None", "facebook": "None", "youtube": "None", "website": "None", "summary": "None", "logo": "None", "latitude": 47.098764942792826, "longitude": -65.34805131591138}, "119110450RR0040": {"name": "STS. PETER AND PAUL PARISH", "designationCode": "C", "categoryCode": "38", "address": "50 BRUCEDALE AVENUE EAST", "city": "HAMILTON", "province": "ON", "country": "CA", "postalCode": "L9A1M8", "twitter": "None", "instagram": "None", "facebook": "None", "youtube": "None", "website": "None", "summary": "None", "logo": "None", "latitude": 43.238930009694876, "longitude": -79.87482082168611}, "864952544RR0001": {"name": "STS. PETER AND PAUL UKRAINIAN CATHOLIC VALLEY RIVER FARM CHURCH", "designationCode": "C", "categoryCode": "52", "address": "BOX 71", "city": "VALLEY RIVER", "province": "MB", "country": "CA", "postalCode": "R0L2B0", "twitter": "None", "instagram": "None", "facebook": "None", "youtube": "None", "website": "None", "summary": "None", "logo": "None", "latitude": 51.51341373634064, "longitude": -100.01916231879734}, "108027012RR0001": {"name": "STS. SIMON AND JUDE CHURCH", "designationCode": "C", "categoryCode": "38", "address": "BOX 56", "city": "ERICKSON", "province": "MB", "country": "CA", "postalCode": "R0J0P0", "twitter": "None", "instagram": "None", "facebook": "None", "youtube": "None", "website": "None", "summary": "None", "logo": "None", "latitude": 50.49852000000004, "longitude": -99.90785999999997}, "107020331RR0045": {"name": "STS. SIMON AND JUDE PARISH", "designationCode": "C", "categoryCode": "38", "address": "199 OTIS DRIVE", "city": "NACKAWIC", "province": "NB", "country": "CA", "postalCode": "E6G1H3", "twitter": "None", "instagram": "None", "facebook": "None", "youtube": "None", "website": "None", "summary": "None", "logo": "None", "latitude": 45.9940875988798, "longitude": -67.23496259244939}, "863452645RR0001": {"name": "STUART LAKE HOSPITAL AUXILIARY SOCIETY", "designationCode": "C", "categoryCode": "15", "address": "BOX 425", "city": "FORT ST JAMES", "province": "BC", "country": "CA", "postalCode": "V0J1P0", "twitter": "None", "instagram": "None", "facebook": "None", "youtube": "None", "website": "None", "summary": "None", "logo": "None", "latitude": 54.44540000000006, "longitude": -124.25099999999998}, "119238210RR0012": {"name": "STUART NECHAKO LAKES REGIONAL PARISH", "designationCode": "C", "categoryCode": "30", "address": "PO BOX 308", "city": "VANDERHOOF", "province": "BC", "country": "CA", "postalCode": "V0J3A0", "twitter": "None", "instagram": "None", "facebook": "None", "youtube": "None", "website": "None", "summary": "None", "logo": "None", "latitude": 54.01397400000006, "longitude": -124.01297449999993}, "807252671RR0001": {"name": "STUARTBURN GOSPEL CHAPEL INC.", "designationCode": "C", "categoryCode": "34", "address": "PO BOX 41                     GOVERNMENT ROAD ALLOWANCE EAST", "city": "STUARTBURN", "province": "MB", "country": "CA", "postalCode": "R0A2B0", "twitter": "None", "instagram": "None", "facebook": "None", "youtube": "None", "website": "None", "summary": "None", "logo": "None", "latitude": 49.13377800000005, "longitude": -96.74748349999993}, "119203628RR0001": {"name": "STUDENT ASSISTANCE IN NORTH TORONTO FOR SENIORS", "designationCode": "C", "categoryCode": "09", "address": "25 WANLESS AVENUE", "city": "TORONTO", "province": "ON", "country": "CA", "postalCode": "M4N1V5", "twitter": "None", "instagram": "None", "facebook": "None", "youtube": "None", "website": "None", "summary": "None", "logo": "None", "latitude": 43.72657859253296, "longitude": -79.40174038715463}, "106778434RR0001": {"name": "STUDENT ASSOCIATION OF THE BRITISH COLUMBIA INSTITUTE OF TECHNOLOGY", "designationCode": "C", "categoryCode": "21", "address": "3700 WILLINGDON AVE", "city": "BURNABY", "province": "BC", "country": "CA", "postalCode": "V5G3H2", "twitter": "None", "instagram": "None", "facebook": "None", "youtube": "None", "website": "None", "summary": "None", "logo": "None", "latitude": 49.25176671319303, "longitude": -123.0041587230829}, "891691248RR0001": {"name": "STUDENT CHRISTIAN MOVEMENT IN THE UNIVERSITY OF TORONTO", "designationCode": "C", "categoryCode": "47", "address": "75 QUEEN'S PARK CIRCLE", "city": "TORONTO", "province": "ON", "country": "CA", "postalCode": "M5S1K7", "twitter": "None", "instagram": "None", "facebook": "None", "youtube": "None", "website": "None", "summary": "None", "logo": "None", "latitude": 43.66665450458763, "longitude": -79.39323871019708}, "108043936RR0001": {"name": "STUDENT CHRISTIAN MOVEMENT OF CANADA", "designationCode": "C", "categoryCode": "47", "address": "200-310 DUPONT ST.", "city": "TORONTO", "province": "ON", "country": "CA", "postalCode": "M5R1V9", "twitter": "None", "instagram": "None", "facebook": "None", "youtube": "None", "website": "None", "summary": "None", "logo": "None", "latitude": 43.67458605969744, "longitude": -79.40841995074722}, "108226580RR0001": {"name": "STUDENT CHRISTIAN MOVEMENT OF YORK UNIVERSITY", "designationCode": "C", "categoryCode": "47", "address": "103 ST. LUCIE DRIVE", "city": "TORONTO", "province": "ON", "country": "CA", "postalCode": "M9M1T4", "twitter": "None", "instagram": "None", "facebook": "None", "youtube": "None", "website": "None", "summary": "None", "logo": "None", "latitude": 43.74105988233588, "longitude": -79.54362633210214}, "868183443RR0001": {"name": "STUDENT LEGAL ASSISTANCE SOCIETY (CALGARY)", "designationCode": "C", "categoryCode": "59", "address": "3390 MURRAY FRASER HALL       2500 UNIVERSITY DRIVE N W", "city": "CALGARY", "province": "AB", "country": "CA", "postalCode": "T2N1N4", "twitter": "None", "instagram": "None", "facebook": "None", "youtube": "None", "website": "None", "summary": "None", "logo": "None", "latitude": 51.07497000000005, "longitude": -114.12849949999993}, "130520638RR0001": {"name": "STUDENT LEGAL SERVICES OF EDMONTON", "designationCode": "C", "categoryCode": "59", "address": "11011 88 AVE NW", "city": "EDMONTON", "province": "AB", "country": "CA", "postalCode": "T6G0Z3", "twitter": "None", "instagram": "None", "facebook": "None", "youtube": "None", "website": "None", "summary": "None", "logo": "None", "latitude": 53.52380946681874, "longitude": -113.515704}, "891444309RR0001": {"name": "STUDENT OPEN CIRCLES", "designationCode": "C", "categoryCode": "49", "address": "39 WILSON STREET", "city": "HAMILTON", "province": "ON", "country": "CA", "postalCode": "L8R1C6", "twitter": "None", "instagram": "None", "facebook": "None", "youtube": "None", "website": "None", "summary": "None", "logo": "None", "latitude": 43.2589727349529, "longitude": -79.86625124617697}, "872578042RR0001": {"name": "STUDENT THEATRE ACTIVE REPRESENTATIVES SOCIETY", "designationCode": "C", "categoryCode": "22", "address": "2131 PROSPECT STREET", "city": "BURLINGTON", "province": "ON", "country": "CA", "postalCode": "L7R1Z2", "twitter": "None", "instagram": "None", "facebook": "None", "youtube": "None", "website": "None", "summary": "None", "logo": "None", "latitude": 43.336816043048096, "longitude": -79.80567025828852}, "136029881RR0001": {"name": "STUDENTS AGAINST DRINKING & DRIVING ASSOCIATION OF ALBERTA", "designationCode": "C", "categoryCode": "57", "address": "P.O. BOX 7220                 STN CENTRAL", "city": "CALGARY", "province": "AB", "country": "CA", "postalCode": "T2P3M1", "twitter": "None", "instagram": "None", "facebook": "None", "youtube": "None", "website": "None", "summary": "None", "logo": "None", "latitude": 51.04531500000006, "longitude": -114.06301099999993}, "886809896RR0001": {"name": "STUDENTS AGAINST DRINKING AND DRIVING-SASKATCHEWAN INCORPORA", "designationCode": "C", "categoryCode": "59", "address": "4141 25TH AVENUE", "city": "REGINA", "province": "SK", "country": "CA", "postalCode": "S4S6S8", "twitter": "None", "instagram": "None", "facebook": "None", "youtube": "None", "website": "None", "summary": "None", "logo": "None", "latitude": 50.41866650346246, "longitude": -104.64053349708581}, "892561846RR0001": {"name": "STUDENTS INTERNATIONAL HEALTH ASSOCIATION", "designationCode": "C", "categoryCode": "11", "address": "0-81 STUDENT'S UNION BUILDING 8900 114 STREET", "city": "EDMONTON", "province": "AB", "country": "CA", "postalCode": "T6G2R3", "twitter": "None", "instagram": "None", "facebook": "None", "youtube": "None", "website": "None", "summary": "None", "logo": "None", "latitude": 53.52053100000006, "longitude": -113.52709699999994}, "119203727RR0001": {"name": "STUDENTS UNION OF THE UNIVERSITY OF ALBERTA & COMMUNITY DAYCARE", "designationCode": "C", "categoryCode": "01", "address": "8917 112 ST NW", "city": "EDMONTON", "province": "AB", "country": "CA", "postalCode": "T6G2C5", "twitter": "None", "instagram": "None", "facebook": "None", "youtube": "None", "website": "None", "summary": "None", "logo": "None", "latitude": 53.524751174294224, "longitude": -113.52099437351124}, "892316969RR0001": {"name": "STUDENTS' INVOLVEMENT ENDOWMENT FOUNDATION", "designationCode": "C", "categoryCode": "21", "address": "SUITE 2-900 S.U.B.            UNIVERSITY OF ALBERTA", "city": "EDMONTON", "province": "AB", "country": "CA", "postalCode": "T6G2J7", "twitter": "None", "instagram": "None", "facebook": "None", "youtube": "None", "website": "None", "summary": "None", "logo": "None", "latitude": 53.52503000000007, "longitude": -113.52540999999997}, "125373548RR0001": {"name": "STUDIO DE MUSIQUE ANCIENNE DE MONTREAL", "designationCode": "C", "categoryCode": "22", "address": "407-1097, RUE ST-ALEXANDRE    ESPACE 407", "city": "MONTR\u00c9AL", "province": "QC", "country": "CA", "postalCode": "H2Z1P8", "twitter": "None", "instagram": "None", "facebook": "None", "youtube": "None", "website": "None", "summary": "None", "logo": "None", "latitude": 45.503259162767776, "longitude": -73.56335919283855}, "119203768RR0001": {"name": "STUDIO LAB THEATRE FOUNDATION", "designationCode": "C", "categoryCode": "22", "address": "4-12 RUSHOLME DR", "city": "TORONTO", "province": "ON", "country": "CA", "postalCode": "M6J3J9", "twitter": "None", "instagram": "None", "facebook": "None", "youtube": "None", "website": "None", "summary": "None", "logo": "None", "latitude": 43.65037759391793, "longitude": -79.42857688758733}, "870766730RR0001": {"name": "STUDIO 123 EARLY LEARNING CENTRE", "designationCode": "C", "categoryCode": "20", "address": "123-401 RICHMOND STREET WEST", "city": "TORONTO", "province": "ON", "country": "CA", "postalCode": "M5V1X3", "twitter": "None", "instagram": "None", "facebook": "None", "youtube": "None", "website": "None", "summary": "None", "logo": "None", "latitude": 43.64803297305114, "longitude": -79.39483379779568}, "858982200RR0001": {"name": "STUDIO 180 THEATRE", "designationCode": "C", "categoryCode": "22", "address": "19 MADISON AVENUE             3RD FLOOR", "city": "TORONTO", "province": "ON", "country": "CA", "postalCode": "M5R2S2", "twitter": "None", "instagram": "None", "facebook": "None", "youtube": "None", "website": "None", "summary": "None", "logo": "None", "latitude": 43.66804239078998, "longitude": -79.40311907435532}, "127796456RR0001": {"name": "STUDIO 303", "designationCode": "C", "categoryCode": "22", "address": "303-372 RUE SAINTE-CATHERINE O", "city": "MONTREAL", "province": "QC", "country": "CA", "postalCode": "H3B1A2", "twitter": "None", "instagram": "None", "facebook": "None", "youtube": "None", "website": "None", "summary": "None", "logo": "None", "latitude": 45.502655033330136, "longitude": -73.57032347325419}, "108044504RR0001": {"name": "STUDITE FATHERS (UKRAINIAN CATHOLIC MONKS)", "designationCode": "C", "categoryCode": "46", "address": "201-940 THE EAST MALL", "city": "TORONTO", "province": "ON", "country": "CA", "postalCode": "M9B6J7", "twitter": "None", "instagram": "None", "facebook": "None", "youtube": "None", "website": "None", "summary": "None", "logo": "None", "latitude": 43.67135190867915, "longitude": -79.57105579020694}, "868329624RR0001": {"name": "STUKO-THEATRE INC", "designationCode": "C", "categoryCode": "22", "address": "7854 RUE BOYER", "city": "MONTREAL", "province": "QC", "country": "CA", "postalCode": "H2R2S2", "twitter": "None", "instagram": "None", "facebook": "None", "youtube": "None", "website": "None", "summary": "None", "logo": "None", "latitude": 45.546127858993685, "longitude": -73.62262422704706}, "108044553RR0001": {"name": "STURGEON ALLIANCE CHURCH", "designationCode": "C", "categoryCode": "39", "address": "BOX 1080                      4910  52 ST", "city": "GIBSONS", "province": "AB", "country": "CA", "postalCode": "T0A1N0", "twitter": "None", "instagram": "None", "facebook": "None", "youtube": "None", "website": "None", "summary": "None", "logo": "None", "latitude": 54.090475582616364, "longitude": -112.62170641505176}, "884166760RR0001": {"name": "STURGEON COMMUNITY FOUNDATION INC.", "designationCode": "A", "categoryCode": "03", "address": "BOX 201, 37 COULTER ST.", "city": "DOMINION CITY", "province": "MB", "country": "CA", "postalCode": "R0A0H0", "twitter": "None", "instagram": "None", "facebook": "None", "youtube": "None", "website": "None", "summary": "None", "logo": "None", "latitude": 49.13865470453498, "longitude": -97.15713798014322}, "897493995RR0001": {"name": "STURGEON COMMUNITY HOSPITAL FOUNDATION", "designationCode": "A", "categoryCode": "15", "address": "201 BOUDREAU ROAD", "city": "ST. ALBERT", "province": "AB", "country": "CA", "postalCode": "T8N6C4", "twitter": "None", "instagram": "None", "facebook": "None", "youtube": "None", "website": "None", "summary": "None", "logo": "None", "latitude": 53.654162281521806, "longitude": -113.62668794630918}, "865550297RR0001": {"name": "STURGEON CREEK ALTERNATIVE CHRISTIAN SCHOOL", "designationCode": "C", "categoryCode": "49", "address": "PO BOX 427", "city": "RAINY RIVER", "province": "ON", "country": "CA", "postalCode": "P0W1L0", "twitter": "None", "instagram": "None", "facebook": "None", "youtube": "None", "website": "None", "summary": "None", "logo": "None", "latitude": 48.72217200000006, "longitude": -94.56111349999993}, "861803930RR0001": {"name": "STURGEON CREEK CHARITABLE TRUST", "designationCode": "B", "categoryCode": "39", "address": "2500-201 PORTAGE AVENUE", "city": "WINNIPEG", "province": "MB", "country": "CA", "postalCode": "R3B3K6", "twitter": "None", "instagram": "None", "facebook": "None", "youtube": "None", "website": "None", "summary": "None", "logo": "None", "latitude": 49.895359615067065, "longitude": -97.13919299627776}, "854900909RR0001": {"name": "STURGEON CREEK UNITED CHURCH FOUNDATION INC.", "designationCode": "A", "categoryCode": "03", "address": "207 THOMPSON DR", "city": "WINNIPEG", "province": "MB", "country": "CA", "postalCode": "R3J3E2", "twitter": "None", "instagram": "None", "facebook": "None", "youtube": "None", "website": "None", "summary": "None", "logo": "None", "latitude": 49.877458658895506, "longitude": -97.26694888213432}, "119203826RR0001": {"name": "STURGEON CREEK UNITED CHURCH,", "designationCode": "C", "categoryCode": "44", "address": "207 THOMPSON DR", "city": "WINNIPEG", "province": "MB", "country": "CA", "postalCode": "R3J3E2", "twitter": "None", "instagram": "None", "facebook": "None", "youtube": "None", "website": "None", "summary": "None", "logo": "None", "latitude": 49.877458658895506, "longitude": -97.26694888213432}, "119288918RR0500": {"name": "STURGEON FALLS CONGREGATION OF JEHOVAH'S WITNESSES", "designationCode": "C", "categoryCode": "61", "address": "702 COURSOL RD", "city": "STURGEON FALLS", "province": "ON", "country": "CA", "postalCode": "P2B3J6", "twitter": "None", "instagram": "None", "facebook": "None", "youtube": "None", "website": "None", "summary": "None", "logo": "None", "latitude": 46.37139868547652, "longitude": -79.91425468547651}, "119203859RR0001": {"name": "STURGEON HEIGHTS CONGREGATION OF JEHOVAH'S WITNESSES ST ALBERT", "designationCode": "C", "categoryCode": "61", "address": "26208 HWY 37", "city": "STURGEON COUNTY", "province": "AB", "country": "CA", "postalCode": "T8T0H3", "twitter": "None", "instagram": "None", "facebook": "None", "youtube": "None", "website": "None", "summary": "None", "logo": "None", "latitude": 53.716291478792606, "longitude": -113.7738735}, "136380730RR0001": {"name": "STURGEON LAKE SAILING CLUB", "designationCode": "C", "categoryCode": "56", "address": "196 GLOUCESTER AVENUE", "city": "OAKVILLE", "province": "ON", "country": "CA", "postalCode": "L6J3W6", "twitter": "None", "instagram": "None", "facebook": "None", "youtube": "None", "website": "None", "summary": "None", "logo": "None", "latitude": 43.45363163030184, "longitude": -79.66564765696225}, "119203883RR0001": {"name": "STURGEON POINT UNION CHURCH", "designationCode": "C", "categoryCode": "39", "address": "JEAN CRIGHTON                 RR NO 3 - 43 IRENE AVE", "city": "FENELON FALLS", "province": "ON", "country": "CA", "postalCode": "K0M1N0", "twitter": "None", "instagram": "None", "facebook": "None", "youtube": "None", "website": "None", "summary": "None", "logo": "None", "latitude": 44.471683465866604, "longitude": -78.69872156048197}, "890585243RR0001": {"name": "STURGEON RIVER HISTORICAL SOCIETY", "designationCode": "C", "categoryCode": "50", "address": "PO BOX 1154", "city": "GIBBONS", "province": "AB", "country": "CA", "postalCode": "T0A1N0", "twitter": "None", "instagram": "None", "facebook": "None", "youtube": "None", "website": "None", "summary": "None", "logo": "None", "latitude": 53.82811000000004, "longitude": -113.32767999999999}, "119203891RR0001": {"name": "STURGEON UNITED BAPTIST CHURCH,", "designationCode": "C", "categoryCode": "31", "address": "258 LR. MONTAGUE RD.          RR 2", "city": "MONTAGUE", "province": "PE", "country": "CA", "postalCode": "C0A1R0", "twitter": "None", "instagram": "None", "facebook": "None", "youtube": "None", "website": "None", "summary": "None", "logo": "None", "latitude": 46.15090167642914, "longitude": -62.690377623156344}, "108044769RR0001": {"name": "STURGEON VALLEY BAPTIST CHURCH", "designationCode": "C", "categoryCode": "31", "address": "51 WOODLANDS RD", "city": "ST ALBERT", "province": "AB", "country": "CA", "postalCode": "T8N3Y5", "twitter": "None", "instagram": "None", "facebook": "None", "youtube": "None", "website": "None", "summary": "None", "logo": "None", "latitude": 53.646312741589334, "longitude": -113.60375823945363}, "119203925RR0001": {"name": "STURGIS & DISTRICT DONOR'S CHOICE", "designationCode": "A", "categoryCode": "05", "address": "PO BOX 520", "city": "STURGIS", "province": "SK", "country": "CA", "postalCode": "S0A4A0", "twitter": "None", "instagram": "None", "facebook": "None", "youtube": "None", "website": "None", "summary": "None", "logo": "None", "latitude": 51.940030000000036, "longitude": -102.54296999999997}, "119203941RR0001": {"name": "STURGIS R E A D CLUB INC", "designationCode": "C", "categoryCode": "56", "address": "BOX 544", "city": "STURGIS", "province": "SK", "country": "CA", "postalCode": "S0A4A0", "twitter": "None", "instagram": "None", "facebook": "None", "youtube": "None", "website": "None", "summary": "None", "logo": "None", "latitude": 51.940030000000036, "longitude": -102.54296999999997}, "861090777RR0001": {"name": "STYLES FAMILY FOUNDATION", "designationCode": "B", "categoryCode": "03", "address": "1 CHEDINGTON PLACE            STE 8D", "city": "TORONTO", "province": "ON", "country": "CA", "postalCode": "M4N3R4", "twitter": "None", "instagram": "None", "facebook": "None", "youtube": "None", "website": "None", "summary": "None", "logo": "None", "latitude": 43.727750152086166, "longitude": -79.3808896702638}, "891358616RR0001": {"name": "STYMIEST CEMETERY", "designationCode": "C", "categoryCode": "59", "address": "40 HIERLIHY RD", "city": "TABUSINTAC", "province": "NB", "country": "CA", "postalCode": "E9H1Y9", "twitter": "None", "instagram": "None", "facebook": "None", "youtube": "None", "website": "None", "summary": "None", "logo": "None", "latitude": 47.329309538461395, "longitude": -65.01631198929552}, "730710696RR0001": {"name": "SU PRESENCIA CHURCH", "designationCode": "C", "categoryCode": "39", "address": "71 APPLE TREE DR", "city": "KITCHENER", "province": "ON", "country": "CA", "postalCode": "N2A4C9", "twitter": "None", "instagram": "None", "facebook": "None", "youtube": "None", "website": "None", "summary": "None", "logo": "None", "latitude": 43.44394975823777, "longitude": -80.41680647515726}, "889843074RR0001": {"name": "SUBRAMANIYA SWAMY TEMPLE OF BRITISH COLUMBIA", "designationCode": "C", "categoryCode": "48", "address": "8840 NO. 5 RD", "city": "RICHMOND", "province": "BC", "country": "CA", "postalCode": "V6Y2V4", "twitter": "None", "instagram": "None", "facebook": "None", "youtube": "None", "website": "None", "summary": "None", "logo": "None", "latitude": 49.14806411518265, "longitude": -123.0918309982979}, "119204774RR0001": {"name": "SUBUD CANADA", "designationCode": "C", "categoryCode": "39", "address": "3 BYLOT CRT", "city": "OTTAWA", "province": "ON", "country": "CA", "postalCode": "K2L2V3", "twitter": "None", "instagram": "None", "facebook": "None", "youtube": "None", "website": "None", "summary": "None", "logo": "None", "latitude": 45.30559943323344, "longitude": -75.89487646292358}, "119204782RR0001": {"name": "SUBUD FRASER VALLEY", "designationCode": "C", "categoryCode": "39", "address": "30539 NORTHRIDGE WAY", "city": "ABBOTSFORD", "province": "BC", "country": "CA", "postalCode": "V2T6X7", "twitter": "None", "instagram": "None", "facebook": "None", "youtube": "None", "website": "None", "summary": "None", "logo": "None", "latitude": 49.06943752596793, "longitude": -122.37773327699232}, "119204790RR0001": {"name": "SUBUD OTTAWA", "designationCode": "C", "categoryCode": "39", "address": "357 WILMONT AVE", "city": "OTTAWA", "province": "ON", "country": "CA", "postalCode": "K2A0B2", "twitter": "None", "instagram": "None", "facebook": "None", "youtube": "None", "website": "None", "summary": "None", "logo": "None", "latitude": 45.39371952013953, "longitude": -75.75594451791783}, "889394391RR0001": {"name": "SUBUD QUEBEC", "designationCode": "C", "categoryCode": "39", "address": "6775 DE BORDEAUX", "city": "MONTREAL", "province": "QC", "country": "CA", "postalCode": "H2G2S3", "twitter": "None", "instagram": "None", "facebook": "None", "youtube": "None", "website": "None", "summary": "None", "logo": "None", "latitude": 45.547093141006314, "longitude": -73.5996403823072}, "887567394RR0001": {"name": "SUBUD TORONTO", "designationCode": "C", "categoryCode": "39", "address": "2170 DANFORTH AVE", "city": "TORONTO", "province": "ON", "country": "CA", "postalCode": "M4C1K3", "twitter": "None", "instagram": "None", "facebook": "None", "youtube": "None", "website": "None", "summary": "None", "logo": "None", "latitude": 43.686289150729834, "longitude": -79.31036830864439}, "119204824RR0001": {"name": "SUBUD VANCOUVER,", "designationCode": "C", "categoryCode": "39", "address": "3925 FRASER STREET", "city": "VANCOUVER", "province": "BC", "country": "CA", "postalCode": "V5V4E5", "twitter": "None", "instagram": "None", "facebook": "None", "youtube": "None", "website": "None", "summary": "None", "logo": "None", "latitude": 49.24963836663974, "longitude": -123.09017352002395}, "119204832RR0001": {"name": "SUBUD VICTORIA", "designationCode": "C", "categoryCode": "39", "address": "262 PLOWRIGHT ROAD", "city": "VICTORIA", "province": "BC", "country": "CA", "postalCode": "V9B1P3", "twitter": "None", "instagram": "None", "facebook": "None", "youtube": "None", "website": "None", "summary": "None", "logo": "None", "latitude": 48.45259227003877, "longitude": -123.43771914998004}, "854745940RR0001": {"name": "SUCCESSION", "designationCode": "C", "categoryCode": "11", "address": "202 BOLTON ST", "city": "OTTAWA", "province": "ON", "country": "CA", "postalCode": "K1N5B3", "twitter": "None", "instagram": "None", "facebook": "None", "youtube": "None", "website": "None", "summary": "None", "logo": "None", "latitude": 45.434785621963314, "longitude": -75.69393089534894}, "132938010RR0001": {"name": "SUCKER CREEK WOMEN'S EMERGENCY SHELTER", "designationCode": "B", "categoryCode": "01", "address": "BOX 231", "city": "ENILDA", "province": "AB", "country": "CA", "postalCode": "T0G0W0", "twitter": "None", "instagram": "None", "facebook": "None", "youtube": "None", "website": "None", "summary": "None", "logo": "None", "latitude": 55.41928000000007, "longitude": -116.31360999999998}, "130650575RR0001": {"name": "SUCO", "designationCode": "C", "categoryCode": "21", "address": "201 - 7250 RUE CLARK", "city": "MONTREAL", "province": "QC", "country": "CA", "postalCode": "H2R2Y3", "twitter": "None", "instagram": "None", "facebook": "None", "youtube": "None", "website": "None", "summary": "None", "logo": "None", "latitude": 45.534592866207056, "longitude": -73.62006627811749}, "862285194RR0001": {"name": "SUDBURY # 11522 FOUNDATION", "designationCode": "A", "categoryCode": "65", "address": "39 WALFORD ROAD", "city": "SUDBURY", "province": "ON", "country": "CA", "postalCode": "P3E2H2", "twitter": "None", "instagram": "None", "facebook": "None", "youtube": "None", "website": "None", "summary": "None", "logo": "None", "latitude": 46.46398048788188, "longitude": -81.00450144033121}, "870073764RR0001": {"name": "SUDBURY #10888 FOUNDATION", "designationCode": "A", "categoryCode": "05", "address": "1887 BANCROFT DR.", "city": "SUDBURY", "province": "ON", "country": "CA", "postalCode": "P3B1S7", "twitter": "None", "instagram": "None", "facebook": "None", "youtube": "None", "website": "None", "summary": "None", "logo": "None", "latitude": 46.49046349435603, "longitude": -80.93731031195108}, "888085644RR0001": {"name": "SUDBURY ACTION CENTRE FOR YOUTH", "designationCode": "C", "categoryCode": "59", "address": "95 PINE ST", "city": "SUDBURY", "province": "ON", "country": "CA", "postalCode": "P3C1W9", "twitter": "None", "instagram": "None", "facebook": "None", "youtube": "None", "website": "None", "summary": "None", "logo": "None", "latitude": 46.493890808333646, "longitude": -81.00005362524998}, "119204907RR0001": {"name": "SUDBURY ARTS COUNCIL/CONSEIL DES ARTS DE SUDBURY", "designationCode": "C", "categoryCode": "22", "address": "1546 BELLEVUE AVENUE", "city": "SUDBURY", "province": "ON", "country": "CA", "postalCode": "P3B3G2", "twitter": "None", "instagram": "None", "facebook": "None", "youtube": "None", "website": "None", "summary": "None", "logo": "None", "latitude": 46.49083360064036, "longitude": -80.95176240233116}, "889958393RR0001": {"name": "SUDBURY BETTER BEGINNINGS EDUCATIONAL FUND", "designationCode": "C", "categoryCode": "21", "address": "450 MORIN STREET", "city": "SUDBURY", "province": "ON", "country": "CA", "postalCode": "P3C5H6", "twitter": "None", "instagram": "None", "facebook": "None", "youtube": "None", "website": "None", "summary": "None", "logo": "None", "latitude": 46.50341894325507, "longitude": -80.99642975494932}, "119204915RR0001": {"name": "SUDBURY BIBLE FELLOWSHIP", "designationCode": "C", "categoryCode": "39", "address": "714 BEATRICE CRES.", "city": "SUDBURY", "province": "ON", "country": "CA", "postalCode": "P3A5B5", "twitter": "None", "instagram": "None", "facebook": "None", "youtube": "None", "website": "None", "summary": "None", "logo": "None", "latitude": 46.51000184537502, "longitude": -80.95796804997391}, "871393831RR0001": {"name": "SUDBURY CATHOLIC DISTRICT SCHOOL BOARD", "designationCode": "C", "categoryCode": "20", "address": "165A D'YOUVILLE ST", "city": "SUDBURY", "province": "ON", "country": "CA", "postalCode": "P3C5E7", "twitter": "None", "instagram": "None", "facebook": "None", "youtube": "None", "website": "None", "summary": "None", "logo": "None", "latitude": 46.49765650443042, "longitude": -80.99441771040004}, "119204931RR0001": {"name": "SUDBURY CHAMBER SINGERS", "designationCode": "C", "categoryCode": "22", "address": "117 MAPLEWOOD CRES", "city": "GARSON", "province": "ON", "country": "CA", "postalCode": "P3L1G9", "twitter": "None", "instagram": "None", "facebook": "None", "youtube": "None", "website": "None", "summary": "None", "logo": "None", "latitude": 46.55182009740903, "longitude": -80.8631323329102}, "895377083RR0001": {"name": "SUDBURY CHARITIES FUND", "designationCode": "A", "categoryCode": "03", "address": "128 PINE STREET               SUITE 102", "city": "SUDBURY", "province": "ON", "country": "CA", "postalCode": "P3C1X3", "twitter": "None", "instagram": "None", "facebook": "None", "youtube": "None", "website": "None", "summary": "None", "logo": "None", "latitude": 46.494066087484725, "longitude": -81.0006938550736}, "807784566RR0001": {"name": "SUDBURY CHINESE EVANGELICAL MISSIONARY CHURCH", "designationCode": "C", "categoryCode": "47", "address": "1779 TORBAY RD", "city": "SUDBURY", "province": "ON", "country": "CA", "postalCode": "P3B1A3", "twitter": "None", "instagram": "None", "facebook": "None", "youtube": "None", "website": "None", "summary": "None", "logo": "None", "latitude": 46.487189557851124, "longitude": -80.9419220044434}, "119204956RR0001": {"name": "SUDBURY CHRISTIAN SCHOOLS INC.", "designationCode": "C", "categoryCode": "20", "address": "1101 REGENT ST. S.", "city": "SUDBURY", "province": "ON", "country": "CA", "postalCode": "P3E5P8", "twitter": "None", "instagram": "None", "facebook": "None", "youtube": "None", "website": "None", "summary": "None", "logo": "None", "latitude": 46.468411472823824, "longitude": -81.00634020592115}, "829086800RR0001": {"name": "SUDBURY COMMUNITY CHURCH", "designationCode": "C", "categoryCode": "39", "address": "10 CANA CRT", "city": "SUDBURY", "province": "ON", "country": "CA", "postalCode": "P3A5R1", "twitter": "None", "instagram": "None", "facebook": "None", "youtube": "None", "website": "None", "summary": "None", "logo": "None", "latitude": 46.51769338386508, "longitude": -80.95774661824106}, "892677543RR0001": {"name": "SUDBURY COMMUNITY FOUNDATION / FONDATION COMMUNAUTAIRE DE SUDBURY", "designationCode": "A", "categoryCode": "53", "address": "200-96 LARCH STREET", "city": "SUDBURY", "province": "ON", "country": "CA", "postalCode": "P3E1C1", "twitter": "None", "instagram": "None", "facebook": "None", "youtube": "None", "website": "None", "summary": "None", "logo": "None", "latitude": 46.491409271916, "longitude": -80.99317774341955}, "129884235RR0001": {"name": "SUDBURY COMMUNITY SERVICE CENTRE", "designationCode": "C", "categoryCode": "59", "address": "1166 ROY AVE", "city": "SUDBURY", "province": "ON", "country": "CA", "postalCode": "P3A3M6", "twitter": "None", "instagram": "None", "facebook": "None", "youtube": "None", "website": "None", "summary": "None", "logo": "None", "latitude": 46.522557419095165, "longitude": -80.94945059045547}, "119204899RR0001": {"name": "SUDBURY DEVELOPMENTAL SERVICES/SERVICES POUR HANDICAPS DE D EVELOPPEMENT DE SUDBURY", "designationCode": "C", "categoryCode": "11", "address": "245 MOUNTAIN STREET", "city": "SUDBURY", "province": "ON", "country": "CA", "postalCode": "P3B2T8", "twitter": "None", "instagram": "None", "facebook": "None", "youtube": "None", "website": "None", "summary": "None", "logo": "None", "latitude": 46.49859773434357, "longitude": -80.9830101833918}, "821059748RR0001": {"name": "SUDBURY DISTRICT ARCHIVES INTEREST GROUP", "designationCode": "C", "categoryCode": "50", "address": "PO BOX 1052, STN B", "city": "SUDBURY", "province": "ON", "country": "CA", "postalCode": "P3E4S6", "twitter": "None", "instagram": "None", "facebook": "None", "youtube": "None", "website": "None", "summary": "None", "logo": "None", "latitude": 46.48958700000006, "longitude": -80.99011249999994}, "893161364RR0001": {"name": "SUDBURY DISTRICT CIVIL AIR SEARCH AND RESCUE ASSOCIATION", "designationCode": "C", "categoryCode": "59", "address": "818 BARRYDOWNE RD", "city": "SUDBURY", "province": "ON", "country": "CA", "postalCode": "P3A3T7", "twitter": "None", "instagram": "None", "facebook": "None", "youtube": "None", "website": "None", "summary": "None", "logo": "None", "latitude": 46.51455591618097, "longitude": -80.94410303548987}, "862075801RR0001": {"name": "SUDBURY DISTRICT RESTORATIVE JUSTICE / JUSTICE REPARATRICE DU DISTRICT DE SUDBURY", "designationCode": "C", "categoryCode": "59", "address": "PO BOX 1423                   STATION B", "city": "SUDBURY", "province": "ON", "country": "CA", "postalCode": "P3E5K4", "twitter": "None", "instagram": "None", "facebook": "None", "youtube": "None", "website": "None", "summary": "None", "logo": "None", "latitude": 46.48958700000006, "longitude": -80.99011249999994}, "119330629RR0001": {"name": "SUDBURY FINNISH MALE CHOIR", "designationCode": "C", "categoryCode": "22", "address": "2-367 HARRISON DR", "city": "SUDBURY", "province": "ON", "country": "CA", "postalCode": "P3E5E1", "twitter": "None", "instagram": "None", "facebook": "None", "youtube": "None", "website": "None", "summary": "None", "logo": "None", "latitude": 46.440192394396654, "longitude": -81.0073399158056}, "107383242RR0001": {"name": "SUDBURY FINNISH REST HOME SOCIETY INC.", "designationCode": "C", "categoryCode": "01", "address": "2 - 233 FOURTH AVE", "city": "SUDBURY", "province": "ON", "country": "CA", "postalCode": "P3B4C3", "twitter": "None", "instagram": "None", "facebook": "None", "youtube": "None", "website": "None", "summary": "None", "logo": "None", "latitude": 46.4844105024189, "longitude": -80.93563061928668}}