{"806578407RR0001": {"name": "East Brampton Baptist Church", "designationCode": "C", "categoryCode": "39", "address": "P O BOX 68523 GREAT LAKES P.O.", "city": "BRAMPTON", "province": "ON", "country": "CA", "postalCode": "L6R0J8", "twitter": "None", "instagram": "None", "facebook": "None", "youtube": "None", "website": "None", "summary": "None", "logo": "None", "latitude": 43.73524728225369, "longitude": -79.76783840803084}, "846163566RR0001": {"name": "East Coast Baptist Association Inc.", "designationCode": "C", "categoryCode": "31", "address": "18 GARDEN VIEW DR", "city": "ISLAND VIEW", "province": "NB", "country": "CA", "postalCode": "E3E1A3", "twitter": "None", "instagram": "None", "facebook": "None", "youtube": "None", "website": "None", "summary": "None", "logo": "None", "latitude": 45.96545497313713, "longitude": -66.79375922808532}, "860486810RR0001": {"name": "East Coast Environmental Law Association (2007)", "designationCode": "C", "categoryCode": "59", "address": "6061 UNIVERSITY AVENUE", "city": "HALIFAX", "province": "NS", "country": "CA", "postalCode": "B3H4H9", "twitter": "None", "instagram": "None", "facebook": "None", "youtube": "None", "website": "None", "summary": "None", "logo": "None", "latitude": 44.63782499420027, "longitude": -63.587319106872755}, "119288918RR1481": {"name": "East Congregation of Jehovah's Witnesses, Kemptville, Ontario", "designationCode": "C", "categoryCode": "61", "address": "24 D'ARCYS WAY                RR 3", "city": "KEMPTVILLE", "province": "ON", "country": "CA", "postalCode": "K0G1J0", "twitter": "None", "instagram": "None", "facebook": "None", "youtube": "None", "website": "None", "summary": "None", "logo": "None", "latitude": 45.04245281215143, "longitude": -75.60634940750543}, "119288918RR0430": {"name": "East Congregation of Jehovah's Witnesses, Kingston, Nova Scotia", "designationCode": "C", "categoryCode": "61", "address": "899 GREENWOOD RD              SOUTH GREENWOOD", "city": "KINGSTON", "province": "NS", "country": "CA", "postalCode": "B0P1R0", "twitter": "None", "instagram": "None", "facebook": "None", "youtube": "None", "website": "None", "summary": "None", "logo": "None", "latitude": 44.96502429335229, "longitude": -64.89411250351976}, "119288918RR0229": {"name": "East Congregation of Jehovah's Witnesses, Prince Albert, Saskatchewan", "designationCode": "C", "categoryCode": "61", "address": "759 MCINTOSH DR", "city": "PRINCE ALBERT", "province": "SK", "country": "CA", "postalCode": "S6V7B3", "twitter": "None", "instagram": "None", "facebook": "None", "youtube": "None", "website": "None", "summary": "None", "logo": "None", "latitude": 53.201437396618346, "longitude": -105.70342109939959}, "119288918RR0155": {"name": "East Congregation of Jehovah's Witnesses, St. John's, Newfoundland", "designationCode": "C", "categoryCode": "61", "address": "PO BOX 21256", "city": "ST. JOHN'S", "province": "NL", "country": "CA", "postalCode": "A1A5B2", "twitter": "None", "instagram": "None", "facebook": "None", "youtube": "None", "website": "None", "summary": "None", "logo": "None", "latitude": 47.600088000000056, "longitude": -52.692861499999935}, "119288918RR1632": {"name": "East Congregation of Jehovah's Witnessess, Aldergrove, British Columbia", "designationCode": "C", "categoryCode": "61", "address": "26640-32 AVENUE", "city": "ALDERGROVE", "province": "BC", "country": "CA", "postalCode": "V4W3N8", "twitter": "None", "instagram": "None", "facebook": "None", "youtube": "None", "website": "None", "summary": "None", "logo": "None", "latitude": 49.06030548456368, "longitude": -122.4858297783773}, "870880036RR0001": {"name": "East District Chaplaincy of the United Church of Canada", "designationCode": "C", "categoryCode": "44", "address": "320 ELIZABETH AVENUE", "city": "ST. JOHN'S", "province": "NL", "country": "CA", "postalCode": "A1B1T9", "twitter": "None", "instagram": "None", "facebook": "None", "youtube": "None", "website": "None", "summary": "None", "logo": "None", "latitude": 47.566570535402995, "longitude": -52.736484035835666}, "865316475RR0001": {"name": "East Hants Community Learning Association", "designationCode": "C", "categoryCode": "21", "address": "101A-224 HIGHWAY 214", "city": "ELMSDALE", "province": "NS", "country": "CA", "postalCode": "B2S1J7", "twitter": "None", "instagram": "None", "facebook": "None", "youtube": "None", "website": "None", "summary": "None", "logo": "None", "latitude": 44.973353964535804, "longitude": -63.50660632455689}, "820218709RR0001": {"name": "East Hants Family Resources Centre", "designationCode": "C", "categoryCode": "09", "address": "SUITE 104                     224 HIGHWAY 214", "city": "ELMSDALE", "province": "NS", "country": "CA", "postalCode": "B2S1J7", "twitter": "None", "instagram": "None", "facebook": "None", "youtube": "None", "website": "None", "summary": "None", "logo": "None", "latitude": 44.973353964535804, "longitude": -63.50660632455689}, "119288918RR1677": {"name": "East Iloko Congregation of Jehovah's Witnesses, Toronto, Ontario", "designationCode": "C", "categoryCode": "61", "address": "256 EGLINTON AVE W", "city": "TORONTO", "province": "ON", "country": "CA", "postalCode": "M4R1B2", "twitter": "None", "instagram": "None", "facebook": "None", "youtube": "None", "website": "None", "summary": "None", "logo": "None", "latitude": 43.70501719790516, "longitude": -79.40674573633788}, "890413040RR0001": {"name": "East Kootenay Friends of Refugees Society", "designationCode": "C", "categoryCode": "09", "address": "27 - 2124 30TH AVE S", "city": "CRANBROOK", "province": "BC", "country": "CA", "postalCode": "V1C7A4", "twitter": "None", "instagram": "None", "facebook": "None", "youtube": "None", "website": "None", "summary": "None", "logo": "None"}, "818648024RR0001": {"name": "East Kootenay Lutheran Parish", "designationCode": "C", "categoryCode": "32", "address": "920 11TH STREET SOUTH", "city": "CRANBROOK", "province": "BC", "country": "CA", "postalCode": "V1C1V6", "twitter": "None", "instagram": "None", "facebook": "None", "youtube": "None", "website": "None", "summary": "None", "logo": "None", "latitude": 49.498080949232, "longitude": -115.76749982519618}, "816309827RR0001": {"name": "East Kootenay P.A.R.T.Y. Program", "designationCode": "C", "categoryCode": "59", "address": "25-10TH AVENUE SOUTH", "city": "CRANBROOK", "province": "BC", "country": "CA", "postalCode": "V1C2M9", "twitter": "None", "instagram": "None", "facebook": "None", "youtube": "None", "website": "None", "summary": "None", "logo": "None", "latitude": 49.51111541909515, "longitude": -115.767612311443}, "808893176RR0001": {"name": "East Lake Ainslie Cemetery Society", "designationCode": "C", "categoryCode": "59", "address": "RR #1 WHYCOCOMAGH", "city": "INVERNESS COUNTY", "province": "NS", "country": "CA", "postalCode": "B0E3M0", "twitter": "None", "instagram": "None", "facebook": "None", "youtube": "None", "website": "None", "summary": "None", "logo": "None", "latitude": 45.97512000000006, "longitude": -61.12492999999995}, "888614591RR0001": {"name": "East Lake Congregation of Jehovah's Witnesses Airdrie Alberta", "designationCode": "C", "categoryCode": "61", "address": "1128 THORBURN DR SE", "city": "AIRDRIE", "province": "AB", "country": "CA", "postalCode": "T4A1S1", "twitter": "None", "instagram": "None", "facebook": "None", "youtube": "None", "website": "None", "summary": "None", "logo": "None", "latitude": 51.280266518754566, "longitude": -113.987934}, "889766044RR0001": {"name": "East London Church of Christ", "designationCode": "C", "categoryCode": "39", "address": "248 GREY STREET", "city": "LONDON", "province": "ON", "country": "CA", "postalCode": "N6B1G5", "twitter": "None", "instagram": "None", "facebook": "None", "youtube": "None", "website": "None", "summary": "None", "logo": "None", "latitude": 42.977518909804346, "longitude": -81.24275967138897}, "859914798RR0001": {"name": "East Meets West Orphans Foundation", "designationCode": "C", "categoryCode": "09", "address": "10910 SEATON RD", "city": "LAKE COUNTRY", "province": "BC", "country": "CA", "postalCode": "V4V1K2", "twitter": "None", "instagram": "None", "facebook": "None", "youtube": "None", "website": "None", "summary": "None", "logo": "None", "latitude": 50.040894653932504, "longitude": -119.41800193842663}, "838047298RR0001": {"name": "East Preston United Baptist Church", "designationCode": "C", "categoryCode": "31", "address": "206 UPPER PARTRIDGE RIVER RD", "city": "EAST PRESTON", "province": "NS", "country": "CA", "postalCode": "B2Z1H3", "twitter": "None", "instagram": "None", "facebook": "None", "youtube": "None", "website": "None", "summary": "None", "logo": "None", "latitude": 44.727816372756564, "longitude": -63.41537662254023}, "853669935RR0001": {"name": "East Side Abbotsford Fellowship Baptist Church", "designationCode": "C", "categoryCode": "31", "address": "32742 NICOLA PL", "city": "ABBOTSFORD", "province": "BC", "country": "CA", "postalCode": "V2T4Z9", "twitter": "None", "instagram": "None", "facebook": "None", "youtube": "None", "website": "None", "summary": "None", "logo": "None", "latitude": 49.069255528420754, "longitude": -122.31763042339432}, "862029352RR0001": {"name": "East Transcona Before & After School Program Inc.", "designationCode": "C", "categoryCode": "01", "address": "500 REDONDA STREET", "city": "WINNIPEG", "province": "MB", "country": "CA", "postalCode": "R2C3T7", "twitter": "None", "instagram": "None", "facebook": "None", "youtube": "None", "website": "None", "summary": "None", "logo": "None", "latitude": 49.90782876745703, "longitude": -96.97961377053153}, "765780499RR0001": {"name": "East Vancouver Newcomer Camp Association", "designationCode": "C", "categoryCode": "56", "address": "432 35TH E AVE", "city": "VANCOUVER", "province": "BC", "country": "CA", "postalCode": "V5W1A9", "twitter": "None", "instagram": "None", "facebook": "None", "youtube": "None", "website": "None", "summary": "None", "logo": "None", "latitude": 49.23880853952925, "longitude": -123.09582488926077}, "118891514RR0001": {"name": "East Wellington Community Services Inc.", "designationCode": "C", "categoryCode": "59", "address": "PO BOX 786", "city": "ERIN", "province": "ON", "country": "CA", "postalCode": "N0B1T0", "twitter": "None", "instagram": "None", "facebook": "None", "youtube": "None", "website": "None", "summary": "None", "logo": "None", "latitude": 43.758004500000006, "longitude": -80.07697350000001}, "850870155RR0001": {"name": "East Wellington Family Health Team", "designationCode": "C", "categoryCode": "11", "address": "6 THOMPSON CRES, UNIT 1", "city": "ERIN", "province": "ON", "country": "CA", "postalCode": "N0B1T0", "twitter": "None", "instagram": "None", "facebook": "None", "youtube": "None", "website": "None", "summary": "None", "logo": "None", "latitude": 43.781173045589135, "longitude": -80.07579616519527}, "826378416RR0001": {"name": "East-Queens Community Gospel Church", "designationCode": "C", "categoryCode": "31", "address": "143 MACEACHERN RD.", "city": "MOUNT HERBERT", "province": "PE", "country": "CA", "postalCode": "C1B3P6", "twitter": "None", "instagram": "None", "facebook": "None", "youtube": "None", "website": "None", "summary": "None", "logo": "None", "latitude": 46.24299743825373, "longitude": -63.03936517208147}, "841354319RR0001": {"name": "East/West Dover Baptist Cemetery Incorporated", "designationCode": "B", "categoryCode": "59", "address": "122 WEST DOVER ROAD", "city": "WEST DOVER", "province": "NS", "country": "CA", "postalCode": "B3Z3S5", "twitter": "None", "instagram": "None", "facebook": "None", "youtube": "None", "website": "None", "summary": "None", "logo": "None", "latitude": 44.492630223757494, "longitude": -63.868616239799394}, "106694169RR0001": {"name": "Easter Seals Alberta Society", "designationCode": "C", "categoryCode": "11", "address": "404 MAYFIELD BUSINESS CENTRE  10525 170 STREET", "city": "EDMONTON", "province": "AB", "country": "CA", "postalCode": "T5P4W2", "twitter": "None", "instagram": "None", "facebook": "None", "youtube": "None", "website": "None", "summary": "None", "logo": "None", "latitude": 53.551015750030906, "longitude": -113.61515525657165}, "129031118RR0001": {"name": "Easter Seals Canada Timbres de P\u00e2ques Canada", "designationCode": "C", "categoryCode": "11", "address": "40 HOLLY STREET               SUITE 401", "city": "TORONTO", "province": "ON", "country": "CA", "postalCode": "M4S3C3", "twitter": "None", "instagram": "None", "facebook": "None", "youtube": "None", "website": "None", "summary": "None", "logo": "None", "latitude": 43.705516222863466, "longitude": -79.39627620361796}, "131640922RR0001": {"name": "Easter Seals Nova Scotia", "designationCode": "C", "categoryCode": "11", "address": "3670 KEMPT ROAD", "city": "HALIFAX", "province": "NS", "country": "CA", "postalCode": "B3K4X8", "twitter": "None", "instagram": "None", "facebook": "None", "youtube": "None", "website": "None", "summary": "None", "logo": "None", "latitude": 44.66270303133494, "longitude": -63.61868019360597}, "119055085RR0001": {"name": "Easter Seals, Newfoundland and Labrador Inc.", "designationCode": "C", "categoryCode": "11", "address": "206 MOUNT SCIO ROAD", "city": "ST. JOHN'S", "province": "NL", "country": "CA", "postalCode": "A1B4L5", "twitter": "None", "instagram": "None", "facebook": "None", "youtube": "None", "website": "None", "summary": "None", "logo": "None", "latitude": 47.57440603554722, "longitude": -52.75180653638392}, "801480203RR0001": {"name": "Eastern Chinatown Chinese Christian Church", "designationCode": "C", "categoryCode": "39", "address": "607 GERRARD ST.E.             PO BOX 75507", "city": "TORONTO", "province": "ON", "country": "CA", "postalCode": "M4M1Y2", "twitter": "None", "instagram": "None", "facebook": "None", "youtube": "None", "website": "None", "summary": "None", "logo": "None", "latitude": 43.66566183484345, "longitude": -79.35149795392121}, "872168422RR0001": {"name": "Eastern Communities Youth Association", "designationCode": "C", "categoryCode": "09", "address": "P.O. BOX 126                  1229 UNION STREET", "city": "CANSO", "province": "NS", "country": "CA", "postalCode": "B0H1H0", "twitter": "None", "instagram": "None", "facebook": "None", "youtube": "None", "website": "None", "summary": "None", "logo": "None", "latitude": 45.336820514859426, "longitude": -60.99807957799065}, "108148263RR0006": {"name": "Eastern Eparchy of the Ukrainian Orthodox Church of Canada", "designationCode": "C", "categoryCode": "39", "address": "3281 CINDY CRESCENT", "city": "MISSISSAUGA", "province": "ON", "country": "CA", "postalCode": "L4Y3J7", "twitter": "None", "instagram": "None", "facebook": "None", "youtube": "None", "website": "None", "summary": "None", "logo": "None", "latitude": 43.61355774161802, "longitude": -79.59280389604143}, "793969494RR0001": {"name": "Eastern Irrigation District Christian Ministerial Association", "designationCode": "C", "categoryCode": "49", "address": "BOX 2034", "city": "BROOKS", "province": "AB", "country": "CA", "postalCode": "T1R1C7", "twitter": "None", "instagram": "None", "facebook": "None", "youtube": "None", "website": "None", "summary": "None", "logo": "None", "latitude": 50.56584900000006, "longitude": -111.89848399999994}, "118890821RR0001": {"name": "Eastern Ontario Emergency Training Academy", "designationCode": "C", "categoryCode": "55", "address": "P.O. BOX 460", "city": "NORWOOD", "province": "ON", "country": "CA", "postalCode": "K0L2V0", "twitter": "None", "instagram": "None", "facebook": "None", "youtube": "None", "website": "None", "summary": "None", "logo": "None", "latitude": 44.38304000000005, "longitude": -77.97911999999997}, "829332816RR0001": {"name": "Eastern Ontario Leadership Seminars", "designationCode": "C", "categoryCode": "29", "address": "43 HIGHCROFT RD", "city": "TORONTO", "province": "ON", "country": "CA", "postalCode": "M4L3G3", "twitter": "None", "instagram": "None", "facebook": "None", "youtube": "None", "website": "None", "summary": "None", "logo": "None", "latitude": 43.67257140244674, "longitude": -79.31637159420639}, "761874320RR0001": {"name": "Eastern Ontario Potcake Rescue", "designationCode": "B", "categoryCode": "54", "address": "1452 LAROSE AVE", "city": "OTTAWA", "province": "ON", "country": "CA", "postalCode": "K1Z7X8", "twitter": "None", "instagram": "None", "facebook": "None", "youtube": "None", "website": "None", "summary": "None", "logo": "None", "latitude": 45.37760171689084, "longitude": -75.73896062946513}, "889236907RR0001": {"name": "Eastern Ontarion Regional Laboratory Association Inc/Association de laboratoires regionaux de l'est de l'Ontario inc.", "designationCode": "C", "categoryCode": "11", "address": "501 SMYTH ROAD", "city": "OTTAWA", "province": "ON", "country": "CA", "postalCode": "K1H8L6", "twitter": "None", "instagram": "None", "facebook": "None", "youtube": "None", "website": "None", "summary": "None", "logo": "None", "latitude": 45.39948712940154, "longitude": -75.64739468789217}, "893796508RR0001": {"name": "Eastgate House of Prayer Mission Base Inc.", "designationCode": "C", "categoryCode": "49", "address": "440 GONDOLA PT. RD", "city": "QUISPAMSIS", "province": "NB", "country": "CA", "postalCode": "E2E1C9", "twitter": "None", "instagram": "None", "facebook": "None", "youtube": "None", "website": "None", "summary": "None", "logo": "None", "latitude": 45.42165919900168, "longitude": -66.00256623423175}, "835616574RR0001": {"name": "Eastside Baptist Church", "designationCode": "C", "categoryCode": "31", "address": "10-9275 MARKHAM ROAD          SUITE 333", "city": "MARKHAM", "province": "ON", "country": "CA", "postalCode": "L6E0H9", "twitter": "None", "instagram": "None", "facebook": "None", "youtube": "None", "website": "None", "summary": "None", "logo": "None", "latitude": 43.89385200000005, "longitude": -79.26443449999994}, "850584681RR0001": {"name": "Eastside Calvary Fellowship", "designationCode": "C", "categoryCode": "39", "address": "214 - 1ST STREET WEST", "city": "LANDMARK", "province": "MB", "country": "CA", "postalCode": "R0A0X0", "twitter": "None", "instagram": "None", "facebook": "None", "youtube": "None", "website": "None", "summary": "None", "logo": "None", "latitude": 49.673097841469264, "longitude": -96.82360801097525}, "850673336RR0001": {"name": "Eastside Church (Miramichi) Inc.", "designationCode": "C", "categoryCode": "31", "address": "87 CHURCH ST", "city": "MIRAMICHI", "province": "NB", "country": "CA", "postalCode": "E1N1T7", "twitter": "None", "instagram": "None", "facebook": "None", "youtube": "None", "website": "None", "summary": "None", "logo": "None", "latitude": 47.02838015349981, "longitude": -65.46692977979093}, "872741202RR0001": {"name": "Eastside Culture Crawl Society", "designationCode": "C", "categoryCode": "22", "address": "108-1000 PARKER ST", "city": "VANCOUVER", "province": "BC", "country": "CA", "postalCode": "V6A2H2", "twitter": "None", "instagram": "None", "facebook": "None", "youtube": "None", "website": "None", "summary": "None", "logo": "None", "latitude": 49.27586452784383, "longitude": -123.08034119608749}, "800578809RR0001": {"name": "Eastside Victory Outreach", "designationCode": "C", "categoryCode": "39", "address": "7012 OGDEN ROAD SE", "city": "CALGARY", "province": "AB", "country": "CA", "postalCode": "T2C1B4", "twitter": "None", "instagram": "None", "facebook": "None", "youtube": "None", "website": "None", "summary": "None", "logo": "None", "latitude": 50.99040610796927, "longitude": -114.00154291283408}, "119288918RR0699": {"name": "Eastview Congregation of Jehovah's Witnesses, Lloydminster, Saskatchewan", "designationCode": "C", "categoryCode": "61", "address": "2710 56 AVE APT 201           PADUA PLACE", "city": "LLOYDMINSTER", "province": "AB", "country": "CA", "postalCode": "T9V2C1", "twitter": "None", "instagram": "None", "facebook": "None", "youtube": "None", "website": "None", "summary": "None", "logo": "None", "latitude": 53.26222583819032, "longitude": -110.01991593008809}, "811078369RR0001": {"name": "Eating Disorder Support Network of Alberta Society", "designationCode": "C", "categoryCode": "11", "address": "PO BOX 681", "city": "EDMONTON", "province": "AB", "country": "CA", "postalCode": "T5J2K8", "twitter": "None", "instagram": "None", "facebook": "None", "youtube": "None", "website": "None", "summary": "None", "logo": "None", "latitude": 53.54623500000005, "longitude": -113.49037249999994}, "766298525RR0001": {"name": "Eating Disorders Nova Scotia Association", "designationCode": "C", "categoryCode": "11", "address": "109 DRUMDONALD ROAD", "city": "HALIFAX", "province": "NS", "country": "CA", "postalCode": "B3P2L2", "twitter": "None", "instagram": "None", "facebook": "None", "youtube": "None", "website": "None", "summary": "None", "logo": "None", "latitude": 44.62667357784643, "longitude": -63.62214021911254}, "869074492RR0001": {"name": "Eatonia Oasis Living Incorporated", "designationCode": "C", "categoryCode": "01", "address": "BOX 217", "city": "EATONIA", "province": "SK", "country": "CA", "postalCode": "S0L0Y0", "twitter": "None", "instagram": "None", "facebook": "None", "youtube": "None", "website": "None", "summary": "None", "logo": "None", "latitude": 51.216810000000066, "longitude": -109.38480999999996}, "822802005RR0001": {"name": "Eau sans fronti\u00e8res", "designationCode": "C", "categoryCode": "09", "address": "209-360 BOULEVARD L\u00c9VESQUES E", "city": "LAVAL", "province": "QC", "country": "CA", "postalCode": "H7G4P4", "twitter": "None", "instagram": "None", "facebook": "None", "youtube": "None", "website": "None", "summary": "None", "logo": "None", "latitude": 45.574477044990346, "longitude": -73.67213714359346}, "813012325RR0001": {"name": "Eben-ezer Christian School", "designationCode": "C", "categoryCode": "20", "address": "4160 FLY RD", "city": "CAMPDEN", "province": "ON", "country": "CA", "postalCode": "L0R1G0", "twitter": "None", "instagram": "None", "facebook": "None", "youtube": "None", "website": "None", "summary": "None", "logo": "None", "latitude": 43.13519849783654, "longitude": -79.43031950859834}, "814293791RR0001": {"name": "Ebiblia Ministries", "designationCode": "C", "categoryCode": "39", "address": "46-900 CLARKE RD", "city": "PORT MOODY", "province": "BC", "country": "CA", "postalCode": "V3H1L5", "twitter": "None", "instagram": "None", "facebook": "None", "youtube": "None", "website": "None", "summary": "None", "logo": "None", "latitude": 49.271347469300245, "longitude": -122.87757495692232}, "802889089RR0001": {"name": "Ebun Oshati Education Society", "designationCode": "C", "categoryCode": "21", "address": "1005-1155 HOMER STREET", "city": "VANCOUVER", "province": "BC", "country": "CA", "postalCode": "V6B5T5", "twitter": "None", "instagram": "None", "facebook": "None", "youtube": "None", "website": "None", "summary": "None", "logo": "None", "latitude": 49.27555847045406, "longitude": -123.12290770027107}, "721656122RR0001": {"name": "Echelon Donor Advised Foundation", "designationCode": "B", "categoryCode": "03", "address": "2500 - 130 KING ST W", "city": "TORONTO", "province": "ON", "country": "CA", "postalCode": "M5X2A2", "twitter": "None", "instagram": "None", "facebook": "None", "youtube": "None", "website": "None", "summary": "None", "logo": "None", "latitude": 43.64797949999999, "longitude": -79.3832085}, "727943490RR0001": {"name": "Echelon Foundation", "designationCode": "B", "categoryCode": "03", "address": "130 KING STREET WEST, SUITE 25", "city": "TORONTO", "province": "ON", "country": "CA", "postalCode": "M5X2A2", "twitter": "None", "instagram": "None", "facebook": "None", "youtube": "None", "website": "None", "summary": "None", "logo": "None", "latitude": 43.64798216515656, "longitude": -79.38336717805407}, "816075691RR0001": {"name": "Echoridge Education Foundation", "designationCode": "A", "categoryCode": "03", "address": "P.O. BOX 810", "city": "BLAIRMORE", "province": "AB", "country": "CA", "postalCode": "T0K0E0", "twitter": "None", "instagram": "None", "facebook": "None", "youtube": "None", "website": "None", "summary": "None", "logo": "None", "latitude": 49.491268008524564, "longitude": -113.94719278131039}, "846753432RR0001": {"name": "Eco Mama's Global Community Gardens", "designationCode": "C", "categoryCode": "59", "address": "300B-604 WEST BROADWAY", "city": "VANCOUVER", "province": "BC", "country": "CA", "postalCode": "V5Z1G1", "twitter": "None", "instagram": "None", "facebook": "None", "youtube": "None", "website": "None", "summary": "None", "logo": "None", "latitude": 49.263251502885524, "longitude": -123.1181714701656}, "856745294RR0001": {"name": "Ecoequitable inc.", "designationCode": "C", "categoryCode": "59", "address": "404 MCARTHUR AVENUE", "city": "OTTAWA", "province": "ON", "country": "CA", "postalCode": "K1K1G8", "twitter": "None", "instagram": "None", "facebook": "None", "youtube": "None", "website": "None", "summary": "None", "logo": "None", "latitude": 45.43209152120739, "longitude": -75.64884963765944}, "795282094RR0001": {"name": "Ecole d'art Pointe-St-Charles", "designationCode": "C", "categoryCode": "22", "address": "801 RUE D'HIBERNIA", "city": "MONTREAL", "province": "QC", "country": "CA", "postalCode": "H3K2T7", "twitter": "None", "instagram": "None", "facebook": "None", "youtube": "None", "website": "None", "summary": "None", "logo": "None", "latitude": 45.47768621011017, "longitude": -73.56213897028118}, "876294471RR0001": {"name": "Ecole St. Pius X Elementary Educational Society (Calgary)", "designationCode": "C", "categoryCode": "21", "address": "2312 18 ST NW", "city": "CALGARY", "province": "AB", "country": "CA", "postalCode": "T2M3T5", "twitter": "None", "instagram": "None", "facebook": "None", "youtube": "None", "website": "None", "summary": "None", "logo": "None", "latitude": 51.072911580904844, "longitude": -114.10457927142375}, "888609963RR0001": {"name": "Ecomus\u00e9e de Hearst et de la r\u00e9gion", "designationCode": "C", "categoryCode": "50", "address": "PO BOX 1329", "city": "HEARST", "province": "ON", "country": "CA", "postalCode": "P0L1N0", "twitter": "None", "instagram": "None", "facebook": "None", "youtube": "None", "website": "None", "summary": "None", "logo": "None", "latitude": 49.68503700000005, "longitude": -83.65433749999994}, "800986267RR0001": {"name": "Economic Development Solutions International", "designationCode": "C", "categoryCode": "09", "address": "54 CHESTER AVE", "city": "TORONTO", "province": "ON", "country": "CA", "postalCode": "M4K2Z9", "twitter": "None", "instagram": "None", "facebook": "None", "youtube": "None", "website": "None", "summary": "None", "logo": "None", "latitude": 43.67897140882338, "longitude": -79.35252380518193}, "725827729RR0001": {"name": "EcoSchools Canada", "designationCode": "C", "categoryCode": "21", "address": "720 BATHURST STREET #206", "city": "TORONTO", "province": "ON", "country": "CA", "postalCode": "M5S2R4", "twitter": "None", "instagram": "None", "facebook": "None", "youtube": "None", "website": "None", "summary": "None", "logo": "None", "latitude": 43.66323143574358, "longitude": -79.41047606191914}, "747283893RR0001": {"name": "Ed & Wilma de Boer Foundation", "designationCode": "B", "categoryCode": "03", "address": "20 AUTUMN CIRCLE", "city": "LIMEHOUSE", "province": "ON", "country": "CA", "postalCode": "L0P1H0", "twitter": "None", "instagram": "None", "facebook": "None", "youtube": "None", "website": "None", "summary": "None", "logo": "None", "latitude": 43.636008379749455, "longitude": -79.94885204098428}, "118892835RR0001": {"name": "Edam and District Donor's Choice Combined Appeal Committee", "designationCode": "A", "categoryCode": "05", "address": "1406 SECOND AVENUE SOUTH", "city": "EDAM", "province": "SK", "country": "CA", "postalCode": "S0M0V0", "twitter": "None", "instagram": "None", "facebook": "None", "youtube": "None", "website": "None", "summary": "None", "logo": "None", "latitude": 53.18719504287276, "longitude": -108.77120876704616}, "810933036RR0001": {"name": "Eddie Cemetery", "designationCode": "C", "categoryCode": "59", "address": "214 APPIN RD", "city": "GLENCOE", "province": "ON", "country": "CA", "postalCode": "N0L1M0", "twitter": "None", "instagram": "None", "facebook": "None", "youtube": "None", "website": "None", "summary": "None", "logo": "None", "latitude": 42.75343225702569, "longitude": -81.70949925578493}, "817577927RR0001": {"name": "Eden Care Communities Foundation Inc.", "designationCode": "A", "categoryCode": "03", "address": "107B ALBERT ST", "city": "REGINA", "province": "SK", "country": "CA", "postalCode": "S4R2N3", "twitter": "None", "instagram": "None", "facebook": "None", "youtube": "None", "website": "None", "summary": "None", "logo": "None", "latitude": 50.47688651511362, "longitude": -104.61798572652482}, "766986897RR0001": {"name": "Eden Care Communities Management Inc.", "designationCode": "C", "categoryCode": "59", "address": "B-107 ALBERT STREET", "city": "REGINA", "province": "SK", "country": "CA", "postalCode": "S4R2N3", "twitter": "None", "instagram": "None", "facebook": "None", "youtube": "None", "website": "None", "summary": "None", "logo": "None", "latitude": 50.47668997446479, "longitude": -104.61799983868126}, "817584329RR0001": {"name": "Eden Care Health Inc.", "designationCode": "C", "categoryCode": "01", "address": "B - 107 ALBERT ST", "city": "REGINA", "province": "SK", "country": "CA", "postalCode": "S4R2N3", "twitter": "None", "instagram": "None", "facebook": "None", "youtube": "None", "website": "None", "summary": "None", "logo": "None", "latitude": 50.47668997446479, "longitude": -104.61799983868126}, "119114122RR0001": {"name": "Eden Care Suites Inc.", "designationCode": "C", "categoryCode": "01", "address": "B-107 ALBERT ST", "city": "REGINA", "province": "SK", "country": "CA", "postalCode": "S4R2N3", "twitter": "None", "instagram": "None", "facebook": "None", "youtube": "None", "website": "None", "summary": "None", "logo": "None", "latitude": 50.47668997446479, "longitude": -104.61799983868126}, "766939094RR0001": {"name": "Eden Care Village Inc.", "designationCode": "C", "categoryCode": "09", "address": "B-107 ALBERT STREET", "city": "REGINA", "province": "SK", "country": "CA", "postalCode": "S4R2N3", "twitter": "None", "instagram": "None", "facebook": "None", "youtube": "None", "website": "None", "summary": "None", "logo": "None", "latitude": 50.47668997446479, "longitude": -104.61799983868126}, "816456669RR0001": {"name": "Eden Church Cemetery Inc.", "designationCode": "C", "categoryCode": "59", "address": "3 MCDONAGH DRIVE,", "city": "LINDSAY", "province": "ON", "country": "CA", "postalCode": "K9V5A9", "twitter": "None", "instagram": "None", "facebook": "None", "youtube": "None", "website": "None", "summary": "None", "logo": "None", "latitude": 44.346316289173394, "longitude": -78.75209674056764}, "819877184RR0001": {"name": "Eden Glen Foundation", "designationCode": "B", "categoryCode": "03", "address": "1250-1500 GEORGIA W ST", "city": "VANCOUVER", "province": "BC", "country": "CA", "postalCode": "V6G2Z6", "twitter": "None", "instagram": "None", "facebook": "None", "youtube": "None", "website": "None", "summary": "None", "logo": "None", "latitude": 49.290187500000016, "longitude": -123.130035}, "847429107RR0001": {"name": "Edge Skills Centre Inc.", "designationCode": "C", "categoryCode": "20", "address": "533 ST ANNE'S ROAD", "city": "WINNIPEG", "province": "MB", "country": "CA", "postalCode": "R2M3E8", "twitter": "None", "instagram": "None", "facebook": "None", "youtube": "None", "website": "None", "summary": "None", "logo": "None", "latitude": 49.83954010687275, "longitude": -97.09341016830189}, "822360210RR0001": {"name": "Edith and Gordon Benson Foundation", "designationCode": "A", "categoryCode": "59", "address": "574 MAITLAND STREET", "city": "LONDON", "province": "ON", "country": "CA", "postalCode": "N6B2Z7", "twitter": "None", "instagram": "None", "facebook": "None", "youtube": "None", "website": "None", "summary": "None", "logo": "None", "latitude": 42.99221384569214, "longitude": -81.23942226669188}, "888593837RR0001": {"name": "Edith Allaby WMS/ABW", "designationCode": "A", "categoryCode": "45", "address": "1250 ROUTE 776", "city": "GRAND MANAN", "province": "NB", "country": "CA", "postalCode": "E5G1G1", "twitter": "None", "instagram": "None", "facebook": "None", "youtube": "None", "website": "None", "summary": "None", "logo": "None", "latitude": 44.683519340020595, "longitude": -66.77753390584056}, "821033222RR0001": {"name": "Edith McDermott Elementary Parent Advisory Council (School District No.42)", "designationCode": "C", "categoryCode": "21", "address": "12178 BONSON ROAD", "city": "PITT MEADOWS", "province": "BC", "country": "CA", "postalCode": "V3Y2L5", "twitter": "None", "instagram": "None", "facebook": "None", "youtube": "None", "website": "None", "summary": "None", "logo": "None", "latitude": 49.223834413266786, "longitude": -122.68060196713678}, "840372205RR0001": {"name": "Edmonton (Alberta) Nerve Pain Association", "designationCode": "C", "categoryCode": "11", "address": "2429 RIVERBEND RD NW", "city": "EDMONTON", "province": "AB", "country": "CA", "postalCode": "T6R2Z2", "twitter": "None", "instagram": "None", "facebook": "None", "youtube": "None", "website": "None", "summary": "None", "logo": "None", "latitude": 53.460999503462446, "longitude": -113.59295088481736}, "854701356RR0001": {"name": "Edmonton and Area Land Trust", "designationCode": "C", "categoryCode": "55", "address": "9910-103 STREET NORTH WEST", "city": "EDMONTON", "province": "AB", "country": "CA", "postalCode": "T5K2V7", "twitter": "None", "instagram": "None", "facebook": "None", "youtube": "None", "website": "None", "summary": "None", "logo": "None", "latitude": 53.53767600000006, "longitude": -113.49741949999994}, "120969621RR0001": {"name": "Edmonton Aboriginal Seniors Centre", "designationCode": "C", "categoryCode": "09", "address": "10107 134 AVE NW              COTTAGE E", "city": "EDMONTON", "province": "AB", "country": "CA", "postalCode": "T5E1J2", "twitter": "None", "instagram": "None", "facebook": "None", "youtube": "None", "website": "None", "summary": "None", "logo": "None", "latitude": 53.59457854284747, "longitude": -113.4947115}, "106693047RR0065": {"name": "Edmonton African Seventh-day Adventist Company", "designationCode": "C", "categoryCode": "41", "address": "5816 HIGHWAY 2A", "city": "LACOMBE", "province": "AB", "country": "CA", "postalCode": "T4L2G5", "twitter": "None", "instagram": "None", "facebook": "None", "youtube": "None", "website": "None", "summary": "None", "logo": "None", "latitude": 52.474063600197404, "longitude": -113.71692568401835}, "133561035RR0001": {"name": "Edmonton Ambassadors Performers Association", "designationCode": "C", "categoryCode": "22", "address": "9223 99 ST NW", "city": "EDMONTON", "province": "AB", "country": "CA", "postalCode": "T6E3W1", "twitter": "None", "instagram": "None", "facebook": "None", "youtube": "None", "website": "None", "summary": "None", "logo": "None", "latitude": 53.52724193945908, "longitude": -113.48600984410879}, "817071442RR0001": {"name": "Edmonton Catholic Schools Foundation", "designationCode": "A", "categoryCode": "03", "address": "10425 84 AVE NW", "city": "EDMONTON", "province": "AB", "country": "CA", "postalCode": "T6E2H3", "twitter": "None", "instagram": "None", "facebook": "None", "youtube": "None", "website": "None", "summary": "None", "logo": "None", "latitude": 53.51998648066852, "longitude": -113.49896302553522}, "758313324RR0001": {"name": "Edmonton Central Office Society", "designationCode": "C", "categoryCode": "57", "address": "205 - 10544 114 ST NW", "city": "EDMONTON", "province": "AB", "country": "CA", "postalCode": "T5H3J7", "twitter": "None", "instagram": "None", "facebook": "None", "youtube": "None", "website": "None", "summary": "None", "logo": "None", "latitude": 53.549019000000015, "longitude": -113.51762099999999}, "122930621RR0001": {"name": "Edmonton Chevra Kadisha", "designationCode": "C", "categoryCode": "59", "address": "12313 105 AVE NW", "city": "EDMONTON", "province": "AB", "country": "CA", "postalCode": "T5N0Y5", "twitter": "None", "instagram": "None", "facebook": "None", "youtube": "None", "website": "None", "summary": "None", "logo": "None", "latitude": 53.54775952510253, "longitude": -113.53459041618096}, "742910920RR0001": {"name": "Edmonton Chin Church", "designationCode": "C", "categoryCode": "39", "address": "267 SOUTHWICK WAY", "city": "LEDUC", "province": "AB", "country": "CA", "postalCode": "T9E0P7", "twitter": "None", "instagram": "None", "facebook": "None", "youtube": "None", "website": "None", "summary": "None", "logo": "None", "latitude": 53.24398951399405, "longitude": -113.5472410269202}, "852221118RR0001": {"name": "Edmonton Chinese Christian Choir Association", "designationCode": "C", "categoryCode": "22", "address": "10831 33 AVENUE NW", "city": "EDMONTON", "province": "AB", "country": "CA", "postalCode": "T6J2Z3", "twitter": "None", "instagram": "None", "facebook": "None", "youtube": "None", "website": "None", "summary": "None", "logo": "None", "latitude": 53.464931802094846, "longitude": -113.5104938233309}, "801561739RR0001": {"name": "Edmonton Christian Life Community Church", "designationCode": "C", "categoryCode": "39", "address": "10759 96TH STREET", "city": "EDMONTON", "province": "AB", "country": "CA", "postalCode": "T5H2J7", "twitter": "None", "instagram": "None", "facebook": "None", "youtube": "None", "website": "None", "summary": "None", "logo": "None", "latitude": 53.55368720669669, "longitude": -113.48682153647786}, "881115109RR0001": {"name": "Edmonton Church of Sending", "designationCode": "C", "categoryCode": "39", "address": "1280 DANIELS CRES SW", "city": "EDMONTON", "province": "AB", "country": "CA", "postalCode": "T6W3J1", "twitter": "None", "instagram": "None", "facebook": "None", "youtube": "None", "website": "None", "summary": "None", "logo": "None", "latitude": 53.39647098022066, "longitude": -113.546594274824}, "814447769RR0001": {"name": "Edmonton Community Chaplaincy Association", "designationCode": "C", "categoryCode": "39", "address": "PO BOX 24012 RPO WINDERMERE", "city": "EDMONTON", "province": "AB", "country": "CA", "postalCode": "T6W2W2", "twitter": "None", "instagram": "None", "facebook": "None", "youtube": "None", "website": "None", "summary": "None", "logo": "None", "latitude": 53.44612006814887, "longitude": -113.61329342629291}, "835669029RR0001": {"name": "Edmonton Cultural Trust Foundation", "designationCode": "A", "categoryCode": "05", "address": "400 - 10508 82 AVE NW", "city": "EDMONTON", "province": "AB", "country": "CA", "postalCode": "T6E2A4", "twitter": "None", "instagram": "None", "facebook": "None", "youtube": "None", "website": "None", "summary": "None", "logo": "None", "latitude": 53.518077, "longitude": -113.50198803960815}, "881539290RR0001": {"name": "Edmonton Evangelical Assembly (EEA)", "designationCode": "C", "categoryCode": "39", "address": "110 OWER PL NW", "city": "EDMONTON", "province": "AB", "country": "CA", "postalCode": "T6R1K3", "twitter": "None", "instagram": "None", "facebook": "None", "youtube": "None", "website": "None", "summary": "None", "logo": "None"}, "106693047RR0060": {"name": "Edmonton Filipino Seventh-day Adventist Church", "designationCode": "C", "categoryCode": "41", "address": "5816 HIGHWAY, 2A", "city": "LACOMBE", "province": "AB", "country": "CA", "postalCode": "T4L2G5", "twitter": "None", "instagram": "None", "facebook": "None", "youtube": "None", "website": "None", "summary": "None", "logo": "None", "latitude": 52.474063600197404, "longitude": -113.71692568401835}, "891406043RR0001": {"name": "Edmonton Galleria Foundation", "designationCode": "A", "categoryCode": "23", "address": "400-10508 82ND AVE NW", "city": "EDMONTON", "province": "AB", "country": "CA", "postalCode": "T6E2A4", "twitter": "None", "instagram": "None", "facebook": "None", "youtube": "None", "website": "None", "summary": "None", "logo": "None", "latitude": 53.518077, "longitude": -113.50198803960815}, "106693047RR0048": {"name": "Edmonton Ghanaian Seventh-day Adventist Church", "designationCode": "C", "categoryCode": "41", "address": "5816 HIGHWAY, 2A", "city": "LACOMBE", "province": "AB", "country": "CA", "postalCode": "T4L2G5", "twitter": "None", "instagram": "None", "facebook": "None", "youtube": "None", "website": "None", "summary": "None", "logo": "None", "latitude": 52.474063600197404, "longitude": -113.71692568401835}, "763617297RR0001": {"name": "Edmonton Heavenbound Free Seventh-Day Adventist Church", "designationCode": "B", "categoryCode": "41", "address": "7903 119 AVE NW", "city": "EDMONTON", "province": "AB", "country": "CA", "postalCode": "T5B0V7", "twitter": "None", "instagram": "None", "facebook": "None", "youtube": "None", "website": "None", "summary": "None", "logo": "None", "latitude": 53.57195751788916, "longitude": -113.462964}, "826366668RR0001": {"name": "Edmonton Heritage Council Society", "designationCode": "C", "categoryCode": "50", "address": "10440 108 AVENUE              2ND FLOOR", "city": "EDMONTON", "province": "AB", "country": "CA", "postalCode": "T5H3Z9", "twitter": "None", "instagram": "None", "facebook": "None", "youtube": "None", "website": "None", "summary": "None", "logo": "None", "latitude": 53.55297257400861, "longitude": -113.50003207386438}, "811083070RR0001": {"name": "Edmonton Jazz Festival Society", "designationCode": "C", "categoryCode": "22", "address": "10046 116 ST", "city": "EDMONTON", "province": "AB", "country": "CA", "postalCode": "T5K1V7", "twitter": "None", "instagram": "None", "facebook": "None", "youtube": "None", "website": "None", "summary": "None", "logo": "None", "latitude": 53.539955696087475, "longitude": -113.5213692292974}, "807482328RR0001": {"name": "Edmonton Korean Wooridle Church", "designationCode": "C", "categoryCode": "36", "address": "12336 20 AVE SW", "city": "EDMONTON", "province": "AB", "country": "CA", "postalCode": "T6W1Y1", "twitter": "None", "instagram": "None", "facebook": "None", "youtube": "None", "website": "None", "summary": "None", "logo": "None", "latitude": 53.4142954946043, "longitude": -113.53572512158793}, "119293025RR0011": {"name": "Edmonton Living Fountain Alliance Church", "designationCode": "C", "categoryCode": "39", "address": "9015-132 AVENUE", "city": "EDMONTON", "province": "AB", "country": "CA", "postalCode": "T5E0Y1", "twitter": "None", "instagram": "None", "facebook": "None", "youtube": "None", "website": "None", "summary": "None", "logo": "None", "latitude": 53.591980466241814, "longitude": -113.4807398068267}}