{"118975721RR0001": {"name": "JOYCE DETWEILER MEMORIAL FUND", "designationCode": "B", "categoryCode": "55", "address": "130 KING ST W 20TH FL BOX 430", "city": "TORONTO", "province": "ON", "country": "CA", "postalCode": "M5X1K1", "twitter": "None", "instagram": "None", "facebook": "None", "youtube": "None", "website": "None", "summary": "None", "logo": "None", "latitude": 43.64798216515656, "longitude": -79.38336717805407}, "898887369RR0001": {"name": "JOYCE SCOTT NON-PROFIT HOMES INC.", "designationCode": "C", "categoryCode": "01", "address": "296 ONTARIO STREET NORTH", "city": "MILTON", "province": "ON", "country": "CA", "postalCode": "L9T2T9", "twitter": "None", "instagram": "None", "facebook": "None", "youtube": "None", "website": "None", "summary": "None", "logo": "None", "latitude": 43.52408390339904, "longitude": -79.8852917914477}, "841065873RR0001": {"name": "JOYFUL KOREAN METHODIST CHURCH", "designationCode": "C", "categoryCode": "39", "address": "1498 AVENUE RD", "city": "TORONTO", "province": "ON", "country": "CA", "postalCode": "M5N2J1", "twitter": "None", "instagram": "None", "facebook": "None", "youtube": "None", "website": "None", "summary": "None", "logo": "None", "latitude": 43.72208137745978, "longitude": -79.41558605081065}, "885866293RR0001": {"name": "JOYFUL LAND BUDDHIST CENTRE", "designationCode": "C", "categoryCode": "35", "address": "879 SOMERSET ST WEST", "city": "OTTAWA", "province": "ON", "country": "CA", "postalCode": "K1R6R6", "twitter": "None", "instagram": "None", "facebook": "None", "youtube": "None", "website": "None", "summary": "None", "logo": "None", "latitude": 45.4086869392347, "longitude": -75.71326887567076}, "700283922RR0001": {"name": "JOYFUL LIVING JOYFUL GIVING FOUNDATION", "designationCode": "B", "categoryCode": "03", "address": "11 - 4725 221 ST", "city": "LANGLEY", "province": "BC", "country": "CA", "postalCode": "V2Z1B4", "twitter": "None", "instagram": "None", "facebook": "None", "youtube": "None", "website": "None", "summary": "None", "logo": "None", "latitude": 49.08836545989382, "longitude": -122.61139429742032}, "828454538RR0001": {"name": "JP II Media Institute", "designationCode": "C", "categoryCode": "47", "address": "45 RADCLIFFE DR", "city": "HALIFAX", "province": "NS", "country": "CA", "postalCode": "B3M0E1", "twitter": "None", "instagram": "None", "facebook": "None", "youtube": "None", "website": "None", "summary": "None", "logo": "None", "latitude": 44.665764472415965, "longitude": -63.658929537653336}, "842105488RR0001": {"name": "JPS Foundation", "designationCode": "B", "categoryCode": "03", "address": "14 PARK LANE CIRCLE", "city": "TORONTO", "province": "ON", "country": "CA", "postalCode": "M3B1Z7", "twitter": "None", "instagram": "None", "facebook": "None", "youtube": "None", "website": "None", "summary": "None", "logo": "None", "latitude": 43.735168208667886, "longitude": -79.3761420325461}, "791731086RR0001": {"name": "JS Ferraro Foundation", "designationCode": "B", "categoryCode": "23", "address": "130 ADELAIDE STREET WEST      SUITE 3302", "city": "TORONTO", "province": "ON", "country": "CA", "postalCode": "M5H3P5", "twitter": "None", "instagram": "None", "facebook": "None", "youtube": "None", "website": "None", "summary": "None", "logo": "None"}, "745423293RR0001": {"name": "JSpaceCanada Foundation", "designationCode": "C", "categoryCode": "20", "address": "360 HOWLAND AVENUE", "city": "TORONTO", "province": "ON", "country": "CA", "postalCode": "M5R3B9", "twitter": "None", "instagram": "None", "facebook": "None", "youtube": "None", "website": "None", "summary": "None", "logo": "None", "latitude": 43.67618082209015, "longitude": -79.41315684222968}, "848431235RR0001": {"name": "JSM Charitable Trust", "designationCode": "B", "categoryCode": "03", "address": "1859 OCEAN PARK ROAD", "city": "SURREY", "province": "BC", "country": "CA", "postalCode": "V4A3M2", "twitter": "None", "instagram": "None", "facebook": "None", "youtube": "None", "website": "None", "summary": "None", "logo": "None", "latitude": 49.03594533221771, "longitude": -122.87643575411148}, "833464951RR0001": {"name": "JT Charitable Trust", "designationCode": "B", "categoryCode": "05", "address": "#1920 - 1177 WEST HASTINGS ST.", "city": "VANCOUVER", "province": "BC", "country": "CA", "postalCode": "V6E2K3", "twitter": "None", "instagram": "None", "facebook": "None", "youtube": "None", "website": "None", "summary": "None", "logo": "None", "latitude": 49.288649048588965, "longitude": -123.1221220732588}, "118975903RR0001": {"name": "JUAN DE FUCA HOSPITALS AUXILIARY", "designationCode": "C", "categoryCode": "19", "address": "1450 HILLSIDE AVE", "city": "VICTORIA", "province": "BC", "country": "CA", "postalCode": "V8T2B7", "twitter": "None", "instagram": "None", "facebook": "None", "youtube": "None", "website": "None", "summary": "None", "logo": "None", "latitude": 48.441816604535475, "longitude": -123.34303213506237}, "119156511RR0001": {"name": "JUAN DE FUCA MARINE RESCUE SOCIETY", "designationCode": "C", "categoryCode": "59", "address": "PO BOX 966 STN MAIN", "city": "SOOKE", "province": "BC", "country": "CA", "postalCode": "V9Z1H9", "twitter": "None", "instagram": "None", "facebook": "None", "youtube": "None", "website": "None", "summary": "None", "logo": "None", "latitude": 48.381873000000056, "longitude": -123.73120249999994}, "118818491RR0009": {"name": "JUAN DE FUCA SEVENTH-DAY ADVENTIST CHURCH", "designationCode": "C", "categoryCode": "41", "address": "PO 1000", "city": "ABBOTSFORD", "province": "BC", "country": "CA", "postalCode": "V2S4P5", "twitter": "None", "instagram": "None", "facebook": "None", "youtube": "None", "website": "None", "summary": "None", "logo": "None", "latitude": 49.03851300000005, "longitude": -122.29441549999993}, "894741255RR0001": {"name": "JUBILANCE MINISTRIES, INC.", "designationCode": "C", "categoryCode": "39", "address": "17 BRENT ROAD", "city": "HOLLAND LANDING", "province": "ON", "country": "CA", "postalCode": "L9N1R9", "twitter": "None", "instagram": "None", "facebook": "None", "youtube": "None", "website": "None", "summary": "None", "logo": "None", "latitude": 44.108378214813364, "longitude": -79.48779685218435}, "871658712RR0001": {"name": "JUBILATE SINGERS", "designationCode": "C", "categoryCode": "22", "address": "72 GARNET AVENUE", "city": "TORONTO", "province": "ON", "country": "CA", "postalCode": "M6G1V7", "twitter": "None", "instagram": "None", "facebook": "None", "youtube": "None", "website": "None", "summary": "None", "logo": "None", "latitude": 43.66856224176224, "longitude": -79.42360601041601}, "859709164RR0001": {"name": "JUBILATE VOCAL ENSEMBLE SOCIETY", "designationCode": "C", "categoryCode": "22", "address": "3-6061 BOUNDARY DRIVE WEST", "city": "SURREY", "province": "BC", "country": "CA", "postalCode": "V3X2A6", "twitter": "None", "instagram": "None", "facebook": "None", "youtube": "None", "website": "None", "summary": "None", "logo": "None", "latitude": 49.11276669054757, "longitude": -122.88879054290479}, "891640666RR0001": {"name": "JUBILATION MALE CHORUS", "designationCode": "C", "categoryCode": "22", "address": "401 HURON STREET", "city": "NEW HAMBURG", "province": "ON", "country": "CA", "postalCode": "N3A1K5", "twitter": "None", "instagram": "None", "facebook": "None", "youtube": "None", "website": "None", "summary": "None", "logo": "None", "latitude": 43.37454030140237, "longitude": -80.71649080319138}, "132552274RR0001": {"name": "JUBILATION RESIDENTIAL CENTRES INC.", "designationCode": "C", "categoryCode": "01", "address": "1643 14 ST W", "city": "PRINCE ALBERT", "province": "SK", "country": "CA", "postalCode": "S6V3N6", "twitter": "None", "instagram": "None", "facebook": "None", "youtube": "None", "website": "None", "summary": "None", "logo": "None", "latitude": 53.200205488458806, "longitude": -105.79370208243405}, "136814936RR0001": {"name": "JUBILEE CHRISTIAN CENTRE CHURCH", "designationCode": "C", "categoryCode": "39", "address": "458-35 AVENUE NW", "city": "CALGARY", "province": "AB", "country": "CA", "postalCode": "T2K0C1", "twitter": "None", "instagram": "None", "facebook": "None", "youtube": "None", "website": "None", "summary": "None", "logo": "None", "latitude": 51.084181486005974, "longitude": -114.07122}, "898817812RR0001": {"name": "JUBILEE CHRISTIAN CHURCH COMMUNITY", "designationCode": "C", "categoryCode": "39", "address": "2740 GRAINGER RD", "city": "VICTORIA", "province": "BC", "country": "CA", "postalCode": "V9B3K6", "twitter": "None", "instagram": "None", "facebook": "None", "youtube": "None", "website": "None", "summary": "None", "logo": "None", "latitude": 48.44830905248408, "longitude": -123.48778757141247}, "141178996RR0001": {"name": "JUBILEE CHURCH", "designationCode": "C", "categoryCode": "39", "address": "3521 MORGAN CRES", "city": "LONDON", "province": "ON", "country": "CA", "postalCode": "N6L0B7", "twitter": "None", "instagram": "None", "facebook": "None", "youtube": "None", "website": "None", "summary": "None", "logo": "None", "latitude": 42.92953312460013, "longitude": -81.27280097191458}, "837856129RR0001": {"name": "JUBILEE CHURCH OF GOD", "designationCode": "C", "categoryCode": "39", "address": "215 FIRST ST S", "city": "KENORA", "province": "ON", "country": "CA", "postalCode": "P9N1C2", "twitter": "None", "instagram": "None", "facebook": "None", "youtube": "None", "website": "None", "summary": "None", "logo": "None", "latitude": 49.767477936984335, "longitude": -94.48932000317399}, "119288918RR0185": {"name": "JUBILEE CONGREGATION OF JEHOVAH'S WITNESSES", "designationCode": "C", "categoryCode": "61", "address": "2805 FIFTH STREET", "city": "VICTORIA", "province": "BC", "country": "CA", "postalCode": "V8T4B3", "twitter": "None", "instagram": "None", "facebook": "None", "youtube": "None", "website": "None", "summary": "None", "logo": "None", "latitude": 48.44135605689882, "longitude": -123.35830308047215}, "107552408RR0001": {"name": "JUBILEE FELLOWSHIP CHRISTIAN REFORMED CHURCH OF ST. CATHARINES", "designationCode": "C", "categoryCode": "39", "address": "13 WILHOLME DR", "city": "ST CATHARINES", "province": "ON", "country": "CA", "postalCode": "L2R6P9", "twitter": "None", "instagram": "None", "facebook": "None", "youtube": "None", "website": "None", "summary": "None", "logo": "None", "latitude": 43.16332944993916, "longitude": -79.27841487151582}, "891486441RR0001": {"name": "JUBILEE MENNONITE", "designationCode": "C", "categoryCode": "39", "address": "10 BALMORAL BAY", "city": "BRANDON", "province": "MB", "country": "CA", "postalCode": "R7A6C5", "twitter": "None", "instagram": "None", "facebook": "None", "youtube": "None", "website": "None", "summary": "None", "logo": "None", "latitude": 49.82285949567217, "longitude": -99.94709152553523}, "140800640RR0001": {"name": "JUBILEE MENNONITE CHURCH", "designationCode": "C", "categoryCode": "34", "address": "365 EDELWEISS CRESCENT", "city": "WINNIPEG", "province": "MB", "country": "CA", "postalCode": "R2G2B6", "twitter": "None", "instagram": "None", "facebook": "None", "youtube": "None", "website": "None", "summary": "None", "logo": "None", "latitude": 49.93718562557, "longitude": -97.06592409236005}, "118976018RR0001": {"name": "JUBILEE PARK CONGREGATION OF JEHOVAH'S WITNESSES, CAMROSE, ALBERTA", "designationCode": "C", "categoryCode": "61", "address": "PO BOX 1211", "city": "CAMROSE", "province": "AB", "country": "CA", "postalCode": "T4V1X2", "twitter": "None", "instagram": "None", "facebook": "None", "youtube": "None", "website": "None", "summary": "None", "logo": "None", "latitude": 53.02423500000006, "longitude": -112.82978149999994}, "107833394RR0053": {"name": "JUBILEE PENTECOSTAL TEMPLE", "designationCode": "C", "categoryCode": "36", "address": "BOX 399", "city": "BOTWOOD", "province": "NL", "country": "CA", "postalCode": "A0H1E0", "twitter": "None", "instagram": "None", "facebook": "None", "youtube": "None", "website": "None", "summary": "None", "logo": "None", "latitude": 49.12576868009626, "longitude": -55.37020900602628}, "132445180RR0001": {"name": "JUBILEE PRESBYTERIAN CHURCH", "designationCode": "C", "categoryCode": "37", "address": "BOX 26", "city": "STAYNER", "province": "ON", "country": "CA", "postalCode": "L0M1S0", "twitter": "None", "instagram": "None", "facebook": "None", "youtube": "None", "website": "None", "summary": "None", "logo": "None", "latitude": 44.42021839038064, "longitude": -80.10092542779911}, "893571810RR0001": {"name": "JUBILEE RESIDENCES FOUNDATION INC.", "designationCode": "A", "categoryCode": "03", "address": "25-2602 TAYLOR STREET E.", "city": "SASKATOON", "province": "SK", "country": "CA", "postalCode": "S7H1X2", "twitter": "None", "instagram": "None", "facebook": "None", "youtube": "None", "website": "None", "summary": "None", "logo": "None", "latitude": 52.106397691009846, "longitude": -106.61672775621761}, "118976042RR0001": {"name": "JUBILEE RESIDENCES INC.", "designationCode": "C", "categoryCode": "01", "address": "25-2602 TAYLOR STREET E.", "city": "SASKATOON", "province": "SK", "country": "CA", "postalCode": "S7H1X2", "twitter": "None", "instagram": "None", "facebook": "None", "youtube": "None", "website": "None", "summary": "None", "logo": "None", "latitude": 52.106397691009846, "longitude": -106.61672775621761}, "118887215RR0001": {"name": "JUBILEE UNITED CHURCH", "designationCode": "C", "categoryCode": "44", "address": "40 UNDERHILL DR", "city": "DON MILLS", "province": "ON", "country": "CA", "postalCode": "M3A2J5", "twitter": "None", "instagram": "None", "facebook": "None", "youtube": "None", "website": "None", "summary": "None", "logo": "None", "latitude": 43.74415524479199, "longitude": -79.32616753903832}, "802930248RR0001": {"name": "JUBILEE UNITED PENTECOSTAL APOSTOLIC CHURCH INC.", "designationCode": "C", "categoryCode": "39", "address": "100-860 CAHILL DRIVE WEST", "city": "OTTAWA", "province": "ON", "country": "CA", "postalCode": "K1V9A3", "twitter": "None", "instagram": "None", "facebook": "None", "youtube": "None", "website": "None", "summary": "None", "logo": "None", "latitude": 45.34808288980902, "longitude": -75.66434472358553}, "138198296RR0001": {"name": "JUBILEE WORLD OUTREACH INC.", "designationCode": "C", "categoryCode": "39", "address": "PO BOX 4152                   STATION DOUGLASTOWN", "city": "MIRAMICHI", "province": "NB", "country": "CA", "postalCode": "E1V7K9", "twitter": "None", "instagram": "None", "facebook": "None", "youtube": "None", "website": "None", "summary": "None", "logo": "None", "latitude": 47.02329000000003, "longitude": -65.50812999999994}, "118976067RR0001": {"name": "JUDAIC EDUCATION LIBRARY SOCIETY", "designationCode": "C", "categoryCode": "21", "address": "PO BOX 1074", "city": "HALIFAX", "province": "NS", "country": "CA", "postalCode": "B3J2X1", "twitter": "None", "instagram": "None", "facebook": "None", "youtube": "None", "website": "None", "summary": "None", "logo": "None", "latitude": 44.645478000000054, "longitude": -63.576552499999934}, "899659999RR0001": {"name": "JUDIQUE COMMUNITY CENTRE DEVELOPMENT ASSOCIATION", "designationCode": "C", "categoryCode": "56", "address": "5473 ROUTE 19", "city": "JUDIQUE", "province": "NS", "country": "CA", "postalCode": "B0E1P0", "twitter": "None", "instagram": "None", "facebook": "None", "youtube": "None", "website": "None", "summary": "None", "logo": "None", "latitude": 45.87777009921425, "longitude": -61.49098363957456}, "118803204RR0001": {"name": "JUDITH AND JOHN LECHTER FOUNDATION / FONDATION JUDITH ET JOHN LECHTER", "designationCode": "B", "categoryCode": "03", "address": "2015 DRUMMOND ST STE 200", "city": "MONTREAL", "province": "QC", "country": "CA", "postalCode": "H3G1W7", "twitter": "None", "instagram": "None", "facebook": "None", "youtube": "None", "website": "None", "summary": "None", "logo": "None", "latitude": 45.49968084626907, "longitude": -73.57636800787719}, "107552838RR0001": {"name": "JUDITH MARCUSE PROJECTS SOCIETY", "designationCode": "C", "categoryCode": "22", "address": "1299 MARLENE RD", "city": "ROBERTS CREEK", "province": "BC", "country": "CA", "postalCode": "V0N2W2", "twitter": "None", "instagram": "None", "facebook": "None", "youtube": "None", "website": "None", "summary": "None", "logo": "None", "latitude": 49.429278251457106, "longitude": -123.6584442642677}, "889922779RR0001": {"name": "JUDY COBBIN MEMORIAL EDUCATION TRUST FUND", "designationCode": "B", "categoryCode": "25", "address": "133-12520 HORSESHOE WAY", "city": "RICHMOND", "province": "BC", "country": "CA", "postalCode": "V7A5K3", "twitter": "None", "instagram": "None", "facebook": "None", "youtube": "None", "website": "None", "summary": "None", "logo": "None", "latitude": 49.12281213662409, "longitude": -123.09402769765836}, "891229148RR0001": {"name": "JUDY JARVIS DANCE FOUNDATION", "designationCode": "C", "categoryCode": "22", "address": "21 SPRUCE STREET", "city": "TORONTO", "province": "ON", "country": "CA", "postalCode": "M5A2H8", "twitter": "None", "instagram": "None", "facebook": "None", "youtube": "None", "website": "None", "summary": "None", "logo": "None", "latitude": 43.663400885913894, "longitude": -79.36645561864508}, "867017535RR0001": {"name": "JUHOON METHODIST CHURCH IN VANCOUVER", "designationCode": "C", "categoryCode": "39", "address": "1504 SPRICE AVE", "city": "COQUITLAM", "province": "BC", "country": "CA", "postalCode": "V3J2P6", "twitter": "None", "instagram": "None", "facebook": "None", "youtube": "None", "website": "None", "summary": "None", "logo": "None", "latitude": 49.25712053231591, "longitude": -122.85094427699232}, "770348928RR0001": {"name": "JULIEN GAUDET'S HOUSE", "designationCode": "C", "categoryCode": "11", "address": "11610 COUNTY RD 42            RR 2", "city": "WINDSOR", "province": "ON", "country": "CA", "postalCode": "N8N2M1", "twitter": "None", "instagram": "None", "facebook": "None", "youtube": "None", "website": "None", "summary": "None", "logo": "None", "latitude": 42.27675664411461, "longitude": -82.8925986657376}, "878821610RR0001": {"name": "JUMBLIES THEATRE", "designationCode": "C", "categoryCode": "22", "address": "257 PERTH AVENUE", "city": "TORONTO", "province": "ON", "country": "CA", "postalCode": "M6P3X9", "twitter": "None", "instagram": "None", "facebook": "None", "youtube": "None", "website": "None", "summary": "None", "logo": "None", "latitude": 43.66164459562002, "longitude": -79.45077979459303}, "864326814RR0001": {"name": "JUMP MATH", "designationCode": "C", "categoryCode": "21", "address": "1014 - 1 YONGE ST", "city": "TORONTO", "province": "ON", "country": "CA", "postalCode": "M5E1E5", "twitter": "None", "instagram": "None", "facebook": "None", "youtube": "None", "website": "None", "summary": "None", "logo": "None", "latitude": 43.64545122998886, "longitude": -79.37634527541341}, "118976166RR0001": {"name": "JUNIOR ACHIEVEMENT OF BRITISH COLUMBIA", "designationCode": "C", "categoryCode": "21", "address": "360-475 GEORGIA ST W", "city": "VANCOUVER", "province": "BC", "country": "CA", "postalCode": "V6B4M9", "twitter": "None", "instagram": "None", "facebook": "None", "youtube": "None", "website": "None", "summary": "None", "logo": "None", "latitude": 49.28107337552653, "longitude": -123.11582762585846}, "107554222RR0002": {"name": "JUNIOR ACHIEVEMENT OF CANADA", "designationCode": "C", "categoryCode": "21", "address": "218-1 EVA ROAD", "city": "TORONTO", "province": "ON", "country": "CA", "postalCode": "M9C4Z5", "twitter": "None", "instagram": "None", "facebook": "None", "youtube": "None", "website": "None", "summary": "None", "logo": "None", "latitude": 43.639672674418755, "longitude": -79.5631489217209}, "107554297RR0001": {"name": "JUNIOR ACHIEVEMENT OF CENTRAL ONTARIO", "designationCode": "C", "categoryCode": "21", "address": "405-133 RICHMOND ST. W", "city": "TORONTO", "province": "ON", "country": "CA", "postalCode": "M5H2L3", "twitter": "None", "instagram": "None", "facebook": "None", "youtube": "None", "website": "None", "summary": "None", "logo": "None", "latitude": 43.65076373122454, "longitude": -79.38307050453754}, "107554263RR0001": {"name": "JUNIOR ACHIEVEMENT OF LONDON & DISTRICT, INC.", "designationCode": "C", "categoryCode": "21", "address": "15 WHARNCLIFFE RD N", "city": "LONDON", "province": "ON", "country": "CA", "postalCode": "N6H2A1", "twitter": "None", "instagram": "None", "facebook": "None", "youtube": "None", "website": "None", "summary": "None", "logo": "None", "latitude": 42.98218044817115, "longitude": -81.2625828911194}, "107554289RR0001": {"name": "JUNIOR ACHIEVEMENT OF MANITOBA INC.", "designationCode": "C", "categoryCode": "21", "address": "1149 ST MATTHEWS AVE", "city": "WINNIPEG", "province": "MB", "country": "CA", "postalCode": "R3G0J8", "twitter": "None", "instagram": "None", "facebook": "None", "youtube": "None", "website": "None", "summary": "None", "logo": "None", "latitude": 49.89049348326467, "longitude": -97.18296245031453}, "126494798RR0001": {"name": "JUNIOR ACHIEVEMENT OF NEW BRUNSWICK/JEUNES ENTREPRISES DU NOUVEAU-BRUNSWICK INC", "designationCode": "C", "categoryCode": "21", "address": "PO BOX 631, STN A", "city": "FREDERICTON", "province": "NB", "country": "CA", "postalCode": "E3B5A6", "twitter": "None", "instagram": "None", "facebook": "None", "youtube": "None", "website": "None", "summary": "None", "logo": "None", "latitude": 45.96062100000006, "longitude": -66.63911299999994}, "107554305RR0001": {"name": "JUNIOR ACHIEVEMENT OF NEWFOUNDLAND AND LABRADOR INC.", "designationCode": "C", "categoryCode": "21", "address": "P.O.BOX 7468", "city": "ST. JOHN'S", "province": "NL", "country": "CA", "postalCode": "A1E4V8", "twitter": "None", "instagram": "None", "facebook": "None", "youtube": "None", "website": "None", "summary": "None", "logo": "None", "latitude": 47.56082100000006, "longitude": -52.71219349999993}, "107554321RR0001": {"name": "JUNIOR ACHIEVEMENT OF NORTHERN ALBERTA AND THE NORTHWEST TERRITORIES SOCIETY", "designationCode": "C", "categoryCode": "21", "address": "200 - 10150 100 ST NW", "city": "EDMONTON", "province": "AB", "country": "CA", "postalCode": "T5J0P6", "twitter": "None", "instagram": "None", "facebook": "None", "youtube": "None", "website": "None", "summary": "None", "logo": "None", "latitude": 53.54442389545574, "longitude": -113.49089739372553}, "107554271RR0001": {"name": "JUNIOR ACHIEVEMENT OF NOVA SCOTIA", "designationCode": "C", "categoryCode": "21", "address": "300 - 1550 BEDFORD HWY", "city": "BEDFORD", "province": "NS", "country": "CA", "postalCode": "B4A1E6", "twitter": "None", "instagram": "None", "facebook": "None", "youtube": "None", "website": "None", "summary": "None", "logo": "None", "latitude": 44.73204458209604, "longitude": -63.65700298276793}, "107554362RR0001": {"name": "JUNIOR ACHIEVEMENT OF PRINCE EDWARD ISLAND INC.", "designationCode": "C", "categoryCode": "21", "address": "P O BOX 21", "city": "CHARLOTTETOWN", "province": "PE", "country": "CA", "postalCode": "C1A7K2", "twitter": "None", "instagram": "None", "facebook": "None", "youtube": "None", "website": "None", "summary": "None", "logo": "None", "latitude": 46.23659700000006, "longitude": -63.12815449999994}, "118976364RR0001": {"name": "JUNIOR ACHIEVEMENT OF SASKATCHEWAN CORP.", "designationCode": "C", "categoryCode": "21", "address": "1110-410 22ND ST E", "city": "SASKATOON", "province": "SK", "country": "CA", "postalCode": "S7K5T6", "twitter": "None", "instagram": "None", "facebook": "None", "youtube": "None", "website": "None", "summary": "None", "logo": "None", "latitude": 52.129097687794655, "longitude": -106.66598560188571}, "118976190RR0001": {"name": "JUNIOR ACHIEVEMENT OF SOUTH WESTERN ONTARIO INC.", "designationCode": "C", "categoryCode": "21", "address": "P.O. BOX 353", "city": "CHATHAM", "province": "ON", "country": "CA", "postalCode": "N7M5K4", "twitter": "None", "instagram": "None", "facebook": "None", "youtube": "None", "website": "None", "summary": "None", "logo": "None", "latitude": 42.404613000000055, "longitude": -82.18960099999994}, "107554396RR0001": {"name": "JUNIOR ACHIEVEMENT OF SOUTHERN ALBERTA", "designationCode": "C", "categoryCode": "21", "address": "870-105 12 AVE SE", "city": "CALGARY", "province": "AB", "country": "CA", "postalCode": "T2G1A1", "twitter": "None", "instagram": "None", "facebook": "None", "youtube": "None", "website": "None", "summary": "None", "logo": "None", "latitude": 51.04136053621104, "longitude": -114.06274186372553}, "107554255RR0001": {"name": "JUNIOR ACHIEVEMENT OF THE WATERLOO REGION INC.", "designationCode": "C", "categoryCode": "21", "address": "1-40 SHIRLEY AVE", "city": "KITCHENER", "province": "ON", "country": "CA", "postalCode": "N2B2E2", "twitter": "None", "instagram": "None", "facebook": "None", "youtube": "None", "website": "None", "summary": "None", "logo": "None", "latitude": 43.466115250043465, "longitude": -80.4646433516361}, "863280780RR0001": {"name": "JUNIOR ACHIEVEMENT OF WATERLOO REGION FOUNDATION", "designationCode": "A", "categoryCode": "03", "address": "29 KING ST EAST, UNIT B", "city": "KITCHENER", "province": "ON", "country": "CA", "postalCode": "N2G2K4", "twitter": "None", "instagram": "None", "facebook": "None", "youtube": "None", "website": "None", "summary": "None", "logo": "None", "latitude": 43.44952273853092, "longitude": -80.4885436557215}, "118976430RR0001": {"name": "JUNIOR CHAIKA CULTURAL & EDUCATIONAL SOCIETY", "designationCode": "C", "categoryCode": "22", "address": "170 PARKDALE AVE N", "city": "HAMILTON", "province": "ON", "country": "CA", "postalCode": "L8H5X2", "twitter": "None", "instagram": "None", "facebook": "None", "youtube": "None", "website": "None", "summary": "None", "logo": "None", "latitude": 43.240989049397015, "longitude": -79.7900290064922}, "108085606RR0001": {"name": "JUNIOR FARMERS' ASSOCIATION OF ONTARIO", "designationCode": "C", "categoryCode": "29", "address": "100 STONE ROAD WEST           SUITE 206", "city": "GUELPH", "province": "ON", "country": "CA", "postalCode": "N1G5L3", "twitter": "None", "instagram": "None", "facebook": "None", "youtube": "None", "website": "None", "summary": "None", "logo": "None", "latitude": 43.52399928477874, "longitude": -80.22815297796915}, "118976471RR0001": {"name": "JUNIOR LEAGUE OF HALIFAX INC.", "designationCode": "C", "categoryCode": "59", "address": "PO BOX 8011                   STATION A", "city": "HALIFAX", "province": "NS", "country": "CA", "postalCode": "B3K5L8", "twitter": "None", "instagram": "None", "facebook": "None", "youtube": "None", "website": "None", "summary": "None", "logo": "None", "latitude": 44.645478000000054, "longitude": -63.576552499999934}, "118976513RR0001": {"name": "JUNIPER CENTRE INC.", "designationCode": "C", "categoryCode": "20", "address": "108 NELSON ROAD", "city": "THOMPSON", "province": "MB", "country": "CA", "postalCode": "R8N0B6", "twitter": "None", "instagram": "None", "facebook": "None", "youtube": "None", "website": "None", "summary": "None", "logo": "None", "latitude": 55.74429008584586, "longitude": -97.84085800153493}, "829306943RR0001": {"name": "JUNIPER HOUSING CORPORATION", "designationCode": "C", "categoryCode": "09", "address": "408 AVENUE  F. SOUTH", "city": "SASKATOON", "province": "SK", "country": "CA", "postalCode": "S7M1T5", "twitter": "None", "instagram": "None", "facebook": "None", "youtube": "None", "website": "None", "summary": "None", "logo": "None", "latitude": 52.12429180099832, "longitude": -106.67826829055365}, "119277846RR0001": {"name": "JUNIPER UNITED PENTECOSTAL CHURCH", "designationCode": "C", "categoryCode": "36", "address": "37 JUNIPER RD.", "city": "JUNIPER", "province": "NB", "country": "CA", "postalCode": "E7L1G5", "twitter": "None", "instagram": "None", "facebook": "None", "youtube": "None", "website": "None", "summary": "None", "logo": "None", "latitude": 46.54965190666676, "longitude": -67.22505727262994}, "891257149RR0001": {"name": "JUNO BEACH CENTRE ASSOCIATION", "designationCode": "C", "categoryCode": "59", "address": "5344 JOHN LUCAS DR", "city": "BURLINGTON", "province": "ON", "country": "CA", "postalCode": "L7L6A6", "twitter": "None", "instagram": "None", "facebook": "None", "youtube": "None", "website": "None", "summary": "None", "logo": "None", "latitude": 43.396937553379054, "longitude": -79.76511216902304}, "861404135RR0001": {"name": "JUSQU'AUX EXTREMITES DE LA TERRE (JET)", "designationCode": "C", "categoryCode": "47", "address": "29, PIED-DE-ROI", "city": "LAC-BEAUPORT", "province": "QC", "country": "CA", "postalCode": "G2B1N7", "twitter": "None", "instagram": "None", "facebook": "None", "youtube": "None", "website": "None", "summary": "None", "logo": "None", "latitude": 46.94194805135891, "longitude": -71.2878591433436}, "890323371RR0001": {"name": "JUST FRIENDS FOODBANK", "designationCode": "C", "categoryCode": "09", "address": "1284 ROUTE 107                UNIT B", "city": "CROSS CREEK", "province": "NB", "country": "CA", "postalCode": "E6B1V6", "twitter": "None", "instagram": "None", "facebook": "None", "youtube": "None", "website": "None", "summary": "None", "logo": "None", "latitude": 46.31013299076456, "longitude": -66.71698522528878}, "887457661RR0001": {"name": "JUST PUSH PLAY THEATRE SOCIETY", "designationCode": "C", "categoryCode": "22", "address": "3522 WEST,3 AVE.", "city": "VANCOUVER", "province": "BC", "country": "CA", "postalCode": "V6R1L7", "twitter": "None", "instagram": "None", "facebook": "None", "youtube": "None", "website": "None", "summary": "None", "logo": "None", "latitude": 49.26945654674262, "longitude": -123.18227371870852}, "808928345RR0001": {"name": "JUST THE LITTLE LIGHTS RELIEF ORGANIZATION", "designationCode": "C", "categoryCode": "09", "address": "224 BROWNRIDGE DR", "city": "THORNHILL", "province": "ON", "country": "CA", "postalCode": "L4J7G1", "twitter": "None", "instagram": "None", "facebook": "None", "youtube": "None", "website": "None", "summary": "None", "logo": "None", "latitude": 43.80577518347844, "longitude": -79.46701759423505}, "107554826RR0001": {"name": "JUST 4 MOMS AND KIDS CO-OPERATIVE CORPORATION", "designationCode": "C", "categoryCode": "20", "address": "85 SIMCOE ST N                RR 2", "city": "SCOTLAND", "province": "ON", "country": "CA", "postalCode": "N0E1R0", "twitter": "None", "instagram": "None", "facebook": "None", "youtube": "None", "website": "None", "summary": "None", "logo": "None", "latitude": 43.028485292255766, "longitude": -80.37648633833454}, "889184891RR0001": {"name": "JUST.EQUIPPING/JUSTE.EQUIPAGE", "designationCode": "C", "categoryCode": "49", "address": "PO BOX 2984", "city": "GATINEAU", "province": "QC", "country": "CA", "postalCode": "J8L2X5", "twitter": "None", "instagram": "None", "facebook": "None", "youtube": "None", "website": "None", "summary": "None", "logo": "None", "latitude": 45.70998900000005, "longitude": -75.38733349999994}, "831259726RR0001": {"name": "JUSTICE ACCESS SOCIETY FOR MAINTAINING INDEPENDENCE & EMPOWERMENT", "designationCode": "C", "categoryCode": "09", "address": "212 - 4900 CARTIER ST", "city": "VANCOUVER", "province": "BC", "country": "CA", "postalCode": "V6M4H2", "twitter": "None", "instagram": "None", "facebook": "None", "youtube": "None", "website": "None", "summary": "None", "logo": "None", "latitude": 49.24172903379104, "longitude": -123.13690249904111}, "132198391RR0001": {"name": "JUSTICE ALTERNATIVE DU HAUT-RICHELIEU", "designationCode": "C", "categoryCode": "09", "address": "200-870 DU CUR\u00c9-SAINT-GEORGES", "city": "ST-JEAN-SUR-RICHELIEU", "province": "QC", "country": "CA", "postalCode": "J2X2Z8", "twitter": "None", "instagram": "None", "facebook": "None", "youtube": "None", "website": "None", "summary": "None", "logo": "None", "latitude": 45.30316945107467, "longitude": -73.242063}, "100172188RR0001": {"name": "JUSTICE ALTERNATIVE ET MEDIATION", "designationCode": "C", "categoryCode": "59", "address": "400 PRINCIPALE                SUITE 203", "city": "GRANBY", "province": "QC", "country": "CA", "postalCode": "J2G2W6", "twitter": "None", "instagram": "None", "facebook": "None", "youtube": "None", "website": "None", "summary": "None", "logo": "None", "latitude": 45.40305720811962, "longitude": -72.73365552155317}, "129475877RR0001": {"name": "JUSTICE EDUCATION SOCIETY OF BRITISH COLUMBIA", "designationCode": "C", "categoryCode": "21", "address": "260-800 HORNBY ST", "city": "VANCOUVER", "province": "BC", "country": "CA", "postalCode": "V6Z2C5", "twitter": "None", "instagram": "None", "facebook": "None", "youtube": "None", "website": "None", "summary": "None", "logo": "None", "latitude": 49.28155764943177, "longitude": -123.12328765413497}, "869333740RR0001": {"name": "JUSTICE FOR GIRLS OUTREACH SOCIETY", "designationCode": "C", "categoryCode": "09", "address": "500 - 610 MAIN ST", "city": "VANCOUVER", "province": "BC", "country": "CA", "postalCode": "V6A2T7", "twitter": "None", "instagram": "None", "facebook": "None", "youtube": "None", "website": "None", "summary": "None", "logo": "None", "latitude": 49.279329707163114, "longitude": -123.09969365930993}, "881152219RR0001": {"name": "JUSTIN FREE MINISTRIES", "designationCode": "C", "categoryCode": "47", "address": "353 JOHN ST", "city": "SAULT STE. MARIE", "province": "ON", "country": "CA", "postalCode": "P6C3J6", "twitter": "None", "instagram": "None", "facebook": "None", "youtube": "None", "website": "None", "summary": "None", "logo": "None", "latitude": 46.52494594976627, "longitude": -84.34343911951046}, "802245076RR0001": {"name": "JUSTIN SLADE YOUTH FOUNDATION", "designationCode": "C", "categoryCode": "09", "address": "PO BOX 5886 STN MAIN", "city": "FORT MCMURRAY", "province": "AB", "country": "CA", "postalCode": "T9H4V9", "twitter": "None", "instagram": "None", "facebook": "None", "youtube": "None", "website": "None", "summary": "None", "logo": "None", "latitude": 56.72886017135369, "longitude": -111.38020385943572}, "845863125RR0001": {"name": "JUSTWORK ECONOMIC INITIATIVE", "designationCode": "C", "categoryCode": "09", "address": "1803 EAST 1ST AVENUE", "city": "VANCOUVER", "province": "BC", "country": "CA", "postalCode": "V5N1B2", "twitter": "None", "instagram": "None", "facebook": "None", "youtube": "None", "website": "None", "summary": "None", "logo": "None", "latitude": 49.269606525967916, "longitude": -123.06736308090484}, "118976562RR0001": {"name": "JUVENAT NOTRE-DAME DU SAINT-LAURENT", "designationCode": "C", "categoryCode": "20", "address": "30 RUE DU JUVENAT", "city": "LEVIS", "province": "QC", "country": "CA", "postalCode": "G6W7X2", "twitter": "None", "instagram": "None", "facebook": "None", "youtube": "None", "website": "None", "summary": "None", "logo": "None", "latitude": 46.761701268682444, "longitude": -71.23603583175635}, "118976604RR0001": {"name": "JUVENILE DIABETES RESEARCH FOUNDATION CANADA/FONDATION DE LA RECHERCHE SUR LE DIABETE JUVENILE CANADA", "designationCode": "C", "categoryCode": "11", "address": "800-2550 VICTORIA PARK AVENUE", "city": "TORONTO", "province": "ON", "country": "CA", "postalCode": "M2J5A9", "twitter": "None", "instagram": "None", "facebook": "None", "youtube": "None", "website": "None", "summary": "None", "logo": "None", "latitude": 43.773586260892166, "longitude": -79.32237599584506}, "808972582RR0001": {"name": "JVT Foundation", "designationCode": "B", "categoryCode": "03", "address": "61 WENDOVER ROAD", "city": "TORONTO", "province": "ON", "country": "CA", "postalCode": "M8X2L2", "twitter": "None", "instagram": "None", "facebook": "None", "youtube": "None", "website": "None", "summary": "None", "logo": "None", "latitude": 43.6517977887933, "longitude": -79.50819044390924}, "810925255RR0001": {"name": "JW Congregation Support / Soutien aux Congr\u00e9gations des TJ", "designationCode": "C", "categoryCode": "52", "address": "BOX 4100", "city": "GEORGETOWN", "province": "ON", "country": "CA", "postalCode": "L7G4Y4", "twitter": "None", "instagram": "None", "facebook": "None", "youtube": "None", "website": "None", "summary": "None", "logo": "None", "latitude": 43.65006000000005, "longitude": -79.89909199999994}, "857910665RR0001": {"name": "K Foundation Inc.", "designationCode": "B", "categoryCode": "03", "address": "11536 78 AVE NW", "city": "EDMONTON", "province": "AB", "country": "CA", "postalCode": "T6G0N5", "twitter": "None", "instagram": "None", "facebook": "None", "youtube": "None", "website": "None", "summary": "None", "logo": "None", "latitude": 53.514169500432686, "longitude": -113.530914}, "888641859RR0001": {"name": "K K I D S KINGSTON KIDS WITH ILLNESS DESERVE SUPPORT INC.", "designationCode": "C", "categoryCode": "09", "address": "P.O. BOX 1241", "city": "KINGSTON", "province": "ON", "country": "CA", "postalCode": "K7L4Y8", "twitter": "None", "instagram": "None", "facebook": "None", "youtube": "None", "website": "None", "summary": "None", "logo": "None", "latitude": 44.23153200000006, "longitude": -76.47933049999993}, "833914955RR0001": {"name": "K O Arts Centre Society of Calgary", "designationCode": "C", "categoryCode": "22", "address": "244034 HORIZON VIEW ROAD", "city": "CALGARY", "province": "AB", "country": "CA", "postalCode": "T3Z3M5", "twitter": "None", "instagram": "None", "facebook": "None", "youtube": "None", "website": "None", "summary": "None", "logo": "None", "latitude": 51.06883094377769, "longitude": -114.28067373237852}, "118976711RR0001": {"name": "K.A.H. FOUNDATION", "designationCode": "C", "categoryCode": "09", "address": "45 FRONTENAC AVENUE", "city": "TORONTO", "province": "ON", "country": "CA", "postalCode": "M5M1Z6", "twitter": "None", "instagram": "None", "facebook": "None", "youtube": "None", "website": "None", "summary": "None", "logo": "None", "latitude": 43.71785283484344, "longitude": -79.42415528919734}, "118978279RR0001": {"name": "K.C. CENTRE P.A. INC.", "designationCode": "C", "categoryCode": "01", "address": "205 13TH ST W", "city": "PRINCE ALBERT", "province": "SK", "country": "CA", "postalCode": "S6V7N2", "twitter": "None", "instagram": "None", "facebook": "None", "youtube": "None", "website": "None", "summary": "None", "logo": "None"}, "831252119RR0001": {"name": "K.C. Hymners Music Ministry Society", "designationCode": "B", "categoryCode": "22", "address": "202 - 2425 90 AVE SW", "city": "CALGARY", "province": "AB", "country": "CA", "postalCode": "T2V4X8", "twitter": "None", "instagram": "None", "facebook": "None", "youtube": "None", "website": "None", "summary": "None", "logo": "None", "latitude": 50.97213950346246, "longitude": -114.116652}, "118978287RR0001": {"name": "K.C.S. BAND PARENTS ASSOCIATION", "designationCode": "C", "categoryCode": "21", "address": "BOX 1450", "city": "KINDERSLEY", "province": "SK", "country": "CA", "postalCode": "S0L1S0", "twitter": "None", "instagram": "None", "facebook": "None", "youtube": "None", "website": "None", "summary": "None", "logo": "None", "latitude": 51.46791900000005, "longitude": -109.15522999999993}, "118978378RR0001": {"name": "K.E.E.P. CHILD CARE INC.", "designationCode": "C", "categoryCode": "01", "address": "795 SELKIRK AVE", "city": "WINNIPEG", "province": "MB", "country": "CA", "postalCode": "R2W2N5", "twitter": "None", "instagram": "None", "facebook": "None", "youtube": "None", "website": "None", "summary": "None", "logo": "None", "latitude": 49.919273946448065, "longitude": -97.1561223188875}, "815551866RR0001": {"name": "K.I.D.S. Kenya Initiative for Development & Sustainability Inc.", "designationCode": "C", "categoryCode": "09", "address": "A-1415 HENDERSON HYWAY", "city": "WINNIPEG", "province": "MB", "country": "CA", "postalCode": "R2G1N3", "twitter": "None", "instagram": "None", "facebook": "None", "youtube": "None", "website": "None", "summary": "None", "logo": "None", "latitude": 49.944834765739586, "longitude": -97.08659744359211}, "137269957RR0001": {"name": "K.I.D.S. KIDS IN DAYCARE ARE SUPER INC.", "designationCode": "C", "categoryCode": "01", "address": "112 - 691 MONTROSE ST", "city": "WINNIPEG", "province": "MB", "country": "CA", "postalCode": "R3M3M4", "twitter": "None", "instagram": "None", "facebook": "None", "youtube": "None", "website": "None", "summary": "None", "logo": "None", "latitude": 49.8579795, "longitude": -97.17963075}, "816882757RR0001": {"name": "K.O. Arts Foundation of Calgary", "designationCode": "B", "categoryCode": "23", "address": "244034 HORIZON VIEW ROAD", "city": "CALGARY", "province": "AB", "country": "CA", "postalCode": "T3Z3M5", "twitter": "None", "instagram": "None", "facebook": "None", "youtube": "None", "website": "None", "summary": "None", "logo": "None", "latitude": 51.06883094377769, "longitude": -114.28067373237852}, "118987445RR0001": {"name": "K.R.T. CHRISTIAN SCHOOLS", "designationCode": "C", "categoryCode": "20", "address": "141 KENNEDY RD N", "city": "BRAMPTON", "province": "ON", "country": "CA", "postalCode": "L6V1X9", "twitter": "None", "instagram": "None", "facebook": "None", "youtube": "None", "website": "None", "summary": "None", "logo": "None", "latitude": 43.703405771827775, "longitude": -79.75990138014282}, "881371314RR0001": {"name": "K.S.S. FINE ARTS SOCIETY", "designationCode": "C", "categoryCode": "22", "address": "2-707 PRIMROSE ST", "city": "QUALICUM BEACH", "province": "BC", "country": "CA", "postalCode": "V9K2K1", "twitter": "None", "instagram": "None", "facebook": "None", "youtube": "None", "website": "None", "summary": "None", "logo": "None", "latitude": 49.34639733527612, "longitude": -124.44439520872518}, "871144135RR0001": {"name": "K.V. COMMITTEE FOR DISABLED PERSONS INC.", "designationCode": "C", "categoryCode": "09", "address": "10 RIDGE MANOR DR", "city": "QUISPAMSIS", "province": "NB", "country": "CA", "postalCode": "E2E6B6", "twitter": "None", "instagram": "None", "facebook": "None", "youtube": "None", "website": "None", "summary": "None", "logo": "None", "latitude": 45.40765908604075, "longitude": -65.9515202220554}, "811739887RR0001": {"name": "K&MW Charitable Association", "designationCode": "B", "categoryCode": "03", "address": "33466 BALSAM AVENUE", "city": "MISSION", "province": "BC", "country": "CA", "postalCode": "V2V5W6", "twitter": "None", "instagram": "None", "facebook": "None", "youtube": "None", "website": "None", "summary": "None", "logo": "None", "latitude": 49.148002878123606, "longitude": -122.29767687480539}}