{"106727688RR0001": {"name": "FAMILY COMMUNITY CHURCH", "designationCode": "C", "categoryCode": "36", "address": "1699 CHAPLIN ST E", "city": "SWIFT CURRENT", "province": "SK", "country": "CA", "postalCode": "S9H1K7", "twitter": "None", "instagram": "None", "facebook": "None", "youtube": "None", "website": "None", "summary": "None", "logo": "None", "latitude": 50.2853945115412, "longitude": -107.77668202553522}, "817366073RR0001": {"name": "FAMILY COUNCIL SPRUCEDALE CARE CENTRE", "designationCode": "C", "categoryCode": "09", "address": "96 KITTRIDGE AVENUE EAST", "city": "STRATHROY", "province": "ON", "country": "CA", "postalCode": "N7G2A8", "twitter": "None", "instagram": "None", "facebook": "None", "youtube": "None", "website": "None", "summary": "None", "logo": "None", "latitude": 42.96418997362805, "longitude": -81.62333710851755}, "118912864RR0001": {"name": "FAMILY COUNSELLING AND SUPPORT SERVICES FOR GUELPH-WELLINGTON", "designationCode": "C", "categoryCode": "11", "address": "109 SURREY ST E", "city": "GUELPH", "province": "ON", "country": "CA", "postalCode": "N1H3P7", "twitter": "None", "instagram": "None", "facebook": "None", "youtube": "None", "website": "None", "summary": "None", "logo": "None", "latitude": 43.544468263662125, "longitude": -80.24387890588052}, "107375230RR0001": {"name": "FAMILY COUNSELLING CENTRE OF BRANT", "designationCode": "C", "categoryCode": "09", "address": "54 BRANT AVENUE", "city": "BRANTFORD", "province": "ON", "country": "CA", "postalCode": "N3T3G8", "twitter": "None", "instagram": "None", "facebook": "None", "youtube": "None", "website": "None", "summary": "None", "logo": "None", "latitude": 43.140280862600356, "longitude": -80.27054510439125}, "107376121RR0001": {"name": "FAMILY COUNSELLING CENTRE OF CAMBRIDGE & NORTH DUMFRIES", "designationCode": "C", "categoryCode": "09", "address": "18 WALNUT ST.", "city": "CAMBRIDGE", "province": "ON", "country": "CA", "postalCode": "N1R2E7", "twitter": "None", "instagram": "None", "facebook": "None", "youtube": "None", "website": "None", "summary": "None", "logo": "None", "latitude": 43.355196533181264, "longitude": -80.31453266472387}, "107375321RR0001": {"name": "FAMILY DAY CARE SERVICES", "designationCode": "C", "categoryCode": "01", "address": "155 GORDON BAKER ROAD         SUITE 400", "city": "TORONTO", "province": "ON", "country": "CA", "postalCode": "M2H3N5", "twitter": "None", "instagram": "None", "facebook": "None", "youtube": "None", "website": "None", "summary": "None", "logo": "None", "latitude": 43.80496057891429, "longitude": -79.34398593894623}, "129863049RR0001": {"name": "FAMILY DYNAMICS INC.", "designationCode": "C", "categoryCode": "09", "address": "401-393 PORTAGE AVE", "city": "WINNIPEG", "province": "MB", "country": "CA", "postalCode": "R3B3H6", "twitter": "None", "instagram": "None", "facebook": "None", "youtube": "None", "website": "None", "summary": "None", "logo": "None", "latitude": 49.89219673884805, "longitude": -97.14776200779028}, "107375529RR0001": {"name": "FAMILY ENRICHMENT & COUNSELLING SERVICE (FREDERICTON) INC.", "designationCode": "C", "categoryCode": "09", "address": "356 QUEEN ST.                 UNIT 1", "city": "FREDERICTON", "province": "NB", "country": "CA", "postalCode": "E3B1B2", "twitter": "None", "instagram": "None", "facebook": "None", "youtube": "None", "website": "None", "summary": "None", "logo": "None", "latitude": 45.96346270967748, "longitude": -66.64428518027577}, "889733168RR0001": {"name": "FAMILY ENRICHMENT MINISTRIES", "designationCode": "C", "categoryCode": "49", "address": "1314 REVELL DR", "city": "MANOTICK", "province": "ON", "country": "CA", "postalCode": "K4M1K7", "twitter": "None", "instagram": "None", "facebook": "None", "youtube": "None", "website": "None", "summary": "None", "logo": "None", "latitude": 45.21754982183037, "longitude": -75.69816498358271}, "878608108RR0001": {"name": "FAMILY FOUNDATIONS INSTITUTE", "designationCode": "C", "categoryCode": "20", "address": "26360 DYMOCK LINE", "city": "WEST LORNE", "province": "ON", "country": "CA", "postalCode": "N0L2P0", "twitter": "None", "instagram": "None", "facebook": "None", "youtube": "None", "website": "None", "summary": "None", "logo": "None", "latitude": 42.69374121554737, "longitude": -81.67227246041617}, "866193394RR0001": {"name": "FAMILY FOUNDATIONS INTERNATIONAL-CANADA", "designationCode": "C", "categoryCode": "47", "address": "315-5155 130 AVE SE           SUITE 246", "city": "CALGARY", "province": "AB", "country": "CA", "postalCode": "T2Z0N3", "twitter": "None", "instagram": "None", "facebook": "None", "youtube": "None", "website": "None", "summary": "None", "logo": "None", "latitude": 50.9315445, "longitude": -113.96038275}, "134970730RR0001": {"name": "FAMILY FUTURES RESOURCE NETWORK SOCIETY", "designationCode": "C", "categoryCode": "59", "address": "5704-19A AVE", "city": "EDMONTON", "province": "AB", "country": "CA", "postalCode": "T6L1L8", "twitter": "None", "instagram": "None", "facebook": "None", "youtube": "None", "website": "None", "summary": "None", "logo": "None", "latitude": 53.45069444662095, "longitude": -113.42872226839398}, "862105244RR0001": {"name": "FAMILY FUTURES, INC.", "designationCode": "C", "categoryCode": "09", "address": "196 - 9TH STREET EAST", "city": "PRINCE ALBERT", "province": "SK", "country": "CA", "postalCode": "S6V0X5", "twitter": "None", "instagram": "None", "facebook": "None", "youtube": "None", "website": "None", "summary": "None", "logo": "None", "latitude": 53.2049045115412, "longitude": -105.7495635}, "832171326RR0001": {"name": "FAMILY LIFE CHRISTIAN CENTRE", "designationCode": "C", "categoryCode": "36", "address": "BOX 1064", "city": "BARRY'S BAY", "province": "ON", "country": "CA", "postalCode": "K0J1B0", "twitter": "None", "instagram": "None", "facebook": "None", "youtube": "None", "website": "None", "summary": "None", "logo": "None", "latitude": 45.48822000000007, "longitude": -77.67845999999997}, "119022267RR0001": {"name": "FAMILY LIFE FELLOWSHIP INC.", "designationCode": "C", "categoryCode": "39", "address": "5704 30 ST", "city": "LLOYDMINSTER", "province": "AB", "country": "CA", "postalCode": "T9V1Y3", "twitter": "None", "instagram": "None", "facebook": "None", "youtube": "None", "website": "None", "summary": "None", "logo": "None", "latitude": 53.26588690980434, "longitude": -110.02620194073523}, "889419594RR0001": {"name": "FAMILY LIFE MINISTRIES", "designationCode": "C", "categoryCode": "36", "address": "2247 WOODWARD AVE", "city": "BURLINGTON", "province": "ON", "country": "CA", "postalCode": "L7R1T3", "twitter": "None", "instagram": "None", "facebook": "None", "youtube": "None", "website": "None", "summary": "None", "logo": "None", "latitude": 43.33736003110381, "longitude": -79.79786083530479}, "866864978RR0001": {"name": "FAMILY MATTERS (ANNAPOLIS CO. FAMILY RESOURCE CENTRE)", "designationCode": "C", "categoryCode": "09", "address": "10 MIDDLE RD", "city": "LAWRENCETOWN", "province": "NS", "country": "CA", "postalCode": "B0S1M0", "twitter": "None", "instagram": "None", "facebook": "None", "youtube": "None", "website": "None", "summary": "None", "logo": "None", "latitude": 44.878866561169346, "longitude": -65.15539892192336}, "118913003RR0001": {"name": "FAMILY MEDIATION CANADA", "designationCode": "C", "categoryCode": "09", "address": "55 NORTH FEILD DR EAST        SUITE 180", "city": "WATERLOO", "province": "ON", "country": "CA", "postalCode": "N2K3T6", "twitter": "None", "instagram": "None", "facebook": "None", "youtube": "None", "website": "None", "summary": "None", "logo": "None", "latitude": 43.50353100000005, "longitude": -80.52811999999993}, "131654741RR0001": {"name": "FAMILY MONTESSORI SCHOOL SOCIETY", "designationCode": "C", "categoryCode": "20", "address": "4196 WEST 4TH AVENUE", "city": "VANCOUVER", "province": "BC", "country": "CA", "postalCode": "V6R4J5", "twitter": "None", "instagram": "None", "facebook": "None", "youtube": "None", "website": "None", "summary": "None", "logo": "None", "latitude": 49.26841916866174, "longitude": -123.20047798146932}, "848517215RR0001": {"name": "FAMILY MOVIE TRUST FUND", "designationCode": "B", "categoryCode": "05", "address": "120 ANNA AVE", "city": "OTTAWA", "province": "ON", "country": "CA", "postalCode": "K1Z7T6", "twitter": "None", "instagram": "None", "facebook": "None", "youtube": "None", "website": "None", "summary": "None", "logo": "None", "latitude": 45.38569012822439, "longitude": -75.72723316140565}, "873626659RR0001": {"name": "FAMILY MUSIC MINISTRIES", "designationCode": "C", "categoryCode": "47", "address": "P.O. BOX 84", "city": "MOOSOMIN", "province": "SK", "country": "CA", "postalCode": "S0G3N0", "twitter": "None", "instagram": "None", "facebook": "None", "youtube": "None", "website": "None", "summary": "None", "logo": "None", "latitude": 50.14728000000008, "longitude": -101.66300999999999}, "863917522RR0001": {"name": "FAMILY OF RADIO MARIA, CANADA", "designationCode": "C", "categoryCode": "47", "address": "511 MAPLE GROVE DR UNIT 19    PO BOX 61047", "city": "OAKVILLE", "province": "ON", "country": "CA", "postalCode": "L6J7P5", "twitter": "None", "instagram": "None", "facebook": "None", "youtube": "None", "website": "None", "summary": "None", "logo": "None", "latitude": 43.47902208549247, "longitude": -79.65732373798265}, "801163692RR0001": {"name": "FAMILY OUTREACH OF ONTARIO CHRISTIAN ADDICTION SUPPORT SERVICES", "designationCode": "C", "categoryCode": "57", "address": "1292 GLANCASTER RD            RR #2", "city": "ANCASTER", "province": "ON", "country": "CA", "postalCode": "L9G3L1", "twitter": "None", "instagram": "None", "facebook": "None", "youtube": "None", "website": "None", "summary": "None", "logo": "None", "latitude": 43.17191241355525, "longitude": -79.94443308941626}, "107376311RR0001": {"name": "FAMILY PLUS LIFE SOLUTIONS INC.", "designationCode": "C", "categoryCode": "09", "address": "199 CHESLEY DRIVE             SUITE 204", "city": "SAINT JOHN", "province": "NB", "country": "CA", "postalCode": "E2K4S9", "twitter": "None", "instagram": "None", "facebook": "None", "youtube": "None", "website": "None", "summary": "None", "logo": "None", "latitude": 45.2710539214611, "longitude": -66.07666184251815}, "135164515RR0001": {"name": "FAMILY PRAYER MISSION (ONTARIO)", "designationCode": "C", "categoryCode": "47", "address": "2478 CALLUM AVE", "city": "MISSISSAUGA", "province": "ON", "country": "CA", "postalCode": "L5B2H9", "twitter": "None", "instagram": "None", "facebook": "None", "youtube": "None", "website": "None", "summary": "None", "logo": "None", "latitude": 43.568143754082826, "longitude": -79.62323080296024}, "140888108RR0001": {"name": "FAMILY RESOURCE CENTER FOR THE MILITARY COMMUNITY INC/CENTRE FAMILIAL DE RESSOURCES POUR LA COMMUNAUTE MILITAIRE INC", "designationCode": "C", "categoryCode": "09", "address": "ST LAWRENCE AVENUE, BLDG A-45 CFB GAGETOWN", "city": "OROMOCTO", "province": "NB", "country": "CA", "postalCode": "E2V4J5", "twitter": "None", "instagram": "None", "facebook": "None", "youtube": "None", "website": "None", "summary": "None", "logo": "None", "latitude": 45.84259262470374, "longitude": -66.4851921868813}, "119150704RR0001": {"name": "FAMILY RESOURCE CENTRE (SJ) INC.", "designationCode": "C", "categoryCode": "09", "address": "211 WENTWORTH ST.", "city": "ST. JOHN", "province": "NB", "country": "CA", "postalCode": "E2L2T4", "twitter": "None", "instagram": "None", "facebook": "None", "youtube": "None", "website": "None", "summary": "None", "logo": "None", "latitude": 45.26925196280803, "longitude": -66.05203610964271}, "140926403RR0001": {"name": "FAMILY RESOURCE CENTRE OF CHARLOTTE COUNTY INC", "designationCode": "C", "categoryCode": "09", "address": "PO BOX 352", "city": "ST. STEPHEN", "province": "NB", "country": "CA", "postalCode": "E3L2X3", "twitter": "None", "instagram": "None", "facebook": "None", "youtube": "None", "website": "None", "summary": "None", "logo": "None", "latitude": 45.19456800000006, "longitude": -67.27532299999993}, "869634741RR0001": {"name": "FAMILY RESOURCE CENTRE OF WEST HANTS", "designationCode": "C", "categoryCode": "09", "address": "80 WATER ST                   P.O. BOX 2847", "city": "WINDSOR", "province": "NS", "country": "CA", "postalCode": "B0N2T0", "twitter": "None", "instagram": "None", "facebook": "None", "youtube": "None", "website": "None", "summary": "None", "logo": "None", "latitude": 44.99477375411148, "longitude": -64.13938114366071}, "135346161RR0001": {"name": "FAMILY RESOURCE CENTRE SOCIETY FOR THE NORTH OKANAGAN", "designationCode": "C", "categoryCode": "09", "address": "201 - 3402 27 AVE", "city": "VERNON", "province": "BC", "country": "CA", "postalCode": "V1T1S1", "twitter": "None", "instagram": "None", "facebook": "None", "youtube": "None", "website": "None", "summary": "None", "logo": "None", "latitude": 50.26130859781307, "longitude": -119.27748610949848}, "118904887RR0001": {"name": "FAMILY RESPITE-SERVICES (WINDSOR-ESSEX)", "designationCode": "C", "categoryCode": "09", "address": "101A 3295 QUALITY WAY", "city": "WINDSOR", "province": "ON", "country": "CA", "postalCode": "N8T3R9", "twitter": "None", "instagram": "None", "facebook": "None", "youtube": "None", "website": "None", "summary": "None", "logo": "None", "latitude": 42.291693871198696, "longitude": -82.93816258552113}, "118913045RR0001": {"name": "FAMILY SERVICE ASSOCIATION - HALIFAX REGIONAL MUNICIPALITY", "designationCode": "C", "categoryCode": "09", "address": "401 - 6080 YOUNG ST", "city": "HALIFAX", "province": "NS", "country": "CA", "postalCode": "B3K5L2", "twitter": "None", "instagram": "None", "facebook": "None", "youtube": "None", "website": "None", "summary": "None", "logo": "None", "latitude": 44.65864468079537, "longitude": -63.60363591225717}, "889285276RR0001": {"name": "FAMILY SERVICE ASSOCIATION OF CHURCHES (FAMSAC)", "designationCode": "C", "categoryCode": "09", "address": "3891 OLD RICHMOND ROAD", "city": "NEPEAN", "province": "ON", "country": "CA", "postalCode": "K2H5C1", "twitter": "None", "instagram": "None", "facebook": "None", "youtube": "None", "website": "None", "summary": "None", "logo": "None", "latitude": 45.31992830114255, "longitude": -75.8266566569909}, "118913052RR0001": {"name": "FAMILY SERVICE CANADA/SERVICES A LA FAMILLE-CANADA", "designationCode": "C", "categoryCode": "09", "address": "312 PARKDALE AVENUE", "city": "OTTAWA", "province": "ON", "country": "CA", "postalCode": "K1Y4R5", "twitter": "None", "instagram": "None", "facebook": "None", "youtube": "None", "website": "None", "summary": "None", "logo": "None", "latitude": 45.40315226643207, "longitude": -75.7305909284433}, "106910516RR0001": {"name": "FAMILY SERVICE KENT/SERVICES A LA FAMILLE-KENT", "designationCode": "C", "categoryCode": "09", "address": "50 ADELAIDE ST S", "city": "CHATHAM", "province": "ON", "country": "CA", "postalCode": "N7M6K7", "twitter": "None", "instagram": "None", "facebook": "None", "youtube": "None", "website": "None", "summary": "None", "logo": "None", "latitude": 42.40443913321603, "longitude": -82.1793147093021}, "107376170RR0001": {"name": "FAMILY SERVICE OF EASTERN NOVA SCOTIA", "designationCode": "C", "categoryCode": "09", "address": "302-295 GEORGE STREET", "city": "SYDNEY", "province": "NS", "country": "CA", "postalCode": "B1P1J7", "twitter": "None", "instagram": "None", "facebook": "None", "youtube": "None", "website": "None", "summary": "None", "logo": "None", "latitude": 46.13026200204643, "longitude": -60.18728691037674}, "107796724RR0001": {"name": "FAMILY SERVICE ONTARIO/SERVICES A LA FAMILLE-ONTARIO", "designationCode": "C", "categoryCode": "03", "address": "PO BOX 8002                   CEDARCROFT POST OFFICE", "city": "TORONTO", "province": "ON", "country": "CA", "postalCode": "M2R0A1", "twitter": "None", "instagram": "None", "facebook": "None", "youtube": "None", "website": "None", "summary": "None", "logo": "None", "latitude": 43.78339707277874, "longitude": -79.44798340365968}, "897342077RR0001": {"name": "FAMILY SERVICE PEI INC.", "designationCode": "C", "categoryCode": "09", "address": "155 BELVEDERE AVENUE          SUITE 106", "city": "CHARLOTTETOWN", "province": "PE", "country": "CA", "postalCode": "C1A2Y9", "twitter": "None", "instagram": "None", "facebook": "None", "youtube": "None", "website": "None", "summary": "None", "logo": "None", "latitude": 46.25564477491484, "longitude": -63.12919909631251}, "119232668RR0001": {"name": "FAMILY SERVICE REGINA INC.", "designationCode": "C", "categoryCode": "09", "address": "200 - 1440 BROADWAY AVE", "city": "REGINA", "province": "SK", "country": "CA", "postalCode": "S4P1E2", "twitter": "None", "instagram": "None", "facebook": "None", "youtube": "None", "website": "None", "summary": "None", "logo": "None", "latitude": 50.437723533758195, "longitude": -104.60102310935426}, "857051577RR0001": {"name": "FAMILY SERVICE SASKATOON FOUNDATION INC.", "designationCode": "A", "categoryCode": "03", "address": "102-506 25TH ST E", "city": "SASKATOON", "province": "SK", "country": "CA", "postalCode": "S7K4A7", "twitter": "None", "instagram": "None", "facebook": "None", "youtube": "None", "website": "None", "summary": "None", "logo": "None", "latitude": 52.1332218899879, "longitude": -106.66010199993282}, "107957029RR0001": {"name": "FAMILY SERVICE SASKATOON INC.", "designationCode": "C", "categoryCode": "09", "address": "102-506-25TH ST E", "city": "SASKATOON", "province": "SK", "country": "CA", "postalCode": "S7K4A7", "twitter": "None", "instagram": "None", "facebook": "None", "youtube": "None", "website": "None", "summary": "None", "logo": "None", "latitude": 52.1332218899879, "longitude": -106.66010199993282}, "107376154RR0001": {"name": "FAMILY SERVICE THAMES VALLEY", "designationCode": "C", "categoryCode": "49", "address": "125 WOODWARD AVENUE", "city": "LONDON", "province": "ON", "country": "CA", "postalCode": "N6H2H1", "twitter": "None", "instagram": "None", "facebook": "None", "youtube": "None", "website": "None", "summary": "None", "logo": "None", "latitude": 42.98760965963476, "longitude": -81.27016825513357}, "107376063RR0001": {"name": "FAMILY SERVICE TORONTO", "designationCode": "C", "categoryCode": "01", "address": "202 - 128A STERLING RD", "city": "TORONTO", "province": "ON", "country": "CA", "postalCode": "M6R2B7", "twitter": "None", "instagram": "None", "facebook": "None", "youtube": "None", "website": "None", "summary": "None", "logo": "None", "latitude": 43.65431822497087, "longitude": -79.44489179375559}, "891518219RR0001": {"name": "FAMILY SERVICE WINDSOR-ESSEX COUNTY FOUNDATION", "designationCode": "A", "categoryCode": "03", "address": "1770 LANGLOIS", "city": "WINDSOR", "province": "ON", "country": "CA", "postalCode": "N8X4M5", "twitter": "None", "instagram": "None", "facebook": "None", "youtube": "None", "website": "None", "summary": "None", "logo": "None", "latitude": 42.30005804330884, "longitude": -83.01023548164949}, "107376147RR0001": {"name": "FAMILY SERVICES A LA FAMILLE OTTAWA", "designationCode": "C", "categoryCode": "09", "address": "312 PARKDALE AVE", "city": "OTTAWA", "province": "ON", "country": "CA", "postalCode": "K1Y4X5", "twitter": "None", "instagram": "None", "facebook": "None", "youtube": "None", "website": "None", "summary": "None", "logo": "None", "latitude": 45.40315226643207, "longitude": -75.7305909284433}, "118913102RR0001": {"name": "FAMILY SERVICES OF GREATER VANCOUVER", "designationCode": "C", "categoryCode": "09", "address": "201-1638 BROADWAY E", "city": "VANCOUVER", "province": "BC", "country": "CA", "postalCode": "V5N1W1", "twitter": "None", "instagram": "None", "facebook": "None", "youtube": "None", "website": "None", "summary": "None", "logo": "None", "latitude": 49.26229652842075, "longitude": -123.07090452844942}, "107376279RR0001": {"name": "FAMILY SERVICES OF PEEL", "designationCode": "C", "categoryCode": "09", "address": "#501 - 151 CITY CENTRE DRIVE", "city": "MISSISSAUGA", "province": "ON", "country": "CA", "postalCode": "L5B1M7", "twitter": "None", "instagram": "None", "facebook": "None", "youtube": "None", "website": "None", "summary": "None", "logo": "None", "latitude": 43.59101859169623, "longitude": -79.64047302769961}, "119061240RR0001": {"name": "FAMILY SERVICES OF THE NORTH SHORE", "designationCode": "C", "categoryCode": "59", "address": "203 - 1111 LONSDALE AVE", "city": "NORTH VANCOUVER", "province": "BC", "country": "CA", "postalCode": "V7M2H4", "twitter": "None", "instagram": "None", "facebook": "None", "youtube": "None", "website": "None", "summary": "None", "logo": "None", "latitude": 49.31806020237673, "longitude": -123.07256528450614}, "864745575RR0001": {"name": "FAMILY SERVICES OF THE NORTH SHORE FOUNDATION", "designationCode": "A", "categoryCode": "03", "address": "203 - 1111 LONSDALE AVE", "city": "NORTH VANCOUVER", "province": "BC", "country": "CA", "postalCode": "V7M2H4", "twitter": "None", "instagram": "None", "facebook": "None", "youtube": "None", "website": "None", "summary": "None", "logo": "None", "latitude": 49.31806020237673, "longitude": -123.07256528450614}, "108040304RR0001": {"name": "FAMILY SERVICES PERTH-HURON", "designationCode": "C", "categoryCode": "09", "address": "142 WATERLOO STREET, SOUTH", "city": "STRATFORD", "province": "ON", "country": "CA", "postalCode": "N5A4B4", "twitter": "None", "instagram": "None", "facebook": "None", "youtube": "None", "website": "None", "summary": "None", "logo": "None", "latitude": 43.368850121011036, "longitude": -80.97991023356792}, "130364102RR0001": {"name": "FAMILY SERVICES WINDSOR-ESSEX", "designationCode": "C", "categoryCode": "09", "address": "1770 LANGLOIS AVE", "city": "WINDSOR", "province": "ON", "country": "CA", "postalCode": "N8X4M5", "twitter": "None", "instagram": "None", "facebook": "None", "youtube": "None", "website": "None", "summary": "None", "logo": "None", "latitude": 42.30005804330884, "longitude": -83.01023548164949}, "119232635RR0001": {"name": "FAMILY SERVICES YORK REGION", "designationCode": "C", "categoryCode": "09", "address": "300-1091 GORHAM ST", "city": "NEWMARKET", "province": "ON", "country": "CA", "postalCode": "L3Y8X7", "twitter": "None", "instagram": "None", "facebook": "None", "youtube": "None", "website": "None", "summary": "None", "logo": "None", "latitude": 44.05705022459421, "longitude": -79.42881530671114}, "118913151RR0001": {"name": "FAMILY SPACE QUINTE INC.", "designationCode": "C", "categoryCode": "09", "address": "100 STATION ST", "city": "BELLEVILLE", "province": "ON", "country": "CA", "postalCode": "K8N2S5", "twitter": "None", "instagram": "None", "facebook": "None", "youtube": "None", "website": "None", "summary": "None", "logo": "None", "latitude": 44.1732079256447, "longitude": -77.38053141367081}, "101205904RR0001": {"name": "FAMILY SUPPORT CENTRE OF WINNIPEG INC.", "designationCode": "C", "categoryCode": "09", "address": "650 BROADWAY AVE W", "city": "WINNIPEG", "province": "MB", "country": "CA", "postalCode": "R3C0X3", "twitter": "None", "instagram": "None", "facebook": "None", "youtube": "None", "website": "None", "summary": "None", "logo": "None", "latitude": 49.88567453952927, "longitude": -97.15695099861503}, "107471427RR0001": {"name": "FAMILY SUPPORT CENTRE/SAFE HOME NETWORK", "designationCode": "C", "categoryCode": "59", "address": "BOX 4413", "city": "HAY RIVER", "province": "NT", "country": "CA", "postalCode": "X0E1G3", "twitter": "None", "instagram": "None", "facebook": "None", "youtube": "None", "website": "None", "summary": "None", "logo": "None", "latitude": 60.82057500000006, "longitude": -115.78217299999994}, "887406270RR0001": {"name": "FAMILY SUPPORT GROUP OF EXTENDICARE/SUNSET", "designationCode": "C", "categoryCode": "10", "address": "260 SUNSET DR", "city": "REGINA", "province": "SK", "country": "CA", "postalCode": "S4S2S3", "twitter": "None", "instagram": "None", "facebook": "None", "youtube": "None", "website": "None", "summary": "None", "logo": "None", "latitude": 50.408854519331484, "longitude": -104.63583133236193}, "140944661RR0001": {"name": "FAMILY SUPPORTS INSTITUTE ONTARIO", "designationCode": "C", "categoryCode": "59", "address": "489 COLLEGE STREET            SUITE 206", "city": "TORONTO", "province": "ON", "country": "CA", "postalCode": "M6G1A5", "twitter": "None", "instagram": "None", "facebook": "None", "youtube": "None", "website": "None", "summary": "None", "logo": "None", "latitude": 43.65570522344037, "longitude": -79.40915765251886}, "890006539RR0001": {"name": "FAMILY TIES CARREFOUR FAMILLE NEW CARLISLE", "designationCode": "C", "categoryCode": "09", "address": "208 RUE PRINCIPALE            C.P. 279", "city": "NEW CARLISLE", "province": "QC", "country": "CA", "postalCode": "G0C1Z0", "twitter": "None", "instagram": "None", "facebook": "None", "youtube": "None", "website": "None", "summary": "None", "logo": "None", "latitude": 48.185028733788265, "longitude": -65.61250954373722}, "107376378RR0001": {"name": "FAMILY TRANSITION PLACE", "designationCode": "C", "categoryCode": "01", "address": "20 BREDIN PKY", "city": "ORANGEVILLE", "province": "ON", "country": "CA", "postalCode": "L9W4Z9", "twitter": "None", "instagram": "None", "facebook": "None", "youtube": "None", "website": "None", "summary": "None", "logo": "None", "latitude": 43.9278945428475, "longitude": -80.1006875836748}, "890157464RR0001": {"name": "FAMILY VIOLENCE ACTION SOCIETY: CAMROSE AND DISTRICT", "designationCode": "C", "categoryCode": "59", "address": "3, 4516-54 STREET", "city": "CAMROSE", "province": "AB", "country": "CA", "postalCode": "T4V4W7", "twitter": "None", "instagram": "None", "facebook": "None", "youtube": "None", "website": "None", "summary": "None", "logo": "None", "latitude": 53.01236700000001, "longitude": -112.83279863477391}, "870638327RR0001": {"name": "FAMILY VISIONS INC.", "designationCode": "C", "categoryCode": "01", "address": "2705 VICTORIA AVENUE", "city": "BRANDON", "province": "MB", "country": "CA", "postalCode": "R7B0N1", "twitter": "None", "instagram": "None", "facebook": "None", "youtube": "None", "website": "None", "summary": "None", "logo": "None", "latitude": 49.8423564676841, "longitude": -99.97495136081135}, "890426927RR0001": {"name": "FAMILY WORSHIP & OUTREACH CENTRE", "designationCode": "C", "categoryCode": "39", "address": "1731 BLOOR STREET", "city": "COURTICE", "province": "ON", "country": "CA", "postalCode": "L1E2N1", "twitter": "None", "instagram": "None", "facebook": "None", "youtube": "None", "website": "None", "summary": "None", "logo": "None", "latitude": 43.896832277813374, "longitude": -78.77294736993218}, "866891278RR0001": {"name": "FAMILY WORSHIP CENTER INC", "designationCode": "C", "categoryCode": "47", "address": "P.O. BOX 501", "city": "HR GRACE", "province": "NL", "country": "CA", "postalCode": "A0A2M0", "twitter": "None", "instagram": "None", "facebook": "None", "youtube": "None", "website": "None", "summary": "None", "logo": "None", "latitude": 47.682159000000055, "longitude": -53.243220499999936}, "875867228RR0001": {"name": "FAMILY WORSHIP CENTER MIRAMICHI INC.", "designationCode": "C", "categoryCode": "39", "address": "1148 KING GEORGE HWY", "city": "MIRAMICHI", "province": "NB", "country": "CA", "postalCode": "E1V5J6", "twitter": "None", "instagram": "None", "facebook": "None", "youtube": "None", "website": "None", "summary": "None", "logo": "None", "latitude": 47.01730291567947, "longitude": -65.54436807009378}, "130388309RR0001": {"name": "FAMILY WORSHIP CENTRE", "designationCode": "C", "categoryCode": "36", "address": "BOX 1832", "city": "YORKTON", "province": "SK", "country": "CA", "postalCode": "S3N3R2", "twitter": "None", "instagram": "None", "facebook": "None", "youtube": "None", "website": "None", "summary": "None", "logo": "None", "latitude": 51.20403900000005, "longitude": -102.44985199999994}, "887599397RR0001": {"name": "FAMILY WORSHIP CENTRE", "designationCode": "C", "categoryCode": "36", "address": "BOX 189", "city": "BOISSEVIAN", "province": "MB", "country": "CA", "postalCode": "R0K0E0", "twitter": "None", "instagram": "None", "facebook": "None", "youtube": "None", "website": "None", "summary": "None", "logo": "None", "latitude": 49.20784000000003, "longitude": -100.05509999999998}, "890204845RR0001": {"name": "FAMILY WORSHIP CENTRE", "designationCode": "C", "categoryCode": "36", "address": "BOX 21", "city": "EMPRESS", "province": "AB", "country": "CA", "postalCode": "T0J1E0", "twitter": "None", "instagram": "None", "facebook": "None", "youtube": "None", "website": "None", "summary": "None", "logo": "None"}, "816477566RR0001": {"name": "FAMILY WORSHIP MINISTRIES", "designationCode": "C", "categoryCode": "39", "address": "2575 ROSEVILLE GARDEN DRIVE   SUITE 103", "city": "WINDSOR", "province": "ON", "country": "CA", "postalCode": "N8T3K1", "twitter": "None", "instagram": "None", "facebook": "None", "youtube": "None", "website": "None", "summary": "None", "logo": "None", "latitude": 42.30975300000006, "longitude": -82.94331499999993}, "891747248RR0001": {"name": "FAMILY-DIRECTED ALTERNATIVE SUPPORT SERVICES", "designationCode": "C", "categoryCode": "09", "address": "138 SHERWOOD PLACE", "city": "DORCHESTER", "province": "ON", "country": "CA", "postalCode": "N0L1G3", "twitter": "None", "instagram": "None", "facebook": "None", "youtube": "None", "website": "None", "summary": "None", "logo": "None", "latitude": 42.982651622280436, "longitude": -81.05461244073523}, "119222297RR0001": {"name": "FAMILY, YOUTH AND CHILD SERVICES OF MUSKOKA", "designationCode": "C", "categoryCode": "01", "address": "49 PINE ST", "city": "BRACEBRIDGE", "province": "ON", "country": "CA", "postalCode": "P1L1K8", "twitter": "None", "instagram": "None", "facebook": "None", "youtube": "None", "website": "None", "summary": "None", "logo": "None", "latitude": 45.05248011183577, "longitude": -79.29974071945831}, "885130179RR0001": {"name": "FAMOUS 5 FOUNDATION", "designationCode": "C", "categoryCode": "21", "address": "BOX 72137                     RPO GLENMORE LANDING", "city": "CALGARY", "province": "AB", "country": "CA", "postalCode": "T2V5H9", "twitter": "None", "instagram": "None", "facebook": "None", "youtube": "None", "website": "None", "summary": "None", "logo": "None", "latitude": 50.994305999999995, "longitude": -114.07152574813585}, "140773359RR0001": {"name": "FANNY BAY COMMUNITY ASSOCIATION", "designationCode": "C", "categoryCode": "56", "address": "7793 ISLAND HWY S", "city": "FANNY BAY", "province": "BC", "country": "CA", "postalCode": "V0R1W0", "twitter": "None", "instagram": "None", "facebook": "None", "youtube": "None", "website": "None", "summary": "None", "logo": "None", "latitude": 49.489635294999815, "longitude": -124.81076717988286}, "890480049RR0001": {"name": "FANNY BAY SALMONID ENHANCEMENT SOCIETY", "designationCode": "C", "categoryCode": "52", "address": "8425 BERRAY RD", "city": "FANNY BAY", "province": "BC", "country": "CA", "postalCode": "V0R1W0", "twitter": "None", "instagram": "None", "facebook": "None", "youtube": "None", "website": "None", "summary": "None", "logo": "None", "latitude": 49.45677463746824, "longitude": -124.77395076790026}, "107376576RR0001": {"name": "FANSHAWE COLLEGE OF APPLIED ARTS & TECHNOLOGY", "designationCode": "C", "categoryCode": "20", "address": "1001 FANSHAWE COLLEGE BLVD    FINANCIAL SERVICES D1018", "city": "LONDON", "province": "ON", "country": "CA", "postalCode": "N5Y5R6", "twitter": "None", "instagram": "None", "facebook": "None", "youtube": "None", "website": "None", "summary": "None", "logo": "None", "latitude": 43.01502273827112, "longitude": -81.19706159492753}, "118913235RR0001": {"name": "FAR CORNERS MINISTRIES IN CANADA", "designationCode": "C", "categoryCode": "47", "address": "22 - 2550 156 ST", "city": "SURREY", "province": "BC", "country": "CA", "postalCode": "V4P1C8", "twitter": "None", "instagram": "None", "facebook": "None", "youtube": "None", "website": "None", "summary": "None", "logo": "None", "latitude": 49.04824959289207, "longitude": -122.79013177088441}, "118913243RR0001": {"name": "FAR EAST BROADCASTING ASSOCIATES OF CANADA", "designationCode": "C", "categoryCode": "47", "address": "3200-8888 ODLIN CRES", "city": "RICHMOND", "province": "BC", "country": "CA", "postalCode": "V6X3Z8", "twitter": "None", "instagram": "None", "facebook": "None", "youtube": "None", "website": "None", "summary": "None", "logo": "None", "latitude": 49.18411800000001, "longitude": -123.12697792832867}, "137006284RR0001": {"name": "FARE SHARE CAMPBELLFORD & DISTRICT FOOD BANK", "designationCode": "C", "categoryCode": "01", "address": "BOX 663", "city": "CAMPBELLFORD", "province": "ON", "country": "CA", "postalCode": "K0L1L0", "twitter": "None", "instagram": "None", "facebook": "None", "youtube": "None", "website": "None", "summary": "None", "logo": "None", "latitude": 44.287060000000054, "longitude": -77.80936999999994}, "131736662RR0001": {"name": "FARE SHARE FOOD BANK (OAKVILLE) INC", "designationCode": "C", "categoryCode": "09", "address": "6 - 1240 SPEERS RD", "city": "OAKVILLE", "province": "ON", "country": "CA", "postalCode": "L6L2X4", "twitter": "None", "instagram": "None", "facebook": "None", "youtube": "None", "website": "None", "summary": "None", "logo": "None", "latitude": 43.42681720454161, "longitude": -79.70933085149186}, "887522316RR0001": {"name": "FARLEY FOUNDATION", "designationCode": "C", "categoryCode": "54", "address": "420 BRONTE ST SOUTH           SUITE 205", "city": "MILTON", "province": "ON", "country": "CA", "postalCode": "L9T0H9", "twitter": "None", "instagram": "None", "facebook": "None", "youtube": "None", "website": "None", "summary": "None", "logo": "None", "latitude": 43.50028975009911, "longitude": -79.8771042146601}, "118913276RR0001": {"name": "FARM CENTRE ASSOCIATION INC.", "designationCode": "C", "categoryCode": "56", "address": "420 UNIVERSITY AVE", "city": "CHARLOTTETOWN", "province": "PE", "country": "CA", "postalCode": "C1A7Z5", "twitter": "None", "instagram": "None", "facebook": "None", "youtube": "None", "website": "None", "summary": "None", "logo": "None", "latitude": 46.24610093005944, "longitude": -63.13506285400202}, "118884808RR0001": {"name": "FARM RADIO INTERNATIONAL / RADIOS RURALES INTERNATIONALES", "designationCode": "C", "categoryCode": "99", "address": "1404 SCOTT STREET", "city": "OTTAWA", "province": "ON", "country": "CA", "postalCode": "K1Y4M8", "twitter": "None", "instagram": "None", "facebook": "None", "youtube": "None", "website": "None", "summary": "None", "logo": "None", "latitude": 45.406810614749936, "longitude": -75.7269929136708}, "819332651RR0001": {"name": "FARM Youth Services", "designationCode": "C", "categoryCode": "59", "address": "301 ROCKCLIFFE BLVD", "city": "TORONTO", "province": "ON", "country": "CA", "postalCode": "M6N4R8", "twitter": "None", "instagram": "None", "facebook": "None", "youtube": "None", "website": "None", "summary": "None", "logo": "None", "latitude": 43.67509598280364, "longitude": -79.48852074395165}, "107376857RR0001": {"name": "FARMER'S DELL CO-OPERATIVE PRESCHOOL OF GLANBROOK INC.", "designationCode": "C", "categoryCode": "01", "address": "BOX 67", "city": "BINBROOK", "province": "ON", "country": "CA", "postalCode": "L0R1C0", "twitter": "None", "instagram": "None", "facebook": "None", "youtube": "None", "website": "None", "summary": "None", "logo": "None", "latitude": 43.102827000000005, "longitude": -79.73206875}, "892231572RR0001": {"name": "FARMFOLK/CITYFOLK SOCIETY", "designationCode": "C", "categoryCode": "09", "address": "30 - 1240 FALCON DR", "city": "COQUITLAM", "province": "BC", "country": "CA", "postalCode": "V3E2B4", "twitter": "None", "instagram": "None", "facebook": "None", "youtube": "None", "website": "None", "summary": "None", "logo": "None", "latitude": 49.28617998084143, "longitude": -122.81917827352987}, "803120872RR0001": {"name": "FARMSTART/FERME EN MARCHE", "designationCode": "C", "categoryCode": "20", "address": "PO BOX 1875 STATION MAIN", "city": "GUELPH", "province": "ON", "country": "CA", "postalCode": "N1H7A1", "twitter": "None", "instagram": "None", "facebook": "None", "youtube": "None", "website": "None", "summary": "None", "logo": "None", "latitude": 43.54455300000005, "longitude": -80.24788249999993}, "892105842RR0001": {"name": "FARNHAM CEMETERY", "designationCode": "C", "categoryCode": "59", "address": "86 FARNHAM RD", "city": "PUSLINCH", "province": "ON", "country": "CA", "postalCode": "N0B2J0", "twitter": "None", "instagram": "None", "facebook": "None", "youtube": "None", "website": "None", "summary": "None", "logo": "None", "latitude": 43.53095022802521, "longitude": -80.1815708696075}, "118913318RR0001": {"name": "FARO BIBLE CHAPEL", "designationCode": "C", "categoryCode": "39", "address": "BOX 22", "city": "FARO", "province": "YT", "country": "CA", "postalCode": "Y0B1K0", "twitter": "None", "instagram": "None", "facebook": "None", "youtube": "None", "website": "None", "summary": "None", "logo": "None", "latitude": 62.22917000000007, "longitude": -133.35484999999994}, "892940750RR0001": {"name": "FARQUAHARSON FOUNDATION INC.", "designationCode": "A", "categoryCode": "21", "address": "BOX 14", "city": "PILOT MOUND", "province": "MB", "country": "CA", "postalCode": "R0G1P0", "twitter": "None", "instagram": "None", "facebook": "None", "youtube": "None", "website": "None", "summary": "None", "logo": "None", "latitude": 49.20280000000008, "longitude": -98.89433999999994}, "861362788RR0001": {"name": "FARQUHARSON CHARITABLE FOUNDATION", "designationCode": "B", "categoryCode": "03", "address": "393 PINEHURST DRIVE", "city": "BELLE RIVER", "province": "ON", "country": "CA", "postalCode": "N0R1A0", "twitter": "None", "instagram": "None", "facebook": "None", "youtube": "None", "website": "None", "summary": "None", "logo": "None", "latitude": 42.288917742426065, "longitude": -82.77955489532029}, "118913342RR0001": {"name": "FARQUHARSON PRESBYTERIAN CHURCH", "designationCode": "C", "categoryCode": "37", "address": "SITE 1, BOX 10                1648 CABOT TRAIL", "city": "BADDECK", "province": "NS", "country": "CA", "postalCode": "B0E1B0", "twitter": "None", "instagram": "None", "facebook": "None", "youtube": "None", "website": "None", "summary": "None", "logo": "None", "latitude": 46.14581744310287, "longitude": -60.91205153001844}, "118913359RR0001": {"name": "FARRAND STREET BIBLE CHAPEL", "designationCode": "C", "categoryCode": "39", "address": "246 FARRAND STREET", "city": "THUNDER BAY", "province": "ON", "country": "CA", "postalCode": "P7A3J4", "twitter": "None", "instagram": "None", "facebook": "None", "youtube": "None", "website": "None", "summary": "None", "logo": "None", "latitude": 48.45216529808414, "longitude": -89.21741432335956}, "107377020RR0001": {"name": "FARRINGDON INDEPENDENT CHURCH", "designationCode": "C", "categoryCode": "39", "address": "287 MOUNT PLEASANT RD", "city": "BRANTFORD", "province": "ON", "country": "CA", "postalCode": "N3T1V2", "twitter": "None", "instagram": "None", "facebook": "None", "youtube": "None", "website": "None", "summary": "None", "logo": "None", "latitude": 43.11598072342938, "longitude": -80.27582801338879}, "881736615RR0002": {"name": "FASworld Canada - SAFmonde Canada", "designationCode": "C", "categoryCode": "11", "address": "250 SCARBOROUGH GOLF CLUB ROAD", "city": "TORONTO", "province": "ON", "country": "CA", "postalCode": "M1J3G8", "twitter": "None", "instagram": "None", "facebook": "None", "youtube": "None", "website": "None", "summary": "None", "logo": "None", "latitude": 43.74856522424843, "longitude": -79.21051393481996}, "841725278RR0001": {"name": "FASD Life's Journey Inc.", "designationCode": "C", "categoryCode": "09", "address": "102-720 BROADWAY AVENUE", "city": "WINNIPEG", "province": "MB", "country": "CA", "postalCode": "R3G0X1", "twitter": "None", "instagram": "None", "facebook": "None", "youtube": "None", "website": "None", "summary": "None", "logo": "None", "latitude": 49.8857865212074, "longitude": -97.16035308243406}, "894357961RR0001": {"name": "FASD SUPPORT NETWORK OF SASKATCHEWAN INC.", "designationCode": "C", "categoryCode": "11", "address": "216 - 510 CYNTHIA ST", "city": "SASKATOON", "province": "SK", "country": "CA", "postalCode": "S7L7K7", "twitter": "None", "instagram": "None", "facebook": "None", "youtube": "None", "website": "None", "summary": "None", "logo": "None", "latitude": 52.15972629672783, "longitude": -106.67143512796457}, "834353328RR0001": {"name": "FAST Fighting Antisemitism Together / FAST Finissons-en avec l'antisemitisme sans tarder", "designationCode": "C", "categoryCode": "29", "address": "1 ST THOMAS ST                PENTHOUSE SUITE", "city": "TORONTO", "province": "ON", "country": "CA", "postalCode": "M5S3M5", "twitter": "None", "instagram": "None", "facebook": "None", "youtube": "None", "website": "None", "summary": "None", "logo": "None", "latitude": 43.668168055513846, "longitude": -79.39045679736299}, "890503642RR0001": {"name": "FATHER BAUER SCHOLARSHIP AWARD SOCIETY", "designationCode": "C", "categoryCode": "21", "address": "163 HARKIN CREEK ROAD", "city": "OKANAGAN FALLS", "province": "BC", "country": "CA", "postalCode": "V0H1R1", "twitter": "None", "instagram": "None", "facebook": "None", "youtube": "None", "website": "None", "summary": "None", "logo": "None", "latitude": 49.36986939800334, "longitude": -119.54161791159332}, "868271321RR0001": {"name": "FATHER BERNARD COYLE COUNCIL NO. 6882 CHARITABLE WELFARE TRUST", "designationCode": "A", "categoryCode": "03", "address": "31 MEIKLE STREET", "city": "MORRISBURG", "province": "ON", "country": "CA", "postalCode": "K0C1X0", "twitter": "None", "instagram": "None", "facebook": "None", "youtube": "None", "website": "None", "summary": "None", "logo": "None", "latitude": 44.894363729412994, "longitude": -75.1888774373597}, "889879995RR0001": {"name": "FATHER BERNARD O'DONNELL COUNCIL NO 2110 CHARITABLE TRUST", "designationCode": "A", "categoryCode": "65", "address": "190 RICHMOND STREET", "city": "AMHERSTBURG", "province": "ON", "country": "CA", "postalCode": "N9V1G4", "twitter": "None", "instagram": "None", "facebook": "None", "youtube": "None", "website": "None", "summary": "None", "logo": "None", "latitude": 42.1039871218764, "longitude": -83.10592791508445}, "863720850RR0001": {"name": "FATHER CHARLES MEYERS COUNCIL 7160 CHARITABLE WELFARE TRUST", "designationCode": "A", "categoryCode": "65", "address": "749 RUSSELL ST", "city": "KINCARDINE", "province": "ON", "country": "CA", "postalCode": "N2Z1S7", "twitter": "None", "instagram": "None", "facebook": "None", "youtube": "None", "website": "None", "summary": "None", "logo": "None", "latitude": 44.16910143527677, "longitude": -81.6215109971841}}