{"119104958RR0001": {"name": "PROCURE DES MISSIONS TRINITAIRES", "designationCode": "C", "categoryCode": "46", "address": "1481, CHEMIN DES VINGT", "city": "ST-BRUNO-DE-MONTARVILLE", "province": "QC", "country": "CA", "postalCode": "J3V4P6", "twitter": "None", "instagram": "None", "facebook": "None", "youtube": "None", "website": "None", "summary": "None", "logo": "None", "latitude": 45.535624275244544, "longitude": -73.30018183974825}, "818086621RR0001": {"name": "PROCYON WILDLIFE REHABILITATION AND EDUCATION CENTRE", "designationCode": "C", "categoryCode": "54", "address": "6441 7TH LINE", "city": "BEETON", "province": "ON", "country": "CA", "postalCode": "L0G1A0", "twitter": "None", "instagram": "None", "facebook": "None", "youtube": "None", "website": "None", "summary": "None", "logo": "None", "latitude": 44.06178884815255, "longitude": -79.80188213693013}, "119104982RR0001": {"name": "PRODUCTION DE L'ETOILE INC.", "designationCode": "C", "categoryCode": "22", "address": "220 BOUL ST-PIERRE OUEST      BUREAU 302", "city": "CARAQUET", "province": "NB", "country": "CA", "postalCode": "E1W1A5", "twitter": "None", "instagram": "None", "facebook": "None", "youtube": "None", "website": "None", "summary": "None", "logo": "None", "latitude": 47.78953058165558, "longitude": -64.964430110595}, "850493149RR0001": {"name": "PRODUCTION TOTEM CONTEMPORAIN", "designationCode": "C", "categoryCode": "22", "address": "7128 14E AV", "city": "MONTREAL", "province": "QC", "country": "CA", "postalCode": "H2A2V7", "twitter": "None", "instagram": "None", "facebook": "None", "youtube": "None", "website": "None", "summary": "None", "logo": "None", "latitude": 45.56082073131758, "longitude": -73.5949814654624}, "141111336RR0001": {"name": "PRODUCTIONS \"LA FILLE DE L'ILE\"", "designationCode": "C", "categoryCode": "22", "address": "1849 RUE POUPART", "city": "MONTREAL", "province": "QC", "country": "CA", "postalCode": "H2K3H1", "twitter": "None", "instagram": "None", "facebook": "None", "youtube": "None", "website": "None", "summary": "None", "logo": "None", "latitude": 45.531221206503496, "longitude": -73.55188821036997}, "128447273RR0001": {"name": "PRODUCTIONS CIEL VARIABLE", "designationCode": "C", "categoryCode": "21", "address": "334 - 5445 AV DE GASPE", "city": "MONTREAL", "province": "QC", "country": "CA", "postalCode": "H2T3B2", "twitter": "None", "instagram": "None", "facebook": "None", "youtube": "None", "website": "None", "summary": "None", "logo": "None", "latitude": 45.52683526146908, "longitude": -73.59551934136431}, "141591487RR0001": {"name": "PRODUCTIONS JEUN'EST", "designationCode": "C", "categoryCode": "09", "address": "8075 RUE HOCHELAGA", "city": "MONTREAL", "province": "QC", "country": "CA", "postalCode": "H1L2K9", "twitter": "None", "instagram": "None", "facebook": "None", "youtube": "None", "website": "None", "summary": "None", "logo": "None", "latitude": 45.59472796225977, "longitude": -73.52383499780696}, "122847544RR0001": {"name": "PRODUCTIONS LES GROS BECS", "designationCode": "C", "categoryCode": "22", "address": "939, AV. DE SALABERRY", "city": "QUEBEC", "province": "QC", "country": "CA", "postalCode": "G1R2V2", "twitter": "None", "instagram": "None", "facebook": "None", "youtube": "None", "website": "None", "summary": "None", "logo": "None", "latitude": 46.80578443187709, "longitude": -71.22647415748185}, "854993482RR0001": {"name": "PRODUCTIONS LITTORALE", "designationCode": "C", "categoryCode": "22", "address": "138 RUE WELLINGTON N          SUITE 202", "city": "SHERBROOKE", "province": "QC", "country": "CA", "postalCode": "J1H5C5", "twitter": "None", "instagram": "None", "facebook": "None", "youtube": "None", "website": "None", "summary": "None", "logo": "None", "latitude": 45.403581373304846, "longitude": -71.89164417150454}, "891803918RR0001": {"name": "PRODUCTIONS PERSEPHONE INC./PERSEPHONE PRODUCTIONS INC.", "designationCode": "C", "categoryCode": "22", "address": "2120 RUE DE CHATEAUGUAY", "city": "MONTREAL", "province": "QC", "country": "CA", "postalCode": "H3K1K6", "twitter": "None", "instagram": "None", "facebook": "None", "youtube": "None", "website": "None", "summary": "None", "logo": "None", "latitude": 45.48056043851354, "longitude": -73.56420617747715}, "119105013RR0001": {"name": "PRODUCTIONS PLATEFORME INC.", "designationCode": "C", "categoryCode": "22", "address": "CP 460", "city": "VICTORIAVILLE", "province": "QC", "country": "CA", "postalCode": "G6P6T3", "twitter": "None", "instagram": "None", "facebook": "None", "youtube": "None", "website": "None", "summary": "None", "logo": "None", "latitude": 46.05566100000006, "longitude": -71.95945399999994}, "107860363RR0001": {"name": "PRODUCTIONS TRAQUEN'ART INC.", "designationCode": "C", "categoryCode": "22", "address": "610 - 5445 AV DE GASPE", "city": "MONTREAL", "province": "QC", "country": "CA", "postalCode": "H2T3B2", "twitter": "None", "instagram": "None", "facebook": "None", "youtube": "None", "website": "None", "summary": "None", "logo": "None", "latitude": 45.52683526146908, "longitude": -73.59551934136431}, "873609655RR0001": {"name": "PROFESSIONAL & EDUCATIONAL SERVICES INTERNATIONAL OF CANADA", "designationCode": "C", "categoryCode": "29", "address": "5469 ELGAR COURT", "city": "MISSISSAUGA", "province": "ON", "country": "CA", "postalCode": "L5M5C9", "twitter": "None", "instagram": "None", "facebook": "None", "youtube": "None", "website": "None", "summary": "None", "logo": "None", "latitude": 43.564134120751234, "longitude": -79.72356463890019}, "861514321RR0002": {"name": "PROFESSIONAL OPERA COMPANIES OF CANADA/COMPAGNIES D'OPERA PROFESSIONELLES DU CANADA", "designationCode": "C", "categoryCode": "81", "address": "6286-2100 BLOOR STREET W", "city": "TORONTO", "province": "ON", "country": "CA", "postalCode": "M6S5A5", "twitter": "None", "instagram": "None", "facebook": "None", "youtube": "None", "website": "None", "summary": "None", "logo": "None", "latitude": 43.65234917626506, "longitude": -79.4708489222978}, "124191198RR0001": {"name": "PROFESSIONAL WRITERS ASSOCIATION OF CANADA", "designationCode": "C", "categoryCode": "81", "address": "210 - 2800 14TH AVE", "city": "MARKHAM", "province": "ON", "country": "CA", "postalCode": "L3R0E4", "twitter": "None", "instagram": "None", "facebook": "None", "youtube": "None", "website": "None", "summary": "None", "logo": "None", "latitude": 43.83064087099621, "longitude": -79.35710040899627}, "888781598RR0001": {"name": "PROFESSOR NIJS DEVOS SCHOLARSHIPS IN ACCOUNTANCY", "designationCode": "C", "categoryCode": "25", "address": "215 - 1369 BLOOR ST W", "city": "TORONTO", "province": "ON", "country": "CA", "postalCode": "M6P4J4", "twitter": "None", "instagram": "None", "facebook": "None", "youtube": "None", "website": "None", "summary": "None", "logo": "None", "latitude": 43.65518852329912, "longitude": -79.45772648593116}, "119105054RR0001": {"name": "PROGRAM FOR ADOLESCENT PARENTS AND INFANT DEVELOPMENT INC.", "designationCode": "C", "categoryCode": "09", "address": "723 - 20 CAL GARDNER DR", "city": "WINNIPEG", "province": "MB", "country": "CA", "postalCode": "R3W0K7", "twitter": "None", "instagram": "None", "facebook": "None", "youtube": "None", "website": "None", "summary": "None", "logo": "None", "latitude": 49.90005900000001, "longitude": -97.04971799999998}, "132559915RR0001": {"name": "PROGRAM FOR ADULT LEARNING (PAL)", "designationCode": "C", "categoryCode": "20", "address": "BOX 1934", "city": "LAC LA BICHE", "province": "AB", "country": "CA", "postalCode": "T0A2C0", "twitter": "None", "instagram": "None", "facebook": "None", "youtube": "None", "website": "None", "summary": "None", "logo": "None", "latitude": 54.768200000000036, "longitude": -111.98244999999997}, "893893081RR0001": {"name": "PROGRAMME ACTION JEUNESSE DE CANDIAC", "designationCode": "C", "categoryCode": "09", "address": "125, CH. HANDEL", "city": "CANDIAC", "province": "QC", "country": "CA", "postalCode": "J5R1R7", "twitter": "None", "instagram": "None", "facebook": "None", "youtube": "None", "website": "None", "summary": "None", "logo": "None", "latitude": 45.38507078625449, "longitude": -73.52369195262315}, "140795238RR0001": {"name": "PROGRAMME ACTION REFUGIES MONTREAL", "designationCode": "C", "categoryCode": "09", "address": "2-1439 RUE SAINTE-CATHERINE O", "city": "MONTR\u00c9AL", "province": "QC", "country": "CA", "postalCode": "H3G1S6", "twitter": "None", "instagram": "None", "facebook": "None", "youtube": "None", "website": "None", "summary": "None", "logo": "None", "latitude": 45.49617900000001, "longitude": -73.57668525}, "824803324RR0001": {"name": "PROGRAMME ADDICTION OUTREACH / ADDICTION OUTREACH PROGRAM", "designationCode": "C", "categoryCode": "57", "address": "765 RUE BEAUBIEN EST, #220", "city": "MONTREAL", "province": "QC", "country": "CA", "postalCode": "H2S1S8", "twitter": "None", "instagram": "None", "facebook": "None", "youtube": "None", "website": "None", "summary": "None", "logo": "None", "latitude": 45.53562782237862, "longitude": -73.60354579796856}, "137801866RR0001": {"name": "PROGRAMME ALTERNATIVE AU DECROCHAGE DU PLATEAU MONT-ROYAL", "designationCode": "C", "categoryCode": "09", "address": "1990 AVENUE MONT-ROYAL EST", "city": "MONTR\u00c9AL", "province": "QC", "country": "CA", "postalCode": "H2H1J4", "twitter": "None", "instagram": "None", "facebook": "None", "youtube": "None", "website": "None", "summary": "None", "logo": "None", "latitude": 45.534383319724235, "longitude": -73.5731388667553}, "895371680RR0001": {"name": "PROGRAMME D'AIDE AUX MEDECINS DU QUEBEC", "designationCode": "C", "categoryCode": "11", "address": "1 BOUL RENE-LEVESQUE E        SUITE 200", "city": "MONTREAL", "province": "QC", "country": "CA", "postalCode": "H2X3Z5", "twitter": "None", "instagram": "None", "facebook": "None", "youtube": "None", "website": "None", "summary": "None", "logo": "None", "latitude": 45.50907985512721, "longitude": -73.56153531239529}, "137131793RR0001": {"name": "PROGRAMME D'ENCADREMENT CLINIQUE ET D'HEBERGEMENT P E C H", "designationCode": "C", "categoryCode": "01", "address": "130 BOUL. CHAREST EST", "city": "QU\u00c9BEC", "province": "QC", "country": "CA", "postalCode": "G1K0E2", "twitter": "None", "instagram": "None", "facebook": "None", "youtube": "None", "website": "None", "summary": "None", "logo": "None", "latitude": 46.811940851520525, "longitude": -71.22890864446877}, "890066442RR0001": {"name": "PROGRAMME D'INTERVENTION JEUNESSE (P.I.J.)", "designationCode": "C", "categoryCode": "09", "address": "5185 BOUL. SAINT-LAURENT", "city": "SAINTE-CATHERINE", "province": "QC", "country": "CA", "postalCode": "J5C1A6", "twitter": "None", "instagram": "None", "facebook": "None", "youtube": "None", "website": "None", "summary": "None", "logo": "None", "latitude": 45.397771492902216, "longitude": -73.57004571276457}, "107860967RR0001": {"name": "PROGRAMME D'ORGANISATION AU TRAVAIL INC.", "designationCode": "C", "categoryCode": "09", "address": "4535, BOUL. SAINT-LAURENT", "city": "MONTREAL", "province": "QC", "country": "CA", "postalCode": "H2T1R2", "twitter": "None", "instagram": "None", "facebook": "None", "youtube": "None", "website": "None", "summary": "None", "logo": "None", "latitude": 45.52043514100632, "longitude": -73.58700896612623}, "892730565RR0001": {"name": "PROGRAMME DE REHABILITATION FRASER/FRASER RECOVERY PROGRAM", "designationCode": "C", "categoryCode": "57", "address": "1270 CHEMIN STE-FOY           SUITE 1124", "city": "QUEBEC", "province": "QC", "country": "CA", "postalCode": "G1S2M4", "twitter": "None", "instagram": "None", "facebook": "None", "youtube": "None", "website": "None", "summary": "None", "logo": "None", "latitude": 46.795915761948145, "longitude": -71.251954217053}, "123360273RR0001": {"name": "PROGRAMME INTERVENTION ET RECHERCHE PSYCAUSES INC", "designationCode": "C", "categoryCode": "09", "address": "C P 608 SUCCURSALE C", "city": "MONTREAL", "province": "QC", "country": "CA", "postalCode": "H2L4L5", "twitter": "None", "instagram": "None", "facebook": "None", "youtube": "None", "website": "None", "summary": "None", "logo": "None", "latitude": 45.51239400000006, "longitude": -73.55469049999994}, "140151283RR0001": {"name": "PROGRESS CHURCH OF GOD", "designationCode": "C", "categoryCode": "36", "address": "29 CANTWELL CRES", "city": "AJAX", "province": "ON", "country": "CA", "postalCode": "L1Z2A5", "twitter": "None", "instagram": "None", "facebook": "None", "youtube": "None", "website": "None", "summary": "None", "logo": "None", "latitude": 43.88884211408611, "longitude": -79.00603915543304}, "107861155RR0001": {"name": "PROGRESS PLACE REHABILITATION CENTRE (METROPOLITAN TORONTO) INC.", "designationCode": "C", "categoryCode": "10", "address": "576 CHURCH ST.", "city": "TORONTO", "province": "ON", "country": "CA", "postalCode": "M4Y2E3", "twitter": "None", "instagram": "None", "facebook": "None", "youtube": "None", "website": "None", "summary": "None", "logo": "None", "latitude": 43.66649818428648, "longitude": -79.38131537595922}, "106779960RR0001": {"name": "PROGRESSIVE ACADEMY EDUCATION SOCIETY", "designationCode": "C", "categoryCode": "20", "address": "13212 106 AVE", "city": "EDMONTON", "province": "AB", "country": "CA", "postalCode": "T5N1A3", "twitter": "None", "instagram": "None", "facebook": "None", "youtube": "None", "website": "None", "summary": "None", "logo": "None", "latitude": 53.54938145772946, "longitude": -113.55055272300768}, "119105112RR0001": {"name": "PROGRESSIVE ALTERNATIVES SOCIETY OF CALGARY", "designationCode": "C", "categoryCode": "11", "address": "SUITE 211,                    4014 MACLEOD TRAIL SOUTH", "city": "CALGARY", "province": "AB", "country": "CA", "postalCode": "T2G2R7", "twitter": "None", "instagram": "None", "facebook": "None", "youtube": "None", "website": "None", "summary": "None", "logo": "None", "latitude": 51.033532350135665, "longitude": -114.05947770999096}, "119105120RR0001": {"name": "PROGRESSIVE AND CO-ORDINATING ORGANIZATION AGRICULTURAL SOCIETY", "designationCode": "C", "categoryCode": "56", "address": "BOX 159", "city": "FAWCETT", "province": "AB", "country": "CA", "postalCode": "T0G0Y0", "twitter": "None", "instagram": "None", "facebook": "None", "youtube": "None", "website": "None", "summary": "None", "logo": "None", "latitude": 54.54124000000007, "longitude": -114.09564999999998}, "141051904RR0001": {"name": "PROGRESSIVE INTER-CULTURAL COMMUNITY SERVICES SOCIETY", "designationCode": "C", "categoryCode": "99", "address": "205-12725 80TH AVENUE", "city": "SURREY", "province": "BC", "country": "CA", "postalCode": "V3W3A6", "twitter": "None", "instagram": "None", "facebook": "None", "youtube": "None", "website": "None", "summary": "None", "logo": "None", "latitude": 49.1482144421489, "longitude": -122.87018230099832}, "877030908RR0001": {"name": "PROGRESSIVE ISLAMIC SUNNI VOHRA COMMUNITY OF CANADA", "designationCode": "C", "categoryCode": "60", "address": "18 FULHAM STREET", "city": "SCARBOROUGH", "province": "ON", "country": "CA", "postalCode": "M1S2A4", "twitter": "None", "instagram": "None", "facebook": "None", "youtube": "None", "website": "None", "summary": "None", "logo": "None", "latitude": 43.784751719949256, "longitude": -79.26854637555519}, "808574743RR0001": {"name": "PROJAIDE INC.", "designationCode": "C", "categoryCode": "09", "address": "CP 79003 CSP DES OISEAUX", "city": "LAVAL", "province": "QC", "country": "CA", "postalCode": "H7L5J1", "twitter": "None", "instagram": "None", "facebook": "None", "youtube": "None", "website": "None", "summary": "None", "logo": "None", "latitude": 45.59214953628656, "longitude": -73.77144707945317}, "888342177RR0001": {"name": "PROJECT BROTHERHOOD SOCIETY", "designationCode": "C", "categoryCode": "99", "address": "10869 155A ST", "city": "SURREY", "province": "BC", "country": "CA", "postalCode": "V3R0H7", "twitter": "None", "instagram": "None", "facebook": "None", "youtube": "None", "website": "None", "summary": "None", "logo": "None", "latitude": 49.199880487939225, "longitude": -122.79127437676728}, "815449079RR0001": {"name": "PROJECT CHANCE AFRICA / PROJET CHANCE AFRIQUE", "designationCode": "C", "categoryCode": "09", "address": "14 PIC-BOIS ROAD", "city": "LA PECHE", "province": "QC", "country": "CA", "postalCode": "J0X2W0", "twitter": "None", "instagram": "None", "facebook": "None", "youtube": "None", "website": "None", "summary": "None", "logo": "None", "latitude": 45.64414177151065, "longitude": -75.97579576245002}, "855858973RR0001": {"name": "PROJECT CHILDCARE FOUNDATION", "designationCode": "C", "categoryCode": "09", "address": "62 ANNETTE STREET", "city": "TORONTO", "province": "ON", "country": "CA", "postalCode": "M6P1N4", "twitter": "None", "instagram": "None", "facebook": "None", "youtube": "None", "website": "None", "summary": "None", "logo": "None", "latitude": 43.66368212519462, "longitude": -79.46157042521199}, "864177936RR0001": {"name": "PROJECT FOR GUATEMALAN INFANT AND FAMILY TREATMENT / PROJET POUR LE TRAITEMENT DES ENFANTS ET DES FAMILLES GUAT\u00c9MALT\u00c8QUES", "designationCode": "C", "categoryCode": "11", "address": "4778 VICTORIA AVENUE", "city": "MONTREAL", "province": "QC", "country": "CA", "postalCode": "H3W2N1", "twitter": "None", "instagram": "None", "facebook": "None", "youtube": "None", "website": "None", "summary": "None", "logo": "None", "latitude": 45.48604678238801, "longitude": -73.61913444284137}, "847834165RR0001": {"name": "PROJECT HANDS SOCIETY", "designationCode": "C", "categoryCode": "11", "address": "160 MOUNTAIN DR, BOX 543", "city": "LIONS BAY", "province": "BC", "country": "CA", "postalCode": "V0N2E0", "twitter": "None", "instagram": "None", "facebook": "None", "youtube": "None", "website": "None", "summary": "None", "logo": "None", "latitude": 49.468212891742276, "longitude": -123.23596508860821}, "862801214RR0001": {"name": "PROJECT HELPING ORPHANS FOR THE PURPOSE OF ETERNITY", "designationCode": "C", "categoryCode": "02", "address": "675 QUEEN ST SOUTH            UNIT 208", "city": "KITCHENER", "province": "ON", "country": "CA", "postalCode": "N2M1A1", "twitter": "None", "instagram": "None", "facebook": "None", "youtube": "None", "website": "None", "summary": "None", "logo": "None", "latitude": 43.44249651702381, "longitude": -80.4965912302793}, "119105187RR0001": {"name": "PROJECT HOSTEL", "designationCode": "C", "categoryCode": "02", "address": "4 - 52 WEST BEAVER CREEK RD", "city": "RICHMOND HILL", "province": "ON", "country": "CA", "postalCode": "L4B1L9", "twitter": "None", "instagram": "None", "facebook": "None", "youtube": "None", "website": "None", "summary": "None", "logo": "None", "latitude": 43.8513110722551, "longitude": -79.39261929294445}, "884301516RR0001": {"name": "PROJECT L.A.M.B.S. INTERNATIONAL INC.", "designationCode": "C", "categoryCode": "49", "address": "BOX 20569", "city": "STEINBACH", "province": "MB", "country": "CA", "postalCode": "R5G1R9", "twitter": "None", "instagram": "None", "facebook": "None", "youtube": "None", "website": "None", "summary": "None", "logo": "None", "latitude": 49.52572800000006, "longitude": -96.68393449999994}, "107861270RR0001": {"name": "PROJECT LITERACY KELOWNA SOCIETY", "designationCode": "C", "categoryCode": "21", "address": "1635 BERTRAM ST", "city": "KELOWNA", "province": "BC", "country": "CA", "postalCode": "V1Y2G5", "twitter": "None", "instagram": "None", "facebook": "None", "youtube": "None", "website": "None", "summary": "None", "logo": "None", "latitude": 49.88483559270692, "longitude": -119.48991073550866}, "892036187RR0001": {"name": "PROJECT MARANATHA FOR YOUTH (HAMILTON/HALTON)", "designationCode": "C", "categoryCode": "09", "address": "613 KING ROAD", "city": "BURLINGTON", "province": "ON", "country": "CA", "postalCode": "L7T3K3", "twitter": "None", "instagram": "None", "facebook": "None", "youtube": "None", "website": "None", "summary": "None", "logo": "None", "latitude": 43.31270967029245, "longitude": -79.81979430096968}, "107861296RR0001": {"name": "PROJECT NEECHEEWAM INC.", "designationCode": "C", "categoryCode": "01", "address": "605 WALL STREET", "city": "WINNIPEG", "province": "MB", "country": "CA", "postalCode": "R3G2T5", "twitter": "None", "instagram": "None", "facebook": "None", "youtube": "None", "website": "None", "summary": "None", "logo": "None", "latitude": 49.88505362170352, "longitude": -97.18282121798735}, "864157714RR0001": {"name": "PROJECT NEXT STEP SUPPORT SERVICES", "designationCode": "C", "categoryCode": "09", "address": "928 LIVERPOOL ROAD SOUTH", "city": "PICKERING", "province": "ON", "country": "CA", "postalCode": "L1W1S6", "twitter": "None", "instagram": "None", "facebook": "None", "youtube": "None", "website": "None", "summary": "None", "logo": "None", "latitude": 43.8279086375152, "longitude": -79.08700554126001}, "886490994RR0001": {"name": "PROJECT ORBIS INTERNATIONAL INC.", "designationCode": "C", "categoryCode": "11", "address": "340 COLLEGE STREET, SUITE 375", "city": "TORONTO", "province": "ON", "country": "CA", "postalCode": "M5T3A9", "twitter": "None", "instagram": "None", "facebook": "None", "youtube": "None", "website": "None", "summary": "None", "logo": "None", "latitude": 43.657760809308215, "longitude": -79.40354707048883}, "867502965RR0001": {"name": "PROJECT OUTREACH INTERNATIONAL CHILD HEALTH SOCIETY", "designationCode": "C", "categoryCode": "11", "address": "22 ROLLING ACRES DR.", "city": "CALGARY", "province": "AB", "country": "CA", "postalCode": "T3R1B8", "twitter": "None", "instagram": "None", "facebook": "None", "youtube": "None", "website": "None", "summary": "None", "logo": "None", "latitude": 51.18474596110591, "longitude": -114.26939279869065}, "890241193RR0001": {"name": "PROJECT REACH OUT", "designationCode": "C", "categoryCode": "01", "address": "201 DE LA GONDOLE", "city": "ST EUSTACHE", "province": "QC", "country": "CA", "postalCode": "J7P1N6", "twitter": "None", "instagram": "None", "facebook": "None", "youtube": "None", "website": "None", "summary": "None", "logo": "None", "latitude": 45.575712525102524, "longitude": -73.86416269802072}, "891967036RR0001": {"name": "PROJECT REACH OUT CANADA", "designationCode": "C", "categoryCode": "47", "address": "PO BOX 982", "city": "KEMPTVILLE", "province": "ON", "country": "CA", "postalCode": "K0G1J0", "twitter": "None", "instagram": "None", "facebook": "None", "youtube": "None", "website": "None", "summary": "None", "logo": "None", "latitude": 44.98774800000005, "longitude": -75.69332899999993}, "131729212RR0001": {"name": "PROJECT READ LITERACY NETWORK (WATERLOO-WELLINGTON)", "designationCode": "C", "categoryCode": "09", "address": "124 SYDNEY STREET SOUTH       3RD FLOOR", "city": "KITCHENER", "province": "ON", "country": "CA", "postalCode": "N2G3V2", "twitter": "None", "instagram": "None", "facebook": "None", "youtube": "None", "website": "None", "summary": "None", "logo": "None", "latitude": 43.43853701555191, "longitude": -80.47258621553452}, "104323613RR0001": {"name": "PROJECT S.A.M. INC.", "designationCode": "C", "categoryCode": "09", "address": "85 4TH AVE NE", "city": "PORTAGE LA PRAIRIE", "province": "MB", "country": "CA", "postalCode": "R1N3J5", "twitter": "None", "instagram": "None", "facebook": "None", "youtube": "None", "website": "None", "summary": "None", "logo": "None", "latitude": 49.97955024559698, "longitude": -98.28883753772978}, "107861338RR0001": {"name": "PROJECT S.H.A.R.E. OF NIAGARA FALLS INC.", "designationCode": "C", "categoryCode": "09", "address": "2-4129 STANLEY AVE", "city": "NIAGARA FALLS", "province": "ON", "country": "CA", "postalCode": "L2E7H3", "twitter": "None", "instagram": "None", "facebook": "None", "youtube": "None", "website": "None", "summary": "None", "logo": "None", "latitude": 43.11417786513176, "longitude": -79.08625491342798}, "826373474RR0001": {"name": "PROJECT SHELTER WAKADOGO", "designationCode": "C", "categoryCode": "01", "address": "36 - 9520, 174TH STREET NW", "city": "EDMONTON", "province": "AB", "country": "CA", "postalCode": "T5T5Z3", "twitter": "None", "instagram": "None", "facebook": "None", "youtube": "None", "website": "None", "summary": "None", "logo": "None", "latitude": 53.5315650198365, "longitude": -113.6211742807726}, "834330367RR0001": {"name": "PROJECT SUNSHINE CANADA, INC.", "designationCode": "C", "categoryCode": "01", "address": "1000 YONGE ST", "city": "TORONTO", "province": "ON", "country": "CA", "postalCode": "M4W2K2", "twitter": "None", "instagram": "None", "facebook": "None", "youtube": "None", "website": "None", "summary": "None", "logo": "None", "latitude": 43.675733776848105, "longitude": -79.38905557496089}, "875377905RR0001": {"name": "PROJECT UMBRELLA BURMA", "designationCode": "C", "categoryCode": "09", "address": "6 WEST STREET NORTH           4TH FLOOR", "city": "ORILLIA", "province": "ON", "country": "CA", "postalCode": "L3V5B8", "twitter": "None", "instagram": "None", "facebook": "None", "youtube": "None", "website": "None", "summary": "None", "logo": "None", "latitude": 44.60844708916149, "longitude": -79.41971939277369}, "896277944RR0001": {"name": "PROJECT WARMTH SOCIETY OF ALBERTA", "designationCode": "A", "categoryCode": "03", "address": "#600 - 5920 MACLEOD TRAIL S.", "city": "CALGARY", "province": "AB", "country": "CA", "postalCode": "T2H0K2", "twitter": "None", "instagram": "None", "facebook": "None", "youtube": "None", "website": "None", "summary": "None", "logo": "None", "latitude": 50.98923298743748, "longitude": -114.07168631722637}, "127816205RR0001": {"name": "PROJECT WORK", "designationCode": "C", "categoryCode": "09", "address": "250 MERTON ST                 SUITE 204", "city": "TORONTO", "province": "ON", "country": "CA", "postalCode": "M4S1B1", "twitter": "None", "instagram": "None", "facebook": "None", "youtube": "None", "website": "None", "summary": "None", "logo": "None", "latitude": 43.69773414351649, "longitude": -79.3884989222978}, "889515862RR0001": {"name": "PROJECT WORLDREACH", "designationCode": "C", "categoryCode": "47", "address": "271-1865 DILWORTH DRIVE", "city": "KELOWNA", "province": "BC", "country": "CA", "postalCode": "V1Y9T1", "twitter": "None", "instagram": "None", "facebook": "None", "youtube": "None", "website": "None", "summary": "None", "logo": "None", "latitude": 49.8804249679912, "longitude": -119.43736322061879}, "128101615RR0001": {"name": "PROJECT 25-44 (SUDBURY) VOCATIONAL RESOURCE CENTRE INC", "designationCode": "C", "categoryCode": "59", "address": "124 CEDAR STREET              3RD FLOOR", "city": "SUDBURY", "province": "ON", "country": "CA", "postalCode": "P3E1B4", "twitter": "None", "instagram": "None", "facebook": "None", "youtube": "None", "website": "None", "summary": "None", "logo": "None", "latitude": 46.492311291175064, "longitude": -80.99215120820628}, "725839690RR0001": {"name": "PROJECT 321 PEEL DOWN SYNDROME ASSOCIATION", "designationCode": "C", "categoryCode": "11", "address": "9 - 17 RAY LAWSON BLVD", "city": "BRAMPTON", "province": "ON", "country": "CA", "postalCode": "L6Y5L8", "twitter": "None", "instagram": "None", "facebook": "None", "youtube": "None", "website": "None", "summary": "None", "logo": "None", "latitude": 43.65784015347114, "longitude": -79.72415227488618}, "858069404RR0001": {"name": "PROJET C.A.L.E.B.", "designationCode": "C", "categoryCode": "09", "address": "35 RUE GODBOUT", "city": "STE-CLAIRE", "province": "QC", "country": "CA", "postalCode": "G0R2V0", "twitter": "None", "instagram": "None", "facebook": "None", "youtube": "None", "website": "None", "summary": "None", "logo": "None", "latitude": 46.57812519175966, "longitude": -70.81946399803809}, "129543377RR0001": {"name": "PROJET CHANGEMENT-CENTRE COMMUNAUTAIRE POUR AINES", "designationCode": "C", "categoryCode": "09", "address": "4450 RUE SAINT-HUBERT         BUREAU 130", "city": "MONTREAL", "province": "QC", "country": "CA", "postalCode": "H2J2W9", "twitter": "None", "instagram": "None", "facebook": "None", "youtube": "None", "website": "None", "summary": "None", "logo": "None", "latitude": 45.52513365803011, "longitude": -73.58025329450612}, "894389832RR0001": {"name": "PROJET COMMUNAUTAIRE DE PIERREFONDS", "designationCode": "C", "categoryCode": "09", "address": "12301 RUE COLIN", "city": "PIERREFONDS", "province": "QC", "country": "CA", "postalCode": "H9A1C3", "twitter": "None", "instagram": "None", "facebook": "None", "youtube": "None", "website": "None", "summary": "None", "logo": "None", "latitude": 45.503113114663044, "longitude": -73.8272076848634}, "895119048RR0001": {"name": "PROJET COMMUNIC-ACTION/COMMUNIC-ACTION PROJECT", "designationCode": "C", "categoryCode": "09", "address": "3-1493 RTE 138                C.P. 90027", "city": "GODMANCHESTER", "province": "QC", "country": "CA", "postalCode": "J0S1H0", "twitter": "None", "instagram": "None", "facebook": "None", "youtube": "None", "website": "None", "summary": "None", "logo": "None", "latitude": 45.09602636243139, "longitude": -74.1535971219982}, "131447104RR0001": {"name": "PROJET D'INTERVENTION AUPRES DES MINEURS PROSTITUES P I A M P", "designationCode": "C", "categoryCode": "09", "address": "3736 RUE SAINT-HUBERT", "city": "MONTREAL", "province": "QC", "country": "CA", "postalCode": "H2L4A2", "twitter": "None", "instagram": "None", "facebook": "None", "youtube": "None", "website": "None", "summary": "None", "logo": "None", "latitude": 45.52063177127951, "longitude": -73.57019526077659}, "897465837RR0001": {"name": "PROJET DE PREVENTION DES TOXICOMANIES: CUMULUS", "designationCode": "C", "categoryCode": "21", "address": "CP 34054                      GALERIES LACHINE", "city": "LACHINE", "province": "QC", "country": "CA", "postalCode": "H8S4H4", "twitter": "None", "instagram": "None", "facebook": "None", "youtube": "None", "website": "None", "summary": "None", "logo": "None", "latitude": 45.438810000000046, "longitude": -73.69012999999995}, "864959333RR0001": {"name": "PROJET EQUESTRE GOLDIE", "designationCode": "C", "categoryCode": "56", "address": "11856 RANG ST-ETIENNE", "city": "ST-BENOIT  MIRABEL", "province": "QC", "country": "CA", "postalCode": "J7N2T2", "twitter": "None", "instagram": "None", "facebook": "None", "youtube": "None", "website": "None", "summary": "None", "logo": "None", "latitude": 45.58231632581241, "longitude": -74.04506245498906}, "119105336RR0001": {"name": "PROJET GENESE PROJECT GENESIS", "designationCode": "C", "categoryCode": "59", "address": "4735, COTE STE CATHERINE ROAD", "city": "MONTREAL", "province": "QC", "country": "CA", "postalCode": "H3W1M1", "twitter": "None", "instagram": "None", "facebook": "None", "youtube": "None", "website": "None", "summary": "None", "logo": "None", "latitude": 45.49252322843202, "longitude": -73.63303739872448}, "898276886RR0001": {"name": "PROJET ISPAJES/SEEHIGHS", "designationCode": "C", "categoryCode": "21", "address": "4805, RUE MOLSON", "city": "MONTR\u00c9AL", "province": "QC", "country": "CA", "postalCode": "H1Y0A2", "twitter": "None", "instagram": "None", "facebook": "None", "youtube": "None", "website": "None", "summary": "None", "logo": "None", "latitude": 45.54197441329545, "longitude": -73.56964930668248}, "122270135RR0001": {"name": "PROJET JEUNESSE DE L'OUEST DE L'ILE-WEST ISLAND YOUTH PROJECT", "designationCode": "C", "categoryCode": "01", "address": "7 STE-ANNE", "city": "POINTE CLAIRE", "province": "QC", "country": "CA", "postalCode": "H9S4P6", "twitter": "None", "instagram": "None", "facebook": "None", "youtube": "None", "website": "None", "summary": "None", "logo": "None", "latitude": 45.42755724730217, "longitude": -73.82507814746987}, "896729696RR0001": {"name": "PROJET JEUNESSE ST-MICHEL INC.", "designationCode": "C", "categoryCode": "09", "address": "165 AV. PORTELANCE", "city": "ROUYN-NORANDA", "province": "QC", "country": "CA", "postalCode": "J9X7G5", "twitter": "None", "instagram": "None", "facebook": "None", "youtube": "None", "website": "None", "summary": "None", "logo": "None", "latitude": 48.25064446378898, "longitude": -79.01774076963473}, "838582005RR0001": {"name": "PROJET LOVE: VIVRE SANS VIOLENCE (QU\u00c9BEC) / LOVE: LEAVE OUT VIOLENCE (QU\u00c9BEC)", "designationCode": "C", "categoryCode": "09", "address": "300 - 400 RUE SAINT-JACQUES", "city": "MONTREAL", "province": "QC", "country": "CA", "postalCode": "H2Y1S1", "twitter": "None", "instagram": "None", "facebook": "None", "youtube": "None", "website": "None", "summary": "None", "logo": "None", "latitude": 45.501825280310555, "longitude": -73.55990615941509}, "119105377RR0001": {"name": "PROJET P.A.L. INC.", "designationCode": "C", "categoryCode": "09", "address": "861 RUE DE L'EGLISE", "city": "VERDUN", "province": "QC", "country": "CA", "postalCode": "H4G2N3", "twitter": "None", "instagram": "None", "facebook": "None", "youtube": "None", "website": "None", "summary": "None", "logo": "None", "latitude": 45.46313549321932, "longitude": -73.5744427754631}, "863505442RR0001": {"name": "PROJET SPHINX/SPHINX PROJECT", "designationCode": "C", "categoryCode": "54", "address": "8876, RUE IBERVILLE", "city": "MONTR\u00c9AL", "province": "QC", "country": "CA", "postalCode": "H1Z2P9", "twitter": "None", "instagram": "None", "facebook": "None", "youtube": "None", "website": "None", "summary": "None", "logo": "None", "latitude": 45.566696673033746, "longitude": -73.62715391439195}, "104324223RR0001": {"name": "PROJET SUIVI COMMUNAUTAIRE", "designationCode": "C", "categoryCode": "11", "address": "1751 RUE RICHARDSON, BUR.4.120", "city": "MONTR\u00c9AL", "province": "QC", "country": "CA", "postalCode": "H3K1G6", "twitter": "None", "instagram": "None", "facebook": "None", "youtube": "None", "website": "None", "summary": "None", "logo": "None", "latitude": 45.48405242659698, "longitude": -73.56187541646942}, "861819316RR0001": {"name": "PROJET 10 / PROJECT 10", "designationCode": "C", "categoryCode": "09", "address": "1575 RUE AMHERST", "city": "MONTREAL", "province": "QC", "country": "CA", "postalCode": "H2L3L4", "twitter": "None", "instagram": "None", "facebook": "None", "youtube": "None", "website": "None", "summary": "None", "logo": "None", "latitude": 45.51840512268445, "longitude": -73.55900140062907}, "119105344RR0001": {"name": "PROJET-INTERVENTION-PROSTITUTION QUEBEC INC.", "designationCode": "C", "categoryCode": "09", "address": "535 AV. DES OBLATS", "city": "QUEBEC", "province": "QC", "country": "CA", "postalCode": "G1N1V5", "twitter": "None", "instagram": "None", "facebook": "None", "youtube": "None", "website": "None", "summary": "None", "logo": "None", "latitude": 46.80907938744309, "longitude": -71.23953954258768}, "132192600RR0001": {"name": "PROJETS P A R T", "designationCode": "C", "categoryCode": "09", "address": "4100 RUE ANDRE LAURENDEAU", "city": "MONTREAL", "province": "QC", "country": "CA", "postalCode": "H1Y3N6", "twitter": "None", "instagram": "None", "facebook": "None", "youtube": "None", "website": "None", "summary": "None", "logo": "None", "latitude": 45.542993115153976, "longitude": -73.56265813823636}, "804283141RR0001": {"name": "PROLASA CANADA INC.", "designationCode": "B", "categoryCode": "01", "address": "2137 ROUTE 109", "city": "ARTHURETTE", "province": "NB", "country": "CA", "postalCode": "E7H4B6", "twitter": "None", "instagram": "None", "facebook": "None", "youtube": "None", "website": "None", "summary": "None", "logo": "None", "latitude": 46.81331275777812, "longitude": -67.46040160296157}, "119105476RR0001": {"name": "PROLOGUE TO THE PERFORMING ARTS", "designationCode": "C", "categoryCode": "22", "address": "201-15 CASE GOODS LANE", "city": "TORONTO", "province": "ON", "country": "CA", "postalCode": "M5A3C4", "twitter": "None", "instagram": "None", "facebook": "None", "youtube": "None", "website": "None", "summary": "None", "logo": "None", "latitude": 43.649968882595665, "longitude": -79.3585262463212}, "119105484RR0001": {"name": "PROM-EDU-VAL SOCIETY", "designationCode": "C", "categoryCode": "49", "address": "75 CHARLES ST W", "city": "TORONTO", "province": "ON", "country": "CA", "postalCode": "M5S1K5", "twitter": "None", "instagram": "None", "facebook": "None", "youtube": "None", "website": "None", "summary": "None", "logo": "None", "latitude": 43.66788985316529, "longitude": -79.3902466470945}, "119105492RR0001": {"name": "PROMETHEUS STEFAN ONYSZCZUK AND STEFANIA SZWED FOUNDATION", "designationCode": "A", "categoryCode": "23", "address": "209 RIVERSIDE DR", "city": "TORONTO", "province": "ON", "country": "CA", "postalCode": "M6S4A8", "twitter": "None", "instagram": "None", "facebook": "None", "youtube": "None", "website": "None", "summary": "None", "logo": "None", "latitude": 43.64105831530948, "longitude": -79.4805461787179}, "141222505RR0001": {"name": "PROMIS (PROMOTION - INT\u00c9GRATION - SOCI\u00c9T\u00c9 NOUVELLE)", "designationCode": "C", "categoryCode": "09", "address": "3333 COTE-SAINTE-CATHERINE", "city": "MONTREAL", "province": "QC", "country": "CA", "postalCode": "H3T1C8", "twitter": "None", "instagram": "None", "facebook": "None", "youtube": "None", "website": "None", "summary": "None", "logo": "None", "latitude": 45.500224221218666, "longitude": -73.62604543536821}, "898266861RR0001": {"name": "PROMISE KEEPERS CANADA", "designationCode": "C", "categoryCode": "47", "address": "PO BOX 20099 RPO BRANT HILLS", "city": "BURLINGTON", "province": "ON", "country": "CA", "postalCode": "L7P0A4", "twitter": "None", "instagram": "None", "facebook": "None", "youtube": "None", "website": "None", "summary": "None", "logo": "None", "latitude": 43.354133216158296, "longitude": -79.8397593895576}, "893163964RR0001": {"name": "PROMISED LAND MINISTRIES", "designationCode": "C", "categoryCode": "39", "address": "12134-67 ST. NW", "city": "EDMONTON", "province": "AB", "country": "CA", "postalCode": "T5B1M6", "twitter": "None", "instagram": "None", "facebook": "None", "youtube": "None", "website": "None", "summary": "None", "logo": "None", "latitude": 53.57570062479345, "longitude": -113.44460146544084}, "886323203RR0001": {"name": "PROMISEDLAND CHRISTIAN FAMILY CENTRE", "designationCode": "C", "categoryCode": "39", "address": "1903 AVALON ST", "city": "LONDON", "province": "ON", "country": "CA", "postalCode": "N5W3G9", "twitter": "None", "instagram": "None", "facebook": "None", "youtube": "None", "website": "None", "summary": "None", "logo": "None", "latitude": 43.00650606797867, "longitude": -81.17732362724342}, "866602410RR0001": {"name": "PROMONTORY COMMUNITY CHURCH", "designationCode": "C", "categoryCode": "34", "address": "200 - 9345 MAIN ST", "city": "CHILLIWACK", "province": "BC", "country": "CA", "postalCode": "V2P4M3", "twitter": "None", "instagram": "None", "facebook": "None", "youtube": "None", "website": "None", "summary": "None", "logo": "None", "latitude": 49.171672853193954, "longitude": -121.955048906659}, "849497276RR0001": {"name": "PROMOTING ABORIGINAL STUDENT SUCCESS COMMITTEE (P.A.S.S.)", "designationCode": "C", "categoryCode": "21", "address": "425 EVELINE STREET", "city": "SELKIRK", "province": "MB", "country": "CA", "postalCode": "R1A2J5", "twitter": "None", "instagram": "None", "facebook": "None", "youtube": "None", "website": "None", "summary": "None", "logo": "None", "latitude": 50.14521718709121, "longitude": -96.8678304931869}, "878066729RR0001": {"name": "PROMOTING ANIMAL WELFARE SOCIETY (P A W S ) OF GEORGINA", "designationCode": "C", "categoryCode": "54", "address": "50 SUNBIRD BLVD", "city": "KESWICK", "province": "ON", "country": "CA", "postalCode": "L4P3S1", "twitter": "None", "instagram": "None", "facebook": "None", "youtube": "None", "website": "None", "summary": "None", "logo": "None", "latitude": 44.239076117981256, "longitude": -79.46899878310916}, "865639629RR0001": {"name": "PROMOTING AWARENESS OF REFLEX SYMPATHETIC DYSTROPHY SYNDROME/ COMPLEX REGIONAL PAIN SYNDROME IN CANADA", "designationCode": "C", "categoryCode": "11", "address": "PO BOX 20032 RPO GRANTHAM", "city": "ST CATHARINES", "province": "ON", "country": "CA", "postalCode": "L2M7W7", "twitter": "None", "instagram": "None", "facebook": "None", "youtube": "None", "website": "None", "summary": "None", "logo": "None", "latitude": 43.18595227267854, "longitude": -79.22077768144945}, "132003781RR0001": {"name": "PROMOTING EDUCATION AND COMMUNITY HEALTH", "designationCode": "C", "categoryCode": "59", "address": "127 EDDYSTONE AVE.", "city": "NORTH YORK", "province": "ON", "country": "CA", "postalCode": "M3N1H5", "twitter": "None", "instagram": "None", "facebook": "None", "youtube": "None", "website": "None", "summary": "None", "logo": "None", "latitude": 43.748260827630084, "longitude": -79.51930737010218}, "119105526RR0001": {"name": "PROMOTION COEUR-IMMACULE", "designationCode": "C", "categoryCode": "56", "address": "330 AV 15E SUD", "city": "SHERBROOKE", "province": "QC", "country": "CA", "postalCode": "J1G2X5", "twitter": "None", "instagram": "None", "facebook": "None", "youtube": "None", "website": "None", "summary": "None", "logo": "None", "latitude": 45.40265972745109, "longitude": -71.86723392085551}, "120509385RR0001": {"name": "PROMOTION INTERVENTION EN MILIEU OUVERT INC", "designationCode": "C", "categoryCode": "09", "address": "215 - 2030 BOUL PIE-IX", "city": "MONTREAL", "province": "QC", "country": "CA", "postalCode": "H1V2C8", "twitter": "None", "instagram": "None", "facebook": "None", "youtube": "None", "website": "None", "summary": "None", "logo": "None", "latitude": 45.55062515569284, "longitude": -73.54249161172018}, "119110450RR0010": {"name": "PROPAGATION OF THE FAITH", "designationCode": "C", "categoryCode": "49", "address": "700 KING ST W", "city": "HAMILTON", "province": "ON", "country": "CA", "postalCode": "L8P1C7", "twitter": "None", "instagram": "None", "facebook": "None", "youtube": "None", "website": "None", "summary": "None", "logo": "None", "latitude": 43.26284446770546, "longitude": -79.89023923809737}, "119105567RR0001": {"name": "PROPERTY + CHURCH DEVELOPMENT SOCIETY OF CALGARY PRESBYTERY OF UNITED CHURCH OF CANADA", "designationCode": "C", "categoryCode": "44", "address": "201B  4 ST NE", "city": "CALGARY", "province": "AB", "country": "CA", "postalCode": "T2E3S1", "twitter": "None", "instagram": "None", "facebook": "None", "youtube": "None", "website": "None", "summary": "None", "logo": "None", "latitude": 51.05343926777201, "longitude": -114.051769767772}, "119105559RR0001": {"name": "PROPERTY AND NEW CHURCH DEVELOPMENT COUNCIL OF THE EDMONTON PRESBYTERY OF THE UNITED CHURCH OF CANADA", "designationCode": "C", "categoryCode": "44", "address": "13535-122 AVENUE", "city": "EDMONTON", "province": "AB", "country": "CA", "postalCode": "T5L2V7", "twitter": "None", "instagram": "None", "facebook": "None", "youtube": "None", "website": "None", "summary": "None", "logo": "None", "latitude": 53.572462513994026, "longitude": -113.55553219594324}, "857233183RR0001": {"name": "PROPHET ELIAS GREEK ORTHODOX CHURCH & COMMUNITY", "designationCode": "C", "categoryCode": "39", "address": "475 PARK ROAD NORTH", "city": "BRANTFORD", "province": "ON", "country": "CA", "postalCode": "N3T5A9", "twitter": "None", "instagram": "None", "facebook": "None", "youtube": "None", "website": "None", "summary": "None", "logo": "None", "latitude": 43.18015172996123, "longitude": -80.24928010886426}}