{"826641102RR0001": {"name": "Our Health Centre Foundation", "designationCode": "A", "categoryCode": "13", "address": "POST OFFICE BOX 74", "city": "CHESTER", "province": "NS", "country": "CA", "postalCode": "B0J1J0", "twitter": "None", "instagram": "None", "facebook": "None", "youtube": "None", "website": "None", "summary": "None", "logo": "None", "latitude": 44.54628000000008, "longitude": -64.24174999999997}, "833016629RR0001": {"name": "Our House West Coast Society", "designationCode": "C", "categoryCode": "57", "address": "1130 JERVIS ST", "city": "VANCOUVER", "province": "BC", "country": "CA", "postalCode": "V6E2C7", "twitter": "None", "instagram": "None", "facebook": "None", "youtube": "None", "website": "None", "summary": "None", "logo": "None", "latitude": 49.283277580616385, "longitude": -123.13412745002607}, "820624328RR0001": {"name": "Our Independence Project", "designationCode": "C", "categoryCode": "59", "address": "UNIT 1206,                    100 OBSERVATORY LANE", "city": "RICHMOND HILL", "province": "ON", "country": "CA", "postalCode": "L4C1T4", "twitter": "None", "instagram": "None", "facebook": "None", "youtube": "None", "website": "None", "summary": "None", "logo": "None", "latitude": 43.85893422069906, "longitude": -79.43208909091682}, "810593012RR0001": {"name": "Our Kenyan Kids / Nos gamins Kenyans", "designationCode": "C", "categoryCode": "09", "address": "PO BOX 164                    5 WALL STREET", "city": "BROCKVILLE", "province": "ON", "country": "CA", "postalCode": "K6V5V2", "twitter": "None", "instagram": "None", "facebook": "None", "youtube": "None", "website": "None", "summary": "None", "logo": "None", "latitude": 44.59087585525576, "longitude": -75.68495456120118}, "107910259RR0123": {"name": "Our Lady of the Airways Parish", "designationCode": "C", "categoryCode": "38", "address": "7411 DARCEL AVE", "city": "MISSISSAUGA", "province": "ON", "country": "CA", "postalCode": "L4T2X5", "twitter": "None", "instagram": "None", "facebook": "None", "youtube": "None", "website": "None", "summary": "None", "logo": "None", "latitude": 43.72550811324939, "longitude": -79.63821408823377}, "107910259RR0205": {"name": "Our Lady of the Annunciation Parish", "designationCode": "C", "categoryCode": "38", "address": "97 KING RD PO BOX.2760,STN.B", "city": "RICHMOND HILL", "province": "ON", "country": "CA", "postalCode": "L4E1A7", "twitter": "None", "instagram": "None", "facebook": "None", "youtube": "None", "website": "None", "summary": "None", "logo": "None", "latitude": 43.943789833689614, "longitude": -79.45847780694228}, "848623575RR0011": {"name": "Our Lady of the Assumption Church", "designationCode": "C", "categoryCode": "38", "address": "1830 KEENE RD", "city": "OTONABEE", "province": "ON", "country": "CA", "postalCode": "K9J6X7", "twitter": "None", "instagram": "None", "facebook": "None", "youtube": "None", "website": "None", "summary": "None", "logo": "None", "latitude": 44.268309338631724, "longitude": -78.26695409707825}, "107910259RR0076": {"name": "Our Lady of the Assumption Parish", "designationCode": "C", "categoryCode": "38", "address": "2565 BATHURST STREET", "city": "TORONTO", "province": "ON", "country": "CA", "postalCode": "M6B2Z3", "twitter": "None", "instagram": "None", "facebook": "None", "youtube": "None", "website": "None", "summary": "None", "logo": "None", "latitude": 43.706939238415366, "longitude": -79.42676412819571}, "119109817RR0134": {"name": "Our Lady of the Atonement Parish", "designationCode": "C", "categoryCode": "38", "address": "2940 FOREST GLADE DRIVE", "city": "WINDSOR", "province": "ON", "country": "CA", "postalCode": "N8R1L5", "twitter": "None", "instagram": "None", "facebook": "None", "youtube": "None", "website": "None", "summary": "None", "logo": "None", "latitude": 42.30965081738697, "longitude": -82.91582634127833}, "107910259RR0079": {"name": "Our Lady of the Miraculous Medal Parish", "designationCode": "C", "categoryCode": "38", "address": "739 BROWNS LINE", "city": "TORONTO", "province": "ON", "country": "CA", "postalCode": "M8W3V7", "twitter": "None", "instagram": "None", "facebook": "None", "youtube": "None", "website": "None", "summary": "None", "logo": "None", "latitude": 43.6078819997402, "longitude": -79.54784903889501}, "845957778RR0001": {"name": "Our Lady of the Pillar Academy", "designationCode": "C", "categoryCode": "20", "address": "6100 CALVERT DRIVE", "city": "ADELAIDE-METCALFE", "province": "ON", "country": "CA", "postalCode": "N7G3H5", "twitter": "None", "instagram": "None", "facebook": "None", "youtube": "None", "website": "None", "summary": "None", "logo": "None", "latitude": 42.88964020321392, "longitude": -81.6896713407578}, "107909939RR0029": {"name": "Our Lady of the Rockies Roman Catholic Parish", "designationCode": "C", "categoryCode": "38", "address": "810-7TH STREET", "city": "CANMORE", "province": "AB", "country": "CA", "postalCode": "T1W2C8", "twitter": "None", "instagram": "None", "facebook": "None", "youtube": "None", "website": "None", "summary": "None", "logo": "None", "latitude": 51.08829353318128, "longitude": -115.3614105}, "107910259RR0190": {"name": "Our Lady of the Rosary Parish", "designationCode": "C", "categoryCode": "38", "address": "2950 MIDLAND", "city": "SCARBOROUGH", "province": "ON", "country": "CA", "postalCode": "M1S3K8", "twitter": "None", "instagram": "None", "facebook": "None", "youtube": "None", "website": "None", "summary": "None", "logo": "None", "latitude": 43.80224794004276, "longitude": -79.28568628882196}, "118841055RR0016": {"name": "Our Lady of the Way Catholic Church", "designationCode": "C", "categoryCode": "38", "address": "5119 - 5TH AVE", "city": "WHITEHORSE", "province": "YT", "country": "CA", "postalCode": "Y1A1L5", "twitter": "None", "instagram": "None", "facebook": "None", "youtube": "None", "website": "None", "summary": "None", "logo": "None", "latitude": 60.7190449431637, "longitude": -135.0584880610393}, "107910259RR0077": {"name": "Our Lady of Fatima Parish", "designationCode": "C", "categoryCode": "38", "address": "3170 ST CLAIR AVE EAST", "city": "SCARBOROUGH", "province": "ON", "country": "CA", "postalCode": "M1L1V6", "twitter": "None", "instagram": "None", "facebook": "None", "youtube": "None", "website": "None", "summary": "None", "logo": "None", "latitude": 43.709217209590584, "longitude": -79.29394579130347}, "107910259RR0195": {"name": "Our Lady of Fatima Parish", "designationCode": "C", "categoryCode": "38", "address": "101 MALTA AVE", "city": "BRAMPTON", "province": "ON", "country": "CA", "postalCode": "L6Y4C8", "twitter": "None", "instagram": "None", "facebook": "None", "youtube": "None", "website": "None", "summary": "None", "logo": "None", "latitude": 43.65973896090343, "longitude": -79.73123647108923}, "107910259RR0173": {"name": "Our Lady of Good Counsel Parish", "designationCode": "C", "categoryCode": "38", "address": "867 COLLEGE ST", "city": "TORONTO", "province": "ON", "country": "CA", "postalCode": "M6H1A1", "twitter": "None", "instagram": "None", "facebook": "None", "youtube": "None", "website": "None", "summary": "None", "logo": "None", "latitude": 43.65411273991592, "longitude": -79.42389674104108}, "107910259RR0217": {"name": "Our Lady of Good Health Parish", "designationCode": "C", "categoryCode": "38", "address": "131 BIRCHMOUNT RD", "city": "SCARBOROUGH", "province": "ON", "country": "CA", "postalCode": "M1N3J7", "twitter": "None", "instagram": "None", "facebook": "None", "youtube": "None", "website": "None", "summary": "None", "logo": "None", "latitude": 43.69631964669047, "longitude": -79.26365984176833}, "107910259RR0111": {"name": "Our Lady of Grace Parish", "designationCode": "C", "categoryCode": "38", "address": "15347 YONGE STREET", "city": "AURORA", "province": "ON", "country": "CA", "postalCode": "L4G1N7", "twitter": "None", "instagram": "None", "facebook": "None", "youtube": "None", "website": "None", "summary": "None", "logo": "None", "latitude": 44.00228767000401, "longitude": -79.468153715737}, "107910259RR0179": {"name": "Our Lady of Grace Parish", "designationCode": "C", "categoryCode": "38", "address": "27 CENTRE ST", "city": "ANGUS", "province": "ON", "country": "CA", "postalCode": "L0M1B0", "twitter": "None", "instagram": "None", "facebook": "None", "youtube": "None", "website": "None", "summary": "None", "logo": "None", "latitude": 44.322564226758594, "longitude": -79.87968808312654}, "107910259RR0196": {"name": "Our Lady of Guadalupe Parish", "designationCode": "C", "categoryCode": "38", "address": "694 WESTON ROAD", "city": "TORONTO", "province": "ON", "country": "CA", "postalCode": "M6N3R2", "twitter": "None", "instagram": "None", "facebook": "None", "youtube": "None", "website": "None", "summary": "None", "logo": "None", "latitude": 43.68230286675529, "longitude": -79.47764066766672}, "831865639RR0001": {"name": "Our Lady of Guadalupe Tonantzin Community Society", "designationCode": "C", "categoryCode": "39", "address": "301-245 POWELL ST", "city": "VANCOUVER", "province": "BC", "country": "CA", "postalCode": "V6A1Z3", "twitter": "None", "instagram": "None", "facebook": "None", "youtube": "None", "website": "None", "summary": "None", "logo": "None", "latitude": 49.283193518754565, "longitude": -123.09853072009349}, "848623575RR0007": {"name": "Our Lady of Lourdes Church", "designationCode": "C", "categoryCode": "38", "address": "1 MONCK ROAD                  PO BOX 10", "city": "CARDIFF", "province": "ON", "country": "CA", "postalCode": "K0L1M0", "twitter": "None", "instagram": "None", "facebook": "None", "youtube": "None", "website": "None", "summary": "None", "logo": "None", "latitude": 44.996760941362524, "longitude": -78.0127725682616}, "107910259RR0078": {"name": "Our Lady of Lourdes Parish", "designationCode": "C", "categoryCode": "38", "address": "41 EARL STREET", "city": "TORONTO", "province": "ON", "country": "CA", "postalCode": "M4Y1M4", "twitter": "None", "instagram": "None", "facebook": "None", "youtube": "None", "website": "None", "summary": "None", "logo": "None", "latitude": 43.66845983873857, "longitude": -79.37650513988113}, "848623575RR0008": {"name": "Our Lady of Mercy Church", "designationCode": "C", "categoryCode": "38", "address": "2596 HONEY HARBOUR ROAD       PO BOX 126", "city": "HONEY HARBOUR", "province": "ON", "country": "CA", "postalCode": "P0E1E0", "twitter": "None", "instagram": "None", "facebook": "None", "youtube": "None", "website": "None", "summary": "None", "logo": "None", "latitude": 44.86746204858896, "longitude": -79.81991501359}, "848623575RR0009": {"name": "Our Lady of Mercy Church", "designationCode": "C", "categoryCode": "38", "address": "155 WALTON ST", "city": "PORT HOPE", "province": "ON", "country": "CA", "postalCode": "L1A1N7", "twitter": "None", "instagram": "None", "facebook": "None", "youtube": "None", "website": "None", "summary": "None", "logo": "None", "latitude": 43.95251252842077, "longitude": -78.2985446662531}, "119109817RR0125": {"name": "Our Lady of Mercy Parish", "designationCode": "C", "categoryCode": "38", "address": "1011 OAK AVENUE", "city": "SARNIA", "province": "ON", "country": "CA", "postalCode": "N7S1J4", "twitter": "None", "instagram": "None", "facebook": "None", "youtube": "None", "website": "None", "summary": "None", "logo": "None", "latitude": 42.970746426366965, "longitude": -82.37288301013824}, "848623575RR0010": {"name": "Our Lady of Mount Carmel", "designationCode": "C", "categoryCode": "38", "address": "51 ALBERT ST E                PO BOX 32", "city": "HASTINGS", "province": "ON", "country": "CA", "postalCode": "K0L1Y0", "twitter": "None", "instagram": "None", "facebook": "None", "youtube": "None", "website": "None", "summary": "None", "logo": "None", "latitude": 44.312294431300174, "longitude": -77.95600886343708}, "107910259RR0161": {"name": "Our Lady of Mount Carmel Parish", "designationCode": "C", "categoryCode": "38", "address": "202 ST PATRICK ST", "city": "TORONTO", "province": "ON", "country": "CA", "postalCode": "M5T1V4", "twitter": "None", "instagram": "None", "facebook": "None", "youtube": "None", "website": "None", "summary": "None", "logo": "None", "latitude": 43.65547246127881, "longitude": -79.39079704359727}, "107910259RR0105": {"name": "Our Lady of Peace Parish", "designationCode": "C", "categoryCode": "38", "address": "3914 BLOOR ST W", "city": "ETOBICOKE", "province": "ON", "country": "CA", "postalCode": "M9B1L7", "twitter": "None", "instagram": "None", "facebook": "None", "youtube": "None", "website": "None", "summary": "None", "logo": "None", "latitude": 43.63976219848205, "longitude": -79.5446059334063}, "108094483RR0001": {"name": "Our Lady of Peace Parish", "designationCode": "C", "categoryCode": "38", "address": "425 BROAD STREET NORTH", "city": "REGINA", "province": "SK", "country": "CA", "postalCode": "S4R2X8", "twitter": "None", "instagram": "None", "facebook": "None", "youtube": "None", "website": "None", "summary": "None", "logo": "None", "latitude": 50.48264284403524, "longitude": -104.60627997979748}, "107910259RR0080": {"name": "Our Lady of Perpetual Help Parish", "designationCode": "C", "categoryCode": "38", "address": "78 CLIFTON ROAD", "city": "TORONTO", "province": "ON", "country": "CA", "postalCode": "M4T2G2", "twitter": "None", "instagram": "None", "facebook": "None", "youtube": "None", "website": "None", "summary": "None", "logo": "None", "latitude": 43.69063554509783, "longitude": -79.38459515295153}, "821701778RR0001": {"name": "Our Lady of Smolensk Russian Orthodox Church", "designationCode": "C", "categoryCode": "39", "address": "5 BIRCH RD", "city": "JACKSONS POINT", "province": "ON", "country": "CA", "postalCode": "L0E1L0", "twitter": "None", "instagram": "None", "facebook": "None", "youtube": "None", "website": "None", "summary": "None", "logo": "None", "latitude": 44.31482492867445, "longitude": -79.37990767635198}, "107910259RR0082": {"name": "Our Lady of Sorrows Parish", "designationCode": "C", "categoryCode": "38", "address": "3055 BLOOR STREET WEST", "city": "ETOBICOKE", "province": "ON", "country": "CA", "postalCode": "M8X1C6", "twitter": "None", "instagram": "None", "facebook": "None", "youtube": "None", "website": "None", "summary": "None", "logo": "None", "latitude": 43.64692586759203, "longitude": -79.51301575255361}, "107910259RR0083": {"name": "Our Lady of Victory Parish", "designationCode": "C", "categoryCode": "38", "address": "117 GUESTVILLE AVENUE", "city": "TORONTO", "province": "ON", "country": "CA", "postalCode": "M6N4N7", "twitter": "None", "instagram": "None", "facebook": "None", "youtube": "None", "website": "None", "summary": "None", "logo": "None", "latitude": 43.68541250597262, "longitude": -79.49002090533226}, "107523029RR0001": {"name": "Our Lady of Victory School Inc.", "designationCode": "C", "categoryCode": "20", "address": "249 ARNOLD AVE", "city": "WINNIPEG", "province": "MB", "country": "CA", "postalCode": "R3L0W4", "twitter": "None", "instagram": "None", "facebook": "None", "youtube": "None", "website": "None", "summary": "None", "logo": "None", "latitude": 49.8661748370938, "longitude": -97.1341014908534}, "107910259RR0109": {"name": "Our Lady Help of Christians Parish", "designationCode": "C", "categoryCode": "38", "address": "611 MANNING AVENUE", "city": "TORONTO", "province": "ON", "country": "CA", "postalCode": "M6G2W1", "twitter": "None", "instagram": "None", "facebook": "None", "youtube": "None", "website": "None", "summary": "None", "logo": "None", "latitude": 43.66236674300299, "longitude": -79.41538855407155}, "107910259RR0141": {"name": "Our Lady Queen of the World Parish", "designationCode": "C", "categoryCode": "38", "address": "10411 BAYVIEW AVE", "city": "RICHMOND HILL", "province": "ON", "country": "CA", "postalCode": "L4C3P2", "twitter": "None", "instagram": "None", "facebook": "None", "youtube": "None", "website": "None", "summary": "None", "logo": "None", "latitude": 43.88568788149914, "longitude": -79.417804878903}, "107910259RR0081": {"name": "Our Lady Queen of Croatia Parish", "designationCode": "C", "categoryCode": "38", "address": "7 CROATIA ST", "city": "TORONTO", "province": "ON", "country": "CA", "postalCode": "M6H1K8", "twitter": "None", "instagram": "None", "facebook": "None", "youtube": "None", "website": "None", "summary": "None", "logo": "None", "latitude": 43.65785284205679, "longitude": -79.43713532194592}, "848623575RR0013": {"name": "Our Lady Queen of Peace Parish", "designationCode": "C", "categoryCode": "38", "address": "PO BOX 340", "city": "FENELON FALLS", "province": "ON", "country": "CA", "postalCode": "K0M1N0", "twitter": "None", "instagram": "None", "facebook": "None", "youtube": "None", "website": "None", "summary": "None", "logo": "None", "latitude": 44.53758000000005, "longitude": -78.73584999999997}, "107910259RR0194": {"name": "Our Lady Queen of Poland Parish", "designationCode": "C", "categoryCode": "38", "address": "625 MIDDLEFIELD ROAD", "city": "TORONTO", "province": "ON", "country": "CA", "postalCode": "M1V5B8", "twitter": "None", "instagram": "None", "facebook": "None", "youtube": "None", "website": "None", "summary": "None", "logo": "None", "latitude": 43.81466296171149, "longitude": -79.25971769227924}, "807165345RR0001": {"name": "Our Little Charity Canada", "designationCode": "C", "categoryCode": "09", "address": "1500 WEST GEORGIA, BOX 62,    SUITE 1250", "city": "VANCOUVER", "province": "BC", "country": "CA", "postalCode": "V6G2Z6", "twitter": "None", "instagram": "None", "facebook": "None", "youtube": "None", "website": "None", "summary": "None", "logo": "None", "latitude": 49.29013479542975, "longitude": -123.1300069287031}, "849986237RR0001": {"name": "Our Own Health Centre, Inc.", "designationCode": "C", "categoryCode": "11", "address": "66 WEST GATE", "city": "WINNIPEG", "province": "MB", "country": "CA", "postalCode": "R3C2E1", "twitter": "None", "instagram": "None", "facebook": "None", "youtube": "None", "website": "None", "summary": "None", "logo": "None", "latitude": 49.877280703560636, "longitude": -97.15847551976417}, "119074144RR0001": {"name": "Our Place Family Resource and Early Years Centre", "designationCode": "C", "categoryCode": "59", "address": "154 GATEWOOD RD", "city": "KITCHENER", "province": "ON", "country": "CA", "postalCode": "N2M4E4", "twitter": "None", "instagram": "None", "facebook": "None", "youtube": "None", "website": "None", "summary": "None", "logo": "None", "latitude": 43.432253472156155, "longitude": -80.5080749403312}, "107808271RR0001": {"name": "Our Place/Chez Nous Activity Centre Inc.", "designationCode": "C", "categoryCode": "11", "address": "PO BOX 28006", "city": "MONCTON", "province": "NB", "country": "CA", "postalCode": "E1C1X6", "twitter": "None", "instagram": "None", "facebook": "None", "youtube": "None", "website": "None", "summary": "None", "logo": "None", "latitude": 46.08946500000006, "longitude": -64.79082799999993}, "852790286RR0001": {"name": "Our Saviour Charismatic Fellowship", "designationCode": "C", "categoryCode": "39", "address": "SUITE 5009                    4113 STEELES AVENUE WEST", "city": "TORONTO", "province": "ON", "country": "CA", "postalCode": "M3N1V7", "twitter": "None", "instagram": "None", "facebook": "None", "youtube": "None", "website": "None", "summary": "None", "logo": "None", "latitude": 43.77420715917119, "longitude": -79.52701738751614}, "834260374RR0001": {"name": "Our Town Food Bank", "designationCode": "C", "categoryCode": "09", "address": "PO BOX 167", "city": "TOTTENHAM", "province": "ON", "country": "CA", "postalCode": "L0G1W0", "twitter": "None", "instagram": "None", "facebook": "None", "youtube": "None", "website": "None", "summary": "None", "logo": "None", "latitude": 44.101466326769575, "longitude": -79.82930921542986}, "850284175RR0001": {"name": "Our Wee Little Library", "designationCode": "C", "categoryCode": "50", "address": "69 HUMMINGBIRD LANE", "city": "ST THOMAS", "province": "ON", "country": "CA", "postalCode": "N5R6M8", "twitter": "None", "instagram": "None", "facebook": "None", "youtube": "None", "website": "None", "summary": "None", "logo": "None", "latitude": 42.75881571870639, "longitude": -81.18392474709168}, "847927852RR0001": {"name": "Our World Festival of Music Inc.", "designationCode": "C", "categoryCode": "22", "address": "177 LYDIA STREET", "city": "KITCHENER", "province": "ON", "country": "CA", "postalCode": "N2H1V9", "twitter": "None", "instagram": "None", "facebook": "None", "youtube": "None", "website": "None", "summary": "None", "logo": "None", "latitude": 43.450348599774976, "longitude": -80.4739916199145}, "841215262RR0001": {"name": "Out of Bounds: Grief Support", "designationCode": "C", "categoryCode": "09", "address": "79 GOSFORD BLVD,              UNIT 6", "city": "DOWNSVIEW", "province": "ON", "country": "CA", "postalCode": "M3N2G9", "twitter": "None", "instagram": "None", "facebook": "None", "youtube": "None", "website": "None", "summary": "None", "logo": "None", "latitude": 43.76703095510371, "longitude": -79.52205007008573}, "816855159RR0001": {"name": "Out on the Shelf Inc.", "designationCode": "C", "categoryCode": "59", "address": "10 CARDEN ST", "city": "GUELPH", "province": "ON", "country": "CA", "postalCode": "N1H3A2", "twitter": "None", "instagram": "None", "facebook": "None", "youtube": "None", "website": "None", "summary": "None", "logo": "None", "latitude": 43.543657864013994, "longitude": -80.24913334652885}, "819329624RR0001": {"name": "Out Innerspace Dance Theatre and Film Society", "designationCode": "C", "categoryCode": "22", "address": "3102 MAIN STREET              #303", "city": "VANCOUVER", "province": "BC", "country": "CA", "postalCode": "V5T3G7", "twitter": "None", "instagram": "None", "facebook": "None", "youtube": "None", "website": "None", "summary": "None", "logo": "None", "latitude": 49.257303317790985, "longitude": -123.10115014487279}, "833275886RR0001": {"name": "Outdoor Council of Canada Foundation", "designationCode": "A", "categoryCode": "03", "address": "KNA-101 UNIVERSITY OF CALGARY 2500 UNIVERSITY DRIVE NW", "city": "CALGARY", "province": "AB", "country": "CA", "postalCode": "T2N1N4", "twitter": "None", "instagram": "None", "facebook": "None", "youtube": "None", "website": "None", "summary": "None", "logo": "None", "latitude": 51.07491998831462, "longitude": -114.12851991949915}, "819661190RR0001": {"name": "Outflow Ministry Inc.", "designationCode": "C", "categoryCode": "09", "address": "162 WATERLOO ST", "city": "SAINT JOHN", "province": "NB", "country": "CA", "postalCode": "E2L3R1", "twitter": "None", "instagram": "None", "facebook": "None", "youtube": "None", "website": "None", "summary": "None", "logo": "None", "latitude": 45.27902854010617, "longitude": -66.05525092339433}, "106923857RR0001": {"name": "Outlook Christian Fellowship", "designationCode": "C", "categoryCode": "39", "address": "BOX 549", "city": "OUTLOOK", "province": "SK", "country": "CA", "postalCode": "S0L2N0", "twitter": "None", "instagram": "None", "facebook": "None", "youtube": "None", "website": "None", "summary": "None", "logo": "None", "latitude": 51.5306764246367, "longitude": -107.23731016398128}, "119288918RR0014": {"name": "Outlook Congregation of Jehovah's Witnesses, Outlook, Saskatchewan", "designationCode": "C", "categoryCode": "61", "address": "PO BOX 156", "city": "MACRORIE", "province": "SK", "country": "CA", "postalCode": "S0L2E0", "twitter": "None", "instagram": "None", "facebook": "None", "youtube": "None", "website": "None", "summary": "None", "logo": "None", "latitude": 51.333380000000034, "longitude": -107.08457999999996}, "850360710RR0001": {"name": "Outreach Zanzibar Foundation", "designationCode": "C", "categoryCode": "09", "address": "1469 TRUSCOTT DR", "city": "MISSISSAUGA", "province": "ON", "country": "CA", "postalCode": "L5J1Z1", "twitter": "None", "instagram": "None", "facebook": "None", "youtube": "None", "website": "None", "summary": "None", "logo": "None", "latitude": 43.53151160395858, "longitude": -79.62738096101901}, "822480307RR0001": {"name": "Outreach 4 Forsaken and Unfortunates, Inc.", "designationCode": "C", "categoryCode": "09", "address": "PO BOX 151", "city": "NIVERVILLE", "province": "MB", "country": "CA", "postalCode": "R0A1E0", "twitter": "None", "instagram": "None", "facebook": "None", "youtube": "None", "website": "None", "summary": "None", "logo": "None", "latitude": 49.60599000000006, "longitude": -97.04598199999994}, "838505774RR0001": {"name": "Outside the March Theatre Company Inc.", "designationCode": "C", "categoryCode": "22", "address": "293 GRACE ST,", "city": "TORONTO", "province": "ON", "country": "CA", "postalCode": "M6G3A7", "twitter": "None", "instagram": "None", "facebook": "None", "youtube": "None", "website": "None", "summary": "None", "logo": "None", "latitude": 43.6592409775232, "longitude": -79.41717695348852}, "815517099RR0001": {"name": "Outside Looking In", "designationCode": "C", "categoryCode": "22", "address": "311-330 BAY STREET", "city": "TORONTO", "province": "ON", "country": "CA", "postalCode": "M5H2S8", "twitter": "None", "instagram": "None", "facebook": "None", "youtube": "None", "website": "None", "summary": "None", "logo": "None", "latitude": 43.65015448819902, "longitude": -79.38088577479927}, "872974845RR0001": {"name": "Ovarian Cancer Canada/Cancer de l'Ovaire Canada", "designationCode": "C", "categoryCode": "11", "address": "205-145 FRONT ST E", "city": "TORONTO", "province": "ON", "country": "CA", "postalCode": "M5A1E3", "twitter": "None", "instagram": "None", "facebook": "None", "youtube": "None", "website": "None", "summary": "None", "logo": "None", "latitude": 43.65001178766814, "longitude": -79.36928819816495}, "842275794RR0001": {"name": "Overcomers Gospel Church International", "designationCode": "C", "categoryCode": "39", "address": "116 NEWBRIDGE CRESCENT,", "city": "BRAMPTON", "province": "ON", "country": "CA", "postalCode": "L6S4B3", "twitter": "None", "instagram": "None", "facebook": "None", "youtube": "None", "website": "None", "summary": "None", "logo": "None", "latitude": 43.72260284098894, "longitude": -79.74664521244743}, "770865129RR0001": {"name": "Overc\u00f4me Syngap1 C\u00f4mbattre Syngap1", "designationCode": "B", "categoryCode": "13", "address": "4984 CIRCLE RD", "city": "MONTREAL", "province": "QC", "country": "CA", "postalCode": "H3W1Z7", "twitter": "None", "instagram": "None", "facebook": "None", "youtube": "None", "website": "None", "summary": "None", "logo": "None", "latitude": 45.48401286620703, "longitude": -73.62519538747175}, "763354321RR0001": {"name": "Owen Sound Field Naturalists", "designationCode": "C", "categoryCode": "21", "address": "PO BOX 401 STN MAIN", "city": "OWEN SOUND", "province": "ON", "country": "CA", "postalCode": "N4K5P7", "twitter": "None", "instagram": "None", "facebook": "None", "youtube": "None", "website": "None", "summary": "None", "logo": "None", "latitude": 44.56423500000005, "longitude": -80.94243049999993}, "817788482RR0001": {"name": "Owen Sound Hunger Relief Effort", "designationCode": "C", "categoryCode": "09", "address": "890 4TH AVENUE EAST,", "city": "OWEN SOUND", "province": "ON", "country": "CA", "postalCode": "N4K2N7", "twitter": "None", "instagram": "None", "facebook": "None", "youtube": "None", "website": "None", "summary": "None", "logo": "None", "latitude": 44.56600832861103, "longitude": -80.93912854916586}, "839595386RR0001": {"name": "Owen Sound Muslim Association", "designationCode": "C", "categoryCode": "60", "address": "895 7TH ST E", "city": "OWEN SOUND", "province": "ON", "country": "CA", "postalCode": "N4K1K2", "twitter": "None", "instagram": "None", "facebook": "None", "youtube": "None", "website": "None", "summary": "None", "logo": "None", "latitude": 44.56363961223978, "longitude": -80.927329610595}, "826772097RR0001": {"name": "Owerri Zone Community in Tornto Orphanage", "designationCode": "C", "categoryCode": "01", "address": "78 NEWLIN CRESCENT", "city": "TORONTO", "province": "ON", "country": "CA", "postalCode": "M3L1X6", "twitter": "None", "instagram": "None", "facebook": "None", "youtube": "None", "website": "None", "summary": "None", "logo": "None", "latitude": 43.739338506780676, "longitude": -79.49879966472388}, "852753201RR0001": {"name": "Oxbow Community Foundation Inc.", "designationCode": "A", "categoryCode": "53", "address": "517 PROSPECT AVE              BOX 688", "city": "OXBOW", "province": "SK", "country": "CA", "postalCode": "S0C2B0", "twitter": "None", "instagram": "None", "facebook": "None", "youtube": "None", "website": "None", "summary": "None", "logo": "None", "latitude": 49.229156592379596, "longitude": -102.17353036329243}, "801339888RR0001": {"name": "Oxbow Public Library Branch", "designationCode": "C", "categoryCode": "50", "address": "PO BOX 510", "city": "OXBOW", "province": "SK", "country": "CA", "postalCode": "S0C2B0", "twitter": "None", "instagram": "None", "facebook": "None", "youtube": "None", "website": "None", "summary": "None", "logo": "None", "latitude": 49.23346331645773, "longitude": -102.17827573496838}, "119288918RR1101": {"name": "Oxford Congregation of Jehovah's Witnesses, Edmonton, Alberta", "designationCode": "C", "categoryCode": "61", "address": "14908-123 ST NW", "city": "EDMONTON", "province": "AB", "country": "CA", "postalCode": "T5X2C9", "twitter": "None", "instagram": "None", "facebook": "None", "youtube": "None", "website": "None", "summary": "None", "logo": "None", "latitude": 53.61127716541637, "longitude": -113.5353387340006}, "831842232RR0001": {"name": "Oxford County Animal Rescue", "designationCode": "C", "categoryCode": "54", "address": "622 DUNDAS ST", "city": "WOODSTOCK", "province": "ON", "country": "CA", "postalCode": "N4S1E2", "twitter": "None", "instagram": "None", "facebook": "None", "youtube": "None", "website": "None", "summary": "None", "logo": "None", "latitude": 43.13092869995397, "longitude": -80.75060734237391}, "821701950RR0001": {"name": "Oxford County Community Health Centre", "designationCode": "C", "categoryCode": "11", "address": "35 METCALF ST", "city": "WOODSTOCK", "province": "ON", "country": "CA", "postalCode": "N4S3E6", "twitter": "None", "instagram": "None", "facebook": "None", "youtube": "None", "website": "None", "summary": "None", "logo": "None", "latitude": 43.12900638634658, "longitude": -80.7565876090658}, "856684758RR0001": {"name": "Oxford County Trails Council", "designationCode": "C", "categoryCode": "56", "address": "PO BOX 287", "city": "BEACHVILLE", "province": "ON", "country": "CA", "postalCode": "N0J1A0", "twitter": "None", "instagram": "None", "facebook": "None", "youtube": "None", "website": "None", "summary": "None", "logo": "None", "latitude": 43.10953307909114, "longitude": -80.799296522454}, "819340696RR0001": {"name": "Oxford House Society of Regina Inc.", "designationCode": "C", "categoryCode": "57", "address": "855 ARCOLA AVENUE", "city": "REGINA", "province": "SK", "country": "CA", "postalCode": "S4N0S9", "twitter": "None", "instagram": "None", "facebook": "None", "youtube": "None", "website": "None", "summary": "None", "logo": "None", "latitude": 50.45098879349651, "longitude": -104.59325389759931}, "805359924RR0001": {"name": "Oxford York: Cercle pour le cancer (OYCC) / Oxford York: Cancer Circle (OYCC)", "designationCode": "C", "categoryCode": "11", "address": "4995 RUE OLYMPIA", "city": "PIERREFONDS", "province": "QC", "country": "CA", "postalCode": "H8Y1Y9", "twitter": "None", "instagram": "None", "facebook": "None", "youtube": "None", "website": "None", "summary": "None", "logo": "None", "latitude": 45.505996890357295, "longitude": -73.77182699169012}, "841166705RR0001": {"name": "Oxford-Brant Association of Baptist Churches", "designationCode": "C", "categoryCode": "49", "address": "40 WOODHAVEN DRIVE", "city": "TILLSONBURG", "province": "ON", "country": "CA", "postalCode": "N4G0A5", "twitter": "None", "instagram": "None", "facebook": "None", "youtube": "None", "website": "None", "summary": "None", "logo": "None", "latitude": 43.705148333602686, "longitude": -79.81240279338094}, "838694727RR0001": {"name": "Ozhaawashko-Giizhig Traditional Teaching Lodge", "designationCode": "C", "categoryCode": "09", "address": "512 VICTORIA AVE E", "city": "THUNDER BAY", "province": "ON", "country": "CA", "postalCode": "P7C1A7", "twitter": "None", "instagram": "None", "facebook": "None", "youtube": "None", "website": "None", "summary": "None", "logo": "None", "latitude": 48.384049485140594, "longitude": -89.2462635}, "891844987RR0001": {"name": "OAK ACRES CHILDRENS FOUNDATION INC", "designationCode": "C", "categoryCode": "56", "address": "250 BRACKLEY POINT RD", "city": "CHARLOTTETOWN", "province": "PE", "country": "CA", "postalCode": "C1A6Y9", "twitter": "None", "instagram": "None", "facebook": "None", "youtube": "None", "website": "None", "summary": "None", "logo": "None", "latitude": 46.2764471979517, "longitude": -63.13155079842382}, "131268427RR0001": {"name": "OAK AND ELM GROVE CEMETERY COMPANY", "designationCode": "C", "categoryCode": "59", "address": "BOX 63", "city": "CENTREVILLE KINGS COUNTY", "province": "NS", "country": "CA", "postalCode": "B0P1J0", "twitter": "None", "instagram": "None", "facebook": "None", "youtube": "None", "website": "None", "summary": "None", "logo": "None", "latitude": 45.14065816541881, "longitude": -64.48438511708392}, "863069092RR0001": {"name": "OAK AVENUE NEIGHBOURHOOD HUB SOCIETY", "designationCode": "C", "categoryCode": "09", "address": "12740 102ND AVE", "city": "SURREY", "province": "BC", "country": "CA", "postalCode": "V3V3E5", "twitter": "None", "instagram": "None", "facebook": "None", "youtube": "None", "website": "None", "summary": "None", "logo": "None", "latitude": 49.18796548514058, "longitude": -122.86940374854291}, "107790032RR0001": {"name": "OAK BAY (PARENT-OWNED) PRE-SCHOOL", "designationCode": "C", "categoryCode": "20", "address": "1701 ELGIN ROAD", "city": "VICTORIA", "province": "BC", "country": "CA", "postalCode": "V8R5L7", "twitter": "None", "instagram": "None", "facebook": "None", "youtube": "None", "website": "None", "summary": "None", "logo": "None", "latitude": 48.42808007216229, "longitude": -123.31924068327687}, "119288918RR0101": {"name": "OAK BAY CONGREGATION OF JEHOVAH'S WITNESSES, VICTORIA, BRITISH COLUMBIA", "designationCode": "C", "categoryCode": "61", "address": "2780 SHELBOURNE STREET", "city": "VICTORIA", "province": "BC", "country": "CA", "postalCode": "V8R4M2", "twitter": "None", "instagram": "None", "facebook": "None", "youtube": "None", "website": "None", "summary": "None", "logo": "None", "latitude": 48.43972017346644, "longitude": -123.33354139332879}, "119063956RR0001": {"name": "OAK BAY GOSPEL ASSEMBLY", "designationCode": "C", "categoryCode": "39", "address": "850 ROGERS WAY", "city": "VICTORIA", "province": "BC", "country": "CA", "postalCode": "V8X5K9", "twitter": "None", "instagram": "None", "facebook": "None", "youtube": "None", "website": "None", "summary": "None", "logo": "None", "latitude": 48.47690506243875, "longitude": -123.37756592702968}, "123056228RR0001": {"name": "OAK BAY KIWANIS HEALTH CARE SOCIETY", "designationCode": "C", "categoryCode": "10", "address": "3034 CEDAR HILL RD", "city": "VICTORIA", "province": "BC", "country": "CA", "postalCode": "V8T3J3", "twitter": "None", "instagram": "None", "facebook": "None", "youtube": "None", "website": "None", "summary": "None", "logo": "None", "latitude": 48.44629263503371, "longitude": -123.34536752097625}, "888199668RR0001": {"name": "OAK BAY KIWANIS PAVILION FOUNDATION", "designationCode": "A", "categoryCode": "11", "address": "3034 CEDAR HILL RD", "city": "VICTORIA", "province": "BC", "country": "CA", "postalCode": "V8T3J3", "twitter": "None", "instagram": "None", "facebook": "None", "youtube": "None", "website": "None", "summary": "None", "logo": "None", "latitude": 48.44629263503371, "longitude": -123.34536752097625}, "119123479RR0001": {"name": "OAK BAY KIWANIS ROSE MANOR SOCIETY", "designationCode": "C", "categoryCode": "01", "address": "857 RUPERT TERRACE", "city": "VICTORIA", "province": "BC", "country": "CA", "postalCode": "V8V3E5", "twitter": "None", "instagram": "None", "facebook": "None", "youtube": "None", "website": "None", "summary": "None", "logo": "None", "latitude": 48.42085764167017, "longitude": -123.36118734497099}, "119063972RR0001": {"name": "OAK BAY RURAL CEMETERY", "designationCode": "C", "categoryCode": "59", "address": "P.O BOX 261", "city": "ST. STEPHEN", "province": "NB", "country": "CA", "postalCode": "E3L2X2", "twitter": "None", "instagram": "None", "facebook": "None", "youtube": "None", "website": "None", "summary": "None", "logo": "None", "latitude": 45.19456800000006, "longitude": -67.27532299999993}, "119063980RR0001": {"name": "OAK BAY SEA RESCUE SOCIETY", "designationCode": "C", "categoryCode": "59", "address": "BOX 5624 LCD9", "city": "VICTORIA", "province": "BC", "country": "CA", "postalCode": "V8R6S4", "twitter": "None", "instagram": "None", "facebook": "None", "youtube": "None", "website": "None", "summary": "None", "logo": "None", "latitude": 48.42854700000005, "longitude": -123.36445249999994}, "119063998RR0001": {"name": "OAK BAY SECONDARY SCHOOL SOCIETY FOR ENHANCEMENT OF EDUCATION", "designationCode": "C", "categoryCode": "21", "address": "2151 CRANMORE RD", "city": "VICTORIA", "province": "BC", "country": "CA", "postalCode": "V8R1Z2", "twitter": "None", "instagram": "None", "facebook": "None", "youtube": "None", "website": "None", "summary": "None", "logo": "None", "latitude": 48.43260198632403, "longitude": -123.31671997936952}, "119064038RR0001": {"name": "OAK BAY UNITED CHURCH", "designationCode": "C", "categoryCode": "44", "address": "1355 MITCHELL ST", "city": "VICTORIA", "province": "BC", "country": "CA", "postalCode": "V8S4P9", "twitter": "None", "instagram": "None", "facebook": "None", "youtube": "None", "website": "None", "summary": "None", "logo": "None", "latitude": 48.42468933527613, "longitude": -123.32057212167484}, "890545999RR0001": {"name": "OAK BAY VOLUNTEER SERVICES SOCIETY", "designationCode": "C", "categoryCode": "59", "address": "101 - 2167 OAK BAY AVENUE", "city": "VICTORIA", "province": "BC", "country": "CA", "postalCode": "V8R1G2", "twitter": "None", "instagram": "None", "facebook": "None", "youtube": "None", "website": "None", "summary": "None", "logo": "None", "latitude": 48.42643891488778, "longitude": -123.31736608511221}, "834765679RR0001": {"name": "OAK BLUFF BIBLE CHURCH INC.", "designationCode": "C", "categoryCode": "39", "address": "4510 MCGILLIVRAY BLVD", "city": "OAK BLUFF", "province": "MB", "country": "CA", "postalCode": "R4G0B7", "twitter": "None", "instagram": "None", "facebook": "None", "youtube": "None", "website": "None", "summary": "None", "logo": "None", "latitude": 49.791841479217375, "longitude": -97.27728658137819}, "862656907RR0001": {"name": "OAK BLUFF CHARITABLE TRUST", "designationCode": "B", "categoryCode": "39", "address": "2500-201 PORTAGE AVENUE", "city": "WINNIPEG", "province": "MB", "country": "CA", "postalCode": "R3B3K6", "twitter": "None", "instagram": "None", "facebook": "None", "youtube": "None", "website": "None", "summary": "None", "logo": "None", "latitude": 49.895359615067065, "longitude": -97.13919299627776}, "122539679RR0001": {"name": "OAK BLUFF NURSERY SCHOOL INC", "designationCode": "C", "categoryCode": "01", "address": "155 AGRI-PARK RD", "city": "OAK BLUFF", "province": "MB", "country": "CA", "postalCode": "R4G0A5", "twitter": "None", "instagram": "None", "facebook": "None", "youtube": "None", "website": "None", "summary": "None", "logo": "None", "latitude": 49.783085510276365, "longitude": -97.32960599388812}, "135391969RR0001": {"name": "OAK CENTRE: ALTERNATIVE COMMUNITY SUPPORT", "designationCode": "C", "categoryCode": "09", "address": "24 DOROTHY STREET", "city": "WELLAND", "province": "ON", "country": "CA", "postalCode": "L3B3V7", "twitter": "None", "instagram": "None", "facebook": "None", "youtube": "None", "website": "None", "summary": "None", "logo": "None", "latitude": 42.99349746047074, "longitude": -79.2459897485429}, "108151085RR0001": {"name": "OAK COUNSELLING SERVICES SOCIETY", "designationCode": "C", "categoryCode": "09", "address": "949 WEST 49TH AVENUE", "city": "VANCOUVER", "province": "BC", "country": "CA", "postalCode": "V5Z2T1", "twitter": "None", "instagram": "None", "facebook": "None", "youtube": "None", "website": "None", "summary": "None", "logo": "None", "latitude": 49.22653944993916, "longitude": -123.12757091756595}, "103964052RR0001": {"name": "OAK HILL FOUNDATION", "designationCode": "C", "categoryCode": "01", "address": "PO BOX 31", "city": "BON ACCORD", "province": "AB", "country": "CA", "postalCode": "T0A0K0", "twitter": "None", "instagram": "None", "facebook": "None", "youtube": "None", "website": "None", "summary": "None", "logo": "None", "latitude": 53.837270000000046, "longitude": -113.41078999999996}, "119064111RR0001": {"name": "OAK HILL UNITED CHURCH", "designationCode": "C", "categoryCode": "44", "address": "55 MCMAHON ROAD", "city": "ST. STEPHEN", "province": "NB", "country": "CA", "postalCode": "E3L4Y9", "twitter": "None", "instagram": "None", "facebook": "None", "youtube": "None", "website": "None", "summary": "None", "logo": "None", "latitude": 45.335439860959326, "longitude": -67.38118695521554}, "891073124RR0001": {"name": "OAK LAKE & AREA FOUNDATION INC", "designationCode": "A", "categoryCode": "03", "address": "P.O. BOX 133", "city": "OAK LAKE", "province": "MB", "country": "CA", "postalCode": "R0M1P0", "twitter": "None", "instagram": "None", "facebook": "None", "youtube": "None", "website": "None", "summary": "None", "logo": "None", "latitude": 49.76430756929151, "longitude": -100.63254783087561}, "809966674RR0001": {"name": "OAK LAKE & AREA GARDEN CLUB", "designationCode": "C", "categoryCode": "50", "address": "PO BOX 735", "city": "VIRDEN", "province": "MB", "country": "CA", "postalCode": "R0M2C0", "twitter": "None", "instagram": "None", "facebook": "None", "youtube": "None", "website": "None", "summary": "None", "logo": "None", "latitude": 49.85688000000005, "longitude": -100.92262999999997}}