{"851264903RR0001": {"name": "The Smith Vanstokkom Foundation", "designationCode": "B", "categoryCode": "03", "address": "116 8 AVE SE                  200 DOLL BLOCK", "city": "CALGARY", "province": "AB", "country": "CA", "postalCode": "T2G0K6", "twitter": "None", "instagram": "None", "facebook": "None", "youtube": "None", "website": "None", "summary": "None", "logo": "None", "latitude": 51.04551346378896, "longitude": -114.06208988773155}, "134895499RR0001": {"name": "The Smoky Lake Foundation", "designationCode": "C", "categoryCode": "09", "address": "PO BOX 179", "city": "SMOKY LAKE", "province": "AB", "country": "CA", "postalCode": "T0A3C0", "twitter": "None", "instagram": "None", "facebook": "None", "youtube": "None", "website": "None", "summary": "None", "logo": "None", "latitude": 54.113230000000044, "longitude": -112.47107999999997}, "827228420RR0001": {"name": "The Soberano Charitable Foundation", "designationCode": "B", "categoryCode": "03", "address": "102 ARNOLD AVENUE", "city": "THORNHILL", "province": "ON", "country": "CA", "postalCode": "L4J1B5", "twitter": "None", "instagram": "None", "facebook": "None", "youtube": "None", "website": "None", "summary": "None", "logo": "None", "latitude": 43.80972611855819, "longitude": -79.43274748447676}, "886216811RR0001": {"name": "The Society for the Advancement of Young Scientists", "designationCode": "C", "categoryCode": "21", "address": "1961 KINGS ROAD", "city": "VICTORIA", "province": "BC", "country": "CA", "postalCode": "V8R2P4", "twitter": "None", "instagram": "None", "facebook": "None", "youtube": "None", "website": "None", "summary": "None", "logo": "None", "latitude": 48.43762757015175, "longitude": -123.32323890971612}, "804798700RR0001": {"name": "The Society for the District #1 Community Centre", "designationCode": "C", "categoryCode": "56", "address": "30 FIREHALL ROAD", "city": "BLANDFORD", "province": "NS", "country": "CA", "postalCode": "B0J1T0", "twitter": "None", "instagram": "None", "facebook": "None", "youtube": "None", "website": "None", "summary": "None", "logo": "None", "latitude": 44.637958816284716, "longitude": -63.50935588016465}, "813713971RR0001": {"name": "The Society for the Enhancement of Wild Salmon Stocks WSU", "designationCode": "C", "categoryCode": "59", "address": "9378 CABOT TRAIL", "city": "MARGAREE", "province": "NS", "country": "CA", "postalCode": "B0E1Y0", "twitter": "None", "instagram": "None", "facebook": "None", "youtube": "None", "website": "None", "summary": "None", "logo": "None", "latitude": 46.393706472387315, "longitude": -61.08322178166686}, "846490522RR0001": {"name": "The Society for Silent Witness Nova Scotia", "designationCode": "C", "categoryCode": "09", "address": "1975 GOTTINGEN ST", "city": "HALIFAX", "province": "NS", "country": "CA", "postalCode": "B3J2H1", "twitter": "None", "instagram": "None", "facebook": "None", "youtube": "None", "website": "None", "summary": "None", "logo": "None", "latitude": 44.64986723648212, "longitude": -63.5803931140288}, "890416217RR0001": {"name": "The Society for Third World Dental Care (Dentistry for all)", "designationCode": "C", "categoryCode": "11", "address": "201 - 2215 33 AVE SW", "city": "CALGARY", "province": "AB", "country": "CA", "postalCode": "T2T1Z9", "twitter": "None", "instagram": "None", "facebook": "None", "youtube": "None", "website": "None", "summary": "None", "logo": "None", "latitude": 51.02395949235396, "longitude": -114.11270999999999}, "845254002RR0001": {"name": "The Society of Friends of the Monarch Theatre", "designationCode": "C", "categoryCode": "22", "address": "451 SPRAGUE WAY S.E.", "city": "MEDICINE HAT", "province": "AB", "country": "CA", "postalCode": "T1B3Y7", "twitter": "None", "instagram": "None", "facebook": "None", "youtube": "None", "website": "None", "summary": "None", "logo": "None", "latitude": 50.002452000000005, "longitude": -110.6724127260661}, "132410671RR0511": {"name": "The Society of Saint Vincent de Paul - East-West Fraser Particular Council", "designationCode": "C", "categoryCode": "09", "address": "47-6488 168TH ST", "city": "SURREY", "province": "BC", "country": "CA", "postalCode": "V3S8Z1", "twitter": "None", "instagram": "None", "facebook": "None", "youtube": "None", "website": "None", "summary": "None", "logo": "None", "latitude": 49.1201732828207, "longitude": -122.75651955326347}, "132410671RR0582": {"name": "The Society of Saint Vincent de Paul Sacred Heart Catholic Church Uxbridge", "designationCode": "C", "categoryCode": "09", "address": "27 TESTA RD", "city": "UXBRIDGE", "province": "ON", "country": "CA", "postalCode": "L9P1M2", "twitter": "None", "instagram": "None", "facebook": "None", "youtube": "None", "website": "None", "summary": "None", "logo": "None", "latitude": 44.10133128726411, "longitude": -79.10791797902375}, "132410671RR0214": {"name": "The Society of Saint Vincent de Paul-St. Philip's Conference Oshawa, ON", "designationCode": "C", "categoryCode": "09", "address": "1182 VENUS CR", "city": "OSHAWA", "province": "ON", "country": "CA", "postalCode": "L1J6E4", "twitter": "None", "instagram": "None", "facebook": "None", "youtube": "None", "website": "None", "summary": "None", "logo": "None", "latitude": 43.865611900080815, "longitude": -78.85455325549646}, "132410671RR0421": {"name": "The Society of Saint Vincent de Paul's, British Columbia and Yukon Regional Council", "designationCode": "C", "categoryCode": "09", "address": "1738 EAST HASTINGS STREET", "city": "VANCOUVER", "province": "BC", "country": "CA", "postalCode": "V5L1S9", "twitter": "None", "instagram": "None", "facebook": "None", "youtube": "None", "website": "None", "summary": "None", "logo": "None", "latitude": 49.28119547013694, "longitude": -123.06940407951987}, "132410671RR0479": {"name": "The Society of Saint Vincent de Paul's, St. Albert the Great Conference", "designationCode": "C", "categoryCode": "09", "address": "10 PRESTWICK DRIVE S. E.", "city": "CALGARY", "province": "AB", "country": "CA", "postalCode": "T2Z4J6", "twitter": "None", "instagram": "None", "facebook": "None", "youtube": "None", "website": "None", "summary": "None", "logo": "None", "latitude": 50.92332353318127, "longitude": -113.96612000761739}, "132410671RR0478": {"name": "The Society of Saint Vincent de Paul's, St. Patrick's Conference of Yellowknife NT", "designationCode": "C", "categoryCode": "09", "address": "5206-52ND STREET", "city": "YELLOWKNIFE", "province": "NT", "country": "CA", "postalCode": "X1A1T9", "twitter": "None", "instagram": "None", "facebook": "None", "youtube": "None", "website": "None", "summary": "None", "logo": "None", "latitude": 62.45022880247444, "longitude": -114.36839429573783}, "132410671RR0489": {"name": "The Society of Saint-Vincent de Paul - Kitchener- Waterloo Archangels Youth", "designationCode": "C", "categoryCode": "09", "address": "7 MATTHEW CRT", "city": "KITCHENER", "province": "ON", "country": "CA", "postalCode": "N2B1W6", "twitter": "None", "instagram": "None", "facebook": "None", "youtube": "None", "website": "None", "summary": "None", "logo": "None", "latitude": 43.46544587509385, "longitude": -80.44499256621832}, "132410671RR0510": {"name": "The Society of Saint-Vincent de Paul - St. Gregory the Great Conference, Oshawa ON", "designationCode": "C", "categoryCode": "09", "address": "194 SIMCOE STREET NORTH", "city": "OSHAWA", "province": "ON", "country": "CA", "postalCode": "L1G4S9", "twitter": "None", "instagram": "None", "facebook": "None", "youtube": "None", "website": "None", "summary": "None", "logo": "None", "latitude": 43.90271516013626, "longitude": -78.86596311105635}, "132410671RR0509": {"name": "The Society of Saint-Vincent de Paul - St. James Conference, Toronto ON", "designationCode": "C", "categoryCode": "09", "address": "728 ANNETTE STREET", "city": "TORONTO", "province": "ON", "country": "CA", "postalCode": "M6S2E2", "twitter": "None", "instagram": "None", "facebook": "None", "youtube": "None", "website": "None", "summary": "None", "logo": "None", "latitude": 43.6586731906918, "longitude": -79.48618734277795}, "817484694RR0001": {"name": "The Society of St. Vincent de Paul (Lakeshore Particular Council)", "designationCode": "C", "categoryCode": "09", "address": "79 KING STREET EAST,", "city": "BOWMANVILLE", "province": "ON", "country": "CA", "postalCode": "L1C1N4", "twitter": "None", "instagram": "None", "facebook": "None", "youtube": "None", "website": "None", "summary": "None", "logo": "None"}, "132410671RR0470": {"name": "The Society of St. Vincent de Paul, our Lady of Mercy Conference,of Port Hope,ON", "designationCode": "C", "categoryCode": "09", "address": "59 JIGGINS COURT", "city": "PORT HOPE", "province": "ON", "country": "CA", "postalCode": "L1A0A1", "twitter": "None", "instagram": "None", "facebook": "None", "youtube": "None", "website": "None", "summary": "None", "logo": "None", "latitude": 43.956814080551574, "longitude": -78.32666817787576}, "724288493RR0001": {"name": "The Society of We are Canadians Too", "designationCode": "C", "categoryCode": "22", "address": "103-618 E KENT AVE SOUTH", "city": "VANCOUVER", "province": "BC", "country": "CA", "postalCode": "V5X0B1", "twitter": "None", "instagram": "None", "facebook": "None", "youtube": "None", "website": "None", "summary": "None", "logo": "None", "latitude": 49.2088505772988, "longitude": -123.08044888944023}, "803295799RR0001": {"name": "The Society to End Homelessness in Burnaby", "designationCode": "C", "categoryCode": "01", "address": "PO BOX 54662 RPO HIGHGATE", "city": "BURNABY", "province": "BC", "country": "CA", "postalCode": "V5E4J6", "twitter": "None", "instagram": "None", "facebook": "None", "youtube": "None", "website": "None", "summary": "None", "logo": "None", "latitude": 49.218853499999994, "longitude": -122.9562045}, "132410671RR0519": {"name": "The Society Saint Vincent de Paul - Saint Rose of Lima Confeerence, (Fall River Nova Scotia)", "designationCode": "C", "categoryCode": "09", "address": "88 ELMRIDGE DR", "city": "WAVERLEY", "province": "NS", "country": "CA", "postalCode": "B2R1C6", "twitter": "None", "instagram": "None", "facebook": "None", "youtube": "None", "website": "None", "summary": "None", "logo": "None", "latitude": 44.76663083599728, "longitude": -63.57124946067322}, "132410671RR0491": {"name": "The Society Saint Vincent de Paul-Calgary Diocesan Central Council of calgary, AB", "designationCode": "C", "categoryCode": "09", "address": "P.O.BOX 57236 SUNRIDGE RPO", "city": "CALGARY", "province": "AB", "country": "CA", "postalCode": "T1Y6R4", "twitter": "None", "instagram": "None", "facebook": "None", "youtube": "None", "website": "None", "summary": "None", "logo": "None", "latitude": 51.06927871606267, "longitude": -113.99604205976166}, "132410671RR0499": {"name": "The Society Saint-Vincent de Paul - Saint Columbkille Conference in Pembroke, ON", "designationCode": "C", "categoryCode": "09", "address": "188 RENFREW STREET            P.O. BOX 7", "city": "PEMBROKE", "province": "ON", "country": "CA", "postalCode": "K8A6X1", "twitter": "None", "instagram": "None", "facebook": "None", "youtube": "None", "website": "None", "summary": "None", "logo": "None", "latitude": 45.82408544949359, "longitude": -77.11675287406864}, "132410671RR0281": {"name": "The Society Saint-Vincent de Paul - St. Joseph Conference inGrand-Falls-Windsor, NL", "designationCode": "C", "categoryCode": "09", "address": "5 STATION ROAD", "city": "GRAND-FALLS-WINDSOR", "province": "NL", "country": "CA", "postalCode": "A2A1M5", "twitter": "None", "instagram": "None", "facebook": "None", "youtube": "None", "website": "None", "summary": "None", "logo": "None", "latitude": 48.945559937088845, "longitude": -55.66836430487735}, "132410671RR0175": {"name": "The Society Saint-Vincent de Paul - St. Mary's Conference, Kitchener ON", "designationCode": "C", "categoryCode": "09", "address": "56 DUKE STREET WEST", "city": "KITCHENER", "province": "ON", "country": "CA", "postalCode": "N2H3W7", "twitter": "None", "instagram": "None", "facebook": "None", "youtube": "None", "website": "None", "summary": "None", "logo": "None", "latitude": 43.451803476282464, "longitude": -80.49069966082874}, "132410671RR0495": {"name": "The Society Saint-Vincent de Paul - St. Patrick's Conference in Napanee, ON", "designationCode": "C", "categoryCode": "09", "address": "9 THOMAS STREET EAST", "city": "NAPANEE", "province": "ON", "country": "CA", "postalCode": "K7R1K5", "twitter": "None", "instagram": "None", "facebook": "None", "youtube": "None", "website": "None", "summary": "None", "logo": "None", "latitude": 44.25001869305771, "longitude": -76.95265412311714}, "132410671RR0002": {"name": "The Society Saint-Vincent de Paul - St. Theresa, Kelowna BC", "designationCode": "C", "categoryCode": "09", "address": "750 RUTLAND RD N", "city": "KELOWNA", "province": "BC", "country": "CA", "postalCode": "V1X3B7", "twitter": "None", "instagram": "None", "facebook": "None", "youtube": "None", "website": "None", "summary": "None", "logo": "None", "latitude": 49.89755767055226, "longitude": -119.38690412233774}, "132410671RR0494": {"name": "The Society Saint-Vincent de Paul-Star of the Sea Conference in St. Catharines, ON", "designationCode": "C", "categoryCode": "09", "address": "34 ELGIN STREET", "city": "ST. CATHARINES", "province": "ON", "country": "CA", "postalCode": "L2N5G5", "twitter": "None", "instagram": "None", "facebook": "None", "youtube": "None", "website": "None", "summary": "None", "logo": "None", "latitude": 43.199529819608664, "longitude": -79.27340469842476}, "811403971RR0001": {"name": "The Solid Rock Church International Ministries of Edmonton", "designationCode": "C", "categoryCode": "39", "address": "16004 49 ST NW", "city": "EDMONTON", "province": "AB", "country": "CA", "postalCode": "T5Y0G7", "twitter": "None", "instagram": "None", "facebook": "None", "youtube": "None", "website": "None", "summary": "None", "logo": "None", "latitude": 53.620672033037046, "longitude": -113.41481079727608}, "828464396RR0001": {"name": "The Solomon Schechter Academy Children's Foundation/La Fondation pour enfants de L'academie Solomon Schechter", "designationCode": "A", "categoryCode": "03", "address": "5555 CH DE LA COTE-SAINT-LUC", "city": "MONTREAL", "province": "QC", "country": "CA", "postalCode": "H3X2C9", "twitter": "None", "instagram": "None", "facebook": "None", "youtube": "None", "website": "None", "summary": "None", "logo": "None", "latitude": 45.478539300622955, "longitude": -73.62844588080665}, "821113644RR0001": {"name": "The Solon Foundation", "designationCode": "B", "categoryCode": "21", "address": "2215 2 AVE NW", "city": "CALGARY", "province": "AB", "country": "CA", "postalCode": "T2N0H1", "twitter": "None", "instagram": "None", "facebook": "None", "youtube": "None", "website": "None", "summary": "None", "logo": "None", "latitude": 51.054342539529266, "longitude": -114.1114725}, "780073292RR0001": {"name": "The Song Shul", "designationCode": "C", "categoryCode": "42", "address": "400 - 65 QUEEN ST W", "city": "TORONTO", "province": "ON", "country": "CA", "postalCode": "M5H2M5", "twitter": "None", "instagram": "None", "facebook": "None", "youtube": "None", "website": "None", "summary": "None", "logo": "None", "latitude": 43.65151703655775, "longitude": -79.38341919746475}, "850196361RR0001": {"name": "The Soskin/SoFine Foundation", "designationCode": "B", "categoryCode": "03", "address": "802-181 ATHLETES WAY", "city": "VANCOUVER", "province": "BC", "country": "CA", "postalCode": "V5Y0E5", "twitter": "None", "instagram": "None", "facebook": "None", "youtube": "None", "website": "None", "summary": "None", "logo": "None", "latitude": 49.271678184963065, "longitude": -123.10881359195741}, "806735072RR0001": {"name": "The Soul Care Resource Centre Inc.", "designationCode": "C", "categoryCode": "49", "address": "2371 ROUTE 103 HWY", "city": "VICTORIA CORNER", "province": "NB", "country": "CA", "postalCode": "E7P3K1", "twitter": "None", "instagram": "None", "facebook": "None", "youtube": "None", "website": "None", "summary": "None", "logo": "None", "latitude": 46.27533201081689, "longitude": -67.51178659625022}, "822892196RR0001": {"name": "The Soup Van Foundation", "designationCode": "C", "categoryCode": "09", "address": "4TH FL-931 FORT ST            VELLETTA & COMPANY", "city": "VICTORIA", "province": "BC", "country": "CA", "postalCode": "V8V3K3", "twitter": "None", "instagram": "None", "facebook": "None", "youtube": "None", "website": "None", "summary": "None", "logo": "None", "latitude": 48.423860572277846, "longitude": -123.35844661241268}, "848400834RR0001": {"name": "The Source Church Inc.", "designationCode": "C", "categoryCode": "39", "address": "466 SWAILES AVE", "city": "WINNIPEG", "province": "MB", "country": "CA", "postalCode": "R2V1R8", "twitter": "None", "instagram": "None", "facebook": "None", "youtube": "None", "website": "None", "summary": "None", "logo": "None", "latitude": 49.95370162920532, "longitude": -97.12325791468042}, "834270217RR0001": {"name": "The South Georgian Bay Community Health Centres", "designationCode": "C", "categoryCode": "11", "address": "14 RAMBLEWOOD DRIVE           UNIT 202", "city": "WASAGA BEACH", "province": "ON", "country": "CA", "postalCode": "L9Z0C4", "twitter": "None", "instagram": "None", "facebook": "None", "youtube": "None", "website": "None", "summary": "None", "logo": "None", "latitude": 44.46844858757702, "longitude": -80.07504419271791}, "787731116RR0001": {"name": "The South Winnipeg Technical Centre Scholarship/Trust Fund", "designationCode": "C", "categoryCode": "21", "address": "130 HENLOW BAY", "city": "WINNIPEG", "province": "MB", "country": "CA", "postalCode": "R3Y1G4", "twitter": "None", "instagram": "None", "facebook": "None", "youtube": "None", "website": "None", "summary": "None", "logo": "None", "latitude": 49.81506010043881, "longitude": -97.191605789716}, "817847379RR0001": {"name": "The Spark of Hope Foundation", "designationCode": "C", "categoryCode": "21", "address": "2207-99 HARBOUR SQUARE", "city": "TORONTO", "province": "ON", "country": "CA", "postalCode": "M5J2H2", "twitter": "None", "instagram": "None", "facebook": "None", "youtube": "None", "website": "None", "summary": "None", "logo": "None", "latitude": 43.64020546543375, "longitude": -79.37919018927813}, "826397614RR0001": {"name": "The Spatz Foundation", "designationCode": "B", "categoryCode": "05", "address": "1475 LOWER WATER STREET       SUITE 100", "city": "HALIFAX", "province": "NS", "country": "CA", "postalCode": "B3J3Z2", "twitter": "None", "instagram": "None", "facebook": "None", "youtube": "None", "website": "None", "summary": "None", "logo": "None", "latitude": 44.64329277352986, "longitude": -63.5692414840154}, "890143373RR0001": {"name": "The Spiritual Assembly of the Baha'is of the City of Duncan", "designationCode": "C", "categoryCode": "33", "address": "PO BOX 694 STN MAIN", "city": "DUNCAN", "province": "BC", "country": "CA", "postalCode": "V9L3Y1", "twitter": "None", "instagram": "None", "facebook": "None", "youtube": "None", "website": "None", "summary": "None", "logo": "None", "latitude": 48.77908800000006, "longitude": -123.70739299999994}, "848258240RR0001": {"name": "The Spiritual Assembly of the Baha'is of Annapolis County", "designationCode": "B", "categoryCode": "33", "address": "88 GATES MOUNTAIN RD", "city": "MIDDLETON", "province": "NS", "country": "CA", "postalCode": "B0S1P0", "twitter": "None", "instagram": "None", "facebook": "None", "youtube": "None", "website": "None", "summary": "None", "logo": "None", "latitude": 44.97224602332128, "longitude": -65.08662424855255}, "119256949RR0001": {"name": "The Spiritual Assembly of the Baha'is of Colwood", "designationCode": "C", "categoryCode": "33", "address": "2533 SOOKE RD", "city": "VICTORIA", "province": "BC", "country": "CA", "postalCode": "V9B1Y1", "twitter": "None", "instagram": "None", "facebook": "None", "youtube": "None", "website": "None", "summary": "None", "logo": "None", "latitude": 48.432792501500565, "longitude": -123.51124489705103}, "887419398RR0001": {"name": "The Spiritual Assembly of the Baha'is of Cote St-Luc", "designationCode": "C", "categoryCode": "33", "address": "305 - 6865 CH NORWALK", "city": "COTE SAINT-LUC", "province": "QC", "country": "CA", "postalCode": "H4W2X7", "twitter": "None", "instagram": "None", "facebook": "None", "youtube": "None", "website": "None", "summary": "None", "logo": "None", "latitude": 45.47319311408611, "longitude": -73.66479505623501}, "848255048RR0001": {"name": "The Spiritual Assembly of the Baha'is of Kings County", "designationCode": "B", "categoryCode": "33", "address": "PO BOX 370", "city": "BERWICK", "province": "NS", "country": "CA", "postalCode": "B0P1E0", "twitter": "None", "instagram": "None", "facebook": "None", "youtube": "None", "website": "None", "summary": "None", "logo": "None", "latitude": 45.04982000000007, "longitude": -64.73769999999996}, "119255487RR0001": {"name": "The Spiritual Assembly of the Baha'is of Selwyn", "designationCode": "C", "categoryCode": "33", "address": "P.O. BOX 187", "city": "BRIDGENORTH", "province": "ON", "country": "CA", "postalCode": "K0L1H0", "twitter": "None", "instagram": "None", "facebook": "None", "youtube": "None", "website": "None", "summary": "None", "logo": "None", "latitude": 44.385020000000054, "longitude": -78.38415999999995}, "814377206RR0001": {"name": "The Spiritual Assembly of the Baha'is of Stony Plain", "designationCode": "B", "categoryCode": "33", "address": "21 IRONWOOD FAIRWAY CLOSE", "city": "STONY PLAIN", "province": "AB", "country": "CA", "postalCode": "T7Z2K8", "twitter": "None", "instagram": "None", "facebook": "None", "youtube": "None", "website": "None", "summary": "None", "logo": "None", "latitude": 53.529730543712844, "longitude": -113.9610975105889}, "868594979RR0001": {"name": "The Spiritual Assembly of the Baha'is of Westbank First Nation", "designationCode": "C", "categoryCode": "33", "address": "2013 TOMAT AVE", "city": "KELOWNA", "province": "BC", "country": "CA", "postalCode": "V1Z3C1", "twitter": "None", "instagram": "None", "facebook": "None", "youtube": "None", "website": "None", "summary": "None", "logo": "None", "latitude": 49.87858601664844, "longitude": -119.53338158130887}, "892893165RR0001": {"name": "The Spiritual Assembly of the Baha'Is of Bradford West Gwillimbury", "designationCode": "B", "categoryCode": "33", "address": "124 CHURCH STREET", "city": "BRADFORD", "province": "ON", "country": "CA", "postalCode": "L3Z1P9", "twitter": "None", "instagram": "None", "facebook": "None", "youtube": "None", "website": "None", "summary": "None", "logo": "None", "latitude": 44.11684361059502, "longitude": -79.56893441941227}, "892420167RR0001": {"name": "The Spiritual Assembly of the Baha'Is of Cowichan Valley \"C\"", "designationCode": "B", "categoryCode": "33", "address": "POST OFFICE BOX 171", "city": "COBBLE HILL", "province": "BC", "country": "CA", "postalCode": "V0R1L0", "twitter": "None", "instagram": "None", "facebook": "None", "youtube": "None", "website": "None", "summary": "None", "logo": "None", "latitude": 48.67040081812132, "longitude": -123.56645604658561}, "852401603RR0001": {"name": "The Spiritual Assembly of Baha'is of Dorval", "designationCode": "B", "categoryCode": "33", "address": "293, MALCOLM CIRCLE", "city": "DORVAL", "province": "QC", "country": "CA", "postalCode": "H9S1T6", "twitter": "None", "instagram": "None", "facebook": "None", "youtube": "None", "website": "None", "summary": "None", "logo": "None", "latitude": 45.44319628172419, "longitude": -73.76674703733622}, "839411501RR0001": {"name": "The Spiritualist Church of the Light Inc.", "designationCode": "C", "categoryCode": "39", "address": "130 CORUNNA AVENUE", "city": "WEST ST. PAUL", "province": "MB", "country": "CA", "postalCode": "R4A9A5", "twitter": "None", "instagram": "None", "facebook": "None", "youtube": "None", "website": "None", "summary": "None", "logo": "None", "latitude": 50.02697928548787, "longitude": -97.14345246552654}, "818911018RR0001": {"name": "The Spring Ridge - Fernwood Community Housing Land Trust", "designationCode": "C", "categoryCode": "09", "address": "1280 BALMORAL RD", "city": "VICTORIA", "province": "BC", "country": "CA", "postalCode": "V8T1B5", "twitter": "None", "instagram": "None", "facebook": "None", "youtube": "None", "website": "None", "summary": "None", "logo": "None", "latitude": 48.427832460470746, "longitude": -123.34621997155058}, "839592755RR0001": {"name": "The Ssubi Foundation", "designationCode": "C", "categoryCode": "03", "address": "4532 STANLEY DR SW", "city": "CALGARY", "province": "AB", "country": "CA", "postalCode": "T2S2R9", "twitter": "None", "instagram": "None", "facebook": "None", "youtube": "None", "website": "None", "summary": "None", "logo": "None", "latitude": 51.01356903912522, "longitude": -114.06923155591787}, "119422301RR0001": {"name": "The St. Clair College of Applied Arts and Technology", "designationCode": "C", "categoryCode": "23", "address": "2000 TALBOT RD", "city": "WINDSOR", "province": "ON", "country": "CA", "postalCode": "N9A6S4", "twitter": "None", "instagram": "None", "facebook": "None", "youtube": "None", "website": "None", "summary": "None", "logo": "None", "latitude": 42.239827793249944, "longitude": -82.96766610702328}, "840671010RR0001": {"name": "The St. Lawrence Academy", "designationCode": "C", "categoryCode": "20", "address": "PO BOX 1673", "city": "PRESCOTT", "province": "ON", "country": "CA", "postalCode": "K0E1T0", "twitter": "None", "instagram": "None", "facebook": "None", "youtube": "None", "website": "None", "summary": "None", "logo": "None", "latitude": 44.72333933695445, "longitude": -75.52230856910072}, "867745606RR0001": {"name": "The St. Paul Island Historical Society", "designationCode": "C", "categoryCode": "50", "address": "575 DINGWALL ROAD", "city": "DINGWALL", "province": "NS", "country": "CA", "postalCode": "B0C1G0", "twitter": "None", "instagram": "None", "facebook": "None", "youtube": "None", "website": "None", "summary": "None", "logo": "None", "latitude": 46.899917077442396, "longitude": -60.463117110190964}, "856995964RR0001": {"name": "The St. Volodymyr Foundation", "designationCode": "A", "categoryCode": "43", "address": "3029 BLOOR STREET WEST", "city": "TORONTO", "province": "ON", "country": "CA", "postalCode": "M8X1C5", "twitter": "None", "instagram": "None", "facebook": "None", "youtube": "None", "website": "None", "summary": "None", "logo": "None", "latitude": 43.64717486037865, "longitude": -79.51187652331352}, "846688109RR0001": {"name": "The Staal Family Foundation", "designationCode": "B", "categoryCode": "05", "address": "1444-50 BAY ST.", "city": "TORONTO", "province": "ON", "country": "CA", "postalCode": "M5J3A5", "twitter": "None", "instagram": "None", "facebook": "None", "youtube": "None", "website": "None", "summary": "None", "logo": "None", "latitude": 43.644068005539935, "longitude": -79.37832571279321}, "821879905RR0001": {"name": "The Stanley Thompson Foundation", "designationCode": "A", "categoryCode": "03", "address": "89 KING ST W                  SUITE 106", "city": "DUNDAS", "province": "ON", "country": "CA", "postalCode": "L9H1V1", "twitter": "None", "instagram": "None", "facebook": "None", "youtube": "None", "website": "None", "summary": "None", "logo": "None", "latitude": 43.26656936222499, "longitude": -79.9574795523112}, "829322767RR0001": {"name": "The Steele Family Foundation", "designationCode": "B", "categoryCode": "03", "address": "15466 GORE ROAD", "city": "CALEDON", "province": "ON", "country": "CA", "postalCode": "L7C3E5", "twitter": "None", "instagram": "None", "facebook": "None", "youtube": "None", "website": "None", "summary": "None", "logo": "None", "latitude": 43.888030594668656, "longitude": -79.82091164267882}, "819176157RR0001": {"name": "The Stephen and Jocelyne Greenberg Foundation", "designationCode": "B", "categoryCode": "03", "address": "1284 WELLINGTON ST W", "city": "OTTAWA", "province": "ON", "country": "CA", "postalCode": "K1Y3A9", "twitter": "None", "instagram": "None", "facebook": "None", "youtube": "None", "website": "None", "summary": "None", "logo": "None", "latitude": 45.398972809308205, "longitude": -75.73517448958398}, "758171896RR0001": {"name": "The Stephen F. Smith Charitable Foundation", "designationCode": "C", "categoryCode": "03", "address": "PO BOX 1390", "city": "ANTIGONISH", "province": "NS", "country": "CA", "postalCode": "B2G2L7", "twitter": "None", "instagram": "None", "facebook": "None", "youtube": "None", "website": "None", "summary": "None", "logo": "None", "latitude": 45.62219400000005, "longitude": -61.99427149999994}, "839925310RR0001": {"name": "The Steve Moore Foundation", "designationCode": "B", "categoryCode": "11", "address": "40 KING STREET WEST           SUITE 4400", "city": "TORONTO", "province": "ON", "country": "CA", "postalCode": "M5H3Y4", "twitter": "None", "instagram": "None", "facebook": "None", "youtube": "None", "website": "None", "summary": "None", "logo": "None", "latitude": 43.64887614798855, "longitude": -79.37924907940429}, "801388323RR0001": {"name": "The Steven Chambers Foundation", "designationCode": "B", "categoryCode": "03", "address": "101 - 204 CAYER ST", "city": "COQUITLAM", "province": "BC", "country": "CA", "postalCode": "V3K5B1", "twitter": "None", "instagram": "None", "facebook": "None", "youtube": "None", "website": "None", "summary": "None", "logo": "None", "latitude": 49.236145491257446, "longitude": -122.84671551612882}, "833870264RR0001": {"name": "The Steven Zoller Memorial Scholarship Fund Inc.", "designationCode": "B", "categoryCode": "21", "address": "PO BOX 300", "city": "CORONACH", "province": "SK", "country": "CA", "postalCode": "S0H0Z0", "twitter": "None", "instagram": "None", "facebook": "None", "youtube": "None", "website": "None", "summary": "None", "logo": "None", "latitude": 49.116760000000056, "longitude": -105.51780999999994}, "831801808RR0001": {"name": "The Stewart Family Foundation", "designationCode": "B", "categoryCode": "03", "address": "19822 MCNEIL ROAD", "city": "PITT MEADOWS", "province": "BC", "country": "CA", "postalCode": "V3Y2T9", "twitter": "None", "instagram": "None", "facebook": "None", "youtube": "None", "website": "None", "summary": "None", "logo": "None", "latitude": 49.27131371939073, "longitude": -122.67211198089048}, "820258598RR0001": {"name": "The Stirring Church", "designationCode": "C", "categoryCode": "39", "address": "75-24185 106B AVENUE", "city": "MAPLE RIDGE", "province": "BC", "country": "CA", "postalCode": "V2W0C6", "twitter": "None", "instagram": "None", "facebook": "None", "youtube": "None", "website": "None", "summary": "None", "logo": "None", "latitude": 49.19598241993187, "longitude": -122.5520814343586}, "807868864RR0001": {"name": "The Stonefields Foundation", "designationCode": "B", "categoryCode": "03", "address": "14254 FIRST LINE NASSAGAWEYA  R.R. 2", "city": "GUELPH", "province": "ON", "country": "CA", "postalCode": "N1H6H8", "twitter": "None", "instagram": "None", "facebook": "None", "youtube": "None", "website": "None", "summary": "None", "logo": "None", "latitude": 43.58550300000006, "longitude": -80.17301599999993}, "803988419RR0001": {"name": "The Storehouse Food Bank", "designationCode": "C", "categoryCode": "09", "address": "132 WESTWIND CRESCENT         P.O. BOX 441", "city": "WELLINGTON", "province": "ON", "country": "CA", "postalCode": "K0K3L0", "twitter": "None", "instagram": "None", "facebook": "None", "youtube": "None", "website": "None", "summary": "None", "logo": "None", "latitude": 43.954270291707516, "longitude": -77.34392125365014}, "839117736RR0001": {"name": "The Straight Path Islamic Center", "designationCode": "C", "categoryCode": "60", "address": "13 - 105 KENNEDY RD S", "city": "BRAMPTON", "province": "ON", "country": "CA", "postalCode": "L6W3G2", "twitter": "None", "instagram": "None", "facebook": "None", "youtube": "None", "website": "None", "summary": "None", "logo": "None", "latitude": 43.68702875740104, "longitude": -79.73800801113715}, "890849540RR0001": {"name": "The Strathcona Wilderness Institute Society", "designationCode": "C", "categoryCode": "52", "address": "BOX 3404", "city": "COURTENAY", "province": "BC", "country": "CA", "postalCode": "V9N5N5", "twitter": "None", "instagram": "None", "facebook": "None", "youtube": "None", "website": "None", "summary": "None", "logo": "None", "latitude": 49.68669300000006, "longitude": -124.99317349999993}, "786406496RR0001": {"name": "The Stream House of Prayer", "designationCode": "C", "categoryCode": "39", "address": "16 PATTERSON AVE", "city": "BRANTFORD", "province": "ON", "country": "CA", "postalCode": "N3S6W9", "twitter": "None", "instagram": "None", "facebook": "None", "youtube": "None", "website": "None", "summary": "None", "logo": "None", "latitude": 43.14443588620234, "longitude": -80.23101733071715}, "839138708RR0001": {"name": "The Strongest Oak Foundation", "designationCode": "C", "categoryCode": "09", "address": "61 VALLEY WOODS WAY NORTHWEST", "city": "CALGARY", "province": "AB", "country": "CA", "postalCode": "T3B6A2", "twitter": "None", "instagram": "None", "facebook": "None", "youtube": "None", "website": "None", "summary": "None", "logo": "None", "latitude": 51.09880689702239, "longitude": -114.26435966417561}, "822464020RR0001": {"name": "The Students' Association of Mount Royal University", "designationCode": "C", "categoryCode": "21", "address": "4825 MOUNT ROYAL GATE SW", "city": "CALGARY", "province": "AB", "country": "CA", "postalCode": "T3E6K6", "twitter": "None", "instagram": "None", "facebook": "None", "youtube": "None", "website": "None", "summary": "None", "logo": "None", "latitude": 51.01023541326677, "longitude": -114.13256418140095}, "105252845RR0001": {"name": "The Study School Foundation", "designationCode": "A", "categoryCode": "23", "address": "3233 THE BOULEVARD", "city": "WESTMOUNT", "province": "QC", "country": "CA", "postalCode": "H3Y1S4", "twitter": "None", "instagram": "None", "facebook": "None", "youtube": "None", "website": "None", "summary": "None", "logo": "None", "latitude": 45.49046399999999, "longitude": -73.60013627446473}, "853132462RR0001": {"name": "The Sudbury Regional Science Fair Committee", "designationCode": "C", "categoryCode": "21", "address": "100 RAMSAY LAKE ROAD", "city": "SUDBURY", "province": "ON", "country": "CA", "postalCode": "P3E6H7", "twitter": "None", "instagram": "None", "facebook": "None", "youtube": "None", "website": "None", "summary": "None", "logo": "None", "latitude": 46.46956644887969, "longitude": -80.99619362295537}, "801042201RR0001": {"name": "The Sullivan Family Foundation", "designationCode": "B", "categoryCode": "03", "address": "300-145 KING ST W", "city": "TORONTO", "province": "ON", "country": "CA", "postalCode": "M5H1J8", "twitter": "None", "instagram": "None", "facebook": "None", "youtube": "None", "website": "None", "summary": "None", "logo": "None", "latitude": 43.64813467004466, "longitude": -79.38254906728791}, "751638123RR0001": {"name": "The Summit Church", "designationCode": "C", "categoryCode": "39", "address": "198-505 8840 210 STREET", "city": "LANGLEY", "province": "BC", "country": "CA", "postalCode": "V1M2Y2", "twitter": "None", "instagram": "None", "facebook": "None", "youtube": "None", "website": "None", "summary": "None", "logo": "None", "latitude": 49.16302383374691, "longitude": -122.63764805816916}, "825817836RR0001": {"name": "The Summit Church", "designationCode": "C", "categoryCode": "39", "address": "515 NORTH SYNDICATE AVENUE", "city": "THUNDER BAY", "province": "ON", "country": "CA", "postalCode": "P7C3X2", "twitter": "None", "instagram": "None", "facebook": "None", "youtube": "None", "website": "None", "summary": "None", "logo": "None", "latitude": 48.39254130391254, "longitude": -89.24830385668506}, "866671076RR0001": {"name": "The Summit Edmonton Church", "designationCode": "C", "categoryCode": "39", "address": "8717 50 ST NW", "city": "EDMONTON", "province": "AB", "country": "CA", "postalCode": "T6B1E7", "twitter": "None", "instagram": "None", "facebook": "None", "youtube": "None", "website": "None", "summary": "None", "logo": "None", "latitude": 53.51983327386563, "longitude": -113.41808316545342}, "884567918RR0001": {"name": "The Sun Haven Educational Society", "designationCode": "C", "categoryCode": "20", "address": "RR 22 1341 MARGARET RD", "city": "ROBERTS CREEK", "province": "BC", "country": "CA", "postalCode": "V0N2W2", "twitter": "None", "instagram": "None", "facebook": "None", "youtube": "None", "website": "None", "summary": "None", "logo": "None", "latitude": 49.43072666472386, "longitude": -123.66935470987903}, "853045086RR0001": {"name": "The Sunburst Award Society", "designationCode": "C", "categoryCode": "81", "address": "2 FARM GREENWAY", "city": "NORTHYORK", "province": "ON", "country": "CA", "postalCode": "M3A3M2", "twitter": "None", "instagram": "None", "facebook": "None", "youtube": "None", "website": "None", "summary": "None", "logo": "None", "latitude": 43.764638898695836, "longitude": -79.31872745490216}, "849874698RR0001": {"name": "The Sundridge Food Bank", "designationCode": "C", "categoryCode": "09", "address": "PO BOX 355", "city": "SUNDRIDGE", "province": "ON", "country": "CA", "postalCode": "P0A1Z0", "twitter": "None", "instagram": "None", "facebook": "None", "youtube": "None", "website": "None", "summary": "None", "logo": "None", "latitude": 45.75507926133678, "longitude": -79.41022764524283}, "821158524RR0001": {"name": "The Supercomputer For Cancer Research", "designationCode": "C", "categoryCode": "21", "address": "320 - 80 ABERDEEN ST", "city": "OTTAWA", "province": "ON", "country": "CA", "postalCode": "K1S5R5", "twitter": "None", "instagram": "None", "facebook": "None", "youtube": "None", "website": "None", "summary": "None", "logo": "None", "latitude": 45.40109007461513, "longitude": -75.71057352550656}, "837373489RR0001": {"name": "The Swallow-A-Bicycle Theatre Society", "designationCode": "C", "categoryCode": "22", "address": "4-714 5A STREET NORTHWEST", "city": "CALGARY", "province": "AB", "country": "CA", "postalCode": "T2N1R4", "twitter": "None", "instagram": "None", "facebook": "None", "youtube": "None", "website": "None", "summary": "None", "logo": "None", "latitude": 51.05760236081136, "longitude": -114.07570880749054}, "119207439RR0001": {"name": "The Swift Current Band Parents' Auxiliary Inc.", "designationCode": "C", "categoryCode": "21", "address": "PO BOX 1381", "city": "SWIFT CURRENT", "province": "SK", "country": "CA", "postalCode": "S9H3X5", "twitter": "None", "instagram": "None", "facebook": "None", "youtube": "None", "website": "None", "summary": "None", "logo": "None", "latitude": 50.292744000000056, "longitude": -107.80056349999994}, "140996711RR0001": {"name": "The Switch Yard", "designationCode": "C", "categoryCode": "49", "address": "PO BOX 1037", "city": "BANCROFT", "province": "ON", "country": "CA", "postalCode": "K0L1C0", "twitter": "None", "instagram": "None", "facebook": "None", "youtube": "None", "website": "None", "summary": "None", "logo": "None", "latitude": 45.03567300000006, "longitude": -77.98000849999994}, "827713462RR0001": {"name": "The Sword Ministries Society", "designationCode": "C", "categoryCode": "49", "address": "405-2548 LEWIS ST.", "city": "DUNCAN", "province": "BC", "country": "CA", "postalCode": "V9L5L2", "twitter": "None", "instagram": "None", "facebook": "None", "youtube": "None", "website": "None", "summary": "None", "logo": "None", "latitude": 48.78407246624182, "longitude": -123.696531}, "833982234RR0001": {"name": "The Sylvan Prayer Centre", "designationCode": "B", "categoryCode": "43", "address": "101 MACEWAN RIDGE VILLAS NW", "city": "CALGARY", "province": "AB", "country": "CA", "postalCode": "T3K4G3", "twitter": "None", "instagram": "None", "facebook": "None", "youtube": "None", "website": "None", "summary": "None", "logo": "None", "latitude": 51.13865868994197, "longitude": -114.1195988602631}, "131689507RR0001": {"name": "The Synod of the Diocese of Saskatchewan", "designationCode": "C", "categoryCode": "30", "address": "1308 5TH AVE EAST", "city": "PRINCE ALBERT", "province": "SK", "country": "CA", "postalCode": "S6V2H7", "twitter": "None", "instagram": "None", "facebook": "None", "youtube": "None", "website": "None", "summary": "None", "logo": "None", "latitude": 53.20116754327405, "longitude": -105.74138923604961}, "823085998RR0001": {"name": "The SCTV Monument Society", "designationCode": "C", "categoryCode": "59", "address": "2500-10303 JASPER AVENUE", "city": "EDMONTON", "province": "AB", "country": "CA", "postalCode": "T5J3N6", "twitter": "None", "instagram": "None", "facebook": "None", "youtube": "None", "website": "None", "summary": "None", "logo": "None", "latitude": 53.54089953563413, "longitude": -113.498064}, "851201285RR0001": {"name": "The SJ Foundation", "designationCode": "B", "categoryCode": "03", "address": "900-630 3 AVE SW", "city": "CALGARY", "province": "AB", "country": "CA", "postalCode": "T2P4L4", "twitter": "None", "instagram": "None", "facebook": "None", "youtube": "None", "website": "None", "summary": "None", "logo": "None", "latitude": 51.05065546826101, "longitude": -114.07541302553523}, "839086345RR0001": {"name": "The T'Akhu A Tlen Conservancy", "designationCode": "C", "categoryCode": "52", "address": "1800 - 510 GEORGIA ST W", "city": "VANCOUVER", "province": "BC", "country": "CA", "postalCode": "V6B0M3", "twitter": "None", "instagram": "None", "facebook": "None", "youtube": "None", "website": "None", "summary": "None", "logo": "None", "latitude": 49.281267759207665, "longitude": -123.11633309804196}, "806574000RR0001": {"name": "The Tabitha Charitable Trust", "designationCode": "B", "categoryCode": "03", "address": "1119 - 138 BONIS AVE", "city": "SCARBOROUGH", "province": "ON", "country": "CA", "postalCode": "M1T3V9", "twitter": "None", "instagram": "None", "facebook": "None", "youtube": "None", "website": "None", "summary": "None", "logo": "None", "latitude": 43.78544485403069, "longitude": -79.29383900311574}, "858778467RR0001": {"name": "The Table Missionary Society", "designationCode": "C", "categoryCode": "30", "address": "626 BLANSHARD STREET          2ND FLOOR", "city": "VICTORIA", "province": "BC", "country": "CA", "postalCode": "V8W3G6", "twitter": "None", "instagram": "None", "facebook": "None", "youtube": "None", "website": "None", "summary": "None", "logo": "None", "latitude": 48.420385123521186, "longitude": -123.36406285140495}, "832058929RR0001": {"name": "The Table Soup Kitchen Foundation", "designationCode": "C", "categoryCode": "09", "address": "PO BOX 5411", "city": "HUNTSVILLE", "province": "ON", "country": "CA", "postalCode": "P1H2K7", "twitter": "None", "instagram": "None", "facebook": "None", "youtube": "None", "website": "None", "summary": "None", "logo": "None", "latitude": 45.326544000000055, "longitude": -79.21800349999994}, "828253120RR0001": {"name": "The Tam Foundation", "designationCode": "A", "categoryCode": "03", "address": "201-745 WEST BROADWAY", "city": "VANCOUVER", "province": "BC", "country": "CA", "postalCode": "V5Z1J6", "twitter": "None", "instagram": "None", "facebook": "None", "youtube": "None", "website": "None", "summary": "None", "logo": "None", "latitude": 49.263354511541195, "longitude": -123.1209725553696}}