{"895256675RR0001": {"name": "CARREFOUR JEUNESSE EMPLOI DES MOULINS", "designationCode": "C", "categoryCode": "59", "address": "3-640 RUE LANGLOIS", "city": "TERREBONNE", "province": "QC", "country": "CA", "postalCode": "J6W4P3", "twitter": "None", "instagram": "None", "facebook": "None", "youtube": "None", "website": "None", "summary": "None", "logo": "None", "latitude": 45.697046692163674, "longitude": -73.63250667456296}, "889068268RR0001": {"name": "CARREFOUR JEUNESSE EMPLOI MITIS", "designationCode": "C", "categoryCode": "59", "address": "1483 BOUL. JACQUES-CARTIER", "city": "MONT-JOLI", "province": "QC", "country": "CA", "postalCode": "G5H2V5", "twitter": "None", "instagram": "None", "facebook": "None", "youtube": "None", "website": "None", "summary": "None", "logo": "None", "latitude": 48.58798945213221, "longitude": -68.19111670148317}, "889962478RR0001": {"name": "CARREFOUR JEUNESSE EMPLOI SAINT-HUBERT", "designationCode": "C", "categoryCode": "59", "address": "6110 CH DE CHAMBLY", "city": "SAINT-HUBERT", "province": "QC", "country": "CA", "postalCode": "J3Y3R5", "twitter": "None", "instagram": "None", "facebook": "None", "youtube": "None", "website": "None", "summary": "None", "logo": "None", "latitude": 45.49783952403467, "longitude": -73.40539966414696}, "868933110RR0001": {"name": "CARREFOUR JEUNESSE EMPLOI SAINT-LAURENT", "designationCode": "C", "categoryCode": "59", "address": "404 BOUL. DECARIE, SUITE 300", "city": "SAINT-LAURENT", "province": "QC", "country": "CA", "postalCode": "H4L5E6", "twitter": "None", "instagram": "None", "facebook": "None", "youtube": "None", "website": "None", "summary": "None", "logo": "None", "latitude": 45.508030303624054, "longitude": -73.67284484514387}, "880623962RR0001": {"name": "CARREFOUR JEUNESSE-EMPLOI ANJOU/SAINT-JUSTIN", "designationCode": "C", "categoryCode": "09", "address": "7450 BOUL DES GALERIES D'ANJOU480", "city": "ANJOU", "province": "QC", "country": "CA", "postalCode": "H1M3M3", "twitter": "None", "instagram": "None", "facebook": "None", "youtube": "None", "website": "None", "summary": "None", "logo": "None", "latitude": 45.59782622003618, "longitude": -73.56519011189307}, "861383685RR0001": {"name": "CARREFOUR JEUNESSE-EMPLOI BEAUHARNOIS-SALABERRY", "designationCode": "C", "categoryCode": "59", "address": "71, RUE DUFFERIN", "city": "SALABERRY-DE-VALLEYFIELD", "province": "QC", "country": "CA", "postalCode": "J6S1Y3", "twitter": "None", "instagram": "None", "facebook": "None", "youtube": "None", "website": "None", "summary": "None", "logo": "None"}, "897568333RR0001": {"name": "CARREFOUR JEUNESSE-EMPLOI CHARLESBOURG-CHAUVEAU", "designationCode": "C", "categoryCode": "59", "address": "8500, BOUL. HENRI-BOURASSA    BUREAU 61", "city": "QU\u00c9BEC", "province": "QC", "country": "CA", "postalCode": "G1G5X1", "twitter": "None", "instagram": "None", "facebook": "None", "youtube": "None", "website": "None", "summary": "None", "logo": "None", "latitude": 46.865174402814105, "longitude": -71.27095180751687}, "895987089RR0001": {"name": "CARREFOUR JEUNESSE-EMPLOI CHAUVEAU", "designationCode": "C", "categoryCode": "35", "address": "10995 RUE WILFRID CARON       BUREAU 200", "city": "QU\u00c9BEC", "province": "QC", "country": "CA", "postalCode": "G2B2Z8", "twitter": "None", "instagram": "None", "facebook": "None", "youtube": "None", "website": "None", "summary": "None", "logo": "None", "latitude": 46.85037556812291, "longitude": -71.36071034251815}, "882987571RR0001": {"name": "CARREFOUR JEUNESSE-EMPLOI DE BEAUCE-SUD", "designationCode": "C", "categoryCode": "59", "address": "11920 1E AVENUE", "city": "SAINT-GEORGES", "province": "QC", "country": "CA", "postalCode": "G5Y2E1", "twitter": "None", "instagram": "None", "facebook": "None", "youtube": "None", "website": "None", "summary": "None", "logo": "None", "latitude": 46.120045222315184, "longitude": -70.6724410335853}, "141129577RR0001": {"name": "CARREFOUR JEUNESSE-EMPLOI DE D'AUTRAY-JOLIETTE", "designationCode": "C", "categoryCode": "21", "address": "580 RUE RICHARD", "city": "JOLIETTE", "province": "QC", "country": "CA", "postalCode": "J6E2T4", "twitter": "None", "instagram": "None", "facebook": "None", "youtube": "None", "website": "None", "summary": "None", "logo": "None", "latitude": 46.02657386987103, "longitude": -73.44574880549905}, "871456430RR0001": {"name": "CARREFOUR JEUNESSE-EMPLOI DE L'OUEST DE L'ILE", "designationCode": "C", "categoryCode": "20", "address": "225-F, BOULEVARD HYMUS", "city": "POINTE-CLAIRE", "province": "QC", "country": "CA", "postalCode": "H9R1G4", "twitter": "None", "instagram": "None", "facebook": "None", "youtube": "None", "website": "None", "summary": "None", "logo": "None"}, "880926969RR0001": {"name": "CARREFOUR JEUNESSE-EMPLOI DE LA CAPITALE NATIONALE", "designationCode": "C", "categoryCode": "20", "address": "265 A DE LA COURONNE", "city": "QUEBEC", "province": "QC", "country": "CA", "postalCode": "G1K6E1", "twitter": "None", "instagram": "None", "facebook": "None", "youtube": "None", "website": "None", "summary": "None", "logo": "None", "latitude": 46.816192791015006, "longitude": -71.22619424574428}, "870821238RR0001": {"name": "CARREFOUR JEUNESSE-EMPLOI DE LA COTE-DES NEIGES (CJECDN)", "designationCode": "C", "categoryCode": "59", "address": "6555 COTE DES NEIGES          BUREAU 240", "city": "MONTREAL", "province": "QC", "country": "CA", "postalCode": "H3S2A6", "twitter": "None", "instagram": "None", "facebook": "None", "youtube": "None", "website": "None", "summary": "None", "logo": "None", "latitude": 45.50235426536422, "longitude": -73.63542183746917}, "889485074RR0001": {"name": "CARREFOUR JEUNESSE-EMPLOI DE LA MRC DE MONTMAGNY", "designationCode": "C", "categoryCode": "59", "address": "65 AVENUE DE LA GARE", "city": "MONTMAGNY", "province": "QC", "country": "CA", "postalCode": "G5V2T1", "twitter": "None", "instagram": "None", "facebook": "None", "youtube": "None", "website": "None", "summary": "None", "logo": "None", "latitude": 46.97952303136361, "longitude": -70.55937409740903}, "141754333RR0001": {"name": "CARREFOUR JEUNESSE-EMPLOI DE MARQUETTE", "designationCode": "C", "categoryCode": "59", "address": "735, RUE NOTRE-DAME, BUR.101", "city": "LACHINE", "province": "QC", "country": "CA", "postalCode": "H8S2B5", "twitter": "None", "instagram": "None", "facebook": "None", "youtube": "None", "website": "None", "summary": "None", "logo": "None", "latitude": 45.43486752452561, "longitude": -73.670553}, "870293560RR0001": {"name": "CARREFOUR JEUNESSE-EMPLOI DE SHAWINIGAN", "designationCode": "C", "categoryCode": "20", "address": "525, 3I\u00c8ME RUE                C.P. 132", "city": "SHAWINIGAN", "province": "QC", "country": "CA", "postalCode": "G9N6T8", "twitter": "None", "instagram": "None", "facebook": "None", "youtube": "None", "website": "None", "summary": "None", "logo": "None", "latitude": 46.5389671817332, "longitude": -72.74913089568733}, "880794706RR0001": {"name": "CARREFOUR JEUNESSE-EMPLOI DES CANTONS DE L'EST", "designationCode": "C", "categoryCode": "29", "address": "425 RUE CABANA", "city": "GRANBY", "province": "QC", "country": "CA", "postalCode": "J2G1P3", "twitter": "None", "instagram": "None", "facebook": "None", "youtube": "None", "website": "None", "summary": "None", "logo": "None", "latitude": 45.41064935832985, "longitude": -72.73290807493223}, "895089084RR0001": {"name": "CARREFOUR JEUNESSE-EMPLOI MARGUERITE-D'YOUVILLE", "designationCode": "C", "categoryCode": "59", "address": "95 BOUL. DE MORTAGNE          LOCAL D", "city": "BOUCHERVILLE", "province": "QC", "country": "CA", "postalCode": "J4B6G4", "twitter": "None", "instagram": "None", "facebook": "None", "youtube": "None", "website": "None", "summary": "None", "logo": "None", "latitude": 45.5757474959893, "longitude": -73.44698547244462}, "893435115RR0001": {"name": "CARREFOUR JEUNESSE-EMPLOI MONTREAL CENTRE-VILLE", "designationCode": "C", "categoryCode": "59", "address": "666, RUE SHERBROOKE OUEST     BUREAU 2101", "city": "MONTREAL", "province": "QC", "country": "CA", "postalCode": "H3A1E7", "twitter": "None", "instagram": "None", "facebook": "None", "youtube": "None", "website": "None", "summary": "None", "logo": "None", "latitude": 45.50511043767683, "longitude": -73.5733004482084}, "872775754RR0001": {"name": "CARREFOUR JEUNESSE-EMPLOI NOTRE-DAME-DE-GRACE", "designationCode": "C", "categoryCode": "59", "address": "6370 SHERBROOKE OUEST", "city": "MONTR\u00c9AL", "province": "QC", "country": "CA", "postalCode": "H4B1M9", "twitter": "None", "instagram": "None", "facebook": "None", "youtube": "None", "website": "None", "summary": "None", "logo": "None", "latitude": 45.4651472741937, "longitude": -73.62619712542575}, "866464860RR0001": {"name": "CARREFOUR JEUNESSE-EMPLOI TROIS-RIVI\u00c8RES/MRC DES CHENAUX", "designationCode": "C", "categoryCode": "59", "address": "580 RUE BARKOFF               SUITE 300", "city": "TROIS-RIVI\u00c8RES", "province": "QC", "country": "CA", "postalCode": "G8T9T7", "twitter": "None", "instagram": "None", "facebook": "None", "youtube": "None", "website": "None", "summary": "None", "logo": "None", "latitude": 46.37734164363206, "longitude": -72.55103023642386}, "137221602RR0001": {"name": "CARREFOUR LE MOUTIER", "designationCode": "C", "categoryCode": "09", "address": "100 PLACE CHARLES-LE MOYNE    BUREAU 281", "city": "LONGUEUIL", "province": "QC", "country": "CA", "postalCode": "J4K2T4", "twitter": "None", "instagram": "None", "facebook": "None", "youtube": "None", "website": "None", "summary": "None", "logo": "None", "latitude": 45.52561180882878, "longitude": -73.52220301559275}, "892537358RR0001": {"name": "CARREFOUR LIBERTE INC", "designationCode": "C", "categoryCode": "57", "address": "2165 AV ROBERT-GIFFARD", "city": "BEAUPORT", "province": "QC", "country": "CA", "postalCode": "G1E6T3", "twitter": "None", "instagram": "None", "facebook": "None", "youtube": "None", "website": "None", "summary": "None", "logo": "None", "latitude": 46.85347177684808, "longitude": -71.20738768471918}, "868607607RR0001": {"name": "CARREFOUR MARGUERITE BOURGEOYS", "designationCode": "C", "categoryCode": "09", "address": "1855, RUE RACHEL EST", "city": "MONTR\u00c9AL", "province": "QC", "country": "CA", "postalCode": "H2H1P5", "twitter": "None", "instagram": "None", "facebook": "None", "youtube": "None", "website": "None", "summary": "None", "logo": "None", "latitude": 45.530834403860396, "longitude": -73.56924859172489}, "133983726RR0001": {"name": "CARREFOUR MOUSSEAU", "designationCode": "C", "categoryCode": "09", "address": "1-230 BOUL DES ORMEAUX", "city": "LONGUEUIL", "province": "QC", "country": "CA", "postalCode": "J4L1J4", "twitter": "None", "instagram": "None", "facebook": "None", "youtube": "None", "website": "None", "summary": "None", "logo": "None", "latitude": 45.524620435743586, "longitude": -73.45576590671725}, "118900570RR0001": {"name": "CARREFOUR NAISSANCE-FAMILLE DUBAS-RICHELIEU", "designationCode": "C", "categoryCode": "01", "address": "5750 CHEMIN ST-ROCH", "city": "SOREL-TRACY", "province": "QC", "country": "CA", "postalCode": "J3R3L9", "twitter": "None", "instagram": "None", "facebook": "None", "youtube": "None", "website": "None", "summary": "None", "logo": "None", "latitude": 46.021584907582636, "longitude": -73.13557570520541}, "140257395RR0001": {"name": "CARREFOUR NORMANDIE ST-TITE INC", "designationCode": "C", "categoryCode": "09", "address": "331 NOTRE-DAME", "city": "ST-TITE", "province": "QC", "country": "CA", "postalCode": "G0X3H0", "twitter": "None", "instagram": "None", "facebook": "None", "youtube": "None", "website": "None", "summary": "None", "logo": "None", "latitude": 46.7296885736915, "longitude": -72.56615386078269}, "897916219RR0001": {"name": "CARREFOUR PERI-NAISSANCE", "designationCode": "C", "categoryCode": "11", "address": "509, CHEMIN DE LA GRANDE-C\u00d4TE", "city": "ST-EUSTACHE", "province": "QC", "country": "CA", "postalCode": "J7P1K5", "twitter": "None", "instagram": "None", "facebook": "None", "youtube": "None", "website": "None", "summary": "None", "logo": "None", "latitude": 45.58707012490615, "longitude": -73.8503153205896}, "118839802RR0001": {"name": "CARREFOUR POPULAIRE DE ST-MICHEL INC.", "designationCode": "C", "categoryCode": "09", "address": "2651 CREMAZIE EST", "city": "MONTREAL", "province": "QC", "country": "CA", "postalCode": "H1Z2H6", "twitter": "None", "instagram": "None", "facebook": "None", "youtube": "None", "website": "None", "summary": "None", "logo": "None", "latitude": 45.559413762450035, "longitude": -73.61078679465035}, "118839810RR0001": {"name": "CARREFOUR POUR ELLE", "designationCode": "C", "categoryCode": "09", "address": "C.P. 21115                    SUCCURSALE JACQUES CARTIER", "city": "LONGUEUIL", "province": "QC", "country": "CA", "postalCode": "J4J5J4", "twitter": "None", "instagram": "None", "facebook": "None", "youtube": "None", "website": "None", "summary": "None", "logo": "None", "latitude": 45.53282000000007, "longitude": -73.49923999999999}, "871962908RR0001": {"name": "CARREFOUR PROVIDENCE", "designationCode": "C", "categoryCode": "46", "address": "5655 RUE DE SALABERRY", "city": "MONTR\u00c9AL", "province": "QC", "country": "CA", "postalCode": "H4J1J5", "twitter": "None", "instagram": "None", "facebook": "None", "youtube": "None", "website": "None", "summary": "None", "logo": "None", "latitude": 45.528873699753234, "longitude": -73.71145253699511}, "873937593RR0001": {"name": "CARREFOUR PROVINCIAL FAMILLE JEUNESSE INC.", "designationCode": "A", "categoryCode": "03", "address": "5442 BOUL. H\u00c9BERT", "city": "SALABERRY-DE-VALLEYFIELD", "province": "QC", "country": "CA", "postalCode": "J6S6A4", "twitter": "None", "instagram": "None", "facebook": "None", "youtube": "None", "website": "None", "summary": "None", "logo": "None", "latitude": 45.29450301941838, "longitude": -74.03329168036268}, "100825439RR0001": {"name": "CARREFOUR SAINT-EUSEBE DE MONTREAL INC.", "designationCode": "C", "categoryCode": "56", "address": "2323, RUE DE ROUEN", "city": "MONTR\u00c9AL", "province": "QC", "country": "CA", "postalCode": "H2K1L8", "twitter": "None", "instagram": "None", "facebook": "None", "youtube": "None", "website": "None", "summary": "None", "logo": "None", "latitude": 45.53249105551386, "longitude": -73.5582854587973}, "897888897RR0001": {"name": "CARREFOUR SOLIDARITE ANJOU", "designationCode": "C", "categoryCode": "09", "address": "7800, BOUL. M\u00c9TROPOLITAIN EST", "city": "ANJOU", "province": "QC", "country": "CA", "postalCode": "H1K1A1", "twitter": "None", "instagram": "None", "facebook": "None", "youtube": "None", "website": "None", "summary": "None", "logo": "None", "latitude": 45.60743561087255, "longitude": -73.56365325114098}, "118839836RR0001": {"name": "CARREFOUR TIERS-MONDE INC.", "designationCode": "C", "categoryCode": "09", "address": "365 BOUL. CHAREST EST", "city": "QUEBEC", "province": "QC", "country": "CA", "postalCode": "G1K3H3", "twitter": "None", "instagram": "None", "facebook": "None", "youtube": "None", "website": "None", "summary": "None", "logo": "None", "latitude": 46.81334827947382, "longitude": -71.22477281597331}, "118839844RR0001": {"name": "CARREFOUR UNITE INC.", "designationCode": "C", "categoryCode": "57", "address": "390 CH. CARREFOUR UNIT\u00c9", "city": "CAP-AUX-MEULES", "province": "QC", "country": "CA", "postalCode": "G4T1M4", "twitter": "None", "instagram": "None", "facebook": "None", "youtube": "None", "website": "None", "summary": "None", "logo": "None", "latitude": 47.37619614382534, "longitude": -61.873040884911}, "100825322RR0001": {"name": "CARREFOUR-JEUNESSE D'IBERVILLE", "designationCode": "C", "categoryCode": "09", "address": "375 AV BESSETTE", "city": "SAINT-JEAN-SUR-RICHELIEU", "province": "QC", "country": "CA", "postalCode": "J2X2N8", "twitter": "None", "instagram": "None", "facebook": "None", "youtube": "None", "website": "None", "summary": "None", "logo": "None", "latitude": 45.29761750562683, "longitude": -73.2331538068267}, "141155093RR0001": {"name": "CARREFOUR-RESSOURCES", "designationCode": "C", "categoryCode": "09", "address": "50, 1RE RUE OUEST", "city": "STE-ANNE-DES-MONTS", "province": "QC", "country": "CA", "postalCode": "G4V2G5", "twitter": "None", "instagram": "None", "facebook": "None", "youtube": "None", "website": "None", "summary": "None", "logo": "None", "latitude": 49.12869220705175, "longitude": -66.48760043629184}, "865671366RR0001": {"name": "CARRIAGE COUNTRY BAPTIST CHURCH", "designationCode": "C", "categoryCode": "39", "address": "4830 TRULLS ROAD", "city": "HAMPTON", "province": "ON", "country": "CA", "postalCode": "L0B1J0", "twitter": "None", "instagram": "None", "facebook": "None", "youtube": "None", "website": "None", "summary": "None", "logo": "None", "latitude": 43.948083527155184, "longitude": -78.80495214930468}, "883054686RR0001": {"name": "CARRIAGE HOUSE NORTH TRUST MARY BESLER ESTATE", "designationCode": "B", "categoryCode": "55", "address": "418-650 WEST GEORGIA STREET   P.O. BOX 11602", "city": "VANCOUVER", "province": "BC", "country": "CA", "postalCode": "V6B4N9", "twitter": "None", "instagram": "None", "facebook": "None", "youtube": "None", "website": "None", "summary": "None", "logo": "None", "latitude": 49.28012307167682, "longitude": -123.11442679241839}, "122731185RR0001": {"name": "CARRIAGE HOUSE THEATRE FOUNDATION", "designationCode": "C", "categoryCode": "22", "address": "PO BOX 1800", "city": "CARDSTON", "province": "AB", "country": "CA", "postalCode": "T0K0K0", "twitter": "None", "instagram": "None", "facebook": "None", "youtube": "None", "website": "None", "summary": "None", "logo": "None", "latitude": 49.198480000000075, "longitude": -113.30176999999998}, "863562351RR0001": {"name": "CARRICK A REDE FOUNDATION", "designationCode": "B", "categoryCode": "03", "address": "20 BAMBURGH CIR", "city": "SCARBOROUGH", "province": "ON", "country": "CA", "postalCode": "M1W3Y5", "twitter": "None", "instagram": "None", "facebook": "None", "youtube": "None", "website": "None", "summary": "None", "logo": "None", "latitude": 43.816179351116496, "longitude": -79.32523670206008}, "857199442RR0001": {"name": "CARRICK CAMP", "designationCode": "C", "categoryCode": "49", "address": "273 BRUCE RD 6E, RR 5", "city": "MILDMAY", "province": "ON", "country": "CA", "postalCode": "N0G2J0", "twitter": "None", "instagram": "None", "facebook": "None", "youtube": "None", "website": "None", "summary": "None", "logo": "None", "latitude": 44.01914154460722, "longitude": -81.15697297778085}, "118839877RR0001": {"name": "CARRIER BIBLE FELLOWSHIP", "designationCode": "C", "categoryCode": "47", "address": "BOX 619", "city": "FORT SAINT JAMES", "province": "BC", "country": "CA", "postalCode": "V0J1P0", "twitter": "None", "instagram": "None", "facebook": "None", "youtube": "None", "website": "None", "summary": "None", "logo": "None", "latitude": 54.44540000000006, "longitude": -124.25099999999998}, "125473660RR0001": {"name": "CARRIER SEKANI FAMILY SERVICES (A BRANCH SOCIETY OF THE CARRIER SEKANI TRIBAL COUNCIL)", "designationCode": "C", "categoryCode": "59", "address": "987 FOURTH AVE", "city": "PRINCE GEORGE", "province": "BC", "country": "CA", "postalCode": "V2L3H7", "twitter": "None", "instagram": "None", "facebook": "None", "youtube": "None", "website": "None", "summary": "None", "logo": "None", "latitude": 53.91466171874294, "longitude": -122.7414286850969}, "806891818RR0001": {"name": "CARRIERE FOUNDATION", "designationCode": "B", "categoryCode": "03", "address": "1500 WEST GEORGIA STREET      SUITE 1250 BOX 62", "city": "VANCOUVER", "province": "BC", "country": "CA", "postalCode": "V6G2Z6", "twitter": "None", "instagram": "None", "facebook": "None", "youtube": "None", "website": "None", "summary": "None", "logo": "None", "latitude": 49.2900638104334, "longitude": -123.12989899362336}, "887119592RR0001": {"name": "CARROLL'S CORNER COMMUNITY CENTER", "designationCode": "C", "categoryCode": "56", "address": "9 MILFORD ROAD", "city": "CARROLLS CORNER", "province": "NS", "country": "CA", "postalCode": "B0N1Y0", "twitter": "None", "instagram": "None", "facebook": "None", "youtube": "None", "website": "None", "summary": "None", "logo": "None", "latitude": 45.016964446275175, "longitude": -63.38420168321863}, "118839901RR0001": {"name": "CARROLL'S UNITED BAPTIST CHURCH", "designationCode": "C", "categoryCode": "31", "address": "P.O. BOX 1072", "city": "DOAKTOWN", "province": "NB", "country": "CA", "postalCode": "E9C2M2", "twitter": "None", "instagram": "None", "facebook": "None", "youtube": "None", "website": "None", "summary": "None", "logo": "None", "latitude": 46.55608800000006, "longitude": -66.12759349999993}, "106877624RR0001": {"name": "CARROT CREEK CHRISTIAN FELLOWSHIP", "designationCode": "C", "categoryCode": "39", "address": "13515 TOWNSHIP ROAD 570", "city": "YELLOWHEAD COUNTY", "province": "AB", "country": "CA", "postalCode": "T7E3Z7", "twitter": "None", "instagram": "None", "facebook": "None", "youtube": "None", "website": "None", "summary": "None", "logo": "None", "latitude": 53.89020853173899, "longitude": -115.921341}, "118839927RR0001": {"name": "CARROT RIVER CHURCH OF GOD IN CHRIST INC.", "designationCode": "C", "categoryCode": "34", "address": "BOX 2 SITE 5 RR#1", "city": "CARROT RIVER", "province": "SK", "country": "CA", "postalCode": "S0E0L0", "twitter": "None", "instagram": "None", "facebook": "None", "youtube": "None", "website": "None", "summary": "None", "logo": "None", "latitude": 53.28228322201671, "longitude": -103.5890325}, "118839935RR0001": {"name": "CARROT RIVER HORTICULTURAL SOCIETY", "designationCode": "C", "categoryCode": "56", "address": "BOX 211", "city": "CARROT RIVER", "province": "SK", "country": "CA", "postalCode": "S0E0L0", "twitter": "None", "instagram": "None", "facebook": "None", "youtube": "None", "website": "None", "summary": "None", "logo": "None", "latitude": 53.28401000000008, "longitude": -103.58754999999996}, "118839943RR0001": {"name": "CARROT RIVER MENNONITE CHURCH", "designationCode": "C", "categoryCode": "34", "address": "PO BOX 567", "city": "CARROT RIVER", "province": "SK", "country": "CA", "postalCode": "S0E0L0", "twitter": "None", "instagram": "None", "facebook": "None", "youtube": "None", "website": "None", "summary": "None", "logo": "None", "latitude": 53.28401000000008, "longitude": -103.58754999999996}, "118839976RR0001": {"name": "CARROT RIVER UNITED CHURCH", "designationCode": "C", "categoryCode": "44", "address": "BOX 26", "city": "CARROT RIVER", "province": "SK", "country": "CA", "postalCode": "S0E0L0", "twitter": "None", "instagram": "None", "facebook": "None", "youtube": "None", "website": "None", "summary": "None", "logo": "None", "latitude": 53.28401000000008, "longitude": -103.58754999999996}, "856930888RR0001": {"name": "CARROT RIVER VALLEY ACTIVE LIVING INC.", "designationCode": "C", "categoryCode": "09", "address": "4151 FIRST AVENUE             P. O. BOX 10", "city": "CARROT RIVER", "province": "SK", "country": "CA", "postalCode": "S0E0L0", "twitter": "None", "instagram": "None", "facebook": "None", "youtube": "None", "website": "None", "summary": "None", "logo": "None"}, "118839984RR0001": {"name": "CARROT RIVER VALLEY LUTHERAN CHURCH", "designationCode": "C", "categoryCode": "32", "address": "BOX 2121", "city": "MELFORT", "province": "SK", "country": "CA", "postalCode": "S0E1A0", "twitter": "None", "instagram": "None", "facebook": "None", "youtube": "None", "website": "None", "summary": "None", "logo": "None", "latitude": 52.85637, "longitude": -104.63436225000001}, "118840008RR0001": {"name": "CARROT VALLEY COMMUNITY CENTRE INC.", "designationCode": "C", "categoryCode": "56", "address": "P.O. BOX 852", "city": "THE PAS", "province": "MB", "country": "CA", "postalCode": "R9A1K8", "twitter": "None", "instagram": "None", "facebook": "None", "youtube": "None", "website": "None", "summary": "None", "logo": "None", "latitude": 53.81342700000006, "longitude": -101.25038149999993}, "108013277RR0001": {"name": "CARRUTHERS CREEK COMMUNITY CHURCH", "designationCode": "C", "categoryCode": "39", "address": "599 BAYLY STREET EAST", "city": "AJAX", "province": "ON", "country": "CA", "postalCode": "L1Z1L4", "twitter": "None", "instagram": "None", "facebook": "None", "youtube": "None", "website": "None", "summary": "None", "logo": "None", "latitude": 43.85044207379515, "longitude": -78.98880834457572}, "119244853RR0001": {"name": "CARRY DRIVE CHURCH OF CHRIST", "designationCode": "C", "categoryCode": "39", "address": "278 CARRY DRIVE SE", "city": "MEDICINE HAT", "province": "AB", "country": "CA", "postalCode": "T1B1N6", "twitter": "None", "instagram": "None", "facebook": "None", "youtube": "None", "website": "None", "summary": "None", "logo": "None", "latitude": 50.01413461809682, "longitude": -110.63427899792252}, "118840040RR0001": {"name": "CARSA INCORPORATED", "designationCode": "C", "categoryCode": "09", "address": "43 CHURCH STREET, SUITE 503", "city": "ST CATHARINES", "province": "ON", "country": "CA", "postalCode": "L2R7E1", "twitter": "None", "instagram": "None", "facebook": "None", "youtube": "None", "website": "None", "summary": "None", "logo": "None", "latitude": 43.159315765768255, "longitude": -79.24835941644076}, "129368387RR0001": {"name": "CARSELAND AND DISTRICT COMMUNITY ASSOCIATION AND AGRICULTURAL SOCIETY", "designationCode": "C", "categoryCode": "56", "address": "BOX 187", "city": "CARSELAND", "province": "AB", "country": "CA", "postalCode": "T0J0M0", "twitter": "None", "instagram": "None", "facebook": "None", "youtube": "None", "website": "None", "summary": "None", "logo": "None", "latitude": 50.85035000000005, "longitude": -113.46525999999994}, "888744778RR0001": {"name": "CARSLEY FAMILY FOUNDATION/FONDATION FAMILIALE CARSLEY", "designationCode": "B", "categoryCode": "03", "address": "1150 - 1 CAR WESTMOUNT", "city": "WESTMOUNT", "province": "QC", "country": "CA", "postalCode": "H3Z2P9", "twitter": "None", "instagram": "None", "facebook": "None", "youtube": "None", "website": "None", "summary": "None", "logo": "None", "latitude": 45.48734687815228, "longitude": -73.58815432901505}, "118840057RR0001": {"name": "CARSONBY UNITED CHURCH", "designationCode": "C", "categoryCode": "44", "address": "27 WESTERRA WAY", "city": "KEMPTVILLE", "province": "ON", "country": "CA", "postalCode": "K0G1J0", "twitter": "None", "instagram": "None", "facebook": "None", "youtube": "None", "website": "None", "summary": "None", "logo": "None", "latitude": 45.026784302816, "longitude": -75.6381257117836}, "100831122RR0001": {"name": "CARTER EARLY LEARNING CENTRE, INC.", "designationCode": "C", "categoryCode": "01", "address": "465B STAFFORD STREET", "city": "WINNIPEG", "province": "MB", "country": "CA", "postalCode": "R3M2V9", "twitter": "None", "instagram": "None", "facebook": "None", "youtube": "None", "website": "None", "summary": "None", "logo": "None", "latitude": 49.86102911531795, "longitude": -97.15581747784076}, "118840081RR0001": {"name": "CARTHY FOUNDATION", "designationCode": "B", "categoryCode": "15", "address": "P.O. BOX 2554 STN M", "city": "CALGARY", "province": "AB", "country": "CA", "postalCode": "T2P2M7", "twitter": "None", "instagram": "None", "facebook": "None", "youtube": "None", "website": "None", "summary": "None", "logo": "None", "latitude": 51.04531500000006, "longitude": -114.06301099999993}, "884050816RR0001": {"name": "CARTIER \u00c9MILIE", "designationCode": "C", "categoryCode": "09", "address": "12395 RUE LACHAPELLE", "city": "MONTREAL", "province": "QC", "country": "CA", "postalCode": "H4J2P7", "twitter": "None", "instagram": "None", "facebook": "None", "youtube": "None", "website": "None", "summary": "None", "logo": "None", "latitude": 45.531392405505166, "longitude": -73.72300885053956}, "815706270RR0001": {"name": "CARTIER EGLISE DE DIEU DE LA PENTECOTE INC.", "designationCode": "C", "categoryCode": "39", "address": "1825 RUE TILLEMONT", "city": "MONTREAL", "province": "QC", "country": "CA", "postalCode": "H2E1C6", "twitter": "None", "instagram": "None", "facebook": "None", "youtube": "None", "website": "None", "summary": "None", "logo": "None", "latitude": 45.55239086234055, "longitude": -73.6159272685382}, "891124547RR0001": {"name": "CARTIER MCGEE - LOUIS ST LAURENT PARENT ADVISORY ASSOCIATION", "designationCode": "C", "categoryCode": "21", "address": "11230 43 AVENUE", "city": "EDMONTON", "province": "AB", "country": "CA", "postalCode": "T6J0X8", "twitter": "None", "instagram": "None", "facebook": "None", "youtube": "None", "website": "None", "summary": "None", "logo": "None", "latitude": 53.47901232283998, "longitude": -113.52294551315732}, "132482316RR0001": {"name": "CARTIER SENIOR CITIZENS SUPPORT COMMITTEE INC", "designationCode": "C", "categoryCode": "09", "address": "PO BOX 215", "city": "ELIE", "province": "MB", "country": "CA", "postalCode": "R0H0H0", "twitter": "None", "instagram": "None", "facebook": "None", "youtube": "None", "website": "None", "summary": "None", "logo": "None", "latitude": 49.90010894942103, "longitude": -97.75774884595309}, "118840099RR0001": {"name": "CARTIER VOLUNTEER FIRE DEPARTMENT", "designationCode": "C", "categoryCode": "59", "address": "BOX 21", "city": "CARTIER", "province": "ON", "country": "CA", "postalCode": "P0M1J0", "twitter": "None", "instagram": "None", "facebook": "None", "youtube": "None", "website": "None", "summary": "None", "logo": "None", "latitude": 46.134476102014474, "longitude": -80.43047490418653}, "884588526RR0001": {"name": "CARTWRIGHT CHRISTIAN MINISTRIES CANADA", "designationCode": "C", "categoryCode": "47", "address": "8471 ROSEHILL DRIVE", "city": "RICHMOND", "province": "BC", "country": "CA", "postalCode": "V7A2J8", "twitter": "None", "instagram": "None", "facebook": "None", "youtube": "None", "website": "None", "summary": "None", "logo": "None", "latitude": 49.13510648211084, "longitude": -123.13083119608748}, "132460148RR0001": {"name": "CARTWRIGHT COMMUNITY INDEPENDENT SCHOOL INC", "designationCode": "C", "categoryCode": "20", "address": "GENERAL DELIVERY", "city": "CARTWRIGHT", "province": "MB", "country": "CA", "postalCode": "R0K0L0", "twitter": "None", "instagram": "None", "facebook": "None", "youtube": "None", "website": "None", "summary": "None", "logo": "None", "latitude": 49.09495200000005, "longitude": -99.34536049999993}, "888485521RR0001": {"name": "CARTWRIGHT SPORTS AND RECREATION INC.", "designationCode": "C", "categoryCode": "56", "address": "3951 HWY 7A", "city": "NESTLETON", "province": "ON", "country": "CA", "postalCode": "L0B1L0", "twitter": "None", "instagram": "None", "facebook": "None", "youtube": "None", "website": "None", "summary": "None", "logo": "None", "latitude": 44.139330886085595, "longitude": -78.79732312290585}, "888961687RR0001": {"name": "CARTWRIGHT UNION CEMETERY BOARD", "designationCode": "C", "categoryCode": "59", "address": "3690 MOUNT JOY ROAD", "city": "BLACKSTOCK", "province": "ON", "country": "CA", "postalCode": "L0B1B0", "twitter": "None", "instagram": "None", "facebook": "None", "youtube": "None", "website": "None", "summary": "None", "logo": "None", "latitude": 44.05429500000005, "longitude": -78.79481899999993}, "130374747RR0001": {"name": "CARTWRIGHT UNITED CHURCH", "designationCode": "C", "categoryCode": "44", "address": "BOX 201", "city": "CARTWRIGHT", "province": "MB", "country": "CA", "postalCode": "R0K0L0", "twitter": "None", "instagram": "None", "facebook": "None", "youtube": "None", "website": "None", "summary": "None", "logo": "None", "latitude": 49.09414000000004, "longitude": -99.34137999999996}, "130178734RR0001": {"name": "CASA CHILD, ADOLESCENT AND FAMILY MENTAL HEALTH", "designationCode": "C", "categoryCode": "01", "address": "406 - 10011 109 ST NW", "city": "EDMONTON", "province": "AB", "country": "CA", "postalCode": "T5J3S8", "twitter": "None", "instagram": "None", "facebook": "None", "youtube": "None", "website": "None", "summary": "None", "logo": "None", "latitude": 53.539173000000005, "longitude": -113.50841524516737}, "890707730RR0001": {"name": "CASA DA ORACAO AO DEUS VIVO DO CEU - FOURSQUARE GOSPEL CHURCH", "designationCode": "C", "categoryCode": "39", "address": "37 WELLINGTON STREET", "city": "CAMBRIDGE", "province": "ON", "country": "CA", "postalCode": "N1R3Y6", "twitter": "None", "instagram": "None", "facebook": "None", "youtube": "None", "website": "None", "summary": "None", "logo": "None", "latitude": 43.360793884817355, "longitude": -80.31129522257498}, "847951720RR0001": {"name": "CASA DEL ALFARERO IGLESIA EVANGELICA PENTECOSTAL INC.", "designationCode": "C", "categoryCode": "39", "address": "170 PURCELL CRES", "city": "MAPLE", "province": "ON", "country": "CA", "postalCode": "L6A3C5", "twitter": "None", "instagram": "None", "facebook": "None", "youtube": "None", "website": "None", "summary": "None", "logo": "None", "latitude": 43.865662241762244, "longitude": -79.52194506578563}, "890924392RR0001": {"name": "CASA EL NORTE REFUGEE ASSISTANCE PROGRAM", "designationCode": "C", "categoryCode": "09", "address": "281 CENTRAL AVE", "city": "FORT ERIE", "province": "ON", "country": "CA", "postalCode": "L2A3T4", "twitter": "None", "instagram": "None", "facebook": "None", "youtube": "None", "website": "None", "summary": "None", "logo": "None", "latitude": 42.91773204662704, "longitude": -78.91899046104767}, "873647424RR0001": {"name": "CASA FOUNDATION", "designationCode": "A", "categoryCode": "03", "address": "406 - 10011 109 ST NW", "city": "EDMONTON", "province": "AB", "country": "CA", "postalCode": "T5J3S8", "twitter": "None", "instagram": "None", "facebook": "None", "youtube": "None", "website": "None", "summary": "None", "logo": "None", "latitude": 53.539173000000005, "longitude": -113.50841524516737}, "119288918RR0849": {"name": "CASA LOMA CONGREGATION OF JEHOVAH'S WITNESSES, TORONTO, ONTARIO", "designationCode": "C", "categoryCode": "61", "address": "285 CHRISTIE STREET", "city": "TORONTO", "province": "ON", "country": "CA", "postalCode": "M6G3B9", "twitter": "None", "instagram": "None", "facebook": "None", "youtube": "None", "website": "None", "summary": "None", "logo": "None", "latitude": 43.67106519623171, "longitude": -79.42130664998002}, "118840164RR0001": {"name": "CASA MARIA EMERGENCY HOUSING SOCIETY", "designationCode": "C", "categoryCode": "01", "address": "21-1241 BALMORAL RD", "city": "VICTORIA", "province": "BC", "country": "CA", "postalCode": "V8T1B2", "twitter": "None", "instagram": "None", "facebook": "None", "youtube": "None", "website": "None", "summary": "None", "logo": "None", "latitude": 48.427841557851124, "longitude": -123.34823455689883}, "891317547RR0001": {"name": "CASA-CAFI (CENTRE D'AIDE AUX FAMILLES IMMIGRANTES)", "designationCode": "C", "categoryCode": "09", "address": "4741, RUE DE VERDUN", "city": "MONTREAL", "province": "QC", "country": "CA", "postalCode": "H4G1M9", "twitter": "None", "instagram": "None", "facebook": "None", "youtube": "None", "website": "None", "summary": "None", "logo": "None", "latitude": 45.45764346211553, "longitude": -73.57191238539427}, "134072487RR0001": {"name": "CASAE-ACEEA INC", "designationCode": "C", "categoryCode": "21", "address": "260 DALHOUSIE ST., SUITE 204", "city": "OTTAWA", "province": "ON", "country": "CA", "postalCode": "K1N7E4", "twitter": "None", "instagram": "None", "facebook": "None", "youtube": "None", "website": "None", "summary": "None", "logo": "None"}, "867029225RR0001": {"name": "CASCA (COMITE D'AIDE ET DE SECOURS POUR LES CHATS ABANDONNES)", "designationCode": "C", "categoryCode": "54", "address": "292 CH. GRAND QUAI", "city": "RIGAUD", "province": "QC", "country": "CA", "postalCode": "J0P1P0", "twitter": "None", "instagram": "None", "facebook": "None", "youtube": "None", "website": "None", "summary": "None", "logo": "None", "latitude": 45.50076958782976, "longitude": -74.29368746306781}, "887777605RR0001": {"name": "CASCADE CHARITABLE TRUST", "designationCode": "B", "categoryCode": "39", "address": "780 SASKATCHEWAN AVE W", "city": "PORTAGE LA PRAIRIE", "province": "MB", "country": "CA", "postalCode": "R1N0M7", "twitter": "None", "instagram": "None", "facebook": "None", "youtube": "None", "website": "None", "summary": "None", "logo": "None", "latitude": 49.97373494820344, "longitude": -98.30132080652011}, "131634479RR0001": {"name": "CASCADE CHRISTIAN COUNSELLING ASSOCIATION", "designationCode": "C", "categoryCode": "49", "address": "201 14980 - 104TH AVENUE", "city": "SURREY", "province": "BC", "country": "CA", "postalCode": "V3R1M9", "twitter": "None", "instagram": "None", "facebook": "None", "youtube": "None", "website": "None", "summary": "None", "logo": "None", "latitude": 49.19145149235394, "longitude": -122.80719094463038}, "106878275RR0001": {"name": "CASCADE GOSPEL CHAPEL", "designationCode": "C", "categoryCode": "39", "address": "3833 BOUNDARY RD", "city": "VANCOUVER", "province": "BC", "country": "CA", "postalCode": "V5R2M4", "twitter": "None", "instagram": "None", "facebook": "None", "youtube": "None", "website": "None", "summary": "None", "logo": "None", "latitude": 49.249952580904846, "longitude": -123.02384555277254}, "892673369RR0001": {"name": "CASCATRUST", "designationCode": "C", "categoryCode": "21", "address": "CP 6128 SUCC CENTRE VILLE", "city": "MONTREAL", "province": "QC", "country": "CA", "postalCode": "H3C3J7", "twitter": "None", "instagram": "None", "facebook": "None", "youtube": "None", "website": "None", "summary": "None", "logo": "None", "latitude": 45.50013000000007, "longitude": -73.57315999999997}, "841425648RR0001": {"name": "CASE 2 (Called and Sent to The World)", "designationCode": "C", "categoryCode": "47", "address": "172 AVENUE DES GRANDS-JARDINS", "city": "GATINEAU", "province": "QC", "country": "CA", "postalCode": "J8V0G1", "twitter": "None", "instagram": "None", "facebook": "None", "youtube": "None", "website": "None", "summary": "None", "logo": "None", "latitude": 45.5061839392347, "longitude": -75.75134885013553}, "106878374RR0001": {"name": "CASEY HOUSE FOUNDATION", "designationCode": "A", "categoryCode": "13", "address": "119 ISABELLA ST", "city": "TORONTO", "province": "ON", "country": "CA", "postalCode": "M4Y1P2", "twitter": "None", "instagram": "None", "facebook": "None", "youtube": "None", "website": "None", "summary": "None", "logo": "None", "latitude": 43.66907080209484, "longitude": -79.3782858985516}, "118840230RR0001": {"name": "CASEY HOUSE HOSPICE INC.", "designationCode": "A", "categoryCode": "11", "address": "119 ISABELLA ST", "city": "TORONTO", "province": "ON", "country": "CA", "postalCode": "M4Y1P2", "twitter": "None", "instagram": "None", "facebook": "None", "youtube": "None", "website": "None", "summary": "None", "logo": "None", "latitude": 43.66907080209484, "longitude": -79.3782858985516}, "845438365RR0001": {"name": "CASPER'S EARLY LEARNING CO-OPERATIVE CENTRE", "designationCode": "C", "categoryCode": "20", "address": "BOX 984", "city": "CARROT RIVER", "province": "SK", "country": "CA", "postalCode": "S0E0L0", "twitter": "None", "instagram": "None", "facebook": "None", "youtube": "None", "website": "None", "summary": "None", "logo": "None", "latitude": 53.28401000000008, "longitude": -103.58754999999996}, "118840271RR0001": {"name": "CASSBURN CEMETERY", "designationCode": "C", "categoryCode": "59", "address": "2303 ALLEN RD RR#3", "city": "ALFRED", "province": "ON", "country": "CA", "postalCode": "K0B1A0", "twitter": "None", "instagram": "None", "facebook": "None", "youtube": "None", "website": "None", "summary": "None", "logo": "None", "latitude": 45.55868362418501, "longitude": -74.73431666856169}, "132143330RR0001": {"name": "CASSBURN UNITED CHURCH,", "designationCode": "C", "categoryCode": "44", "address": "2022 CASSBURN RD", "city": "L'ORIGNAL", "province": "ON", "country": "CA", "postalCode": "K0B1K0", "twitter": "None", "instagram": "None", "facebook": "None", "youtube": "None", "website": "None", "summary": "None", "logo": "None", "latitude": 45.5776265927706, "longitude": -74.69617066905343}, "861883411RR0001": {"name": "CASSELMAN COMMUNITY CHURCH", "designationCode": "C", "categoryCode": "36", "address": "BOX 536                       756 BREBEUF ST.", "city": "CASSELMAN", "province": "ON", "country": "CA", "postalCode": "K0A1M0", "twitter": "None", "instagram": "None", "facebook": "None", "youtube": "None", "website": "None", "summary": "None", "logo": "None", "latitude": 45.314691996421985, "longitude": -75.08681210998942}, "134949304RR0001": {"name": "CASTALIA UNITED BAPTIST CHURCH", "designationCode": "C", "categoryCode": "31", "address": "11 W C BREAKWATER RD", "city": "GRAND MANAN", "province": "NB", "country": "CA", "postalCode": "E5G2E8", "twitter": "None", "instagram": "None", "facebook": "None", "youtube": "None", "website": "None", "summary": "None", "logo": "None", "latitude": 44.6507751684748, "longitude": -66.84136839133822}, "866481757RR0001": {"name": "CASTING FOR LIFE (ALBERTA) SOCIETY", "designationCode": "C", "categoryCode": "11", "address": "5360 LAKEVIEW DR SW", "city": "CALGARY", "province": "AB", "country": "CA", "postalCode": "T3E5R9", "twitter": "None", "instagram": "None", "facebook": "None", "youtube": "None", "website": "None", "summary": "None", "logo": "None", "latitude": 51.00607769608749, "longitude": -114.13689173353926}, "132207333RR0001": {"name": "CASTLE CARY PIPES AND DRUMS ASSOCIATION", "designationCode": "C", "categoryCode": "22", "address": "905 MALTWOOD TERRACE", "city": "VICTORIA", "province": "BC", "country": "CA", "postalCode": "V8X5G2", "twitter": "None", "instagram": "None", "facebook": "None", "youtube": "None", "website": "None", "summary": "None", "logo": "None", "latitude": 48.48533469995395, "longitude": -123.37347566013624}, "138551304RR0001": {"name": "CASTLE CROWN WILDERNESS COALITION SOCIETY", "designationCode": "C", "categoryCode": "59", "address": "BOX 2621", "city": "PINCHER CREEK", "province": "AB", "country": "CA", "postalCode": "T0K1W0", "twitter": "None", "instagram": "None", "facebook": "None", "youtube": "None", "website": "None", "summary": "None", "logo": "None", "latitude": 49.48739000000006, "longitude": -113.9366800732874}, "135391944RR0001": {"name": "CASTLE DOWNS BAPTIST CHURCH", "designationCode": "C", "categoryCode": "31", "address": "11250 153 AVE NW", "city": "EDMONTON", "province": "AB", "country": "CA", "postalCode": "T5X5H2", "twitter": "None", "instagram": "None", "facebook": "None", "youtube": "None", "website": "None", "summary": "None", "logo": "None", "latitude": 53.61424251154119, "longitude": -113.51338222009349}}