{"890710668RR0001": {"name": "HARVEY HOUSING CORPORATION INC.", "designationCode": "C", "categoryCode": "01", "address": "266 LANE 6", "city": "HARVEY YORK CO", "province": "NB", "country": "CA", "postalCode": "E6K2J6", "twitter": "None", "instagram": "None", "facebook": "None", "youtube": "None", "website": "None", "summary": "None", "logo": "None", "latitude": 45.63698991371262, "longitude": -67.00176449132583}, "107669848RR0017": {"name": "HARVEY SEVENTH-DAY ADVENTIST CHURCH", "designationCode": "C", "categoryCode": "41", "address": "121 SALISBURY RD", "city": "MONCTON", "province": "NB", "country": "CA", "postalCode": "E1E1A6", "twitter": "None", "instagram": "None", "facebook": "None", "youtube": "None", "website": "None", "summary": "None", "logo": "None", "latitude": 46.0711640413756, "longitude": -64.82144086984238}, "118954163RR0001": {"name": "HARVEY STATION PASTORAL CHARGE", "designationCode": "C", "categoryCode": "44", "address": "137 ARNOLD LITTLE ROAD", "city": "HARVEY  YORK CO.", "province": "NB", "country": "CA", "postalCode": "E6K1S7", "twitter": "None", "instagram": "None", "facebook": "None", "youtube": "None", "website": "None", "summary": "None", "logo": "None", "latitude": 45.68509531292504, "longitude": -67.06518516388373}, "859031577RR0001": {"name": "HARVIE CONSERVANCY FOUNDATION", "designationCode": "B", "categoryCode": "52", "address": "300 - 840 6 AVE SW", "city": "CALGARY", "province": "AB", "country": "CA", "postalCode": "T2P3E5", "twitter": "None", "instagram": "None", "facebook": "None", "youtube": "None", "website": "None", "summary": "None", "logo": "None", "latitude": 51.04799744214888, "longitude": -114.08065260782504}, "119288918RR0143": {"name": "HARWOOD CONGREGATION OF JEHOVAH'S WITNESSES", "designationCode": "C", "categoryCode": "61", "address": "32 LURCOOK ST", "city": "AJAX", "province": "ON", "country": "CA", "postalCode": "L1S0E5", "twitter": "None", "instagram": "None", "facebook": "None", "youtube": "None", "website": "None", "summary": "None", "logo": "None", "latitude": 43.850083324768214, "longitude": -79.00816781161934}, "118954205RR0001": {"name": "HASHOMER HATZAIR YOUNG GUARD", "designationCode": "C", "categoryCode": "09", "address": "120 - 215 SPADINA AVE", "city": "TORONTO", "province": "ON", "country": "CA", "postalCode": "M5T2C7", "twitter": "None", "instagram": "None", "facebook": "None", "youtube": "None", "website": "None", "summary": "None", "logo": "None", "latitude": 43.65063316348313, "longitude": -79.39697013165816}, "118954213RR0001": {"name": "HASSET CEMETERY FUND", "designationCode": "C", "categoryCode": "59", "address": "111 SUNSET DR.                BOX 47", "city": "SMITHS COVE", "province": "NS", "country": "CA", "postalCode": "B0S1S0", "twitter": "None", "instagram": "None", "facebook": "None", "youtube": "None", "website": "None", "summary": "None", "logo": "None", "latitude": 44.60797585493309, "longitude": -65.70358680447079}, "118954221RR0001": {"name": "HASSLE FREE CLINIC", "designationCode": "C", "categoryCode": "11", "address": "66 GERRARD ST E, 2ND FLOOR", "city": "TORONTO", "province": "ON", "country": "CA", "postalCode": "M5B1G3", "twitter": "None", "instagram": "None", "facebook": "None", "youtube": "None", "website": "None", "summary": "None", "logo": "None", "latitude": 43.659812146834696, "longitude": -79.37874682015692}, "118954239RR0001": {"name": "HASTING PARK FOUNDATION FOR RIGHTS AND FREEDOMS", "designationCode": "C", "categoryCode": "29", "address": "6 WILDWOOD CRES", "city": "TORONTO", "province": "ON", "country": "CA", "postalCode": "M4L2K7", "twitter": "None", "instagram": "None", "facebook": "None", "youtube": "None", "website": "None", "summary": "None", "logo": "None", "latitude": 43.678740656673796, "longitude": -79.3161500856367}, "871834396RR0001": {"name": "HASTINGS AND PRINCE EDWARD COUNTIES MUTUAL FIRE AID ASSOCIATION LIFE SAFETY COMMITTEE", "designationCode": "C", "categoryCode": "59", "address": "225 EXPERIMENTAL FARM RD", "city": "TRENTON", "province": "ON", "country": "CA", "postalCode": "K8V5P7", "twitter": "None", "instagram": "None", "facebook": "None", "youtube": "None", "website": "None", "summary": "None", "logo": "None", "latitude": 44.081670132667796, "longitude": -77.65155872286344}, "872933494RR0001": {"name": "HASTINGS AND PRINCE EDWARD DISTRICT SCHOOL BOARD", "designationCode": "C", "categoryCode": "20", "address": "156 ANN ST", "city": "BELLEVILLE", "province": "ON", "country": "CA", "postalCode": "K8N3L3", "twitter": "None", "instagram": "None", "facebook": "None", "youtube": "None", "website": "None", "summary": "None", "logo": "None", "latitude": 44.16313843712855, "longitude": -77.37496451182965}, "888915865RR0001": {"name": "HASTINGS AND PRINCE EDWARD REGIONAL CHORUS PARENT SUPPORT GROUP", "designationCode": "C", "categoryCode": "22", "address": "249 BRIDGE ST. WEST, PH1", "city": "BELLEVILLE", "province": "ON", "country": "CA", "postalCode": "K8P4V4", "twitter": "None", "instagram": "None", "facebook": "None", "youtube": "None", "website": "None", "summary": "None", "logo": "None", "latitude": 44.15952053505721, "longitude": -77.40380997584975}, "107470411RR0001": {"name": "HASTINGS COMMUNITY ASSOCIATION", "designationCode": "C", "categoryCode": "59", "address": "3096 E HASTINGS ST", "city": "VANCOUVER", "province": "BC", "country": "CA", "postalCode": "V5K2A3", "twitter": "None", "instagram": "None", "facebook": "None", "youtube": "None", "website": "None", "summary": "None", "logo": "None", "latitude": 49.28104143705563, "longitude": -123.03889487529624}, "898261680RR0001": {"name": "HASTINGS COULEE COMMUNITY HALL SOCIETY", "designationCode": "C", "categoryCode": "56", "address": "PO BOX 726", "city": "FORESTBURG", "province": "AB", "country": "CA", "postalCode": "T0B1N0", "twitter": "None", "instagram": "None", "facebook": "None", "youtube": "None", "website": "None", "summary": "None", "logo": "None", "latitude": 52.58134386913628, "longitude": -112.05738493950088}, "118954270RR0001": {"name": "HASTINGS COUNTY HISTORICAL SOCIETY", "designationCode": "C", "categoryCode": "52", "address": "254 PINNACLE ST", "city": "BELLEVILLE", "province": "ON", "country": "CA", "postalCode": "K8N3B1", "twitter": "None", "instagram": "None", "facebook": "None", "youtube": "None", "website": "None", "summary": "None", "logo": "None", "latitude": 44.165503875930554, "longitude": -77.3833345488774}, "886501865RR0001": {"name": "HASTINGS COUNTY MUSEUM OF AGRICULTURAL HERITAGE", "designationCode": "C", "categoryCode": "50", "address": "BOX 174", "city": "STIRLING", "province": "ON", "country": "CA", "postalCode": "K0K3E0", "twitter": "None", "instagram": "None", "facebook": "None", "youtube": "None", "website": "None", "summary": "None", "logo": "None", "latitude": 44.29383000389519, "longitude": -77.55681006939226}, "118954288RR0001": {"name": "HASTINGS MANOR APARTMENTS OF PARKHILL INC.", "designationCode": "C", "categoryCode": "01", "address": "251 HASTINGS STREET", "city": "PARKHILL", "province": "ON", "country": "CA", "postalCode": "N0M2K0", "twitter": "None", "instagram": "None", "facebook": "None", "youtube": "None", "website": "None", "summary": "None", "logo": "None", "latitude": 43.163146235655375, "longitude": -81.68097468571438}, "866672041RR0001": {"name": "HASTINGS MANOR FUND", "designationCode": "A", "categoryCode": "03", "address": "476 DUNDAS ST W               P.O.BOX # 458", "city": "BELLEVILLE", "province": "ON", "country": "CA", "postalCode": "K8N5B2", "twitter": "None", "instagram": "None", "facebook": "None", "youtube": "None", "website": "None", "summary": "None", "logo": "None", "latitude": 44.141412496807526, "longitude": -77.423067444284}, "118954296RR0001": {"name": "HASTINGS PARK BIBLE CHURCH", "designationCode": "C", "categoryCode": "39", "address": "36 HARDER DR", "city": "BELLEVILLE", "province": "ON", "country": "CA", "postalCode": "K8P4V1", "twitter": "None", "instagram": "None", "facebook": "None", "youtube": "None", "website": "None", "summary": "None", "logo": "None", "latitude": 44.15499224725901, "longitude": -77.41107198990805}, "868235169RR0001": {"name": "HASTINGS PRINCE EDWARD LAND TRUST", "designationCode": "C", "categoryCode": "52", "address": "P.O. BOX 20042", "city": "BELLEVILLE", "province": "ON", "country": "CA", "postalCode": "K8N5V1", "twitter": "None", "instagram": "None", "facebook": "None", "youtube": "None", "website": "None", "summary": "None", "logo": "None", "latitude": 44.16104400000006, "longitude": -77.38183249999993}, "118954304RR0001": {"name": "HASTINGS UNITED CHURCH PRESERVATION SOCIETY", "designationCode": "C", "categoryCode": "52", "address": "895 PUMPING STATION ROAD", "city": "AMHERST", "province": "NS", "country": "CA", "postalCode": "B4H3Y3", "twitter": "None", "instagram": "None", "facebook": "None", "youtube": "None", "website": "None", "summary": "None", "logo": "None", "latitude": 45.83209708355925, "longitude": -64.12412346603932}, "107470577RR0001": {"name": "HATFIELD POINT BAPTIST CHURCH", "designationCode": "C", "categoryCode": "31", "address": "2294 ROUTE 124", "city": "HATFIELD POINT", "province": "NB", "country": "CA", "postalCode": "E5T2S9", "twitter": "None", "instagram": "None", "facebook": "None", "youtube": "None", "website": "None", "summary": "None", "logo": "None", "latitude": 45.65141466789593, "longitude": -65.8604067966781}, "118954320RR0001": {"name": "HATLEY UNITED CHURCH", "designationCode": "C", "categoryCode": "44", "address": "339 MAIN ST.", "city": "MANSONVILLE", "province": "QC", "country": "CA", "postalCode": "J0E1X0", "twitter": "None", "instagram": "None", "facebook": "None", "youtube": "None", "website": "None", "summary": "None", "logo": "None", "latitude": 45.05940615650882, "longitude": -72.39141887888412}, "890010028RR0001": {"name": "HATZOLOH TORONTO", "designationCode": "C", "categoryCode": "11", "address": "534 LAWRENCE AVE WEST         SUITE 219", "city": "TORONTO", "province": "ON", "country": "CA", "postalCode": "M6A1A2", "twitter": "None", "instagram": "None", "facebook": "None", "youtube": "None", "website": "None", "summary": "None", "logo": "None", "latitude": 43.719087176343955, "longitude": -79.43088323739966}, "833408925RR0001": {"name": "HAUSMAN YOUTH ASSISTANCE ORGANIZATION", "designationCode": "C", "categoryCode": "09", "address": "806 - 130 NEPTUNE DR", "city": "TORONTO", "province": "ON", "country": "CA", "postalCode": "M6A1X5", "twitter": "None", "instagram": "None", "facebook": "None", "youtube": "None", "website": "None", "summary": "None", "logo": "None", "latitude": 43.73010102527543, "longitude": -79.44071475162998}, "118954346RR0001": {"name": "HAVELOCK BELMONT & METHUEN SENIOR CITIZENS CLUB INC.", "designationCode": "C", "categoryCode": "56", "address": "PO BOX 573", "city": "HAVELOCK", "province": "ON", "country": "CA", "postalCode": "K0L1Z0", "twitter": "None", "instagram": "None", "facebook": "None", "youtube": "None", "website": "None", "summary": "None", "logo": "None", "latitude": 44.321131016013254, "longitude": -77.79993987356778}, "888050598RR0001": {"name": "HAVELOCK FOOD BANK", "designationCode": "C", "categoryCode": "09", "address": "BOX 635", "city": "HAVELOCK", "province": "ON", "country": "CA", "postalCode": "K0L1Z0", "twitter": "None", "instagram": "None", "facebook": "None", "youtube": "None", "website": "None", "summary": "None", "logo": "None", "latitude": 44.321131016013254, "longitude": -77.79993987356778}, "893888123RR0001": {"name": "HAVELOCK PENTECOSTAL TABERNACLE", "designationCode": "C", "categoryCode": "36", "address": "P O BOX 95", "city": "HAVELOCK", "province": "ON", "country": "CA", "postalCode": "K0L1Z0", "twitter": "None", "instagram": "None", "facebook": "None", "youtube": "None", "website": "None", "summary": "None", "logo": "None", "latitude": 44.321131016013254, "longitude": -77.79993987356778}, "118954379RR0001": {"name": "HAVELOCK UNITED BAPTIST CHURCH", "designationCode": "C", "categoryCode": "31", "address": "2046 RTE 885", "city": "HAVELOCK", "province": "NB", "country": "CA", "postalCode": "E4Z5N1", "twitter": "None", "instagram": "None", "facebook": "None", "youtube": "None", "website": "None", "summary": "None", "logo": "None", "latitude": 45.99932248023806, "longitude": -65.3210033211088}, "108197328RR0001": {"name": "HAVELOCK WESLEYAN CHURCH", "designationCode": "C", "categoryCode": "39", "address": "1984 ROUTE 885", "city": "HAVELOCK", "province": "NB", "country": "CA", "postalCode": "E4Z5M7", "twitter": "None", "instagram": "None", "facebook": "None", "youtube": "None", "website": "None", "summary": "None", "logo": "None", "latitude": 45.99586785721113, "longitude": -65.3141810810137}, "118954387RR0001": {"name": "HAVELOCK WOMENS INSTITUTE", "designationCode": "C", "categoryCode": "09", "address": "2970 ROUTE 885", "city": "HAVELOCK", "province": "NB", "country": "CA", "postalCode": "E4Z5R1", "twitter": "None", "instagram": "None", "facebook": "None", "youtube": "None", "website": "None", "summary": "None", "logo": "None", "latitude": 46.069175932752714, "longitude": -65.36454445308128}, "118954361RR0001": {"name": "HAVELOCK-TRENT RIVER PASTORAL CHARGE", "designationCode": "C", "categoryCode": "44", "address": "P.O. BOX 310", "city": "HAVELOCK", "province": "ON", "country": "CA", "postalCode": "K0L1Z0", "twitter": "None", "instagram": "None", "facebook": "None", "youtube": "None", "website": "None", "summary": "None", "logo": "None", "latitude": 44.321131016013254, "longitude": -77.79993987356778}, "118807502RR0001": {"name": "HAVEN BAPTIST CHURCH", "designationCode": "C", "categoryCode": "31", "address": "4000 STRANDHERD RD", "city": "NEPEAN", "province": "ON", "country": "CA", "postalCode": "K2J4R8", "twitter": "None", "instagram": "None", "facebook": "None", "youtube": "None", "website": "None", "summary": "None", "logo": "None", "latitude": 45.2657521659933, "longitude": -75.75614954679993}, "893181768RR0001": {"name": "HAVEN CHARITABLE TRUST", "designationCode": "B", "categoryCode": "39", "address": "PO BOX 310", "city": "FOX VALLEY", "province": "SK", "country": "CA", "postalCode": "S0N0V0", "twitter": "None", "instagram": "None", "facebook": "None", "youtube": "None", "website": "None", "summary": "None", "logo": "None", "latitude": 50.46387000000004, "longitude": -109.48692999999997}, "892806407RR0001": {"name": "HAVEN FOUNDATION", "designationCode": "C", "categoryCode": "23", "address": "240 DAVIS ROAD", "city": "GABRIOLA ISLAND", "province": "BC", "country": "CA", "postalCode": "V0R1X1", "twitter": "None", "instagram": "None", "facebook": "None", "youtube": "None", "website": "None", "summary": "None", "logo": "None", "latitude": 49.190920427290166, "longitude": -123.86135577347365}, "132023425RR0001": {"name": "HAVEN MINISTRIES ASSOCIATION", "designationCode": "C", "categoryCode": "47", "address": "216-1077 56 ST", "city": "DELTA", "province": "BC", "country": "CA", "postalCode": "V4L2A2", "twitter": "None", "instagram": "None", "facebook": "None", "youtube": "None", "website": "None", "summary": "None", "logo": "None", "latitude": 49.02144536486472, "longitude": -123.06804362257752}, "823983143RR0001": {"name": "HAVEN OF HOPE ASSOCIATION", "designationCode": "C", "categoryCode": "49", "address": "3205 6 ST, SOUTH", "city": "CRANBROOK", "province": "BC", "country": "CA", "postalCode": "V1C6K1", "twitter": "None", "instagram": "None", "facebook": "None", "youtube": "None", "website": "None", "summary": "None", "logo": "None", "latitude": 49.503335481245465, "longitude": -115.73558002553523}, "118954395RR0001": {"name": "HAVEN OF REST CHAPEL", "designationCode": "C", "categoryCode": "39", "address": "1449 OLD DONALD ROAD", "city": "HALIBURTON", "province": "ON", "country": "CA", "postalCode": "K0M1S0", "twitter": "None", "instagram": "None", "facebook": "None", "youtube": "None", "website": "None", "summary": "None", "logo": "None", "latitude": 44.99883524478855, "longitude": -78.54493902639567}, "118954411RR0001": {"name": "HAVEN OF REST OF MEDICINE HAT", "designationCode": "C", "categoryCode": "01", "address": "1720 BELL ST SW", "city": "MEDICINE HAT", "province": "AB", "country": "CA", "postalCode": "T1A5G1", "twitter": "None", "instagram": "None", "facebook": "None", "youtube": "None", "website": "None", "summary": "None", "logo": "None", "latitude": 50.02419757201805, "longitude": -110.72685526617228}, "888031242RR0001": {"name": "HAVEN OF THE HEART CHARITABLE TRUST", "designationCode": "C", "categoryCode": "54", "address": "1219 CONCESSION ROAD ADJALA   RR # 1", "city": "PALGRAVE", "province": "ON", "country": "CA", "postalCode": "L0N1P0", "twitter": "None", "instagram": "None", "facebook": "None", "youtube": "None", "website": "None", "summary": "None", "logo": "None", "latitude": 43.96720200000006, "longitude": -80.05246549999994}, "119261105RR0001": {"name": "HAVEN SOCIETY: PROMOTING THE SAFETY OF WOMEN, CHILDREN, YOUTH AND FAMILIES", "designationCode": "C", "categoryCode": "09", "address": "38-3200 ISLAND HWY            PO 37086", "city": "NANAIMO", "province": "BC", "country": "CA", "postalCode": "V9T6N4", "twitter": "None", "instagram": "None", "facebook": "None", "youtube": "None", "website": "None", "summary": "None", "logo": "None", "latitude": 49.20457467327188, "longitude": -124.00161200786856}, "895095883RR0001": {"name": "HAVENGROUP FOUNDATION 2006 INC.", "designationCode": "C", "categoryCode": "11", "address": "185 WOODHAVEN AVENUE", "city": "STEINBACH", "province": "MB", "country": "CA", "postalCode": "R5G1K7", "twitter": "None", "instagram": "None", "facebook": "None", "youtube": "None", "website": "None", "summary": "None", "logo": "None", "latitude": 49.524760424432515, "longitude": -96.6970240899005}, "118954429RR0001": {"name": "HAVERGAL COLLEGE", "designationCode": "C", "categoryCode": "20", "address": "1451 AVENUE RD", "city": "TORONTO", "province": "ON", "country": "CA", "postalCode": "M5N2H9", "twitter": "None", "instagram": "None", "facebook": "None", "youtube": "None", "website": "None", "summary": "None", "logo": "None", "latitude": 43.72021235166476, "longitude": -79.41497674966901}, "118954437RR0001": {"name": "HAVILAH IMPROVEMENT ASSOCIATION", "designationCode": "C", "categoryCode": "59", "address": "R R # 2", "city": "BRUCE MINES", "province": "ON", "country": "CA", "postalCode": "P0R1C0", "twitter": "None", "instagram": "None", "facebook": "None", "youtube": "None", "website": "None", "summary": "None", "logo": "None", "latitude": 46.29836000000006, "longitude": -83.79040999999995}, "107470916RR0001": {"name": "HAVRE BOUCHER AND DISTRICT (NO. 9) VOLUNTEER FIRE DEPARTMENT", "designationCode": "C", "categoryCode": "59", "address": "12401 HIGHWAY #4", "city": "HAVRE BOUCHER", "province": "NS", "country": "CA", "postalCode": "B0H1P0", "twitter": "None", "instagram": "None", "facebook": "None", "youtube": "None", "website": "None", "summary": "None", "logo": "None", "latitude": 45.680327539487806, "longitude": -61.539533159700234}, "118954445RR0001": {"name": "HAVRE BOUCHER AND DISTRICT MEDICAL CENTRE SOCIETY", "designationCode": "C", "categoryCode": "11", "address": "1459 CAPE JACK RD             PO BOX 113", "city": "HAVRE BOUCHER", "province": "NS", "country": "CA", "postalCode": "B0H1P0", "twitter": "None", "instagram": "None", "facebook": "None", "youtube": "None", "website": "None", "summary": "None", "logo": "None", "latitude": 45.68290340383171, "longitude": -61.54005393917737}, "895817138RR0001": {"name": "HAVRE BOUCHER GOSPEL FELLOWSHIP", "designationCode": "C", "categoryCode": "39", "address": "132 OLD FRANKVILLE RD", "city": "HAVRE BOUCHER", "province": "NS", "country": "CA", "postalCode": "B0H1P0", "twitter": "None", "instagram": "None", "facebook": "None", "youtube": "None", "website": "None", "summary": "None", "logo": "None", "latitude": 45.66897482959199, "longitude": -61.54172498003335}, "102299047RR0001": {"name": "HAVRE DE L'HOSPITALITE INC.", "designationCode": "C", "categoryCode": "99", "address": "1153 CHEMIN VILLEBOIS", "city": "ALMA", "province": "QC", "country": "CA", "postalCode": "G8B5V2", "twitter": "None", "instagram": "None", "facebook": "None", "youtube": "None", "website": "None", "summary": "None", "logo": "None", "latitude": 48.53540340002255, "longitude": -71.61479103300837}, "854573367RR0001": {"name": "HAVRE DE PAIX 437 INC.", "designationCode": "C", "categoryCode": "49", "address": "437 RANG DE LA RIVIERE SUD", "city": "SAINT-ROCH-DE-L'ACHIGAN", "province": "QC", "country": "CA", "postalCode": "J0K3H0", "twitter": "None", "instagram": "None", "facebook": "None", "youtube": "None", "website": "None", "summary": "None", "logo": "None", "latitude": 45.85226138161471, "longitude": -73.59295269415423}, "878037001RR0001": {"name": "HAVRE DES ARTS / HAVEN OF THE ARTS", "designationCode": "C", "categoryCode": "22", "address": "1161 LA PETITE-CAROLINE", "city": "ROUGEMONT", "province": "QC", "country": "CA", "postalCode": "J0L1M0", "twitter": "None", "instagram": "None", "facebook": "None", "youtube": "None", "website": "None", "summary": "None", "logo": "None", "latitude": 45.45987952487139, "longitude": -73.03410433311174}, "101161073RR0001": {"name": "HAVRE FAMILIAL", "designationCode": "C", "categoryCode": "56", "address": "1085 RANG DU HAVRE-FAMILIAL", "city": "SAINTE-BEATRIX", "province": "QC", "country": "CA", "postalCode": "J0K1Y0", "twitter": "None", "instagram": "None", "facebook": "None", "youtube": "None", "website": "None", "summary": "None", "logo": "None", "latitude": 46.23577472586868, "longitude": -73.6467861578209}, "129967485RR0002": {"name": "HAVRE L'ECLAIRCIE INC", "designationCode": "C", "categoryCode": "01", "address": "C.P. 23", "city": "ST-GEORGES BEAUCE", "province": "QC", "country": "CA", "postalCode": "G5Y5C4", "twitter": "None", "instagram": "None", "facebook": "None", "youtube": "None", "website": "None", "summary": "None", "logo": "None", "latitude": 46.113530000000026, "longitude": -70.66525999999993}, "118954460RR0001": {"name": "HAVRE-JEUNESSE-TEEN HAVEN", "designationCode": "C", "categoryCode": "09", "address": "4360 LASALLE BLVD.", "city": "VERDUN", "province": "QC", "country": "CA", "postalCode": "H4G2A8", "twitter": "None", "instagram": "None", "facebook": "None", "youtube": "None", "website": "None", "summary": "None", "logo": "None", "latitude": 45.46020317124476, "longitude": -73.5631053765944}, "134949544RR0001": {"name": "HAWK HILLS MISSION,", "designationCode": "C", "categoryCode": "38", "address": "BOX 55", "city": "MANNING", "province": "AB", "country": "CA", "postalCode": "T0H2M0", "twitter": "None", "instagram": "None", "facebook": "None", "youtube": "None", "website": "None", "summary": "None", "logo": "None", "latitude": 56.92804794843537, "longitude": -117.62848367126821}, "107797383RR0065": {"name": "HAWKESBURY SEVENTH-DAY ADVENTIST CHURCH", "designationCode": "C", "categoryCode": "41", "address": "BOX 454, STN MAIN", "city": "HAWKESBURY", "province": "ON", "country": "CA", "postalCode": "K6A3A9", "twitter": "None", "instagram": "None", "facebook": "None", "youtube": "None", "website": "None", "summary": "None", "logo": "None", "latitude": 45.606556980078736, "longitude": -74.58149588855949}, "107471088RR0001": {"name": "HAWKESVILLE MENNONITE CHURCH", "designationCode": "C", "categoryCode": "34", "address": "15 MARTHA ST", "city": "HAWKESVILLE", "province": "ON", "country": "CA", "postalCode": "N0B1X0", "twitter": "None", "instagram": "None", "facebook": "None", "youtube": "None", "website": "None", "summary": "None", "logo": "None", "latitude": 43.56314732861103, "longitude": -80.6384460886378}, "889446373RR0001": {"name": "HAWKINS CORNER LADIES AID", "designationCode": "C", "categoryCode": "59", "address": "4197 RTE 104", "city": "HAWKINS CORNER", "province": "NB", "country": "CA", "postalCode": "E6E1T3", "twitter": "None", "instagram": "None", "facebook": "None", "youtube": "None", "website": "None", "summary": "None", "logo": "None", "latitude": 46.152934170177375, "longitude": -67.2139581344195}, "118954528RR0001": {"name": "HAWKWOOD BAPTIST CHURCH", "designationCode": "C", "categoryCode": "31", "address": "20 HAWKWOOD DRIVE NW", "city": "CALGARY", "province": "AB", "country": "CA", "postalCode": "T3G2W2", "twitter": "None", "instagram": "None", "facebook": "None", "youtube": "None", "website": "None", "summary": "None", "logo": "None", "latitude": 51.1260052112067, "longitude": -114.18818187425711}, "138978002RR0001": {"name": "HAWTHORN SCHOOL FOR GIRLS", "designationCode": "C", "categoryCode": "20", "address": "101 SCARSDALE RD", "city": "NORTH YORK", "province": "ON", "country": "CA", "postalCode": "M3B2R2", "twitter": "None", "instagram": "None", "facebook": "None", "youtube": "None", "website": "None", "summary": "None", "logo": "None", "latitude": 43.75130152541965, "longitude": -79.35557734338447}, "885706416RR0001": {"name": "HAWTHORN SCHOOL FOR GIRLS FOUNDATION", "designationCode": "A", "categoryCode": "21", "address": "CHRISTOPHER NIVET, PRES./TREAS101 SCARSDALE ROAD", "city": "NORTH YORK", "province": "ON", "country": "CA", "postalCode": "M3B2R2", "twitter": "None", "instagram": "None", "facebook": "None", "youtube": "None", "website": "None", "summary": "None", "logo": "None", "latitude": 43.74933935670081, "longitude": -79.35468207710406}, "138415120RR0002": {"name": "HAWTHORNE CHARITABLE FOUNDATION", "designationCode": "B", "categoryCode": "03", "address": "PO BOX 319", "city": "BOWEN ISLAND", "province": "BC", "country": "CA", "postalCode": "V0N1G0", "twitter": "None", "instagram": "None", "facebook": "None", "youtube": "None", "website": "None", "summary": "None", "logo": "None", "latitude": 49.38112992339439, "longitude": -123.3307800379408}, "891729774RR0001": {"name": "HAWTHORNE II PARENT-TEACHER COMMUNITY ASSOCIATION", "designationCode": "C", "categoryCode": "21", "address": "50 ESSEX", "city": "TORONTO", "province": "ON", "country": "CA", "postalCode": "M6G1T3", "twitter": "None", "instagram": "None", "facebook": "None", "youtube": "None", "website": "None", "summary": "None", "logo": "None", "latitude": 43.6679802273355, "longitude": -79.42212797766742}, "129863007RR0001": {"name": "HAWTHORNE MEADOWS NURSERY SCHOOL", "designationCode": "C", "categoryCode": "01", "address": "2330 DON REID DRIVE           SUITE 102", "city": "OTTAWA", "province": "ON", "country": "CA", "postalCode": "K1H1E1", "twitter": "None", "instagram": "None", "facebook": "None", "youtube": "None", "website": "None", "summary": "None", "logo": "None", "latitude": 45.381706723815746, "longitude": -75.63379581216415}, "118954569RR0001": {"name": "HAWTHORNE UNITED CHURCH", "designationCode": "C", "categoryCode": "44", "address": "2244 RUSSELL RD", "city": "OTTAWA", "province": "ON", "country": "CA", "postalCode": "K1G1B3", "twitter": "None", "instagram": "None", "facebook": "None", "youtube": "None", "website": "None", "summary": "None", "logo": "None", "latitude": 45.395724470685224, "longitude": -75.61382497631111}, "118954577RR0001": {"name": "HAY BAY COMMUNITY CHURCH", "designationCode": "C", "categoryCode": "39", "address": "PO BOX 194", "city": "NAPANEE", "province": "ON", "country": "CA", "postalCode": "K7R3M3", "twitter": "None", "instagram": "None", "facebook": "None", "youtube": "None", "website": "None", "summary": "None", "logo": "None", "latitude": 44.24834400000006, "longitude": -76.95158299999993}, "129315784RR0001": {"name": "HAY LAKES AND DISTRICT AGRICULTURAL SOCIETY", "designationCode": "C", "categoryCode": "56", "address": "BOX 221", "city": "HAY LAKES", "province": "AB", "country": "CA", "postalCode": "T0B1W0", "twitter": "None", "instagram": "None", "facebook": "None", "youtube": "None", "website": "None", "summary": "None", "logo": "None", "latitude": 53.30343927264969, "longitude": -113.17427122370117}, "118954593RR0001": {"name": "HAY LAKES AND DISTRICT RECREATION ASSOCIATION", "designationCode": "C", "categoryCode": "56", "address": "BOX 241", "city": "HAY LAKES", "province": "AB", "country": "CA", "postalCode": "T0B1W0", "twitter": "None", "instagram": "None", "facebook": "None", "youtube": "None", "website": "None", "summary": "None", "logo": "None", "latitude": 53.30343927264969, "longitude": -113.17427122370117}, "129401204RR0001": {"name": "HAY LAKES MUNICIPAL LIBRARY BOARD", "designationCode": "C", "categoryCode": "50", "address": "P.O. BOX 69", "city": "HAY LAKES", "province": "AB", "country": "CA", "postalCode": "T0B1W0", "twitter": "None", "instagram": "None", "facebook": "None", "youtube": "None", "website": "None", "summary": "None", "logo": "None", "latitude": 53.30343927264969, "longitude": -113.17427122370117}, "107471351RR0001": {"name": "HAY RIVER BAPTIST CHURCH", "designationCode": "C", "categoryCode": "31", "address": "1 WRIGHT CRES.", "city": "HAY RIVER", "province": "NT", "country": "CA", "postalCode": "X0E0R2", "twitter": "None", "instagram": "None", "facebook": "None", "youtube": "None", "website": "None", "summary": "None", "logo": "None", "latitude": 60.798372882539006, "longitude": -115.8030357041882}, "132427477RR0001": {"name": "HAY RIVER CHAPEL,", "designationCode": "C", "categoryCode": "36", "address": "42 WOODLAND DRIVE             MARY DAVIES", "city": "HAY RIVER", "province": "NT", "country": "CA", "postalCode": "X0E0R8", "twitter": "None", "instagram": "None", "facebook": "None", "youtube": "None", "website": "None", "summary": "None", "logo": "None", "latitude": 60.81621593319178, "longitude": -115.78204733455505}, "866502529RR0001": {"name": "HAY RIVER COMMUNITY HEALTH BOARD FOUNDATION", "designationCode": "A", "categoryCode": "03", "address": "37911 MACKENZIE HWY", "city": "HAY RIVER", "province": "NT", "country": "CA", "postalCode": "X0E0R6", "twitter": "None", "instagram": "None", "facebook": "None", "youtube": "None", "website": "None", "summary": "None", "logo": "None"}, "857546568RR0001": {"name": "HAY RIVER COMMUNITY YOUTH CENTRE (HRCYC)", "designationCode": "C", "categoryCode": "09", "address": "65A WOODLAND DRIVE", "city": "HAY RIVER", "province": "NT", "country": "CA", "postalCode": "X0E0R8", "twitter": "None", "instagram": "None", "facebook": "None", "youtube": "None", "website": "None", "summary": "None", "logo": "None", "latitude": 60.81228258207255, "longitude": -115.78632640294045}, "890820343RR0001": {"name": "HAY RIVER CONGREGATION OF JEHOVAH'S WITNESSES", "designationCode": "C", "categoryCode": "61", "address": "13 ELM CRES", "city": "HAY RIVER", "province": "NT", "country": "CA", "postalCode": "X0E0R5", "twitter": "None", "instagram": "None", "facebook": "None", "youtube": "None", "website": "None", "summary": "None", "logo": "None", "latitude": 60.8199709559346, "longitude": -115.78460931634112}, "890693021RR0001": {"name": "HAY RIVER HEALTH AND SOCIAL SERVICES AUTHORITY", "designationCode": "C", "categoryCode": "19", "address": "37911 MACKENZIE HWY", "city": "HAY RIVER", "province": "NT", "country": "CA", "postalCode": "X0E0R6", "twitter": "None", "instagram": "None", "facebook": "None", "youtube": "None", "website": "None", "summary": "None", "logo": "None"}, "895647154RR0001": {"name": "HAY RIVER PLAYSCHOOL", "designationCode": "C", "categoryCode": "20", "address": "10 CARIBOU CRES", "city": "HAY RIVER", "province": "NT", "country": "CA", "postalCode": "X0E0R8", "twitter": "None", "instagram": "None", "facebook": "None", "youtube": "None", "website": "None", "summary": "None", "logo": "None", "latitude": 60.813444717473665, "longitude": -115.7773152069817}, "141380402RR0001": {"name": "HAYASTAN FOUNDATION CANADA INC./FONDATION HAYASTAN CANADA INC.", "designationCode": "C", "categoryCode": "03", "address": "780 SAINTE-CROIX", "city": "ST. LAURENT", "province": "QC", "country": "CA", "postalCode": "H4L3Y2", "twitter": "None", "instagram": "None", "facebook": "None", "youtube": "None", "website": "None", "summary": "None", "logo": "None", "latitude": 45.51321789757066, "longitude": -73.67510901001197}, "890933971RR0001": {"name": "HAYES BURSARY FOR CONTINUING EDUCATION", "designationCode": "C", "categoryCode": "21", "address": "252 RTE 132", "city": "SHIGAWAKE", "province": "QC", "country": "CA", "postalCode": "G0C3E0", "twitter": "None", "instagram": "None", "facebook": "None", "youtube": "None", "website": "None", "summary": "None", "logo": "None", "latitude": 48.09313564391116, "longitude": -65.08183493942231}, "891335747RR0001": {"name": "HAYES CREEK FIREFIGHTERS' ASSOCIATION", "designationCode": "C", "categoryCode": "59", "address": "RR 1 S 14 C 23", "city": "PRINCETON", "province": "BC", "country": "CA", "postalCode": "V0X1W0", "twitter": "None", "instagram": "None", "facebook": "None", "youtube": "None", "website": "None", "summary": "None", "logo": "None", "latitude": 49.458687000000054, "longitude": -120.50591299999994}, "884032715RR0001": {"name": "HAYING IN THE 30'S CANCER SUPPORT SOCIETY", "designationCode": "C", "categoryCode": "59", "address": "BOX 873", "city": "ST PAUL", "province": "AB", "country": "CA", "postalCode": "T0A3A0", "twitter": "None", "instagram": "None", "facebook": "None", "youtube": "None", "website": "None", "summary": "None", "logo": "None", "latitude": 53.99207006217902, "longitude": -111.26834992613558}, "118954619RR0001": {"name": "HAYNES COMMUNITY CHURCH", "designationCode": "C", "categoryCode": "39", "address": "RR#1", "city": "CLIVE", "province": "AB", "country": "CA", "postalCode": "T0C0Y0", "twitter": "None", "instagram": "None", "facebook": "None", "youtube": "None", "website": "None", "summary": "None", "logo": "None", "latitude": 52.46682000000004, "longitude": -113.45197999999999}, "119288918RR0410": {"name": "HAYSBORO CONGREGATION OF JEHOVAH'S WITNESSES", "designationCode": "C", "categoryCode": "61", "address": "44 BRAZEAU CRES SW", "city": "CALGARY", "province": "AB", "country": "CA", "postalCode": "T2W0Z1", "twitter": "None", "instagram": "None", "facebook": "None", "youtube": "None", "website": "None", "summary": "None", "logo": "None", "latitude": 50.95631050375092, "longitude": -114.09611319317328}, "857176705RR0001": {"name": "HAZEL BLUFF COMMUNITY AGRICULTURAL SOCIETY", "designationCode": "C", "categoryCode": "56", "address": "BOX 5402", "city": "WESTLOCK", "province": "AB", "country": "CA", "postalCode": "T7P2P5", "twitter": "None", "instagram": "None", "facebook": "None", "youtube": "None", "website": "None", "summary": "None", "logo": "None", "latitude": 54.15543600000005, "longitude": -113.86003399999993}, "892834649RR0001": {"name": "HAZEL BURNS HOSPICE", "designationCode": "C", "categoryCode": "11", "address": "2562 EGLINTON AVENUE WEST,    SUITE #203", "city": "TORONTO", "province": "ON", "country": "CA", "postalCode": "M6M1T4", "twitter": "None", "instagram": "None", "facebook": "None", "youtube": "None", "website": "None", "summary": "None", "logo": "None", "latitude": 43.69080513962134, "longitude": -79.47233948058161}, "867767147RR0001": {"name": "HAZEL CRYDERMAN-WEES FOUNDATION", "designationCode": "B", "categoryCode": "21", "address": "478 WATERLOO ST", "city": "LONDON", "province": "ON", "country": "CA", "postalCode": "N6B2P6", "twitter": "None", "instagram": "None", "facebook": "None", "youtube": "None", "website": "None", "summary": "None", "logo": "None", "latitude": 42.987901535951245, "longitude": -81.24357147137769}, "871749818RR0001": {"name": "HAZELBRAE BARNARDO HOME MEMORIAL GROUP", "designationCode": "C", "categoryCode": "59", "address": "1803 WADDELL AVENUE", "city": "PETERBOROUGH", "province": "ON", "country": "CA", "postalCode": "K9K2G5", "twitter": "None", "instagram": "None", "facebook": "None", "youtube": "None", "website": "None", "summary": "None", "logo": "None", "latitude": 44.26774626504709, "longitude": -78.36733151128139}, "118954700RR0001": {"name": "HAZELBROOK UNITED BAPTIST CHURCH", "designationCode": "C", "categoryCode": "31", "address": "83 48 ROAD, ROUTE 5", "city": "MOUNT ALBION", "province": "PE", "country": "CA", "postalCode": "C1B3J9", "twitter": "None", "instagram": "None", "facebook": "None", "youtube": "None", "website": "None", "summary": "None", "logo": "None", "latitude": 46.22684100000005, "longitude": -62.96154199999994}, "107471575RR0001": {"name": "HAZELGLEN ALLIANCE CHURCH OF THE CHRISTIAN AND MISSIONARY ALLIANCE", "designationCode": "C", "categoryCode": "39", "address": "45 HAZELGLEN DRIVE", "city": "KITCHENER", "province": "ON", "country": "CA", "postalCode": "N2M2E2", "twitter": "None", "instagram": "None", "facebook": "None", "youtube": "None", "website": "None", "summary": "None", "logo": "None", "latitude": 43.4393130396735, "longitude": -80.52528896283667}, "119288918RR0656": {"name": "HAZELMERE CONGREGATION OF JEHOVAH'S WITNESSES, WHITE ROCK, BRITISH COLUMBIA", "designationCode": "C", "categoryCode": "61", "address": "1045 164 ST", "city": "SURREY", "province": "BC", "country": "CA", "postalCode": "V4A4Y6", "twitter": "None", "instagram": "None", "facebook": "None", "youtube": "None", "website": "None", "summary": "None", "logo": "None", "latitude": 49.021192697472465, "longitude": -122.76825585902233}, "107471690RR0001": {"name": "HAZELTON DISTRICT PUBLIC LIBRARY ASSOCIATION", "designationCode": "C", "categoryCode": "50", "address": "BOX 323", "city": "HAZELTON", "province": "BC", "country": "CA", "postalCode": "V0J1Y0", "twitter": "None", "instagram": "None", "facebook": "None", "youtube": "None", "website": "None", "summary": "None", "logo": "None", "latitude": 55.2675692820996, "longitude": -127.62287325854736}, "118954734RR0001": {"name": "HAZELTON PASTORAL CHARGE", "designationCode": "C", "categoryCode": "44", "address": "4865 STRATHERN RD", "city": "HAZELTON", "province": "BC", "country": "CA", "postalCode": "V0J1Y1", "twitter": "None", "instagram": "None", "facebook": "None", "youtube": "None", "website": "None", "summary": "None", "logo": "None", "latitude": 55.26246974652438, "longitude": -127.65278167743108}, "888705795RR0001": {"name": "HAZELTON PENTECOSTAL CHURCH,", "designationCode": "C", "categoryCode": "36", "address": "PO BOX 99", "city": "HAZELTON", "province": "BC", "country": "CA", "postalCode": "V0J1Y0", "twitter": "None", "instagram": "None", "facebook": "None", "youtube": "None", "website": "None", "summary": "None", "logo": "None", "latitude": 55.2675692820996, "longitude": -127.62287325854736}, "118818491RR0015": {"name": "HAZELTON SEVENTH-DAY ADVENTIST CHURCH", "designationCode": "C", "categoryCode": "41", "address": "PO 1000", "city": "ABBOTSFORD", "province": "BC", "country": "CA", "postalCode": "V2S4P5", "twitter": "None", "instagram": "None", "facebook": "None", "youtube": "None", "website": "None", "summary": "None", "logo": "None", "latitude": 49.03851300000005, "longitude": -122.29441549999993}, "118954783RR0001": {"name": "HAZZARD'S CORNER'S CHURCH", "designationCode": "C", "categoryCode": "44", "address": "243 MOORCROFT RD", "city": "MADOC", "province": "ON", "country": "CA", "postalCode": "K0K2K0", "twitter": "None", "instagram": "None", "facebook": "None", "youtube": "None", "website": "None", "summary": "None", "logo": "None", "latitude": 44.584296140977656, "longitude": -77.49163731663621}, "876358706RR0001": {"name": "HCRS FOUNDATION", "designationCode": "A", "categoryCode": "03", "address": "276 FOORD ST                  PO BOX 2140", "city": "STELLARTON", "province": "NS", "country": "CA", "postalCode": "B0K1S0", "twitter": "None", "instagram": "None", "facebook": "None", "youtube": "None", "website": "None", "summary": "None", "logo": "None", "latitude": 45.557456175688145, "longitude": -62.660239401205985}, "118954882RR0001": {"name": "HEAD OF MILLSTREAM UNITED BAPTIST CHURCH", "designationCode": "C", "categoryCode": "31", "address": "2191 ROUTE 880", "city": "HEAD OF MILLSTREAM", "province": "NB", "country": "CA", "postalCode": "E4G1R5", "twitter": "None", "instagram": "None", "facebook": "None", "youtube": "None", "website": "None", "summary": "None", "logo": "None", "latitude": 45.87981444173837, "longitude": -65.53568465381062}, "118954890RR0001": {"name": "HEAD OF ST. MARGARET'S BAY RECREATION ASSOCIATION", "designationCode": "C", "categoryCode": "56", "address": "11 STATION RD", "city": "HEAD OF ST MARGARETS BAY", "province": "NS", "country": "CA", "postalCode": "B3Z2B9", "twitter": "None", "instagram": "None", "facebook": "None", "youtube": "None", "website": "None", "summary": "None", "logo": "None", "latitude": 44.68437634107586, "longitude": -63.91598334465387}, "118954908RR0001": {"name": "HEAD OF ST. MARGARET'S BAY UNITED BAPTIST CHURCH", "designationCode": "C", "categoryCode": "31", "address": "147 PINETREE CRESCENT", "city": "HAMMONDS PLAINS", "province": "NS", "country": "CA", "postalCode": "B3Z1J7", "twitter": "None", "instagram": "None", "facebook": "None", "youtube": "None", "website": "None", "summary": "None", "logo": "None", "latitude": 44.718703060793985, "longitude": -63.825225373189255}, "106933831RR0001": {"name": "HEAD WATERS FELLOWSHIP OF CHRIST", "designationCode": "C", "categoryCode": "39", "address": "533 FAWN RD", "city": "CLEARWATER", "province": "BC", "country": "CA", "postalCode": "V0E1N1", "twitter": "None", "instagram": "None", "facebook": "None", "youtube": "None", "website": "None", "summary": "None", "logo": "None", "latitude": 51.65771651731225, "longitude": -120.04868346878062}, "118954916RR0001": {"name": "HEAD-OF-THE-LAKE HISTORICAL SOCIETY", "designationCode": "C", "categoryCode": "52", "address": "204 - 121 HUNTER ST W", "city": "HAMILTON", "province": "ON", "country": "CA", "postalCode": "L8P1R2", "twitter": "None", "instagram": "None", "facebook": "None", "youtube": "None", "website": "None", "summary": "None", "logo": "None", "latitude": 43.2550035, "longitude": -79.8762105}, "886478072RR0001": {"name": "HEADFORD CULTURAL GROUP", "designationCode": "C", "categoryCode": "43", "address": "2466 BELLOC ST", "city": "NORTH VANCOUVER", "province": "BC", "country": "CA", "postalCode": "V7H2L1", "twitter": "None", "instagram": "None", "facebook": "None", "youtube": "None", "website": "None", "summary": "None", "logo": "None", "latitude": 49.319086493219324, "longitude": -123.00622135457894}}