{"119232916RR0001": {"name": "THE FIDELIS HOUSE SOCIETY", "designationCode": "C", "categoryCode": "01", "address": "P.O. BOX 125", "city": "KENTVILLE", "province": "NS", "country": "CA", "postalCode": "B4N3W4", "twitter": "None", "instagram": "None", "facebook": "None", "youtube": "None", "website": "None", "summary": "None", "logo": "None", "latitude": 45.07663200000006, "longitude": -64.49369299999994}, "886070994RR0001": {"name": "THE FIELD FAMILY FOUNDATION", "designationCode": "B", "categoryCode": "53", "address": "20 TORONTO STREET             SUITE 1400", "city": "TORONTO", "province": "ON", "country": "CA", "postalCode": "M5C2B8", "twitter": "None", "instagram": "None", "facebook": "None", "youtube": "None", "website": "None", "summary": "None", "logo": "None", "latitude": 43.65028871273589, "longitude": -79.3762762511973}, "896011459RR0001": {"name": "THE FIELDS INSTITUTE FOR RESEARCH IN MATHEMATICAL SCIENCES", "designationCode": "C", "categoryCode": "23", "address": "222 COLLEGE STREET", "city": "TORONTO", "province": "ON", "country": "CA", "postalCode": "M5T3J1", "twitter": "None", "instagram": "None", "facebook": "None", "youtube": "None", "website": "None", "summary": "None", "logo": "None", "latitude": 43.65845221290878, "longitude": -79.39733782835123}, "832703870RR0001": {"name": "THE FINGERPRINTS OF GOD FOUNDATION", "designationCode": "B", "categoryCode": "23", "address": "2624 27 ST SW", "city": "CALGARY", "province": "AB", "country": "CA", "postalCode": "T3E2G4", "twitter": "None", "instagram": "None", "facebook": "None", "youtube": "None", "website": "None", "summary": "None", "logo": "None", "latitude": 51.030727910352596, "longitude": -114.12658831528083}, "893199448RR0001": {"name": "THE FINKLER-FRIEDLAND FAMILY FOUNDATION", "designationCode": "B", "categoryCode": "23", "address": "70 GARNIER COURT", "city": "NORTH YORK", "province": "ON", "country": "CA", "postalCode": "M2M4C9", "twitter": "None", "instagram": "None", "facebook": "None", "youtube": "None", "website": "None", "summary": "None", "logo": "None", "latitude": 43.80067270858096, "longitude": -79.38375841961475}, "119232957RR0001": {"name": "THE FIRE FIGHTERS HISTORICAL SOCIETY OF WINNIPEG INC", "designationCode": "C", "categoryCode": "50", "address": "56 MAPLE ST", "city": "WINNIPEG", "province": "MB", "country": "CA", "postalCode": "R3B0Y8", "twitter": "None", "instagram": "None", "facebook": "None", "youtube": "None", "website": "None", "summary": "None", "logo": "None", "latitude": 49.90355604968546, "longitude": -97.13149308635785}, "135139277RR0001": {"name": "THE FIRE PROTECTION COMMISSIONERS FOR THE DISTRICT OF MARTIN'S RIVER", "designationCode": "C", "categoryCode": "59", "address": "7533 HWY. #3", "city": "MARTIN'S RIVER", "province": "NS", "country": "CA", "postalCode": "B0J2E0", "twitter": "None", "instagram": "None", "facebook": "None", "youtube": "None", "website": "None", "summary": "None", "logo": "None", "latitude": 44.92070528019, "longitude": -62.53423933464418}, "131737645RR0001": {"name": "THE FIRE PROTECTION COMMISSIONERS FOR THE DISTRICT OF MILFORD HAVEN", "designationCode": "C", "categoryCode": "59", "address": "PO BOX 140", "city": "GUYSBOROUGH", "province": "NS", "country": "CA", "postalCode": "B0H1N0", "twitter": "None", "instagram": "None", "facebook": "None", "youtube": "None", "website": "None", "summary": "None", "logo": "None", "latitude": 45.37026600000006, "longitude": -61.50474349999993}, "893105445RR0001": {"name": "THE FIREFIGHTERS' BURN FUND INC", "designationCode": "C", "categoryCode": "11", "address": "303 83 GARRY ST", "city": "WINNIPEG", "province": "MB", "country": "CA", "postalCode": "R3C4J9", "twitter": "None", "instagram": "None", "facebook": "None", "youtube": "None", "website": "None", "summary": "None", "logo": "None", "latitude": 49.890267531364145, "longitude": -97.13868578045343}, "119232965RR0001": {"name": "THE FIREHALL THEATRE SOCIETY", "designationCode": "C", "categoryCode": "22", "address": "280 E CORDOVA ST", "city": "VANCOUVER", "province": "BC", "country": "CA", "postalCode": "V6A1L3", "twitter": "None", "instagram": "None", "facebook": "None", "youtube": "None", "website": "None", "summary": "None", "logo": "None", "latitude": 49.28221651399403, "longitude": -123.09805222162271}, "119232973RR0001": {"name": "THE FIRST ALBERTA CAMPUS RADIO ASSOCIATION", "designationCode": "C", "categoryCode": "21", "address": "0-09 SUB                      UNIVERSITY OF ALBERTA", "city": "EDMONTON", "province": "AB", "country": "CA", "postalCode": "T6G2J7", "twitter": "None", "instagram": "None", "facebook": "None", "youtube": "None", "website": "None", "summary": "None", "logo": "None", "latitude": 53.52503000000007, "longitude": -113.52540999999997}, "894945633RR0045": {"name": "THE FIRST ALLIANCE CHURCH", "designationCode": "C", "categoryCode": "39", "address": "3250 FINCH AVENUE EAST", "city": "SCARBOROUGH", "province": "ON", "country": "CA", "postalCode": "M1W2Y1", "twitter": "None", "instagram": "None", "facebook": "None", "youtube": "None", "website": "None", "summary": "None", "logo": "None", "latitude": 43.79589603921119, "longitude": -79.31944031213548}, "119233013RR0001": {"name": "THE FIRST BAPTIST CHURCH (VICTORIA, B C )", "designationCode": "C", "categoryCode": "31", "address": "877 NORTH PARK", "city": "VICTORIA", "province": "BC", "country": "CA", "postalCode": "V8W1S9", "twitter": "None", "instagram": "None", "facebook": "None", "youtube": "None", "website": "None", "summary": "None", "logo": "None", "latitude": 48.429878543424394, "longitude": -123.35946217208146}, "119233005RR0001": {"name": "THE FIRST BAPTIST CHURCH OF PORT HOPE", "designationCode": "C", "categoryCode": "31", "address": "59 JOHN STREET", "city": "PORT HOPE", "province": "ON", "country": "CA", "postalCode": "L1A2Z3", "twitter": "None", "instagram": "None", "facebook": "None", "youtube": "None", "website": "None", "summary": "None", "logo": "None", "latitude": 43.949694593946596, "longitude": -78.29505460655564}, "892745779RR0001": {"name": "THE FIRST BAPTIST CHURCH, ARMSTRONG, B.C.", "designationCode": "C", "categoryCode": "31", "address": "3185 BECKER ST", "city": "ARMSTRONG", "province": "BC", "country": "CA", "postalCode": "V0E1B1", "twitter": "None", "instagram": "None", "facebook": "None", "youtube": "None", "website": "None", "summary": "None", "logo": "None", "latitude": 50.44484800582839, "longitude": -119.19732414963332}, "140696105RR0001": {"name": "THE FIRST BAPTIST GIRLS' CHOIR AUXILIARY", "designationCode": "C", "categoryCode": "22", "address": "759 PRINCE ST", "city": "TRURO", "province": "NS", "country": "CA", "postalCode": "B2N1G7", "twitter": "None", "instagram": "None", "facebook": "None", "youtube": "None", "website": "None", "summary": "None", "logo": "None", "latitude": 45.364835355011635, "longitude": -63.27832061059501}, "127870723RR0001": {"name": "THE FIRST CHRISTIAN REFORMED CHURCH OF KEMPTVILLE", "designationCode": "C", "categoryCode": "39", "address": "2455 COUNTY ROAD #18", "city": "KEMPTVILLE", "province": "ON", "country": "CA", "postalCode": "K0G1J0", "twitter": "None", "instagram": "None", "facebook": "None", "youtube": "None", "website": "None", "summary": "None", "logo": "None", "latitude": 45.00613691888475, "longitude": -75.65797340198792}, "107385619RR0001": {"name": "THE FIRST CHRISTIAN REFORMED CHURCH OF KITCHENER INC.", "designationCode": "C", "categoryCode": "39", "address": "1275 BLEAMS RD", "city": "KITCHENER", "province": "ON", "country": "CA", "postalCode": "N2E3X6", "twitter": "None", "instagram": "None", "facebook": "None", "youtube": "None", "website": "None", "summary": "None", "logo": "None", "latitude": 43.402164896445456, "longitude": -80.49449480070987}, "808863070RR0001": {"name": "THE FIRST CHURCH OF JESUS CHRIST", "designationCode": "C", "categoryCode": "39", "address": "3210 RESPOND RD", "city": "MISSISSAUGA", "province": "ON", "country": "CA", "postalCode": "L5M7X4", "twitter": "None", "instagram": "None", "facebook": "None", "youtube": "None", "website": "None", "summary": "None", "logo": "None"}, "890574940RR0001": {"name": "THE FIRST CHURCH OF PENTECOSTAL (OF CHILLIWACK B.C.)", "designationCode": "C", "categoryCode": "39", "address": "PO BOX 421", "city": "MAPLE RIDGE", "province": "BC", "country": "CA", "postalCode": "V2X8K9", "twitter": "None", "instagram": "None", "facebook": "None", "youtube": "None", "website": "None", "summary": "None", "logo": "None", "latitude": 49.21686600000005, "longitude": -122.60537449999993}, "130234800RR0001": {"name": "THE FIRST KOREAN PRESBYTERIAN CHURCH OF CALGARY", "designationCode": "C", "categoryCode": "39", "address": "1411 69 ST SW", "city": "CALGARY", "province": "AB", "country": "CA", "postalCode": "T3H3W8", "twitter": "None", "instagram": "None", "facebook": "None", "youtube": "None", "website": "None", "summary": "None", "logo": "None", "latitude": 51.044789011656775, "longitude": -114.18769654261634}, "140068263RR0001": {"name": "THE FIRST KOREAN PRESBYTERIAN CHURCH OF SOUTHERN ONTARIO", "designationCode": "C", "categoryCode": "37", "address": "289 LINCOLN RD.", "city": "WATERLOO", "province": "ON", "country": "CA", "postalCode": "N2J2P6", "twitter": "None", "instagram": "None", "facebook": "None", "youtube": "None", "website": "None", "summary": "None", "logo": "None", "latitude": 43.482087429366935, "longitude": -80.50590488184585}, "107386864RR0001": {"name": "THE FIRST KOREAN PRESBYTERIAN CHURCH OF TORONTO", "designationCode": "C", "categoryCode": "37", "address": "68 COLLINSON BLVD", "city": "DOWNSVIEW", "province": "ON", "country": "CA", "postalCode": "M3H3C3", "twitter": "None", "instagram": "None", "facebook": "None", "youtube": "None", "website": "None", "summary": "None", "logo": "None", "latitude": 43.741062545646116, "longitude": -79.44058473968477}, "107386948RR0001": {"name": "THE FIRST LUTHERAN CHURCH OF WINNIPEG MANITOBA", "designationCode": "C", "categoryCode": "32", "address": "580 VICTOR ST", "city": "WINNIPEG", "province": "MB", "country": "CA", "postalCode": "R3G1R2", "twitter": "None", "instagram": "None", "facebook": "None", "youtube": "None", "website": "None", "summary": "None", "logo": "None", "latitude": 49.895866791563265, "longitude": -97.16289596797256}, "107683195RR0001": {"name": "THE FIRST MENNONITE CHURCH", "designationCode": "C", "categoryCode": "34", "address": "3650 91 ST NW", "city": "EDMONTON", "province": "AB", "country": "CA", "postalCode": "T6E6P1", "twitter": "None", "instagram": "None", "facebook": "None", "youtube": "None", "website": "None", "summary": "None", "logo": "None", "latitude": 53.4716547485429, "longitude": -113.4677561183557}, "129810974RR0001": {"name": "THE FIRST MENNONITE CHURCH OF SASKATOON", "designationCode": "C", "categoryCode": "34", "address": "418 QUEEN ST", "city": "SASKATOON", "province": "SK", "country": "CA", "postalCode": "S7K0M3", "twitter": "None", "instagram": "None", "facebook": "None", "youtube": "None", "website": "None", "summary": "None", "logo": "None", "latitude": 52.13675638953832, "longitude": -106.65644272861385}, "138818968RR0001": {"name": "THE FIRST MUSKOKA CHRISTIAN CONGREGATIONAL CHURCH", "designationCode": "C", "categoryCode": "39", "address": "BOX 685", "city": "BALA", "province": "ON", "country": "CA", "postalCode": "P0C1A0", "twitter": "None", "instagram": "None", "facebook": "None", "youtube": "None", "website": "None", "summary": "None", "logo": "None", "latitude": 45.016599966674555, "longitude": -79.61582998831456}, "132077330RR0001": {"name": "THE FIRST NAIRN CEMETERY ASSOCIATION", "designationCode": "C", "categoryCode": "59", "address": "4386 QUEEN'S AVE R.R. #1", "city": "AILSA CRAIG", "province": "ON", "country": "CA", "postalCode": "N0M1A0", "twitter": "None", "instagram": "None", "facebook": "None", "youtube": "None", "website": "None", "summary": "None", "logo": "None", "latitude": 43.11255688731505, "longitude": -81.55974503496724}, "105212229RR0001": {"name": "THE FIRST NARAYAV CONGREGATION", "designationCode": "C", "categoryCode": "42", "address": "187 BRUNSWICK AVE", "city": "TORONTO", "province": "ON", "country": "CA", "postalCode": "M5S2M4", "twitter": "None", "instagram": "None", "facebook": "None", "youtube": "None", "website": "None", "summary": "None", "logo": "None", "latitude": 43.66278323864682, "longitude": -79.40614518980671}, "101808145RR0001": {"name": "THE FIRST NATIONS TECHNICAL INSTITUTE", "designationCode": "C", "categoryCode": "20", "address": "3 OLD YORK RD", "city": "DESERONTO", "province": "ON", "country": "CA", "postalCode": "K0K1X0", "twitter": "None", "instagram": "None", "facebook": "None", "youtube": "None", "website": "None", "summary": "None", "logo": "None", "latitude": 44.19281010726582, "longitude": -77.11236408461806}, "130918824RR0001": {"name": "THE FIRST OPEN HEART SOCIETY OF BRITISH COLUMBIA", "designationCode": "C", "categoryCode": "11", "address": "1580 PEMBROKE STREET", "city": "VICTORIA", "province": "BC", "country": "CA", "postalCode": "V8R1W2", "twitter": "None", "instagram": "None", "facebook": "None", "youtube": "None", "website": "None", "summary": "None", "logo": "None", "latitude": 48.43118753318128, "longitude": -123.33603188773155}, "107387649RR0001": {"name": "THE FIRST REFORMED CHURCH OF ST. CATHERINES", "designationCode": "C", "categoryCode": "39", "address": "1136 VANSICKLE RD N", "city": "ST CATHARINES", "province": "ON", "country": "CA", "postalCode": "L2S2Z3", "twitter": "None", "instagram": "None", "facebook": "None", "youtube": "None", "website": "None", "summary": "None", "logo": "None", "latitude": 43.16108313044609, "longitude": -79.27095005987033}, "824565071RR0001": {"name": "THE FIRST SEVENTH DAY BAPTIST CHURCH OF TORONTO", "designationCode": "C", "categoryCode": "39", "address": "49 BRYDON DRIVE", "city": "TORONTO", "province": "ON", "country": "CA", "postalCode": "M9W4N3", "twitter": "None", "instagram": "None", "facebook": "None", "youtube": "None", "website": "None", "summary": "None", "logo": "None", "latitude": 43.71662731363606, "longitude": -79.57231673988724}, "118919042RR0001": {"name": "THE FIRST SPIRITUALIST CHURCH OF GALT", "designationCode": "C", "categoryCode": "39", "address": "2000 SPEEDSVILLE ROAD", "city": "CAMBRIDGE", "province": "ON", "country": "CA", "postalCode": "N3H4R6", "twitter": "None", "instagram": "None", "facebook": "None", "youtube": "None", "website": "None", "summary": "None", "logo": "None", "latitude": 43.43313880821169, "longitude": -80.35658508898358}, "139772263RR0001": {"name": "THE FIRST SUPERET BRANCH CHURCH OF KELOWNA BRITISH COLUMBIA, CANADA", "designationCode": "C", "categoryCode": "47", "address": "42-3535 MCCULLOCH ROAD", "city": "KELOWNA", "province": "BC", "country": "CA", "postalCode": "V1W4R8", "twitter": "None", "instagram": "None", "facebook": "None", "youtube": "None", "website": "None", "summary": "None", "logo": "None", "latitude": 49.84036928483574, "longitude": -119.40341769310176}, "899139844RR0001": {"name": "THE FIRST TORONTO KOREAN METHODIST CHURCH", "designationCode": "C", "categoryCode": "39", "address": "105 WILSON AVE", "city": "TORONTO", "province": "ON", "country": "CA", "postalCode": "M5M2Z9", "twitter": "None", "instagram": "None", "facebook": "None", "youtube": "None", "website": "None", "summary": "None", "logo": "None", "latitude": 43.74093184205682, "longitude": -79.41676701220501}, "119233161RR0001": {"name": "THE FIRST UKRANIAN EVANGELICAL BAPTIST CHURCH", "designationCode": "C", "categoryCode": "31", "address": "12 MITCHELL AVE", "city": "HAMILTON", "province": "ON", "country": "CA", "postalCode": "L9A1W2", "twitter": "None", "instagram": "None", "facebook": "None", "youtube": "None", "website": "None", "summary": "None", "logo": "None", "latitude": 43.233986955306186, "longitude": -79.87542916556059}, "118919109RR0001": {"name": "THE FIRST UNITARIAN CHURCH OF HAMILTON", "designationCode": "C", "categoryCode": "39", "address": "170 DUNDURN STREET SOUTH", "city": "HAMILTON", "province": "ON", "country": "CA", "postalCode": "L8P4K3", "twitter": "None", "instagram": "None", "facebook": "None", "youtube": "None", "website": "None", "summary": "None", "logo": "None", "latitude": 43.25706660869043, "longitude": -79.89016276660496}, "119233187RR0001": {"name": "THE FIRST UNITED PENTECOSTAL CHURCH OF NELSON B C", "designationCode": "C", "categoryCode": "39", "address": "5731 WOODLAND DR", "city": "NELSON", "province": "BC", "country": "CA", "postalCode": "V1L6Y2", "twitter": "None", "instagram": "None", "facebook": "None", "youtube": "None", "website": "None", "summary": "None", "logo": "None", "latitude": 49.49284861976854, "longitude": -117.40465154233827}, "896868114RR0001": {"name": "THE FISHER FOUNDATION", "designationCode": "B", "categoryCode": "05", "address": "PO BOX 4760", "city": "ROTHESAY", "province": "NB", "country": "CA", "postalCode": "E2E5X5", "twitter": "None", "instagram": "None", "facebook": "None", "youtube": "None", "website": "None", "summary": "None", "logo": "None", "latitude": 45.380919929916686, "longitude": -65.99681338202436}, "119233203RR0001": {"name": "THE FISKE RECREATIONAL CO-OPERATIVE ASSOCIATION LTD", "designationCode": "C", "categoryCode": "56", "address": "BOX 33", "city": "FISKE", "province": "SK", "country": "CA", "postalCode": "S0L1C0", "twitter": "None", "instagram": "None", "facebook": "None", "youtube": "None", "website": "None", "summary": "None", "logo": "None", "latitude": 51.48497000000003, "longitude": -108.40207999999996}, "119233211RR0001": {"name": "THE FITZHENRY FAMILY FOUNDATION", "designationCode": "B", "categoryCode": "03", "address": "11 REDCASTLE CRESENT", "city": "SCARBOROUGH", "province": "ON", "country": "CA", "postalCode": "M1T1V2", "twitter": "None", "instagram": "None", "facebook": "None", "youtube": "None", "website": "None", "summary": "None", "logo": "None", "latitude": 43.78306181432855, "longitude": -79.313471918374}, "119233229RR0001": {"name": "THE FIVE MILE COMMUNITY AGRICULTURAL SOCIETY", "designationCode": "C", "categoryCode": "56", "address": "714003 RR 53", "city": "COUNTY OF GRANDE PRAIRIE NO 1", "province": "AB", "country": "CA", "postalCode": "T8X4G4", "twitter": "None", "instagram": "None", "facebook": "None", "youtube": "None", "website": "None", "summary": "None", "logo": "None", "latitude": 55.172403, "longitude": -118.6923838744596}, "864479761RR0001": {"name": "THE FLAME OF LOVE OF THE IMMACULATE HEART OF MARY INC./LA FLAMME D'AMOUR DU COEUR IMMACULE DE MARIE INC.", "designationCode": "C", "categoryCode": "47", "address": "2222 NICOLAS PERROT", "city": "MONTREAL", "province": "QC", "country": "CA", "postalCode": "H3M1W8", "twitter": "None", "instagram": "None", "facebook": "None", "youtube": "None", "website": "None", "summary": "None", "logo": "None", "latitude": 45.53250417456298, "longitude": -73.68548662626247}, "892522368RR0001": {"name": "THE FLATBUSH COMMUNITY CHURCH ASSOCIATION", "designationCode": "C", "categoryCode": "39", "address": "BOX 35", "city": "FLATBUSH", "province": "AB", "country": "CA", "postalCode": "T0G0Z0", "twitter": "None", "instagram": "None", "facebook": "None", "youtube": "None", "website": "None", "summary": "None", "logo": "None", "latitude": 54.690540000000055, "longitude": -114.15553999999997}, "890272248RR0001": {"name": "THE FLECK FAMILY FOUNDATION", "designationCode": "B", "categoryCode": "25", "address": "20 WILKET RD", "city": "WILLOWDALE", "province": "ON", "country": "CA", "postalCode": "M2L1N6", "twitter": "None", "instagram": "None", "facebook": "None", "youtube": "None", "website": "None", "summary": "None", "logo": "None", "latitude": 43.745701514859405, "longitude": -79.38056070604213}, "119233245RR0001": {"name": "THE FLEURY WAGON COMMITTEE", "designationCode": "C", "categoryCode": "59", "address": "BOX 536", "city": "WOLSELEY", "province": "SK", "country": "CA", "postalCode": "S0G5H0", "twitter": "None", "instagram": "None", "facebook": "None", "youtube": "None", "website": "None", "summary": "None", "logo": "None", "latitude": 50.411354882397546, "longitude": -102.93411353717349}, "107390106RR0001": {"name": "THE FLIN FLON SCHOOL DIVISION NO. 46", "designationCode": "C", "categoryCode": "20", "address": "9 TERRACE AVE", "city": "FLIN FLON", "province": "MB", "country": "CA", "postalCode": "R8A1S2", "twitter": "None", "instagram": "None", "facebook": "None", "youtube": "None", "website": "None", "summary": "None", "logo": "None", "latitude": 54.76462678706465, "longitude": -101.87110200415802}, "880459011RR0001": {"name": "THE FLORENCE MARGARET THOMPSON CHARITABLE FOUNDATION", "designationCode": "B", "categoryCode": "03", "address": "34 COLONEL COHOE STREET", "city": "NIAGARA-ON-THE-LAKE", "province": "ON", "country": "CA", "postalCode": "L0S1J0", "twitter": "None", "instagram": "None", "facebook": "None", "youtube": "None", "website": "None", "summary": "None", "logo": "None", "latitude": 43.24640218679665, "longitude": -79.0973694111893}, "107390676RR0001": {"name": "THE FLOWER CART", "designationCode": "C", "categoryCode": "09", "address": "9412 COMMERCIAL STREET", "city": "NEW MINAS", "province": "NS", "country": "CA", "postalCode": "B4N3E9", "twitter": "None", "instagram": "None", "facebook": "None", "youtube": "None", "website": "None", "summary": "None", "logo": "None", "latitude": 45.07229637384978, "longitude": -64.43523610283366}, "879836914RR0001": {"name": "THE FMCC BISHOP'S FOUNDATION", "designationCode": "A", "categoryCode": "43", "address": "4315 VILLAGE CENTRE COURT", "city": "MISSISSAUGA", "province": "ON", "country": "CA", "postalCode": "L4Z1S2", "twitter": "None", "instagram": "None", "facebook": "None", "youtube": "None", "website": "None", "summary": "None", "logo": "None", "latitude": 43.601250649745936, "longitude": -79.64073004972948}, "107833394RR0078": {"name": "THE FOGO ISLAND ASSEMBLY", "designationCode": "C", "categoryCode": "36", "address": "PO BOX 28                     SELDOM", "city": "FOGO ISLAND", "province": "NL", "country": "CA", "postalCode": "A0G3Z0", "twitter": "None", "instagram": "None", "facebook": "None", "youtube": "None", "website": "None", "summary": "None", "logo": "None", "latitude": 49.61588000000006, "longitude": -54.17522999999994}, "119233294RR0001": {"name": "THE FOGO ISLAND FOLK ALLIANCE", "designationCode": "C", "categoryCode": "22", "address": "P.O. BOX 171", "city": "FOGO", "province": "NL", "country": "CA", "postalCode": "A0G2B0", "twitter": "None", "instagram": "None", "facebook": "None", "youtube": "None", "website": "None", "summary": "None", "logo": "None", "latitude": 49.57242000000008, "longitude": -54.30065999999994}, "127909141RR0001": {"name": "THE FOLK FESTIVAL SOCIETY OF CALGARY-F F S C", "designationCode": "C", "categoryCode": "22", "address": "1215 10 AVE SE", "city": "CALGARY", "province": "AB", "country": "CA", "postalCode": "T2G0W6", "twitter": "None", "instagram": "None", "facebook": "None", "youtube": "None", "website": "None", "summary": "None", "logo": "None", "latitude": 51.040652261151955, "longitude": -114.03561294950647}, "892181629RR0001": {"name": "THE FOLLOWERS MISSION INC", "designationCode": "C", "categoryCode": "49", "address": "916 - 7 BISHOP AVE", "city": "NORTH YORK", "province": "ON", "country": "CA", "postalCode": "M2M4J4", "twitter": "None", "instagram": "None", "facebook": "None", "youtube": "None", "website": "None", "summary": "None", "logo": "None", "latitude": 43.78195676545113, "longitude": -79.4143568248601}, "839887361RR0001": {"name": "THE FOOD BANK NETWORK OF THE BAY OF ISLANDS MINISTERIAL ASSOCIATION, INC.", "designationCode": "C", "categoryCode": "09", "address": "P.O. BOX 171", "city": "CORNER BROOK", "province": "NL", "country": "CA", "postalCode": "A2H6C7", "twitter": "None", "instagram": "None", "facebook": "None", "youtube": "None", "website": "None", "summary": "None", "logo": "None", "latitude": 48.95097900000006, "longitude": -57.950103499999926}, "119233310RR0001": {"name": "THE FOOD BANK OF WATERLOO REGION", "designationCode": "C", "categoryCode": "05", "address": "50 ALPINE CRT", "city": "KITCHENER", "province": "ON", "country": "CA", "postalCode": "N2E2M7", "twitter": "None", "instagram": "None", "facebook": "None", "youtube": "None", "website": "None", "summary": "None", "logo": "None", "latitude": 43.42367974000187, "longitude": -80.47775053237321}, "118933522RR0001": {"name": "THE FOOD SHARING PROJECT", "designationCode": "C", "categoryCode": "09", "address": "9 TRILLIUM", "city": "KINGSTON", "province": "ON", "country": "CA", "postalCode": "K7K6W9", "twitter": "None", "instagram": "None", "facebook": "None", "youtube": "None", "website": "None", "summary": "None", "logo": "None", "latitude": 44.26216357146978, "longitude": -76.4933359161523}, "119233344RR0001": {"name": "THE FOREST AGRICULTURAL SOCIETY", "designationCode": "C", "categoryCode": "56", "address": "45 JEFFERSON ST. WEST", "city": "FOREST", "province": "ON", "country": "CA", "postalCode": "N0N1J0", "twitter": "None", "instagram": "None", "facebook": "None", "youtube": "None", "website": "None", "summary": "None", "logo": "None", "latitude": 43.098464742318136, "longitude": -82.00573925528128}, "888251915RR0001": {"name": "THE FOREST BIRD SOCIETY", "designationCode": "C", "categoryCode": "54", "address": "1445A 27 ST SW", "city": "CALGARY", "province": "AB", "country": "CA", "postalCode": "T3C1L4", "twitter": "None", "instagram": "None", "facebook": "None", "youtube": "None", "website": "None", "summary": "None", "logo": "None", "latitude": 51.04106350944188, "longitude": -114.12673128162224}, "119233369RR0001": {"name": "THE FOREST EXCELSIOR BAND", "designationCode": "C", "categoryCode": "22", "address": "505 FIRST AVENUE", "city": "PETROLIA", "province": "ON", "country": "CA", "postalCode": "N0N1R0", "twitter": "None", "instagram": "None", "facebook": "None", "youtube": "None", "website": "None", "summary": "None", "logo": "None", "latitude": 42.87110182988043, "longitude": -82.13724810606469}, "119233351RR0001": {"name": "THE FORESTBURG HISTORICAL SOCIETY", "designationCode": "C", "categoryCode": "50", "address": "BOX 46", "city": "FORESTBURG", "province": "AB", "country": "CA", "postalCode": "T0B1N0", "twitter": "None", "instagram": "None", "facebook": "None", "youtube": "None", "website": "None", "summary": "None", "logo": "None", "latitude": 52.581086260004696, "longitude": -112.0650932275919}, "892354770RR0001": {"name": "THE FORESTBURG MUNICIPAL LIBRARY", "designationCode": "C", "categoryCode": "50", "address": "BOX 579", "city": "FORESTBURG", "province": "AB", "country": "CA", "postalCode": "T0B1N0", "twitter": "None", "instagram": "None", "facebook": "None", "youtube": "None", "website": "None", "summary": "None", "logo": "None", "latitude": 52.58134386913628, "longitude": -112.05738493950088}, "890616519RR0001": {"name": "THE FOREVER LEGACY FOUNDATION", "designationCode": "A", "categoryCode": "03", "address": "584 GEORGE ST.", "city": "PORT STANLEY", "province": "ON", "country": "CA", "postalCode": "N5L1H4", "twitter": "None", "instagram": "None", "facebook": "None", "youtube": "None", "website": "None", "summary": "None", "logo": "None", "latitude": 42.664538833361036, "longitude": -81.23794765773792}, "108199720RR0001": {"name": "THE FORGE (CHURCH)", "designationCode": "C", "categoryCode": "31", "address": "2612 SOOKE RD", "city": "VICTORIA", "province": "BC", "country": "CA", "postalCode": "V9B1Y2", "twitter": "None", "instagram": "None", "facebook": "None", "youtube": "None", "website": "None", "summary": "None", "logo": "None", "latitude": 48.43395214683471, "longitude": -123.51671785152053}, "861009017RR0001": {"name": "THE FORGET-ME-NOTS", "designationCode": "C", "categoryCode": "22", "address": "3900 15TH SIDEROAD", "city": "KING CITY", "province": "ON", "country": "CA", "postalCode": "L7B1K4", "twitter": "None", "instagram": "None", "facebook": "None", "youtube": "None", "website": "None", "summary": "None", "logo": "None", "latitude": 43.93487048915955, "longitude": -79.5873269886043}, "864255708RR0001": {"name": "THE FORKS FOUNDATION INC.", "designationCode": "C", "categoryCode": "52", "address": "SUITE 259                     393 PORTAGE AVENUE", "city": "WINNIPEG", "province": "MB", "country": "CA", "postalCode": "R3B3H6", "twitter": "None", "instagram": "None", "facebook": "None", "youtube": "None", "website": "None", "summary": "None", "logo": "None", "latitude": 49.89219673884805, "longitude": -97.14776200779028}, "129178976RR0001": {"name": "THE FORT ERIE SOCIETY FOR THE PREVENTION OF CRUELTY TO ANIMALS", "designationCode": "C", "categoryCode": "54", "address": "410 JARVIS STREET", "city": "FORT ERIE", "province": "ON", "country": "CA", "postalCode": "L2A2T1", "twitter": "None", "instagram": "None", "facebook": "None", "youtube": "None", "website": "None", "summary": "None", "logo": "None", "latitude": 42.92954945325738, "longitude": -78.92967455398464}, "888835444RR0001": {"name": "THE FORT GARRY HORSE FOUNDATION", "designationCode": "C", "categoryCode": "51", "address": "551 MACHRAY AVE", "city": "WINNIPEG", "province": "MB", "country": "CA", "postalCode": "R2W1A8", "twitter": "None", "instagram": "None", "facebook": "None", "youtube": "None", "website": "None", "summary": "None", "logo": "None", "latitude": 49.92737894312983, "longitude": -97.13962534052759}, "847502325RR0001": {"name": "THE FORT HENRY GUARD FOUNDATION INC.", "designationCode": "C", "categoryCode": "52", "address": "PO BOX 1955", "city": "KINGSTON", "province": "ON", "country": "CA", "postalCode": "K7L5J7", "twitter": "None", "instagram": "None", "facebook": "None", "youtube": "None", "website": "None", "summary": "None", "logo": "None", "latitude": 44.23153200000006, "longitude": -76.47933049999993}, "891479149RR0001": {"name": "THE FORT LA BOSSE SCHOOL DIVISION FOUNDATION INC", "designationCode": "C", "categoryCode": "21", "address": "PO BOX 1420", "city": "VIRDEN", "province": "MB", "country": "CA", "postalCode": "R0M2C0", "twitter": "None", "instagram": "None", "facebook": "None", "youtube": "None", "website": "None", "summary": "None", "logo": "None", "latitude": 49.85688000000005, "longitude": -100.92262999999997}, "107394850RR0001": {"name": "THE FORT MCMURRAY ASSESSMENT AND REFERRAL CENTRE SOCIETY", "designationCode": "C", "categoryCode": "09", "address": "#5  118 MILLENNIEUM DRIVE", "city": "FORT MCMURRAY", "province": "AB", "country": "CA", "postalCode": "T9K2S8", "twitter": "None", "instagram": "None", "facebook": "None", "youtube": "None", "website": "None", "summary": "None", "logo": "None", "latitude": 56.75574744323816, "longitude": -111.46393106909328}, "107394884RR0001": {"name": "THE FORT MCMURRAY BOYS' AND GIRLS' CLUB", "designationCode": "C", "categoryCode": "56", "address": "20 RIEDEL STREET", "city": "FORT MCMURRAY", "province": "AB", "country": "CA", "postalCode": "T9H3E1", "twitter": "None", "instagram": "None", "facebook": "None", "youtube": "None", "website": "None", "summary": "None", "logo": "None", "latitude": 56.72323529560264, "longitude": -111.36330121694816}, "119233450RR0001": {"name": "THE FORT MCMURRAY SOCIETY OF THE FRIENDS OF MUSIC", "designationCode": "C", "categoryCode": "22", "address": "230 POWDER DRIVE", "city": "FORT MCMURRAY", "province": "AB", "country": "CA", "postalCode": "T9K0W8", "twitter": "None", "instagram": "None", "facebook": "None", "youtube": "None", "website": "None", "summary": "None", "logo": "None", "latitude": 56.75805032226305, "longitude": -111.45759647143501}, "107395204RR0001": {"name": "THE FORT NELSON ABORIGINAL FRIENDSHIP SOCIETY", "designationCode": "C", "categoryCode": "56", "address": "PO BOX 1266", "city": "FORT NELSON", "province": "BC", "country": "CA", "postalCode": "V0C1R0", "twitter": "None", "instagram": "None", "facebook": "None", "youtube": "None", "website": "None", "summary": "None", "logo": "None", "latitude": 58.80465000000004, "longitude": -122.70046999999994}, "125141051RR0001": {"name": "THE FORT NELSON HISTORICAL SOCIETY", "designationCode": "C", "categoryCode": "50", "address": "PO BOX 716", "city": "FORT NELSON", "province": "BC", "country": "CA", "postalCode": "V0C1R0", "twitter": "None", "instagram": "None", "facebook": "None", "youtube": "None", "website": "None", "summary": "None", "logo": "None", "latitude": 58.80465000000004, "longitude": -122.70046999999994}, "108082413RR0001": {"name": "THE FORT SASKATCHEWAN FOOD GATHERERS SOCIETY", "designationCode": "C", "categoryCode": "09", "address": "PO BOX 3404", "city": "FORT SASKATCHEWAN", "province": "AB", "country": "CA", "postalCode": "T8L2T3", "twitter": "None", "instagram": "None", "facebook": "None", "youtube": "None", "website": "None", "summary": "None", "logo": "None", "latitude": 53.71287900000006, "longitude": -113.21417149999994}, "887259596RR0001": {"name": "THE FORT SASKATCHEWAN HISTORICAL SOCIETY", "designationCode": "C", "categoryCode": "50", "address": "10006-100 AVE", "city": "FORT SASKATCHEWAN", "province": "AB", "country": "CA", "postalCode": "T8L1V9", "twitter": "None", "instagram": "None", "facebook": "None", "youtube": "None", "website": "None", "summary": "None", "logo": "None", "latitude": 53.71135694312985, "longitude": -113.21650073177891}, "132193574RR0001": {"name": "THE FORT SMITH PENTECOSTAL CHURCH", "designationCode": "C", "categoryCode": "36", "address": "BOX 507", "city": "FORT SMITH", "province": "NT", "country": "CA", "postalCode": "X0E0P0", "twitter": "None", "instagram": "None", "facebook": "None", "youtube": "None", "website": "None", "summary": "None", "logo": "None", "latitude": 60.01262014865944, "longitude": -112.05264672940851}, "119298123RR0001": {"name": "THE FORT WHYTE FOUNDATION INC.", "designationCode": "C", "categoryCode": "54", "address": "1961 MCCREARY RD", "city": "WINNIPEG", "province": "MB", "country": "CA", "postalCode": "R3P2K9", "twitter": "None", "instagram": "None", "facebook": "None", "youtube": "None", "website": "None", "summary": "None", "logo": "None", "latitude": 49.81889824793241, "longitude": -97.2338275797393}, "137164265RR0001": {"name": "THE FORTIES COMMUNITY CENTRE", "designationCode": "C", "categoryCode": "56", "address": "1787 FORTIES ROAD", "city": "NEW ROSS", "province": "NS", "country": "CA", "postalCode": "B0J2M0", "twitter": "None", "instagram": "None", "facebook": "None", "youtube": "None", "website": "None", "summary": "None", "logo": "None", "latitude": 44.731739666051546, "longitude": -64.56622993614761}, "118956754RR0001": {"name": "THE FOSTER HEWITT FOUNDATION", "designationCode": "B", "categoryCode": "03", "address": "P.O. BOX 1501", "city": "NIAGARA-ON-THE-LAKE", "province": "ON", "country": "CA", "postalCode": "L0S1J0", "twitter": "None", "instagram": "None", "facebook": "None", "youtube": "None", "website": "None", "summary": "None", "logo": "None", "latitude": 43.23448500000005, "longitude": -79.16177149999993}, "119129369RR0001": {"name": "THE FOUNDATION FIGHTING BLINDNESS", "designationCode": "C", "categoryCode": "13", "address": "890 YONGE ST, 12TH FLOOR", "city": "TORONTO", "province": "ON", "country": "CA", "postalCode": "M4W3P4", "twitter": "None", "instagram": "None", "facebook": "None", "youtube": "None", "website": "None", "summary": "None", "logo": "None", "latitude": 43.673338351924556, "longitude": -79.3880950108487}, "853472546RR0001": {"name": "THE FOUNDATION FOR BETTER COMMUNITIES", "designationCode": "B", "categoryCode": "03", "address": "1 FIRST CANADIAN PLACE        SUITE 3300, P. O. BOX 72", "city": "TORONTO", "province": "ON", "country": "CA", "postalCode": "M5X1B1", "twitter": "None", "instagram": "None", "facebook": "None", "youtube": "None", "website": "None", "summary": "None", "logo": "None", "latitude": 43.648682740967025, "longitude": -79.38032587056271}, "130560816RR0001": {"name": "THE FOUNDATION FOR COMMUNITY LIVING OWEN SOUND AND DISTRICT", "designationCode": "A", "categoryCode": "13", "address": "769  -  4TH AVENUE EAST", "city": "OWEN SOUND", "province": "ON", "country": "CA", "postalCode": "N4K2N5", "twitter": "None", "instagram": "None", "facebook": "None", "youtube": "None", "website": "None", "summary": "None", "logo": "None", "latitude": 44.56376297974491, "longitude": -80.93856753367221}, "895097756RR0001": {"name": "THE FOUNDATION FOR GENE AND CELL THERAPY", "designationCode": "A", "categoryCode": "19", "address": "PO BOX 51 STN B", "city": "LONDON", "province": "ON", "country": "CA", "postalCode": "N6A4V3", "twitter": "None", "instagram": "None", "facebook": "None", "youtube": "None", "website": "None", "summary": "None", "logo": "None", "latitude": 42.98689500000006, "longitude": -81.24624349999993}, "119233567RR0001": {"name": "THE FOUNDATION FOR GROWTH PROBLEMS IN CHILDREN", "designationCode": "C", "categoryCode": "11", "address": "18 - 540 CLARKE RD", "city": "LONDON", "province": "ON", "country": "CA", "postalCode": "N5V2C7", "twitter": "None", "instagram": "None", "facebook": "None", "youtube": "None", "website": "None", "summary": "None", "logo": "None", "latitude": 43.0096484160654, "longitude": -81.17823885697446}, "872743802RR0001": {"name": "THE FOUNDATION FOR ORCHID RESEARCH AND CONSERVATION", "designationCode": "A", "categoryCode": "20", "address": "20735-28TH AVE", "city": "LANGLEY", "province": "BC", "country": "CA", "postalCode": "V2Z2C2", "twitter": "None", "instagram": "None", "facebook": "None", "youtube": "None", "website": "None", "summary": "None", "logo": "None", "latitude": 49.05296547157924, "longitude": -122.64874013488948}, "872875703RR0001": {"name": "THE FOUNDATION FOR SENIORS' CARE-HEARTS OF EXCELLENCE", "designationCode": "B", "categoryCode": "19", "address": "211 HERITAGE DR SE", "city": "CALGARY", "province": "AB", "country": "CA", "postalCode": "T2H1M9", "twitter": "None", "instagram": "None", "facebook": "None", "youtube": "None", "website": "None", "summary": "None", "logo": "None", "latitude": 50.97956251399404, "longitude": -114.066144}, "139565071RR0001": {"name": "THE FOUNDATION FOR THE STUDY OF OBJECTIVE ART", "designationCode": "B", "categoryCode": "23", "address": "80 GERRARD ST EAST", "city": "TORONTO", "province": "ON", "country": "CA", "postalCode": "M5B1G6", "twitter": "None", "instagram": "None", "facebook": "None", "youtube": "None", "website": "None", "summary": "None", "logo": "None", "latitude": 43.6599702489756, "longitude": -79.37792731724272}, "870601432RR0001": {"name": "THE FOUNDATION OF HOPE FOR CHILDREN'S HOSPITALS", "designationCode": "A", "categoryCode": "13", "address": "P.O. BOX 73575", "city": "VANCOUVER", "province": "BC", "country": "CA", "postalCode": "V6E4L9", "twitter": "None", "instagram": "None", "facebook": "None", "youtube": "None", "website": "None", "summary": "None", "logo": "None", "latitude": 49.28270100000006, "longitude": -123.13072249999993}, "893481465RR0001": {"name": "THE FOUNDATION OF ST. JOSEPH SEMINARY AND NEWMAN THEOLOGICAL COLLEGE", "designationCode": "A", "categoryCode": "23", "address": "8421 101 AVE NW", "city": "EDMONTON", "province": "AB", "country": "CA", "postalCode": "T6A0L1", "twitter": "None", "instagram": "None", "facebook": "None", "youtube": "None", "website": "None", "summary": "None", "logo": "None", "latitude": 53.541179499424025, "longitude": -113.45818346044207}, "890803455RR0001": {"name": "THE FOUNDATION OF THE ASSOCIATION OF TRANSLATORS AND INTERPRETERS OF ONTARIO (ATIO)/LA FONDATION DE L'ASSOCIATION DES TRADUCTEURS ET INTERPRETES DE L'ONTARIO (ATIO)", "designationCode": "C", "categoryCode": "29", "address": "1 NICHOLAS STREET             SUITE 1202", "city": "OTTAWA", "province": "ON", "country": "CA", "postalCode": "K1N7B7", "twitter": "None", "instagram": "None", "facebook": "None", "youtube": "None", "website": "None", "summary": "None", "logo": "None", "latitude": 45.42648117597662, "longitude": -75.69036778544643}, "889015590RR0001": {"name": "THE FOUNDATION OF THE CANADIAN PSYCHIATRIC ASSOCIATION/LA FONDATION DE L'ASSOCIATION DES PSYCHIATRES DU CANADA", "designationCode": "C", "categoryCode": "21", "address": "701-141 LAURIER AVE WEST", "city": "OTTAWA", "province": "ON", "country": "CA", "postalCode": "K1P5J3", "twitter": "None", "instagram": "None", "facebook": "None", "youtube": "None", "website": "None", "summary": "None", "logo": "None", "latitude": 45.42039405730491, "longitude": -75.69456320459899}, "894527464RR0001": {"name": "THE FOUNDATION OF THE ENCYCLOPEDIA OF UKRAINE", "designationCode": "C", "categoryCode": "21", "address": "F1 - 296 MILLS ROAD", "city": "TORONTO", "province": "ON", "country": "CA", "postalCode": "M9C4X8", "twitter": "None", "instagram": "None", "facebook": "None", "youtube": "None", "website": "None", "summary": "None", "logo": "None"}, "894176619RR0001": {"name": "THE FOUNDATION OF THE ROYAL COLLEGE OF PHYSICIANS AND SURGEONS OF CANADA/LA FONDATION DU COLLEGE ROYAL DES MEDECINS ET CHIRURGIENS DU CANADA", "designationCode": "C", "categoryCode": "21", "address": "774 ECHO DRIVE", "city": "OTTAWA", "province": "ON", "country": "CA", "postalCode": "K1S5N8", "twitter": "None", "instagram": "None", "facebook": "None", "youtube": "None", "website": "None", "summary": "None", "logo": "None", "latitude": 45.39591652337177, "longitude": -75.68336042048013}, "895937779RR0001": {"name": "THE FOUNTAIN CHURCH", "designationCode": "C", "categoryCode": "47", "address": "43 KINCARDINE ST.E P.O.BOX 867", "city": "ALEXANDRIA", "province": "ON", "country": "CA", "postalCode": "K0C1A0", "twitter": "None", "instagram": "None", "facebook": "None", "youtube": "None", "website": "None", "summary": "None", "logo": "None", "latitude": 45.31406240689013, "longitude": -74.63685337483405}, "119233617RR0001": {"name": "THE FOUR SEASONS MUSICAL THEATRE SOCIETY", "designationCode": "C", "categoryCode": "22", "address": "772 GOLDSTREAM AVE            PO BOX 47090", "city": "VICTORIA", "province": "BC", "country": "CA", "postalCode": "V9B5T2", "twitter": "None", "instagram": "None", "facebook": "None", "youtube": "None", "website": "None", "summary": "None", "logo": "None", "latitude": 48.448800415257345, "longitude": -123.49884828914001}, "127375293RR0001": {"name": "THE FOUR VILLAGES COMMUNITY HEALTH CENTRE", "designationCode": "C", "categoryCode": "11", "address": "1700 BLOOR ST W", "city": "TORONTO", "province": "ON", "country": "CA", "postalCode": "M6P4C3", "twitter": "None", "instagram": "None", "facebook": "None", "youtube": "None", "website": "None", "summary": "None", "logo": "None", "latitude": 43.65510713630313, "longitude": -79.458256864014}, "119240299RR0001": {"name": "THE FOWLER FAMILY FOUNDATION", "designationCode": "B", "categoryCode": "03", "address": "PO BOX 24091                  STN MAIN", "city": "ST CATHARINES", "province": "ON", "country": "CA", "postalCode": "L2R7P7", "twitter": "None", "instagram": "None", "facebook": "None", "youtube": "None", "website": "None", "summary": "None", "logo": "None", "latitude": 43.15634700000005, "longitude": -79.24869349999993}}