{"130793391RR0001": {"name": "LA FABRIQUE DE LA PAROISSE DE ST-LEON-LE-GRAND", "designationCode": "C", "categoryCode": "38", "address": "701 RUE PRINCIPALE", "city": "ST.L\u00c9ON-LE-GRAND", "province": "QC", "country": "CA", "postalCode": "J0K2W0", "twitter": "None", "instagram": "None", "facebook": "None", "youtube": "None", "website": "None", "summary": "None", "logo": "None", "latitude": 46.31389812960937, "longitude": -72.93534089260764}, "118996917RR0001": {"name": "LA FABRIQUE DE LA PAROISSE DE ST-LEONARD", "designationCode": "C", "categoryCode": "38", "address": "529 PRINCIPALE", "city": "ST-LEONARD-DE-PORTNEUF", "province": "QC", "country": "CA", "postalCode": "G0A4A0", "twitter": "None", "instagram": "None", "facebook": "None", "youtube": "None", "website": "None", "summary": "None", "logo": "None", "latitude": 46.890084260315234, "longitude": -71.9080118292166}, "130039167RR0001": {"name": "LA FABRIQUE DE LA PAROISSE DE ST-LOUIS DE LOTBINIERE", "designationCode": "C", "categoryCode": "38", "address": "7510 MARIE-VICTORIN CP 28", "city": "LOTBINIERE", "province": "QC", "country": "CA", "postalCode": "G0S1S0", "twitter": "None", "instagram": "None", "facebook": "None", "youtube": "None", "website": "None", "summary": "None", "logo": "None", "latitude": 46.616324359483706, "longitude": -71.93530735916656}, "888237997RR0001": {"name": "LA FABRIQUE DE LA PAROISSE DE ST-LOUIS-DU-HA HA", "designationCode": "C", "categoryCode": "38", "address": "233, COMMERCIALE C.P. 6", "city": "ST LOUIS DU HA HA", "province": "QC", "country": "CA", "postalCode": "G0L3S0", "twitter": "None", "instagram": "None", "facebook": "None", "youtube": "None", "website": "None", "summary": "None", "logo": "None", "latitude": 47.671433100727256, "longitude": -68.97967167389913}, "118997030RR0001": {"name": "LA FABRIQUE DE LA PAROISSE DE ST-LUC-DE-VINCENNES", "designationCode": "C", "categoryCode": "38", "address": "3991 RUE ST-ALEXIS", "city": "ST-LUC-DE-VINCENNES", "province": "QC", "country": "CA", "postalCode": "G0X3K0", "twitter": "None", "instagram": "None", "facebook": "None", "youtube": "None", "website": "None", "summary": "None", "logo": "None", "latitude": 46.49633286346575, "longitude": -72.41905235515586}, "887671196RR0001": {"name": "LA FABRIQUE DE LA PAROISSE DE ST-MARTIN", "designationCode": "C", "categoryCode": "38", "address": "129 1ERE AVENUE EST", "city": "SAINT MARTIN", "province": "QC", "country": "CA", "postalCode": "G0M1B0", "twitter": "None", "instagram": "None", "facebook": "None", "youtube": "None", "website": "None", "summary": "None", "logo": "None", "latitude": 45.95965097253154, "longitude": -70.65653565104789}, "130013063RR0001": {"name": "LA FABRIQUE DE LA PAROISSE DE ST-MICHEL", "designationCode": "C", "categoryCode": "38", "address": "ST MICHEL", "city": "ST-MICHEL CTE BELLECHASSE", "province": "QC", "country": "CA", "postalCode": "G0R3S0", "twitter": "None", "instagram": "None", "facebook": "None", "youtube": "None", "website": "None", "summary": "None", "logo": "None", "latitude": 46.87851997446484, "longitude": -70.90455992339429}, "130649296RR0001": {"name": "LA FABRIQUE DE LA PAROISSE DE ST-MICHEL DE SQUATEC", "designationCode": "C", "categoryCode": "38", "address": "106 ST JOSEPH                 CP 40", "city": "SQUATEC", "province": "QC", "country": "CA", "postalCode": "G0L4H0", "twitter": "None", "instagram": "None", "facebook": "None", "youtube": "None", "website": "None", "summary": "None", "logo": "None", "latitude": 47.880915496249095, "longitude": -68.72402336955392}, "118997279RR0001": {"name": "LA FABRIQUE DE LA PAROISSE DE ST-MOISE", "designationCode": "C", "categoryCode": "38", "address": "117 RUE PRINCIPALE", "city": "ST MOISE", "province": "QC", "country": "CA", "postalCode": "G0J2Z0", "twitter": "None", "instagram": "None", "facebook": "None", "youtube": "None", "website": "None", "summary": "None", "logo": "None", "latitude": 48.55147572159405, "longitude": -67.85148883498766}, "130014525RR0001": {"name": "LA FABRIQUE DE LA PAROISSE DE ST-NARCISSE", "designationCode": "C", "categoryCode": "38", "address": "380 PRINCIPALE", "city": "ST-NARCISSE DE BEAURIVAGE", "province": "QC", "country": "CA", "postalCode": "G0S1W0", "twitter": "None", "instagram": "None", "facebook": "None", "youtube": "None", "website": "None", "summary": "None", "logo": "None", "latitude": 46.48232915765474, "longitude": -71.2330957186512}, "118997303RR0001": {"name": "LA FABRIQUE DE LA PAROISSE DE ST-NEREE", "designationCode": "C", "categoryCode": "38", "address": "2141 PRINCIPALE               LOCAL 124", "city": "ST-NEREE", "province": "QC", "country": "CA", "postalCode": "G0R3V0", "twitter": "None", "instagram": "None", "facebook": "None", "youtube": "None", "website": "None", "summary": "None", "logo": "None", "latitude": 46.72562966558926, "longitude": -70.72190419978106}, "107362600RR0001": {"name": "LA FABRIQUE DE LA PAROISSE DE ST-PATRICE DE RAWDON", "designationCode": "C", "categoryCode": "38", "address": "3759 QUEEN", "city": "RAWDON", "province": "QC", "country": "CA", "postalCode": "J0K1S0", "twitter": "None", "instagram": "None", "facebook": "None", "youtube": "None", "website": "None", "summary": "None", "logo": "None", "latitude": 46.04508907574028, "longitude": -73.71106770667637}, "894678366RR0001": {"name": "LA FABRIQUE DE LA PAROISSE DE ST-PATRICE-DE-BEAURIVAGE", "designationCode": "C", "categoryCode": "38", "address": "200 - 486 RUE PRINCIPALE", "city": "SAINT-PATRICE-DE-BEAURIVAGE", "province": "QC", "country": "CA", "postalCode": "G0S1B0", "twitter": "None", "instagram": "None", "facebook": "None", "youtube": "None", "website": "None", "summary": "None", "logo": "None", "latitude": 46.41164244272581, "longitude": -71.23885039203073}, "107369985RR0001": {"name": "LA FABRIQUE DE LA PAROISSE DE ST-PAULIN", "designationCode": "C", "categoryCode": "38", "address": "2860 RUE LAFL\u00c8CHE", "city": "SAINT-PAULIN", "province": "QC", "country": "CA", "postalCode": "J0K3G0", "twitter": "None", "instagram": "None", "facebook": "None", "youtube": "None", "website": "None", "summary": "None", "logo": "None", "latitude": 46.4189593097409, "longitude": -73.012966659992}, "118997444RR0001": {"name": "LA FABRIQUE DE LA PAROISSE DE ST-PHILIBERT", "designationCode": "C", "categoryCode": "38", "address": "376A RUE PRINCIPALE", "city": "ST-PHILIBERT", "province": "QC", "country": "CA", "postalCode": "G0M1X0", "twitter": "None", "instagram": "None", "facebook": "None", "youtube": "None", "website": "None", "summary": "None", "logo": "None", "latitude": 46.13550011467486, "longitude": -70.54339366751742}, "118997527RR0001": {"name": "LA FABRIQUE DE LA PAROISSE DE ST-PIERRE-BAPTISTE", "designationCode": "C", "categoryCode": "38", "address": "557 ROUTE DE L EGLISE", "city": "ST PIERRE BAPTISTE", "province": "QC", "country": "CA", "postalCode": "G0P1K0", "twitter": "None", "instagram": "None", "facebook": "None", "youtube": "None", "website": "None", "summary": "None", "logo": "None", "latitude": 46.206091801286796, "longitude": -71.61522339122266}, "130525421RR0001": {"name": "LA FABRIQUE DE LA PAROISSE DE ST-PROSPER", "designationCode": "C", "categoryCode": "38", "address": "2950, 19IEME AVENUE", "city": "ST-PROSPER", "province": "QC", "country": "CA", "postalCode": "G0M1Y0", "twitter": "None", "instagram": "None", "facebook": "None", "youtube": "None", "website": "None", "summary": "None", "logo": "None", "latitude": 46.21005161205968, "longitude": -70.48369392712287}, "107370355RR0001": {"name": "LA FABRIQUE DE LA PAROISSE DE ST-RAPHAEL", "designationCode": "C", "categoryCode": "38", "address": "86 PRINCIPALE", "city": "ST-RAPHAEL", "province": "QC", "country": "CA", "postalCode": "G0R4C0", "twitter": "None", "instagram": "None", "facebook": "None", "youtube": "None", "website": "None", "summary": "None", "logo": "None", "latitude": 46.79505733772896, "longitude": -70.75550327580982}, "107370413RR0001": {"name": "LA FABRIQUE DE LA PAROISSE DE ST-RAYMOND", "designationCode": "C", "categoryCode": "38", "address": "331 RUE SAINT-JOSEPH", "city": "SAINT-RAYMOND", "province": "QC", "country": "CA", "postalCode": "G3L1J8", "twitter": "None", "instagram": "None", "facebook": "None", "youtube": "None", "website": "None", "summary": "None", "logo": "None", "latitude": 46.890344251745546, "longitude": -71.83322804997393}, "889543047RR0001": {"name": "LA FABRIQUE DE LA PAROISSE DE ST-ROBERT-BELLARMIN", "designationCode": "C", "categoryCode": "38", "address": "491 RUE PRINCIPALE", "city": "SAINT-ROBERT-BELLARMIN", "province": "QC", "country": "CA", "postalCode": "G0M2E0", "twitter": "None", "instagram": "None", "facebook": "None", "youtube": "None", "website": "None", "summary": "None", "logo": "None", "latitude": 45.74920918985506, "longitude": -70.58597517675601}, "107370546RR0001": {"name": "LA FABRIQUE DE LA PAROISSE DE ST-ROCH", "designationCode": "C", "categoryCode": "38", "address": "2700, CHEMIN ST-ROCH SUD", "city": "SHERBROOKE", "province": "QC", "country": "CA", "postalCode": "J1N2T3", "twitter": "None", "instagram": "None", "facebook": "None", "youtube": "None", "website": "None", "summary": "None", "logo": "None", "latitude": 45.348502550060836, "longitude": -71.99122349584506}, "107370553RR0001": {"name": "LA FABRIQUE DE LA PAROISSE DE ST-ROMUALD", "designationCode": "C", "categoryCode": "38", "address": "180 RUE DE SAINT-ROMUALD", "city": "LEVIS", "province": "QC", "country": "CA", "postalCode": "G6W3G9", "twitter": "None", "instagram": "None", "facebook": "None", "youtube": "None", "website": "None", "summary": "None", "logo": "None", "latitude": 46.756292283340315, "longitude": -71.23701870918653}, "888265394RR0001": {"name": "LA FABRIQUE DE LA PAROISSE DE ST-SEVERE", "designationCode": "C", "categoryCode": "38", "address": "57 PRINCIPALE", "city": "ST-SEVERE", "province": "QC", "country": "CA", "postalCode": "G0X3B0", "twitter": "None", "instagram": "None", "facebook": "None", "youtube": "None", "website": "None", "summary": "None", "logo": "None", "latitude": 46.34608867612083, "longitude": -72.89832399567216}, "107370629RR0001": {"name": "LA FABRIQUE DE LA PAROISSE DE ST-SEVERIN", "designationCode": "C", "categoryCode": "38", "address": "41 BOUL ST LOUIS", "city": "PROULXVILLE", "province": "QC", "country": "CA", "postalCode": "G0X2B0", "twitter": "None", "instagram": "None", "facebook": "None", "youtube": "None", "website": "None", "summary": "None", "logo": "None", "latitude": 46.670120778261726, "longitude": -72.50539662666651}, "118997774RR0001": {"name": "LA FABRIQUE DE LA PAROISSE DE ST-SIMEON-DE-BONAVENTURE", "designationCode": "C", "categoryCode": "38", "address": "106 AV DE L'EGLISE            CP 10", "city": "ST-SIMEON-DE-BONAVENTURE", "province": "QC", "country": "CA", "postalCode": "G0C3A0", "twitter": "None", "instagram": "None", "facebook": "None", "youtube": "None", "website": "None", "summary": "None", "logo": "None", "latitude": 48.07084334818327, "longitude": -65.57169062352493}, "118997808RR0001": {"name": "LA FABRIQUE DE LA PAROISSE DE ST-SIMON", "designationCode": "C", "categoryCode": "38", "address": "9 RUE DES EGLISES OUEST", "city": "ABERCORN", "province": "QC", "country": "CA", "postalCode": "J0E1B0", "twitter": "None", "instagram": "None", "facebook": "None", "youtube": "None", "website": "None", "summary": "None", "logo": "None", "latitude": 45.03551995115126, "longitude": -72.65905062753188}, "131428682RR0001": {"name": "LA FABRIQUE DE LA PAROISSE DE ST-STANISLAS", "designationCode": "C", "categoryCode": "38", "address": "33A RUE DU PONT", "city": "SAINT-STANISLAS-DE-CHAMPLAIN", "province": "QC", "country": "CA", "postalCode": "G0X3E0", "twitter": "None", "instagram": "None", "facebook": "None", "youtube": "None", "website": "None", "summary": "None", "logo": "None", "latitude": 46.61077104563578, "longitude": -72.38588232640828}, "107370884RR0001": {"name": "LA FABRIQUE DE LA PAROISSE DE ST-THIMOTHEE-D'HEROUXVILLE", "designationCode": "C", "categoryCode": "38", "address": "C.P. 584                      821, RUE ST-PIERRE", "city": "HEROUXVILLE CHAMPLAIN", "province": "QC", "country": "CA", "postalCode": "G0X1J0", "twitter": "None", "instagram": "None", "facebook": "None", "youtube": "None", "website": "None", "summary": "None", "logo": "None", "latitude": 46.63775400000006, "longitude": -72.59811199999993}, "118997931RR0001": {"name": "LA FABRIQUE DE LA PAROISSE DE ST-THOMAS D'AQUIN", "designationCode": "C", "categoryCode": "38", "address": "311 RUE SAINT-THOMAS", "city": "SAINT-LAMBERT", "province": "QC", "country": "CA", "postalCode": "J4R1X2", "twitter": "None", "instagram": "None", "facebook": "None", "youtube": "None", "website": "None", "summary": "None", "logo": "None", "latitude": 45.49016748456366, "longitude": -73.50270337581499}, "131606139RR0001": {"name": "LA FABRIQUE DE LA PAROISSE DE ST-TIMOTHEE", "designationCode": "C", "categoryCode": "38", "address": "91 RUE SAINT-LAURENT", "city": "SALABERRY-DE-VALLEYFIELD", "province": "QC", "country": "CA", "postalCode": "J6S6K1", "twitter": "None", "instagram": "None", "facebook": "None", "youtube": "None", "website": "None", "summary": "None", "logo": "None", "latitude": 45.29328442110179, "longitude": -74.03668778468155}, "107364531RR0001": {"name": "LA FABRIQUE DE LA PAROISSE DE ST-TITE", "designationCode": "C", "categoryCode": "38", "address": "531 NOTRE DAME", "city": "SAINT-TITE", "province": "QC", "country": "CA", "postalCode": "G0X3H0", "twitter": "None", "instagram": "None", "facebook": "None", "youtube": "None", "website": "None", "summary": "None", "logo": "None", "latitude": 46.727258592590275, "longitude": -72.56449381617578}, "130700560RR0001": {"name": "LA FABRIQUE DE LA PAROISSE DE ST-TITE-DES-CAPS", "designationCode": "C", "categoryCode": "38", "address": "271 AVE ROYALE", "city": "ST-TITE-DES-CAPS", "province": "QC", "country": "CA", "postalCode": "G0A4J0", "twitter": "None", "instagram": "None", "facebook": "None", "youtube": "None", "website": "None", "summary": "None", "logo": "None", "latitude": 47.14100552677598, "longitude": -70.77291102244814}, "118998004RR0001": {"name": "LA FABRIQUE DE LA PAROISSE DE ST-VIATEUR", "designationCode": "C", "categoryCode": "38", "address": "1991 RUE PRINCIPALE CP 88", "city": "ST-CUTHBERT", "province": "QC", "country": "CA", "postalCode": "J0K2C0", "twitter": "None", "instagram": "None", "facebook": "None", "youtube": "None", "website": "None", "summary": "None", "logo": "None", "latitude": 46.14929377506133, "longitude": -73.22191277009475}, "130057813RR0001": {"name": "LA FABRIQUE DE LA PAROISSE DE STE AURELIE", "designationCode": "C", "categoryCode": "38", "address": "159 DES BOIS-FRANCS", "city": "SAINTE-AURELIE", "province": "QC", "country": "CA", "postalCode": "G0M1M0", "twitter": "None", "instagram": "None", "facebook": "None", "youtube": "None", "website": "None", "summary": "None", "logo": "None", "latitude": 46.17659127442485, "longitude": -70.36165404893566}, "129185294RR0001": {"name": "LA FABRIQUE DE LA PAROISSE DE STE BIBIANE", "designationCode": "C", "categoryCode": "38", "address": "970 PRINCIPALE NORD", "city": "RICHMOND", "province": "QC", "country": "CA", "postalCode": "J0B2H0", "twitter": "None", "instagram": "None", "facebook": "None", "youtube": "None", "website": "None", "summary": "None", "logo": "None", "latitude": 45.667117602285124, "longitude": -72.14960556405487}, "887586394RR0001": {"name": "LA FABRIQUE DE LA PAROISSE DE STE CROIX", "designationCode": "C", "categoryCode": "38", "address": "6319 RUE PRINCIPALE", "city": "SAINTE-CROIX", "province": "QC", "country": "CA", "postalCode": "G0S2H0", "twitter": "None", "instagram": "None", "facebook": "None", "youtube": "None", "website": "None", "summary": "None", "logo": "None", "latitude": 46.62260053173897, "longitude": -71.73962999999999}, "132145137RR0001": {"name": "LA FABRIQUE DE LA PAROISSE DE STE FLORE", "designationCode": "C", "categoryCode": "38", "address": "3333, CH. DE SAINTE-FLORE", "city": "SHAWINIGAN", "province": "QC", "country": "CA", "postalCode": "G9T1A5", "twitter": "None", "instagram": "None", "facebook": "None", "youtube": "None", "website": "None", "summary": "None", "logo": "None", "latitude": 46.614766864245155, "longitude": -72.73679481066452}, "887682599RR0001": {"name": "LA FABRIQUE DE LA PAROISSE DE STE FRANCOISE ROMAINE", "designationCode": "C", "categoryCode": "38", "address": "559, PRINCIPALE EST", "city": "STE-FRANCOISE-DE-LOTBINI\u00c8RE", "province": "QC", "country": "CA", "postalCode": "G0S2N0", "twitter": "None", "instagram": "None", "facebook": "None", "youtube": "None", "website": "None", "summary": "None", "logo": "None", "latitude": 46.45067000000006, "longitude": -71.97829999999993}, "122270051RR0001": {"name": "LA FABRIQUE DE LA PAROISSE DE STE MARGUERITE", "designationCode": "C", "categoryCode": "38", "address": "80 CHEMIN MASSON", "city": "STE-MARGUERITE-DU-LAC-MASSON", "province": "QC", "country": "CA", "postalCode": "J0T1L0", "twitter": "None", "instagram": "None", "facebook": "None", "youtube": "None", "website": "None", "summary": "None", "logo": "None", "latitude": 46.03155247434921, "longitude": -74.0569255429917}, "130828197RR0001": {"name": "LA FABRIQUE DE LA PAROISSE DE STE ROSE", "designationCode": "C", "categoryCode": "38", "address": "515 RUE PRINCIPALE", "city": "SAINTE-ROSE-DE-WATFORD", "province": "QC", "country": "CA", "postalCode": "G0R4G0", "twitter": "None", "instagram": "None", "facebook": "None", "youtube": "None", "website": "None", "summary": "None", "logo": "None", "latitude": 46.319660098534214, "longitude": -70.42779634860634}, "131767360RR0001": {"name": "LA FABRIQUE DE LA PAROISSE DE STE URSULE", "designationCode": "C", "categoryCode": "38", "address": "1870 DE LA FABRIQUE", "city": "STE-URSULE", "province": "QC", "country": "CA", "postalCode": "J0K3M0", "twitter": "None", "instagram": "None", "facebook": "None", "youtube": "None", "website": "None", "summary": "None", "logo": "None", "latitude": 46.2896516261469, "longitude": -73.03397026299828}, "107366064RR0001": {"name": "LA FABRIQUE DE LA PAROISSE DE STE-AGATHE-DES-MONTS", "designationCode": "C", "categoryCode": "38", "address": "37 RUE PRINCIPALE E", "city": "SAINTE-AGATHE-DES-MONTS", "province": "QC", "country": "CA", "postalCode": "J8C1J5", "twitter": "None", "instagram": "None", "facebook": "None", "youtube": "None", "website": "None", "summary": "None", "logo": "None", "latitude": 46.046606732702536, "longitude": -74.28531684277795}, "118995133RR0001": {"name": "LA FABRIQUE DE LA PAROISSE DE STE-ANASTASIE", "designationCode": "C", "categoryCode": "38", "address": "174 RUE BETHANY", "city": "LACHUTE", "province": "QC", "country": "CA", "postalCode": "J8H2M1", "twitter": "None", "instagram": "None", "facebook": "None", "youtube": "None", "website": "None", "summary": "None", "logo": "None", "latitude": 45.654138555917875, "longitude": -74.33125043277114}, "130485923RR0001": {"name": "LA FABRIQUE DE LA PAROISSE DE STE-ANGELE DE PREMONT", "designationCode": "C", "categoryCode": "38", "address": "2350 PAUL LEMAY", "city": "STE ANGELE DE PREMONT", "province": "QC", "country": "CA", "postalCode": "J0K1R0", "twitter": "None", "instagram": "None", "facebook": "None", "youtube": "None", "website": "None", "summary": "None", "logo": "None", "latitude": 46.36389468916257, "longitude": -73.05879639835005}, "118995166RR0001": {"name": "LA FABRIQUE DE LA PAROISSE DE STE-ANNE", "designationCode": "C", "categoryCode": "38", "address": "530 STE ANNE", "city": "YAMACHICHE", "province": "QC", "country": "CA", "postalCode": "G0X3L0", "twitter": "None", "instagram": "None", "facebook": "None", "youtube": "None", "website": "None", "summary": "None", "logo": "None", "latitude": 46.282152430146354, "longitude": -72.8311069903634}, "107363285RR0001": {"name": "LA FABRIQUE DE LA PAROISSE DE STE-ELISABETH", "designationCode": "C", "categoryCode": "38", "address": "3115 CHEMIN CAPELTON", "city": "NORTH HATLEY", "province": "QC", "country": "CA", "postalCode": "J0B2C0", "twitter": "None", "instagram": "None", "facebook": "None", "youtube": "None", "website": "None", "summary": "None", "logo": "None", "latitude": 45.279295866524166, "longitude": -71.97227042244204}, "107362352RR0001": {"name": "LA FABRIQUE DE LA PAROISSE DE STE-GENEVIEVE-DE-BERTHIER", "designationCode": "C", "categoryCode": "38", "address": "780, MONTCALM                 C.P. 509", "city": "BERTHIERVILLE", "province": "QC", "country": "CA", "postalCode": "J0K1A0", "twitter": "None", "instagram": "None", "facebook": "None", "youtube": "None", "website": "None", "summary": "None", "logo": "None", "latitude": 46.080796966854265, "longitude": -73.17774336762747}, "107587701RR0001": {"name": "LA FABRIQUE DE LA PAROISSE DE STE-JULIENNE", "designationCode": "C", "categoryCode": "38", "address": "2431 RUE VICTORIA", "city": "SAINTE-JULIENNE", "province": "QC", "country": "CA", "postalCode": "J0K2T0", "twitter": "None", "instagram": "None", "facebook": "None", "youtube": "None", "website": "None", "summary": "None", "logo": "None", "latitude": 45.96231024565738, "longitude": -73.71426536190786}, "107360232RR0001": {"name": "LA FABRIQUE DE LA PAROISSE DE STE-JUSTINE", "designationCode": "C", "categoryCode": "38", "address": "240, RUE PRINCIPALE", "city": "SAINTE-JUSTINE", "province": "QC", "country": "CA", "postalCode": "G0R1Y0", "twitter": "None", "instagram": "None", "facebook": "None", "youtube": "None", "website": "None", "summary": "None", "logo": "None", "latitude": 46.41048166501233, "longitude": -70.34773155150313}, "107366981RR0001": {"name": "LA FABRIQUE DE LA PAROISSE DE STE-MARGUERITE-DE-LINGWICK", "designationCode": "C", "categoryCode": "38", "address": "68, ROUTE 108", "city": "STE-MARGUERITE-DE-LINGWICK", "province": "QC", "country": "CA", "postalCode": "J0B2Z0", "twitter": "None", "instagram": "None", "facebook": "None", "youtube": "None", "website": "None", "summary": "None", "logo": "None", "latitude": 45.65750039488201, "longitude": -71.23004293107124}, "107367070RR0001": {"name": "LA FABRIQUE DE LA PAROISSE DE STE-MARIE", "designationCode": "C", "categoryCode": "38", "address": "62, RUE NOTRE-DAME SUD", "city": "SAINTE-MARIE", "province": "QC", "country": "CA", "postalCode": "G6E4A2", "twitter": "None", "instagram": "None", "facebook": "None", "youtube": "None", "website": "None", "summary": "None", "logo": "None", "latitude": 46.437414431877095, "longitude": -71.0220832668361}, "107367153RR0001": {"name": "LA FABRIQUE DE LA PAROISSE DE STE-MONIQUE", "designationCode": "C", "categoryCode": "38", "address": "100 HONFLEUR", "city": "STE-MONIQUE", "province": "QC", "country": "CA", "postalCode": "G0W2T0", "twitter": "None", "instagram": "None", "facebook": "None", "youtube": "None", "website": "None", "summary": "None", "logo": "None", "latitude": 48.74240763864039, "longitude": -71.85092865188368}, "118995760RR0001": {"name": "LA FABRIQUE DE LA PAROISSE DE STE-MONIQUE", "designationCode": "C", "categoryCode": "38", "address": "2960 BOUL. MASSON", "city": "QUEBEC", "province": "QC", "country": "CA", "postalCode": "G1P1J6", "twitter": "None", "instagram": "None", "facebook": "None", "youtube": "None", "website": "None", "summary": "None", "logo": "None", "latitude": 46.81156145741232, "longitude": -71.32159515748184}, "107363525RR0001": {"name": "LA FABRIQUE DE LA PAROISSE DE STE-SABINE", "designationCode": "C", "categoryCode": "38", "address": "88A PRINCIPALE", "city": "STE SABINE BELLECHASSE", "province": "QC", "country": "CA", "postalCode": "G0R4H0", "twitter": "None", "instagram": "None", "facebook": "None", "youtube": "None", "website": "None", "summary": "None", "logo": "None", "latitude": 46.481211, "longitude": -70.3361835}, "107360323RR0001": {"name": "LA FABRIQUE DE LA PAROISSE DE STE-SCHOLASTIQUE", "designationCode": "C", "categoryCode": "38", "address": "10145 ST VINCENT", "city": "MIRABEL", "province": "QC", "country": "CA", "postalCode": "J7N2Y1", "twitter": "None", "instagram": "None", "facebook": "None", "youtube": "None", "website": "None", "summary": "None", "logo": "None", "latitude": 45.65350718399802, "longitude": -74.09309432884217}, "118995935RR0001": {"name": "LA FABRIQUE DE LA PAROISSE DE STE-THECLE", "designationCode": "C", "categoryCode": "38", "address": "331 RUE ST-JACQUES", "city": "STE-THECLE", "province": "QC", "country": "CA", "postalCode": "G0X3G0", "twitter": "None", "instagram": "None", "facebook": "None", "youtube": "None", "website": "None", "summary": "None", "logo": "None", "latitude": 46.81546295402095, "longitude": -72.50564949482514}, "892498965RR0001": {"name": "LA FABRIQUE DE LA PAROISSE DE VAL D'OR", "designationCode": "C", "categoryCode": "38", "address": "CP 936                        533-3E AVE", "city": "VAL-D'OR", "province": "QC", "country": "CA", "postalCode": "J9P4P8", "twitter": "None", "instagram": "None", "facebook": "None", "youtube": "None", "website": "None", "summary": "None", "logo": "None", "latitude": 48.10071961887623, "longitude": -77.78134642174955}, "888287596RR0001": {"name": "LA FABRIQUE DE LA PAROISSE DE VAL-SAINT-GILLES", "designationCode": "C", "categoryCode": "38", "address": "787 RUE PRINCIPALE", "city": "VAL SAINT-GILLES", "province": "QC", "country": "CA", "postalCode": "J0Z3T0", "twitter": "None", "instagram": "None", "facebook": "None", "youtube": "None", "website": "None", "summary": "None", "logo": "None", "latitude": 48.981619464365885, "longitude": -79.120764}, "107359994RR0001": {"name": "LA FABRIQUE DE LA PAROISSE DES SAINTS-MARTYRS-CANADIENS", "designationCode": "C", "categoryCode": "38", "address": "155 DES GROSEILLERS           CASE POSTALE 630", "city": "RADISSON", "province": "QC", "country": "CA", "postalCode": "J0Y2X0", "twitter": "None", "instagram": "None", "facebook": "None", "youtube": "None", "website": "None", "summary": "None", "logo": "None", "latitude": 53.79398672078597, "longitude": -77.61092624257029}, "118909191RR0001": {"name": "LA FABRIQUE DE LA PAROISSE DES SAINTS-MARTYRS-CANADIENS", "designationCode": "C", "categoryCode": "38", "address": "1138, ROUTE 133", "city": "SABREVOIS", "province": "QC", "country": "CA", "postalCode": "J0J2G0", "twitter": "None", "instagram": "None", "facebook": "None", "youtube": "None", "website": "None", "summary": "None", "logo": "None", "latitude": 45.20793032624076, "longitude": -73.22952032624076}, "862771508RR0001": {"name": "LA FABRIQUE DE LA PAROISSE DU BON PASTEUR", "designationCode": "C", "categoryCode": "38", "address": "920, RUE LABELLE", "city": "SAINT-JEROME", "province": "QC", "country": "CA", "postalCode": "J7Z5M5", "twitter": "None", "instagram": "None", "facebook": "None", "youtube": "None", "website": "None", "summary": "None", "logo": "None", "latitude": 45.78916910877734, "longitude": -74.00604721016748}, "132004052RR0001": {"name": "LA FABRIQUE DE LA PAROISSE DU BON PASTEUR ARCHIDIOCESE DE MONTREAL", "designationCode": "C", "categoryCode": "38", "address": "400 RUE LAURIER", "city": "VILLE DE LAVAL", "province": "QC", "country": "CA", "postalCode": "H7N2P6", "twitter": "None", "instagram": "None", "facebook": "None", "youtube": "None", "website": "None", "summary": "None", "logo": "None", "latitude": 45.54729889344438, "longitude": -73.71126409466773}, "118907427RR0001": {"name": "LA FABRIQUE DE LA PAROISSE DU COEUR IMMACULE DE MARIE", "designationCode": "C", "categoryCode": "38", "address": "6300 RUE LAURENDEAU", "city": "MONTREAL", "province": "QC", "country": "CA", "postalCode": "H4E3Y1", "twitter": "None", "instagram": "None", "facebook": "None", "youtube": "None", "website": "None", "summary": "None", "logo": "None", "latitude": 45.455769094639074, "longitude": -73.58857343040614}, "118998251RR0001": {"name": "LA FABRIQUE DE LA PAROISSE DU PRECIEUX SANG ARCHIDIOCESE", "designationCode": "C", "categoryCode": "38", "address": "115 RUE CHAUVEAU", "city": "REPENTIGNY", "province": "QC", "country": "CA", "postalCode": "J6A5C5", "twitter": "None", "instagram": "None", "facebook": "None", "youtube": "None", "website": "None", "summary": "None", "logo": "None", "latitude": 45.75887089399264, "longitude": -73.43924047172347}, "107364846RR0001": {"name": "LA FABRIQUE DE LA PAROISSE DU SACRE-COEUR", "designationCode": "C", "categoryCode": "38", "address": "38 PARENT AVE", "city": "PORT-CARTIER", "province": "QC", "country": "CA", "postalCode": "G5B2G5", "twitter": "None", "instagram": "None", "facebook": "None", "youtube": "None", "website": "None", "summary": "None", "logo": "None", "latitude": 50.019377113509215, "longitude": -66.8752512857922}, "107818247RR0001": {"name": "LA FABRIQUE DE LA PAROISSE DU SACRE-COEUR-DE-JESUS", "designationCode": "C", "categoryCode": "38", "address": "2000 ALEXANDRE-DE-SEVE", "city": "MONTREAL", "province": "QC", "country": "CA", "postalCode": "H2L2W4", "twitter": "None", "instagram": "None", "facebook": "None", "youtube": "None", "website": "None", "summary": "None", "logo": "None", "latitude": 45.52447748375561, "longitude": -73.56087128810083}, "107365884RR0001": {"name": "LA FABRIQUE DE LA PAROISSE DU SAINT-COEUR-DE-MARIE", "designationCode": "C", "categoryCode": "38", "address": "5752, AVENUE DU PONT NORD", "city": "ALMA", "province": "QC", "country": "CA", "postalCode": "G8E1W9", "twitter": "None", "instagram": "None", "facebook": "None", "youtube": "None", "website": "None", "summary": "None", "logo": "None", "latitude": 48.632307688268554, "longitude": -71.69916861783703}, "118998707RR0001": {"name": "LA FABRIQUE DE LA PAROISSE DU SAINT-ESPRIT", "designationCode": "C", "categoryCode": "38", "address": "101 SALABERRY", "city": "SALABERRY DE VALLEYFIELD", "province": "QC", "country": "CA", "postalCode": "J6T2H5", "twitter": "None", "instagram": "None", "facebook": "None", "youtube": "None", "website": "None", "summary": "None", "logo": "None", "latitude": 45.254556329390425, "longitude": -74.12430088519272}, "132346396RR0001": {"name": "LA FABRIQUE DE LA PAROISSE DU SAINT-NOM-DE-MARIE", "designationCode": "C", "categoryCode": "38", "address": "C.P. 40", "city": "LAC STE. MARIE", "province": "QC", "country": "CA", "postalCode": "J0X1Z0", "twitter": "None", "instagram": "None", "facebook": "None", "youtube": "None", "website": "None", "summary": "None", "logo": "None", "latitude": 45.94903712284054, "longitude": -75.95721390771786}, "891193740RR0001": {"name": "LA FABRIQUE DE LA PAROISSE DU SAINT-NOM-DE-MARIE", "designationCode": "C", "categoryCode": "38", "address": "1 RUE DE L'EGLISE", "city": "SAYABEC", "province": "QC", "country": "CA", "postalCode": "G0J3K0", "twitter": "None", "instagram": "None", "facebook": "None", "youtube": "None", "website": "None", "summary": "None", "logo": "None", "latitude": 48.56610642936695, "longitude": -67.68593030979915}, "132760083RR0001": {"name": "LA FABRIQUE DE LA PAROISSE DU TRES SAINT REDEMPTEUR ARCHIDIOCESE DE MONTREAL", "designationCode": "C", "categoryCode": "38", "address": "3530 RUE ADAM", "city": "MONTREAL", "province": "QC", "country": "CA", "postalCode": "H1W1Y8", "twitter": "None", "instagram": "None", "facebook": "None", "youtube": "None", "website": "None", "summary": "None", "logo": "None", "latitude": 45.54339753759601, "longitude": -73.54112185535834}, "107360919RR0001": {"name": "LA FABRIQUE DE LA PAROISSE DU TRES-SAINT-SACREMENT ARCHIDIOCESE DE MONTREAL", "designationCode": "C", "categoryCode": "38", "address": "800, RUE PROVOST", "city": "LACHINE", "province": "QC", "country": "CA", "postalCode": "H8S1M7", "twitter": "None", "instagram": "None", "facebook": "None", "youtube": "None", "website": "None", "summary": "None", "logo": "None", "latitude": 45.44199946826102, "longitude": -73.67110199999999}, "132648775RR0001": {"name": "LA FABRIQUE DE LA PAROISSE DU TRES-SAINT-SACREMENT DE QUEBEC", "designationCode": "C", "categoryCode": "38", "address": "1330 CH. SAINTE-FOY", "city": "QU\u00c9BEC", "province": "QC", "country": "CA", "postalCode": "G1S2N5", "twitter": "None", "instagram": "None", "facebook": "None", "youtube": "None", "website": "None", "summary": "None", "logo": "None", "latitude": 46.79499805329214, "longitude": -71.25376280988513}, "107368896RR0001": {"name": "LA FABRIQUE DE LA PAROISSE L'ANGE-GARDIEN", "designationCode": "C", "categoryCode": "38", "address": "540 AVENUE ARNAUD", "city": "SEPT-ILES", "province": "QC", "country": "CA", "postalCode": "G4R3B5", "twitter": "None", "instagram": "None", "facebook": "None", "youtube": "None", "website": "None", "summary": "None", "logo": "None", "latitude": 50.20725482543704, "longitude": -66.3898120481276}, "130639024RR0001": {"name": "LA FABRIQUE DE LA PAROISSE L'ASSOMPTION-DE-NOTRE-DAME DE GRANDE-RIVIERE", "designationCode": "C", "categoryCode": "38", "address": "84 LA GRANDE ALLEE E", "city": "GRANDE-RIVIERE", "province": "QC", "country": "CA", "postalCode": "G0C1V0", "twitter": "None", "instagram": "None", "facebook": "None", "youtube": "None", "website": "None", "summary": "None", "logo": "None", "latitude": 48.39808043104037, "longitude": -64.49881915445208}, "869746628RR0001": {"name": "LA FABRIQUE DE LA PAROISSE LA-SAINTE-FAMILLE-D'ORL\u00c9ANS", "designationCode": "C", "categoryCode": "39", "address": "1437, CH. ROYAL", "city": "SAINT-PIERRE-ILE-D'ORLEANS", "province": "QC", "country": "CA", "postalCode": "G0A4E0", "twitter": "None", "instagram": "None", "facebook": "None", "youtube": "None", "website": "None", "summary": "None", "logo": "None", "latitude": 46.89372942903877, "longitude": -71.0669659689277}, "118909902RR0001": {"name": "LA FABRIQUE DE LA PAROISSE MARIE-MERE-DE-L'EGLISE", "designationCode": "C", "categoryCode": "38", "address": "52 RUE DE L'ANSE              C.P. 23", "city": "AGUANISH", "province": "QC", "country": "CA", "postalCode": "G0G1A0", "twitter": "None", "instagram": "None", "facebook": "None", "youtube": "None", "website": "None", "summary": "None", "logo": "None", "latitude": 50.223365978908184, "longitude": -62.086914770875474}, "118998392RR0001": {"name": "LA FABRIQUE DE LA PAROISSE MARIE-REINE DES COEURS DE LOTS RENVERSES", "designationCode": "C", "categoryCode": "38", "address": "92 ROUTE 295", "city": "LOTS RENVERSES", "province": "QC", "country": "CA", "postalCode": "G0L1V0", "twitter": "None", "instagram": "None", "facebook": "None", "youtube": "None", "website": "None", "summary": "None", "logo": "None", "latitude": 47.661721379940836, "longitude": -68.66552557871128}, "888802014RR0001": {"name": "LA FABRIQUE DE LA PAROISSE NATIVITE-DE-JESUS", "designationCode": "C", "categoryCode": "39", "address": "75, RUE MORRIS", "city": "SHERBROOKE", "province": "QC", "country": "CA", "postalCode": "J1J2L8", "twitter": "None", "instagram": "None", "facebook": "None", "youtube": "None", "website": "None", "summary": "None", "logo": "None", "latitude": 45.39956271135091, "longitude": -71.93383951364731}, "118991678RR0001": {"name": "LA FABRIQUE DE LA PAROISSE NOTRE DAME DE LA COMPASSION DE LES BOULES", "designationCode": "C", "categoryCode": "38", "address": "140 RUE PRINCIPALE", "city": "METIS-SUR-MER", "province": "QC", "country": "CA", "postalCode": "G0J1S0", "twitter": "None", "instagram": "None", "facebook": "None", "youtube": "None", "website": "None", "summary": "None", "logo": "None", "latitude": 48.683696177332926, "longitude": -67.96418293254094}, "118998434RR0001": {"name": "LA FABRIQUE DE LA PAROISSE NOTRE-DAME DE LA VISITATION", "designationCode": "C", "categoryCode": "38", "address": "989 RUE NOTRE-DAME", "city": "CHAMPLAIN", "province": "QC", "country": "CA", "postalCode": "G0X1C0", "twitter": "None", "instagram": "None", "facebook": "None", "youtube": "None", "website": "None", "summary": "None", "logo": "None", "latitude": 46.44112741719058, "longitude": -72.34265371455356}, "118998426RR0001": {"name": "LA FABRIQUE DE LA PAROISSE NOTRE-DAME DU MONT-CARMEL DE PORT-DANIEL", "designationCode": "C", "categoryCode": "38", "address": "101 ROUTE DE L'EGLISE", "city": "PORT DANIEL", "province": "QC", "country": "CA", "postalCode": "G0C2N0", "twitter": "None", "instagram": "None", "facebook": "None", "youtube": "None", "website": "None", "summary": "None", "logo": "None", "latitude": 48.18284812396036, "longitude": -64.95800573174935}, "130365992RR0001": {"name": "LA FABRIQUE DE LA PAROISSE NOTRE-DAME-AUXILIATRICE DE BUCKLAND", "designationCode": "C", "categoryCode": "38", "address": "4306 RUE PRINCIPALE", "city": "BUCKLAND", "province": "QC", "country": "CA", "postalCode": "G0R1G0", "twitter": "None", "instagram": "None", "facebook": "None", "youtube": "None", "website": "None", "summary": "None", "logo": "None", "latitude": 46.61945875408284, "longitude": -70.54533511460572}, "131296121RR0001": {"name": "LA FABRIQUE DE LA PAROISSE NOTRE-DAME-DE-BON-SECOURS", "designationCode": "C", "categoryCode": "38", "address": "543 RUE NOTRE-DAME", "city": "MONTEBELLO", "province": "QC", "country": "CA", "postalCode": "J0V1L0", "twitter": "None", "instagram": "None", "facebook": "None", "youtube": "None", "website": "None", "summary": "None", "logo": "None", "latitude": 45.650212519331475, "longitude": -74.93974458243406}, "107368136RR0001": {"name": "LA FABRIQUE DE LA PAROISSE NOTRE-DAME-DE-L'ESP\u00c9RANCE", "designationCode": "C", "categoryCode": "38", "address": "4100 BOUL. DE PORT-ROYAL", "city": "BECANCOUR", "province": "QC", "country": "CA", "postalCode": "G9H1Y9", "twitter": "None", "instagram": "None", "facebook": "None", "youtube": "None", "website": "None", "summary": "None", "logo": "None", "latitude": 46.272591808471496, "longitude": -72.51159279104367}, "107361859RR0001": {"name": "LA FABRIQUE DE LA PAROISSE NOTRE-DAME-DE-LA-PAIX", "designationCode": "C", "categoryCode": "38", "address": "620, RUE NOTRE-DAME", "city": "BON-CONSEIL", "province": "QC", "country": "CA", "postalCode": "J0C1A0", "twitter": "None", "instagram": "None", "facebook": "None", "youtube": "None", "website": "None", "summary": "None", "logo": "None", "latitude": 46.001018528427295, "longitude": -72.34301132201942}, "860517622RR0001": {"name": "LA FABRIQUE DE LA PAROISSE NOTRE-DAME-DE-LA-PAIX", "designationCode": "C", "categoryCode": "38", "address": "305 GRANDE-COTE", "city": "BOISBRIAND", "province": "QC", "country": "CA", "postalCode": "J7G1B3", "twitter": "None", "instagram": "None", "facebook": "None", "youtube": "None", "website": "None", "summary": "None", "logo": "None", "latitude": 45.61038970944633, "longitude": -73.83098029009138}, "130148026RR0001": {"name": "LA FABRIQUE DE LA PAROISSE NOTRE-DAME-DE-LORETTE", "designationCode": "C", "categoryCode": "38", "address": "33, AV. LUSSIER", "city": "PINCOURT", "province": "QC", "country": "CA", "postalCode": "J7W5B1", "twitter": "None", "instagram": "None", "facebook": "None", "youtube": "None", "website": "None", "summary": "None", "logo": "None", "latitude": 45.3713096488835, "longitude": -73.99348560476662}, "107587461RR0001": {"name": "LA FABRIQUE DE LA PAROISSE NOTRE-DAME-DE-LOURDES", "designationCode": "C", "categoryCode": "38", "address": "299 NOTRE DAME                CP 67", "city": "ST GERMAIN DE GRANTHAM", "province": "QC", "country": "CA", "postalCode": "J0C1K0", "twitter": "None", "instagram": "None", "facebook": "None", "youtube": "None", "website": "None", "summary": "None", "logo": "None", "latitude": 45.83992902660309, "longitude": -72.57076126706724}, "894810621RR0001": {"name": "LA FABRIQUE DE LA PAROISSE NOTRE-DAME-DE-ROCAMADOUR", "designationCode": "C", "categoryCode": "38", "address": "3055 2E AV", "city": "QUEBEC", "province": "QC", "country": "CA", "postalCode": "G1L3G1", "twitter": "None", "instagram": "None", "facebook": "None", "youtube": "None", "website": "None", "summary": "None", "logo": "None", "latitude": 46.83967693669587, "longitude": -71.2431754373301}, "142655760RR0002": {"name": "LA FABRIQUE DE LA PAROISSE NOTRE-DAME-DE-SAINT-ROCH", "designationCode": "C", "categoryCode": "38", "address": "590 RUE SAINT-JOSEPH E", "city": "QUEBEC", "province": "QC", "country": "CA", "postalCode": "G1K3B8", "twitter": "None", "instagram": "None", "facebook": "None", "youtube": "None", "website": "None", "summary": "None", "logo": "None"}, "889153797RR0001": {"name": "LA FABRIQUE DE LA PAROISSE NOTRE-DAME-DE-VANIER", "designationCode": "C", "categoryCode": "38", "address": "260 AVENUE BELANGER", "city": "VANIER", "province": "QC", "country": "CA", "postalCode": "G1M1V8", "twitter": "None", "instagram": "None", "facebook": "None", "youtube": "None", "website": "None", "summary": "None", "logo": "None", "latitude": 46.81626020151182, "longitude": -71.25840989852294}, "131893232RR0001": {"name": "LA FABRIQUE DE LA PAROISSE NOTRE-DAME-DES-ANGES", "designationCode": "C", "categoryCode": "38", "address": "420 PRINCIPALE", "city": "NOTRE-DAME DE MONTAUBAN", "province": "QC", "country": "CA", "postalCode": "G0X1W0", "twitter": "None", "instagram": "None", "facebook": "None", "youtube": "None", "website": "None", "summary": "None", "logo": "None", "latitude": 46.87842881574219, "longitude": -72.30804704296212}, "890316847RR0001": {"name": "LA FABRIQUE DE LA PAROISSE NOTRE-DAME-DES-COTEAUX", "designationCode": "C", "categoryCode": "38", "address": "204, ROUTE 397", "city": "LA MORANDIERE", "province": "QC", "country": "CA", "postalCode": "J0Y1S0", "twitter": "None", "instagram": "None", "facebook": "None", "youtube": "None", "website": "None", "summary": "None", "logo": "None", "latitude": 48.61497948999638, "longitude": -77.63793321667657}, "118997253RR0001": {"name": "LA FABRIQUE DE LA PAROISSE NOTRE-DAME-DES-MONTAGNES", "designationCode": "C", "categoryCode": "38", "address": "401 RUE BRASSARD", "city": "ST-MICHEL DE SAINTS", "province": "QC", "country": "CA", "postalCode": "J0K3B0", "twitter": "None", "instagram": "None", "facebook": "None", "youtube": "None", "website": "None", "summary": "None", "logo": "None", "latitude": 46.675924009983326, "longitude": -73.91708750727068}, "142273143RR0001": {"name": "LA FABRIQUE DE LA PAROISSE NOTRE-DAME-DU-BON-CONSEIL D'OTTERBURN PARK", "designationCode": "C", "categoryCode": "38", "address": "120 RUE GERVAIS", "city": "OTTERBURN PARK", "province": "QC", "country": "CA", "postalCode": "J3H1B1", "twitter": "None", "instagram": "None", "facebook": "None", "youtube": "None", "website": "None", "summary": "None", "logo": "None", "latitude": 45.54015185899368, "longitude": -73.21903264322802}, "868123118RR0001": {"name": "LA FABRIQUE DE LA PAROISSE NOTRE-DAME-DU-SACRE-COEUR", "designationCode": "C", "categoryCode": "38", "address": "322 RUE PRINCIPALE", "city": "GRENVILLE", "province": "QC", "country": "CA", "postalCode": "J0V1J0", "twitter": "None", "instagram": "None", "facebook": "None", "youtube": "None", "website": "None", "summary": "None", "logo": "None", "latitude": 45.625760577067005, "longitude": -74.6036375597557}, "107361230RR0001": {"name": "LA FABRIQUE DE LA PAROISSE NOTRE-DAME-DU-SAINT-ROSAIRE", "designationCode": "C", "categoryCode": "38", "address": "10 RUE DE FATIMA E", "city": "BEAUPRE", "province": "QC", "country": "CA", "postalCode": "G0A1E0", "twitter": "None", "instagram": "None", "facebook": "None", "youtube": "None", "website": "None", "summary": "None", "logo": "None", "latitude": 47.049295247900986, "longitude": -70.88477342436312}, "107807836RR0001": {"name": "LA FABRIQUE DE LA PAROISSE OUR LADY OF PERPETUAL HELP", "designationCode": "C", "categoryCode": "38", "address": "34 RUE SAINT-CHARLES", "city": "CHATEAUGUAY", "province": "QC", "country": "CA", "postalCode": "J6J5E6", "twitter": "None", "instagram": "None", "facebook": "None", "youtube": "None", "website": "None", "summary": "None", "logo": "None", "latitude": 45.36554695475795, "longitude": -73.72495452801672}, "131373540RR0001": {"name": "LA FABRIQUE DE LA PAROISSE PRECIEUX-SANG-DE-NOTRE-SEIGNEUR-JESUS-CHRIST", "designationCode": "C", "categoryCode": "38", "address": "2565 RUE SAINT-PIERRE OUEST", "city": "SAINT-HYACINTHE", "province": "QC", "country": "CA", "postalCode": "J2T1R4", "twitter": "None", "instagram": "None", "facebook": "None", "youtube": "None", "website": "None", "summary": "None", "logo": "None", "latitude": 45.61810182936595, "longitude": -72.95264519477642}}