{"130263767RR0001": {"name": "ST PETER'S CHURCH", "designationCode": "C", "categoryCode": "30", "address": "75, CHEMIN DU GEAI BLEU", "city": "STONEHAM", "province": "QC", "country": "CA", "postalCode": "G3C0J6", "twitter": "None", "instagram": "None", "facebook": "None", "youtube": "None", "website": "None", "summary": "None", "logo": "None", "latitude": 47.023999698886115, "longitude": -71.36162130740362}, "134069962RR0001": {"name": "ST PETER'S CHURCH", "designationCode": "C", "categoryCode": "30", "address": "19 INVERGORDON AVENUE", "city": "MINDEN", "province": "ON", "country": "CA", "postalCode": "K0M2K0", "twitter": "None", "instagram": "None", "facebook": "None", "youtube": "None", "website": "None", "summary": "None", "logo": "None", "latitude": 44.9276138280629, "longitude": -78.72390274960533}, "890151046RR0001": {"name": "ST PETER'S CHURCH", "designationCode": "C", "categoryCode": "30", "address": "6254 YOUNGE ST. RR#1", "city": "CHURCHILL", "province": "ON", "country": "CA", "postalCode": "L0L1K0", "twitter": "None", "instagram": "None", "facebook": "None", "youtube": "None", "website": "None", "summary": "None", "logo": "None", "latitude": 44.25045425728547, "longitude": -79.60067637414154}, "119264174RR0010": {"name": "ST PETER'S CHURCH PARISH", "designationCode": "C", "categoryCode": "38", "address": "615 CONNOLLY ST", "city": "THUNDER BAY", "province": "ON", "country": "CA", "postalCode": "P7C2R4", "twitter": "None", "instagram": "None", "facebook": "None", "youtube": "None", "website": "None", "summary": "None", "logo": "None", "latitude": 48.39391972773956, "longitude": -89.23088363587043}, "119197986RR0002": {"name": "ST PETER'S CHURCH PARISH OF TANGIER", "designationCode": "C", "categoryCode": "30", "address": "16015 HIGHWAY 7", "city": "TANGIER", "province": "NS", "country": "CA", "postalCode": "B0J3H0", "twitter": "None", "instagram": "None", "facebook": "None", "youtube": "None", "website": "None", "summary": "None", "logo": "None", "latitude": 44.78700327176951, "longitude": -62.75921563070587}, "130697311RR0001": {"name": "ST PETER'S CHURCH SCARBOROUGH", "designationCode": "C", "categoryCode": "30", "address": "776 BRIMLEY ROAD", "city": "SCARBOROUGH", "province": "ON", "country": "CA", "postalCode": "M1J1C6", "twitter": "None", "instagram": "None", "facebook": "None", "youtube": "None", "website": "None", "summary": "None", "logo": "None", "latitude": 43.75071649734561, "longitude": -79.25423670185761}, "119198026RR0002": {"name": "ST PETER'S CHURCH SIX NATIONS RESERVE WEST PARISH", "designationCode": "C", "categoryCode": "30", "address": "RR 6                          241 CHIEFSWOOD ROAD", "city": "HAGERSVILLE", "province": "ON", "country": "CA", "postalCode": "N0A1H0", "twitter": "None", "instagram": "None", "facebook": "None", "youtube": "None", "website": "None", "summary": "None", "logo": "None", "latitude": 43.01239224713034, "longitude": -80.15518590392425}, "887364594RR0001": {"name": "ST PETER'S CONCERT SOCIETY", "designationCode": "C", "categoryCode": "22", "address": "P.O. BOX 2463", "city": "HUMBOLDT", "province": "SK", "country": "CA", "postalCode": "S0K2A0", "twitter": "None", "instagram": "None", "facebook": "None", "youtube": "None", "website": "None", "summary": "None", "logo": "None", "latitude": 51.7871843348964, "longitude": -104.71638483007007}, "132410671RR0325": {"name": "ST PETER'S CONFERENCE OF THE SOCIETY OF ST VINCENT DE PAUL", "designationCode": "C", "categoryCode": "09", "address": "140 DUNDAS STREET WEST", "city": "TRENTON", "province": "ON", "country": "CA", "postalCode": "K8V3P5", "twitter": "None", "instagram": "None", "facebook": "None", "youtube": "None", "website": "None", "summary": "None", "logo": "None", "latitude": 44.099282932021346, "longitude": -77.57888903318128}, "889635942RR0001": {"name": "ST PETER'S COUNCIL NO 11128 CHARITABLE WELFARE TRUST", "designationCode": "A", "categoryCode": "65", "address": "566 ROSEDALE AVE", "city": "SARNIA", "province": "ON", "country": "CA", "postalCode": "N7V1Z4", "twitter": "None", "instagram": "None", "facebook": "None", "youtube": "None", "website": "None", "summary": "None", "logo": "None", "latitude": 42.990935329667295, "longitude": -82.39179580058878}, "891837643RR0001": {"name": "ST PETER'S ESTONIAN EVANGELICAL CHURCH IN VANCOUVER", "designationCode": "C", "categoryCode": "32", "address": "6520 OAK ST.", "city": "VANCOUVER", "province": "BC", "country": "CA", "postalCode": "V6P3Z2", "twitter": "None", "instagram": "None", "facebook": "None", "youtube": "None", "website": "None", "summary": "None", "logo": "None", "latitude": 49.22620049125743, "longitude": -123.12831200161611}, "119198497RR0001": {"name": "ST PETER'S EVANGELICAL LUTHERAN CHURCH", "designationCode": "C", "categoryCode": "32", "address": "400 SPARKS ST", "city": "OTTAWA", "province": "ON", "country": "CA", "postalCode": "K1R5A2", "twitter": "None", "instagram": "None", "facebook": "None", "youtube": "None", "website": "None", "summary": "None", "logo": "None", "latitude": 45.41852077849288, "longitude": -75.7073490787987}, "119198539RR0001": {"name": "ST PETER'S EVANGELICAL LUTHERAN CHURCH", "designationCode": "C", "categoryCode": "32", "address": "53 MAIN STREET N              PO BOX 403", "city": "MILVERTON", "province": "ON", "country": "CA", "postalCode": "N0K1M0", "twitter": "None", "instagram": "None", "facebook": "None", "youtube": "None", "website": "None", "summary": "None", "logo": "None", "latitude": 43.568125941716204, "longitude": -80.92044910436259}, "119198547RR0001": {"name": "ST PETER'S EVANGELICAL LUTHERAN CHURCH", "designationCode": "C", "categoryCode": "32", "address": "810 KING STREET", "city": "CAMBRIDGE", "province": "ON", "country": "CA", "postalCode": "N3H3P2", "twitter": "None", "instagram": "None", "facebook": "None", "youtube": "None", "website": "None", "summary": "None", "logo": "None", "latitude": 43.39491920480138, "longitude": -80.35665311298959}, "130826886RR0001": {"name": "ST PETER'S EVANGELICAL LUTHERAN CHURCH", "designationCode": "C", "categoryCode": "32", "address": "RR5 610 LUBITZ ROAD", "city": "PEMBROKE", "province": "ON", "country": "CA", "postalCode": "K8A6W6", "twitter": "None", "instagram": "None", "facebook": "None", "youtube": "None", "website": "None", "summary": "None", "logo": "None", "latitude": 45.79839815105126, "longitude": -77.2414614803764}, "131157323RR0001": {"name": "ST PETER'S EVANGELICAL LUTHERAN CHURCH", "designationCode": "C", "categoryCode": "32", "address": "2925 KRESSLER RD", "city": "HEIDELBERG", "province": "ON", "country": "CA", "postalCode": "N0B2M1", "twitter": "None", "instagram": "None", "facebook": "None", "youtube": "None", "website": "None", "summary": "None", "logo": "None", "latitude": 43.531714151260395, "longitude": -80.61744654079874}, "870741949RR0001": {"name": "ST PETER'S EVANGELICAL LUTHERAN CHURCH KITCHENER", "designationCode": "C", "categoryCode": "32", "address": "49 QUEEN ST N", "city": "KITCHENER", "province": "ON", "country": "CA", "postalCode": "N2H2G9", "twitter": "None", "instagram": "None", "facebook": "None", "youtube": "None", "website": "None", "summary": "None", "logo": "None", "latitude": 43.45126061835664, "longitude": -80.48800918702779}, "135122620RR0001": {"name": "ST PETER'S EVANGELICAL LUTHERAN CHURCH SULLIVAN TOWNSHIP GREY COUNTY", "designationCode": "C", "categoryCode": "32", "address": "682006 CONCESSION 8 RR1", "city": "DESBORO", "province": "ON", "country": "CA", "postalCode": "N0H1K0", "twitter": "None", "instagram": "None", "facebook": "None", "youtube": "None", "website": "None", "summary": "None", "logo": "None", "latitude": 44.348948064045636, "longitude": -80.97938129774697}, "119198562RR0001": {"name": "ST PETER'S GRAND RIVER-LOCH LOMOND PASTORAL CHARGE", "designationCode": "C", "categoryCode": "44", "address": "PO BOX 201", "city": "ST. PETER'S", "province": "NS", "country": "CA", "postalCode": "B0E3B0", "twitter": "None", "instagram": "None", "facebook": "None", "youtube": "None", "website": "None", "summary": "None", "logo": "None", "latitude": 45.691080000000056, "longitude": -60.747042499999935}, "119198588RR0001": {"name": "ST PETER'S HOSPITAL", "designationCode": "C", "categoryCode": "10", "address": "BOX 1810", "city": "MELVILLE", "province": "SK", "country": "CA", "postalCode": "S0A2P0", "twitter": "None", "instagram": "None", "facebook": "None", "youtube": "None", "website": "None", "summary": "None", "logo": "None", "latitude": 50.87164886256234, "longitude": -103.09293300498788}, "139155717RR0001": {"name": "ST PETER'S HOSPITAL FOUNDATION (MELVILLE) INC", "designationCode": "A", "categoryCode": "13", "address": "BOX 1810", "city": "MELVILLE", "province": "SK", "country": "CA", "postalCode": "S0A2P0", "twitter": "None", "instagram": "None", "facebook": "None", "youtube": "None", "website": "None", "summary": "None", "logo": "None", "latitude": 50.87164886256234, "longitude": -103.09293300498788}, "119198604RR0001": {"name": "ST PETER'S LUTHERAN CHURCH", "designationCode": "C", "categoryCode": "32", "address": "130 SOURIS AVENUE NORTH", "city": "ESTEVAN", "province": "SK", "country": "CA", "postalCode": "S4A1J6", "twitter": "None", "instagram": "None", "facebook": "None", "youtube": "None", "website": "None", "summary": "None", "logo": "None", "latitude": 49.149589374910896, "longitude": -102.99176878665463}, "119198612RR0001": {"name": "ST PETER'S LUTHERAN CHURCH", "designationCode": "C", "categoryCode": "32", "address": "PO BOX 98", "city": "CHESTER", "province": "NS", "country": "CA", "postalCode": "B0J1J0", "twitter": "None", "instagram": "None", "facebook": "None", "youtube": "None", "website": "None", "summary": "None", "logo": "None", "latitude": 44.549654888646664, "longitude": -64.2288348174421}, "119198638RR0001": {"name": "ST PETER'S LUTHERAN CHURCH", "designationCode": "C", "categoryCode": "32", "address": "200 ERIE ST", "city": "PORT COLBORNE", "province": "ON", "country": "CA", "postalCode": "L3K4M4", "twitter": "None", "instagram": "None", "facebook": "None", "youtube": "None", "website": "None", "summary": "None", "logo": "None", "latitude": 42.89713113044607, "longitude": -79.25352091719057}, "119198679RR0001": {"name": "ST PETER'S LUTHERAN CHURCH", "designationCode": "C", "categoryCode": "32", "address": "493 HIBERNIA ST", "city": "STRATFORD", "province": "ON", "country": "CA", "postalCode": "N5A5W2", "twitter": "None", "instagram": "None", "facebook": "None", "youtube": "None", "website": "None", "summary": "None", "logo": "None", "latitude": 43.38062983345845, "longitude": -81.00074467306241}, "130399389RR0001": {"name": "ST PETER'S LUTHERAN CHURCH", "designationCode": "C", "categoryCode": "32", "address": "RR#1", "city": "TEES", "province": "AB", "country": "CA", "postalCode": "T0C2N0", "twitter": "None", "instagram": "None", "facebook": "None", "youtube": "None", "website": "None", "summary": "None", "logo": "None", "latitude": 52.463139000000055, "longitude": -113.31718999999993}, "130526015RR0001": {"name": "ST PETER'S LUTHERAN CHURCH", "designationCode": "C", "categoryCode": "32", "address": "5012 51 AVE", "city": "LEDUC", "province": "AB", "country": "CA", "postalCode": "T9E5L2", "twitter": "None", "instagram": "None", "facebook": "None", "youtube": "None", "website": "None", "summary": "None", "logo": "None", "latitude": 53.265600533181264, "longitude": -113.55389329961335}, "131157836RR0001": {"name": "ST PETER'S LUTHERAN CHURCH", "designationCode": "C", "categoryCode": "32", "address": "BOX 389", "city": "OXBOW", "province": "SK", "country": "CA", "postalCode": "S0C2B0", "twitter": "None", "instagram": "None", "facebook": "None", "youtube": "None", "website": "None", "summary": "None", "logo": "None", "latitude": 49.23346331645773, "longitude": -102.17827573496838}, "132152836RR0001": {"name": "ST PETER'S LUTHERAN CHURCH", "designationCode": "C", "categoryCode": "32", "address": "PO BOX 608                    441 BROWN ST", "city": "WIARTON", "province": "ON", "country": "CA", "postalCode": "N0H2T0", "twitter": "None", "instagram": "None", "facebook": "None", "youtube": "None", "website": "None", "summary": "None", "logo": "None", "latitude": 44.73955881709849, "longitude": -81.13698348205351}, "132171505RR0001": {"name": "ST PETER'S LUTHERAN CHURCH", "designationCode": "C", "categoryCode": "32", "address": "115 CAMBRIA ST", "city": "STRATFORD", "province": "ON", "country": "CA", "postalCode": "N5A1H2", "twitter": "None", "instagram": "None", "facebook": "None", "youtube": "None", "website": "None", "summary": "None", "logo": "None", "latitude": 43.3648129977783, "longitude": -80.98621380697094}, "132530957RR0001": {"name": "ST PETER'S LUTHERAN CHURCH", "designationCode": "C", "categoryCode": "32", "address": "TREASURER                     P.O. BOX 24", "city": "ZURICH", "province": "ON", "country": "CA", "postalCode": "N0M2T0", "twitter": "None", "instagram": "None", "facebook": "None", "youtube": "None", "website": "None", "summary": "None", "logo": "None", "latitude": 43.47139200000005, "longitude": -81.71445949999993}, "141076281RR0001": {"name": "ST PETER'S LUTHERAN CHURCH", "designationCode": "C", "categoryCode": "32", "address": "73 GEORGE FOX TRAIL", "city": "COCHRANE", "province": "AB", "country": "CA", "postalCode": "T4C2E6", "twitter": "None", "instagram": "None", "facebook": "None", "youtube": "None", "website": "None", "summary": "None", "logo": "None", "latitude": 51.18157148704887, "longitude": -114.48972001952306}, "892571464RR0001": {"name": "ST PETER'S LUTHERAN CHURCH", "designationCode": "C", "categoryCode": "32", "address": "1046 GORDON HAIN", "city": "LINWOOD", "province": "ON", "country": "CA", "postalCode": "N0B2A0", "twitter": "None", "instagram": "None", "facebook": "None", "youtube": "None", "website": "None", "summary": "None", "logo": "None", "latitude": 43.58129834904928, "longitude": -80.72694367575494}, "132062324RR0001": {"name": "ST PETER'S LUTHERAN CHURCH BRODHAGEN", "designationCode": "C", "categoryCode": "32", "address": "PO BOX 552", "city": "BRUSSELS", "province": "ON", "country": "CA", "postalCode": "N0G1H0", "twitter": "None", "instagram": "None", "facebook": "None", "youtube": "None", "website": "None", "summary": "None", "logo": "None", "latitude": 43.714084384656786, "longitude": -81.27334948961246}, "892411240RR0001": {"name": "ST PETER'S LUTHERAN CHURCH, SCAPA, ALBERTA", "designationCode": "C", "categoryCode": "32", "address": "BOX 425", "city": "HANNA", "province": "AB", "country": "CA", "postalCode": "T0J1P0", "twitter": "None", "instagram": "None", "facebook": "None", "youtube": "None", "website": "None", "summary": "None", "logo": "None", "latitude": 51.64780345530559, "longitude": -111.93814762829588}, "119198810RR0001": {"name": "ST PETER'S PARISH", "designationCode": "C", "categoryCode": "38", "address": "PO BOX 70, 287 MAIN STREET", "city": "PORT HOOD", "province": "NS", "country": "CA", "postalCode": "B0E2W0", "twitter": "None", "instagram": "None", "facebook": "None", "youtube": "None", "website": "None", "summary": "None", "logo": "None", "latitude": 46.01905517539969, "longitude": -61.53386167600526}, "119229896RR0038": {"name": "ST PETER'S PARISH", "designationCode": "C", "categoryCode": "30", "address": "1219 C.B. HIGHWAY", "city": "CONCEPTION BAY SOUTH", "province": "NL", "country": "CA", "postalCode": "A1X4E9", "twitter": "None", "instagram": "None", "facebook": "None", "youtube": "None", "website": "None", "summary": "None", "logo": "None", "latitude": 47.479254000000054, "longitude": -53.05321249999993}, "128967353RR0105": {"name": "ST PETER'S PARISH", "designationCode": "C", "categoryCode": "38", "address": "1640 HEATHERINGTON RD", "city": "OTTAWA", "province": "ON", "country": "CA", "postalCode": "K1V9P5", "twitter": "None", "instagram": "None", "facebook": "None", "youtube": "None", "website": "None", "summary": "None", "logo": "None", "latitude": 45.37423122303574, "longitude": -75.64401259123231}, "119198984RR0001": {"name": "ST PETER'S PRESBYTERIAN CHURCH", "designationCode": "C", "categoryCode": "37", "address": "SANDRA SPILMAN                133 IRISHTOWN RD", "city": "STANLEY", "province": "NB", "country": "CA", "postalCode": "E6B1B7", "twitter": "None", "instagram": "None", "facebook": "None", "youtube": "None", "website": "None", "summary": "None", "logo": "None", "latitude": 46.27642752264968, "longitude": -66.71681244601535}, "131106098RR0015": {"name": "ST PETER'S ROMAN CATHOLIC PARISH", "designationCode": "C", "categoryCode": "38", "address": "P.O. BOX 280", "city": "CHURCHILL FALLS", "province": "NL", "country": "CA", "postalCode": "A0R1A0", "twitter": "None", "instagram": "None", "facebook": "None", "youtube": "None", "website": "None", "summary": "None", "logo": "None", "latitude": 53.53036000000003, "longitude": -64.00151999999997}, "119199016RR0001": {"name": "ST PETER'S SEMINARY CORPORATION", "designationCode": "C", "categoryCode": "20", "address": "1040 WATERLOO ST N", "city": "LONDON", "province": "ON", "country": "CA", "postalCode": "N6A3Y1", "twitter": "None", "instagram": "None", "facebook": "None", "youtube": "None", "website": "None", "summary": "None", "logo": "None", "latitude": 43.010288943392744, "longitude": -81.25502440431382}, "119199065RR0001": {"name": "ST PETER'S UNITED CHURCH", "designationCode": "C", "categoryCode": "44", "address": "203 YORK STREET", "city": "SUDBURY", "province": "ON", "country": "CA", "postalCode": "P3E2A2", "twitter": "None", "instagram": "None", "facebook": "None", "youtube": "None", "website": "None", "summary": "None", "logo": "None", "latitude": 46.47536732648971, "longitude": -81.00239682043015}, "131984783RR0001": {"name": "ST PETER'S-ON-THE-ROCK CHURCH", "designationCode": "C", "categoryCode": "30", "address": "P.O. BOX 1566                 R R # 4", "city": "LAKEFIELD", "province": "ON", "country": "CA", "postalCode": "K0L2H0", "twitter": "None", "instagram": "None", "facebook": "None", "youtube": "None", "website": "None", "summary": "None", "logo": "None", "latitude": 44.42423400962237, "longitude": -78.26350770588431}, "888584190RR0001": {"name": "ST PETERS & ST PAULS UKRAINIAN GREEK CATHOLIC CHURCH BODNARI", "designationCode": "C", "categoryCode": "38", "address": "BOX 183", "city": "FOAM LAKE", "province": "SK", "country": "CA", "postalCode": "S0A1A0", "twitter": "None", "instagram": "None", "facebook": "None", "youtube": "None", "website": "None", "summary": "None", "logo": "None", "latitude": 51.637590000000046, "longitude": -103.53518999999994}, "890128531RR0001": {"name": "ST PETERS ANGLICAN CHURCH", "designationCode": "C", "categoryCode": "30", "address": "4333 BATH ROAD", "city": "KINGSTON", "province": "ON", "country": "CA", "postalCode": "K7M4Z1", "twitter": "None", "instagram": "None", "facebook": "None", "youtube": "None", "website": "None", "summary": "None", "logo": "None", "latitude": 44.22644411855816, "longitude": -76.62842097561862}, "887701662RR0001": {"name": "ST PETERS CHARITABLE FOUNDATION", "designationCode": "A", "categoryCode": "43", "address": "903 75TH AVE. S.W.", "city": "CALGARY", "province": "AB", "country": "CA", "postalCode": "T2V0S7", "twitter": "None", "instagram": "None", "facebook": "None", "youtube": "None", "website": "None", "summary": "None", "logo": "None", "latitude": 50.985717329159286, "longitude": -114.0840781831613}, "888190642RR0001": {"name": "ST PETERS PRESBYTERIAN CHURCH", "designationCode": "C", "categoryCode": "37", "address": "50 WYNFORD DR", "city": "NORTH YORK", "province": "ON", "country": "CA", "postalCode": "M3C1J7", "twitter": "None", "instagram": "None", "facebook": "None", "youtube": "None", "website": "None", "summary": "None", "logo": "None", "latitude": 43.72435963310046, "longitude": -79.3345945359799}, "888718285RR0001": {"name": "ST PHILIP EDUCATION SOCIETY", "designationCode": "C", "categoryCode": "21", "address": "13825 PARKSIDE DR SE", "city": "CALGARY", "province": "AB", "country": "CA", "postalCode": "T2J5A8", "twitter": "None", "instagram": "None", "facebook": "None", "youtube": "None", "website": "None", "summary": "None", "logo": "None", "latitude": 50.92783692423106, "longitude": -114.03759486248478}, "119199099RR0001": {"name": "ST PHILIP NERI CHURCH", "designationCode": "C", "categoryCode": "38", "address": "BOX 760", "city": "ARBORG", "province": "MB", "country": "CA", "postalCode": "R0C0A0", "twitter": "None", "instagram": "None", "facebook": "None", "youtube": "None", "website": "None", "summary": "None", "logo": "None", "latitude": 50.91022850109325, "longitude": -97.2043884534773}, "119199149RR0001": {"name": "ST PHILIP'S AFRICAN ORTHODOX CHURCH", "designationCode": "C", "categoryCode": "39", "address": "57 HANKARD ST", "city": "SYDNEY", "province": "NS", "country": "CA", "postalCode": "B1N2C2", "twitter": "None", "instagram": "None", "facebook": "None", "youtube": "None", "website": "None", "summary": "None", "logo": "None", "latitude": 46.153372347221364, "longitude": -60.179516234808666}, "119199172RR0001": {"name": "ST PHILIP'S ANGLICAN CHURCH", "designationCode": "C", "categoryCode": "30", "address": "3018 DOAN DRIVE", "city": "REGINA", "province": "SK", "country": "CA", "postalCode": "S4V1M1", "twitter": "None", "instagram": "None", "facebook": "None", "youtube": "None", "website": "None", "summary": "None", "logo": "None", "latitude": 50.43040362173217, "longitude": -104.54718113411006}, "119199321RR0002": {"name": "ST PHILIP'S ANGLICAN CHURCH", "designationCode": "C", "categoryCode": "30", "address": "240 TACHE AVENUE", "city": "WINNIPEG", "province": "MB", "country": "CA", "postalCode": "R2H1Z7", "twitter": "None", "instagram": "None", "facebook": "None", "youtube": "None", "website": "None", "summary": "None", "logo": "None", "latitude": 49.87927107438397, "longitude": -97.12318029401611}, "133909861RR0001": {"name": "ST PHILIP'S ANGLICAN CHURCH", "designationCode": "C", "categoryCode": "30", "address": "9400 KENNEDY ROAD", "city": "UNIONVILLE", "province": "ON", "country": "CA", "postalCode": "L6C1N6", "twitter": "None", "instagram": "None", "facebook": "None", "youtube": "None", "website": "None", "summary": "None", "logo": "None", "latitude": 43.88381771634259, "longitude": -79.31543034976016}, "119208031RR0011": {"name": "ST PHILIP'S CHURCH", "designationCode": "C", "categoryCode": "30", "address": "BOX 62", "city": "TESLIN", "province": "YT", "country": "CA", "postalCode": "Y0A1B0", "twitter": "None", "instagram": "None", "facebook": "None", "youtube": "None", "website": "None", "summary": "None", "logo": "None", "latitude": 60.07184895656087, "longitude": -128.70977218266066}, "890135973RR0003": {"name": "ST PHILIP'S CHURCH", "designationCode": "C", "categoryCode": "30", "address": "APT 101 172 8TH STREET", "city": "COLLINGWOOD", "province": "ON", "country": "CA", "postalCode": "L9Y4T2", "twitter": "None", "instagram": "None", "facebook": "None", "youtube": "None", "website": "None", "summary": "None", "logo": "None", "latitude": 44.49069256059242, "longitude": -80.22397878836063}, "135105203RR0001": {"name": "ST PHILIP'S CHURCH ETOBICOKE C/O P C FULLER", "designationCode": "C", "categoryCode": "30", "address": "31 ST PHILLIPS RD", "city": "ETOBICOKE", "province": "ON", "country": "CA", "postalCode": "M9P2N7", "twitter": "None", "instagram": "None", "facebook": "None", "youtube": "None", "website": "None", "summary": "None", "logo": "None", "latitude": 43.70170882540837, "longitude": -79.53316095986516}, "128967353RR0042": {"name": "ST PHILIP'S PARISH", "designationCode": "C", "categoryCode": "38", "address": "BOX 59", "city": "RICHMOND", "province": "ON", "country": "CA", "postalCode": "K0A2Z0", "twitter": "None", "instagram": "None", "facebook": "None", "youtube": "None", "website": "None", "summary": "None", "logo": "None", "latitude": 45.07289024235629, "longitude": -76.0222203768388}, "132189598RR0001": {"name": "ST PHILIP'S R C CHURCH", "designationCode": "C", "categoryCode": "38", "address": "PO BOX 279", "city": "PELLY", "province": "SK", "country": "CA", "postalCode": "S0A2Z0", "twitter": "None", "instagram": "None", "facebook": "None", "youtube": "None", "website": "None", "summary": "None", "logo": "None", "latitude": 50.38314143458857, "longitude": -101.69730002519363}, "861041168RR0001": {"name": "ST PHILIPS ANGLICAN CHURCH", "designationCode": "C", "categoryCode": "30", "address": "BOX 116", "city": "MEDSTEAD", "province": "SK", "country": "CA", "postalCode": "S0M1W0", "twitter": "None", "instagram": "None", "facebook": "None", "youtube": "None", "website": "None", "summary": "None", "logo": "None", "latitude": 53.30016000000006, "longitude": -108.06800999999996}, "119199404RR0001": {"name": "ST PHILIPS UNITED CHURCH", "designationCode": "C", "categoryCode": "44", "address": "953 ROUTE 425", "city": "WHITNEY", "province": "NB", "country": "CA", "postalCode": "E1V4K2", "twitter": "None", "instagram": "None", "facebook": "None", "youtube": "None", "website": "None", "summary": "None", "logo": "None", "latitude": 46.96820780502407, "longitude": -65.7163558692754}, "119199438RR0001": {"name": "ST PIERRE BIBLE FELLOWSHIP CHURCH INC", "designationCode": "C", "categoryCode": "39", "address": "PO BOX 38", "city": "ST PIERRE", "province": "MB", "country": "CA", "postalCode": "R0A1V0", "twitter": "None", "instagram": "None", "facebook": "None", "youtube": "None", "website": "None", "summary": "None", "logo": "None", "latitude": 49.42894297364305, "longitude": -96.79941112272898}, "888757267RR0001": {"name": "ST PIETRE LUTHERAN CEMETERY COMMITTEE", "designationCode": "C", "categoryCode": "59", "address": "BOX 75", "city": "MEACHAM", "province": "SK", "country": "CA", "postalCode": "S0K2V0", "twitter": "None", "instagram": "None", "facebook": "None", "youtube": "None", "website": "None", "summary": "None", "logo": "None"}, "119199453RR0001": {"name": "ST PIUS PARISH", "designationCode": "C", "categoryCode": "38", "address": "PO BOX 207", "city": "WINDTHORST", "province": "SK", "country": "CA", "postalCode": "S0G5G0", "twitter": "None", "instagram": "None", "facebook": "None", "youtube": "None", "website": "None", "summary": "None", "logo": "None", "latitude": 51.066910000000064, "longitude": -104.94988999999998}, "874195522RR0001": {"name": "ST PIUS X COUNCIL NO 9262 CHARITABLE WELFARE TRUST", "designationCode": "A", "categoryCode": "03", "address": "9 WAVERLEY STREET", "city": "BRANTFORD", "province": "ON", "country": "CA", "postalCode": "N3R2K2", "twitter": "None", "instagram": "None", "facebook": "None", "youtube": "None", "website": "None", "summary": "None", "logo": "None", "latitude": 43.16402037665171, "longitude": -80.27136586678397}, "119199602RR0001": {"name": "ST PIUS X ROMAN CATHOLIC CHURCH", "designationCode": "C", "categoryCode": "38", "address": "BOX 757", "city": "WATROUS", "province": "SK", "country": "CA", "postalCode": "S0K4T0", "twitter": "None", "instagram": "None", "facebook": "None", "youtube": "None", "website": "None", "summary": "None", "logo": "None", "latitude": 51.719579978192066, "longitude": -105.4459035}, "119199776RR0001": {"name": "ST RAPHAEL'S PARISH", "designationCode": "C", "categoryCode": "38", "address": "BOX 124", "city": "ALIDA", "province": "SK", "country": "CA", "postalCode": "S0C0B0", "twitter": "None", "instagram": "None", "facebook": "None", "youtube": "None", "website": "None", "summary": "None", "logo": "None", "latitude": 49.76267632742449, "longitude": -102.23720043681257}, "119200616RR0001": {"name": "ST REGIS PARISH BOARD", "designationCode": "C", "categoryCode": "38", "address": "BOX 5", "city": "WAUCHOPE", "province": "SK", "country": "CA", "postalCode": "S0C2P0", "twitter": "None", "instagram": "None", "facebook": "None", "youtube": "None", "website": "None", "summary": "None", "logo": "None", "latitude": 49.57350030317105, "longitude": -101.70197631595771}, "130773336RR0001": {"name": "ST RITA'S PARISH", "designationCode": "C", "categoryCode": "38", "address": "P.O. BOX 248", "city": "VALLEYVIEW", "province": "AB", "country": "CA", "postalCode": "T0H3N0", "twitter": "None", "instagram": "None", "facebook": "None", "youtube": "None", "website": "None", "summary": "None", "logo": "None", "latitude": 55.06844000000007, "longitude": -117.27238999999997}, "887797868RR0001": {"name": "ST RITA'S PARISH (STRASBOURG)", "designationCode": "C", "categoryCode": "38", "address": "PO BOX 128", "city": "STRASBOURG", "province": "SK", "country": "CA", "postalCode": "S0G4V0", "twitter": "None", "instagram": "None", "facebook": "None", "youtube": "None", "website": "None", "summary": "None", "logo": "None", "latitude": 51.07036000000005, "longitude": -104.96119999999996}, "119200822RR0001": {"name": "ST ROSE DE LIMA PARISH (ROMAN CATHOLIC) AND MISSIONS", "designationCode": "C", "categoryCode": "38", "address": "PO BOX 216", "city": "ONOWAY", "province": "AB", "country": "CA", "postalCode": "T0E1V0", "twitter": "None", "instagram": "None", "facebook": "None", "youtube": "None", "website": "None", "summary": "None", "logo": "None", "latitude": 53.70302000000004, "longitude": -114.19152999999994}, "129950804RR0029": {"name": "ST ROSE OF LIMA PARISH", "designationCode": "C", "categoryCode": "38", "address": "2191 TOWNSEND RD", "city": "SOOKE", "province": "BC", "country": "CA", "postalCode": "V9Z0H4", "twitter": "None", "instagram": "None", "facebook": "None", "youtube": "None", "website": "None", "summary": "None", "logo": "None", "latitude": 48.38174547652532, "longitude": -123.72515446567492}, "119200988RR0001": {"name": "ST SAVIOUR'S CHURCH", "designationCode": "C", "categoryCode": "30", "address": "PO BOX 435", "city": "ORONO", "province": "ON", "country": "CA", "postalCode": "L0B1M0", "twitter": "None", "instagram": "None", "facebook": "None", "youtube": "None", "website": "None", "summary": "None", "logo": "None", "latitude": 43.977220000000045, "longitude": -78.61645999999996}, "129829230RR0001": {"name": "ST SAVIOUR'S CHURCH", "designationCode": "C", "categoryCode": "30", "address": "43 KIMBERLEY AVENUE", "city": "TORONTO", "province": "ON", "country": "CA", "postalCode": "M4E2Z4", "twitter": "None", "instagram": "None", "facebook": "None", "youtube": "None", "website": "None", "summary": "None", "logo": "None", "latitude": 43.68272897613822, "longitude": -79.2980697183914}, "129144549RR0035": {"name": "ST SAVIOUR'S CHURCH-DIOCESE OF KOOTENAY ANGLICAN CHURCH OF CANADA", "designationCode": "C", "categoryCode": "30", "address": "150 ORCHARD AVE", "city": "PENTICTON", "province": "BC", "country": "CA", "postalCode": "V2A1X8", "twitter": "None", "instagram": "None", "facebook": "None", "youtube": "None", "website": "None", "summary": "None", "logo": "None", "latitude": 49.49470875491956, "longitude": -119.59258400499166}, "129144549RR0003": {"name": "ST SAVIOUR'S PRO-CATHEDRAL", "designationCode": "C", "categoryCode": "30", "address": "701 WARD ST.", "city": "NELSON", "province": "BC", "country": "CA", "postalCode": "V1L1T3", "twitter": "None", "instagram": "None", "facebook": "None", "youtube": "None", "website": "None", "summary": "None", "logo": "None", "latitude": 49.49044508531762, "longitude": -117.29252354801812}, "119201150RR0001": {"name": "ST SIMEON MIROTOCIVI SERBIAN ORTHODOX CHURCH IN UNITY OF CALGARY", "designationCode": "C", "categoryCode": "39", "address": "16025 243 AVE E", "city": "FOOTHILLS", "province": "AB", "country": "CA", "postalCode": "T1S4C3", "twitter": "None", "instagram": "None", "facebook": "None", "youtube": "None", "website": "None", "summary": "None", "logo": "None", "latitude": 50.83336616954265, "longitude": -113.97424108947452}, "119201218RR0002": {"name": "ST SIMON'S CHURCH", "designationCode": "C", "categoryCode": "30", "address": "P.O. BOX 390", "city": "TEMAGAMI", "province": "ON", "country": "CA", "postalCode": "P0H2H0", "twitter": "None", "instagram": "None", "facebook": "None", "youtube": "None", "website": "None", "summary": "None", "logo": "None", "latitude": 47.056350000000066, "longitude": -79.79692999999997}, "119201473RR0001": {"name": "ST STANISLAUS CHURCH", "designationCode": "C", "categoryCode": "38", "address": "BOX 220", "city": "ITUNA", "province": "SK", "country": "CA", "postalCode": "S0A1N0", "twitter": "None", "instagram": "None", "facebook": "None", "youtube": "None", "website": "None", "summary": "None", "logo": "None", "latitude": 51.17134000000004, "longitude": -103.49577999999997}, "891589160RR0001": {"name": "ST STEFAN SERBIAN ORTHODOX CHURCH-SCHOOL CONGREGATION", "designationCode": "C", "categoryCode": "39", "address": "1989 PRINCE OF WALES DR", "city": "OTTAWA", "province": "ON", "country": "CA", "postalCode": "K2C3J7", "twitter": "None", "instagram": "None", "facebook": "None", "youtube": "None", "website": "None", "summary": "None", "logo": "None", "latitude": 45.346616537076414, "longitude": -75.70121035558948}, "119201556RR0001": {"name": "ST STEPHEN PENTECOSTAL CHURCH INC", "designationCode": "C", "categoryCode": "36", "address": "18 WEST ST", "city": "ST STEPHEN", "province": "NB", "country": "CA", "postalCode": "E3L3C2", "twitter": "None", "instagram": "None", "facebook": "None", "youtube": "None", "website": "None", "summary": "None", "logo": "None", "latitude": 45.191551083015845, "longitude": -67.29056487353456}, "119288918RR0651": {"name": "ST STEPHEN, NEW BRUNSWICK CONGREGATION OF JEHOVAH'S WITNESSES", "designationCode": "C", "categoryCode": "61", "address": "88 MAXWELL CROSSING RD.", "city": "OLD RIDGE", "province": "NB", "country": "CA", "postalCode": "E3L4V7", "twitter": "None", "instagram": "None", "facebook": "None", "youtube": "None", "website": "None", "summary": "None", "logo": "None", "latitude": 45.24340792972703, "longitude": -67.27460138655421}, "119201895RR0002": {"name": "ST STEPHEN'S", "designationCode": "C", "categoryCode": "30", "address": "133 HOME ST", "city": "STRATFORD", "province": "ON", "country": "CA", "postalCode": "N5A2A2", "twitter": "None", "instagram": "None", "facebook": "None", "youtube": "None", "website": "None", "summary": "None", "logo": "None", "latitude": 43.35919428310916, "longitude": -80.97866344486152}, "119201614RR0001": {"name": "ST STEPHEN'S ANGLICAN CHURCH", "designationCode": "C", "categoryCode": "30", "address": "BOX 34", "city": "MACDOWALL", "province": "SK", "country": "CA", "postalCode": "S0K2S0", "twitter": "None", "instagram": "None", "facebook": "None", "youtube": "None", "website": "None", "summary": "None", "logo": "None", "latitude": 53.01533000000006, "longitude": -106.01252999999997}, "119201622RR0001": {"name": "ST STEPHEN'S ANGLICAN CHURCH", "designationCode": "C", "categoryCode": "30", "address": "108-2ND AVENUE NE", "city": "SWIFT CURRENT", "province": "SK", "country": "CA", "postalCode": "S9H2C7", "twitter": "None", "instagram": "None", "facebook": "None", "youtube": "None", "website": "None", "summary": "None", "logo": "None", "latitude": 50.2838348731606, "longitude": -107.79732523053816}, "129144549RR0037": {"name": "ST STEPHEN'S ANGLICAN CHURCH", "designationCode": "C", "categoryCode": "30", "address": "BOX 697", "city": "SUMMERLAND", "province": "BC", "country": "CA", "postalCode": "V0H1Z0", "twitter": "None", "instagram": "None", "facebook": "None", "youtube": "None", "website": "None", "summary": "None", "logo": "None", "latitude": 49.60131900000006, "longitude": -119.67899299999993}, "132062050RR0002": {"name": "ST STEPHEN'S ANGLICAN CHURCH", "designationCode": "C", "categoryCode": "30", "address": "3440 CHURCH ST", "city": "WINDSOR", "province": "ON", "country": "CA", "postalCode": "N9E1V5", "twitter": "None", "instagram": "None", "facebook": "None", "youtube": "None", "website": "None", "summary": "None", "logo": "None", "latitude": 42.26447513434122, "longitude": -83.0097435510418}, "129144549RR0007": {"name": "ST STEPHEN'S ANGLICAN CHURCH ARROWS LAKES SLOCAN", "designationCode": "C", "categoryCode": "30", "address": "614 CHRISTINA PLACE", "city": "CASTLEGAR", "province": "BC", "country": "CA", "postalCode": "V1N2K7", "twitter": "None", "instagram": "None", "facebook": "None", "youtube": "None", "website": "None", "summary": "None", "logo": "None", "latitude": 49.309582514859414, "longitude": -117.6599517171793}, "119201655RR0001": {"name": "ST STEPHEN'S ASSOCIATION FOR CHRISTIAN EDUCATION INC", "designationCode": "C", "categoryCode": "47", "address": "8 MAIN ST", "city": "ST. STEPHEN", "province": "NB", "country": "CA", "postalCode": "E3L3E2", "twitter": "None", "instagram": "None", "facebook": "None", "youtube": "None", "website": "None", "summary": "None", "logo": "None"}, "888334273RR0001": {"name": "ST STEPHEN'S CEMETERY FUND", "designationCode": "C", "categoryCode": "59", "address": "6191 SNAKE LANE", "city": "OLDCASTLE", "province": "ON", "country": "CA", "postalCode": "N0R1L0", "twitter": "None", "instagram": "None", "facebook": "None", "youtube": "None", "website": "None", "summary": "None", "logo": "None", "latitude": 42.23532300000005, "longitude": -82.96651699999994}, "119201820RR0002": {"name": "ST STEPHEN'S CHURCH", "designationCode": "C", "categoryCode": "30", "address": "BOX 9", "city": "GORRIE", "province": "ON", "country": "CA", "postalCode": "N0G1X0", "twitter": "None", "instagram": "None", "facebook": "None", "youtube": "None", "website": "None", "summary": "None", "logo": "None", "latitude": 43.8847341644906, "longitude": -81.11296531624073}, "119201838RR0001": {"name": "ST STEPHEN'S CHURCH", "designationCode": "C", "categoryCode": "30", "address": "28854 CELTIC LINE", "city": "DUTTON", "province": "ON", "country": "CA", "postalCode": "N0L1J0", "twitter": "None", "instagram": "None", "facebook": "None", "youtube": "None", "website": "None", "summary": "None", "logo": "None", "latitude": 42.699913478905394, "longitude": -81.58084955853987}, "119201846RR0002": {"name": "ST STEPHEN'S CHURCH", "designationCode": "C", "categoryCode": "30", "address": "194 GEORGE ST", "city": "SARNIA", "province": "ON", "country": "CA", "postalCode": "N7T4N7", "twitter": "None", "instagram": "None", "facebook": "None", "youtube": "None", "website": "None", "summary": "None", "logo": "None", "latitude": 42.97459094912266, "longitude": -82.40472177931655}, "119201911RR0001": {"name": "ST STEPHEN'S CHURCH", "designationCode": "C", "categoryCode": "30", "address": "PO BOX 443", "city": "GLENBORO", "province": "MB", "country": "CA", "postalCode": "R0K0X0", "twitter": "None", "instagram": "None", "facebook": "None", "youtube": "None", "website": "None", "summary": "None", "logo": "None", "latitude": 49.55755000000005, "longitude": -99.29090999999994}, "888128261RR0002": {"name": "ST STEPHEN'S CHURCH", "designationCode": "C", "categoryCode": "30", "address": "BOX 415", "city": "THAMESVILLE", "province": "ON", "country": "CA", "postalCode": "N0P2K0", "twitter": "None", "instagram": "None", "facebook": "None", "youtube": "None", "website": "None", "summary": "None", "logo": "None", "latitude": 42.551870000000065, "longitude": -81.97652999999997}, "890650187RR0002": {"name": "ST STEPHEN'S CHURCH", "designationCode": "C", "categoryCode": "30", "address": "494 LESLIE AVE", "city": "THUNDER BAY", "province": "ON", "country": "CA", "postalCode": "P7A1Y8", "twitter": "None", "instagram": "None", "facebook": "None", "youtube": "None", "website": "None", "summary": "None", "logo": "None", "latitude": 48.469059419095174, "longitude": -89.18495254175095}, "891618662RR0001": {"name": "ST STEPHEN'S CHURCH", "designationCode": "C", "categoryCode": "30", "address": "7452 LEWIS LINE W             RR 6", "city": "WALLACEBURG", "province": "ON", "country": "CA", "postalCode": "N8A4L3", "twitter": "None", "instagram": "None", "facebook": "None", "youtube": "None", "website": "None", "summary": "None", "logo": "None", "latitude": 42.49503938937632, "longitude": -82.39799336661108}, "890262249RR0002": {"name": "ST STEPHEN'S CHURCH CHAMBLY", "designationCode": "C", "categoryCode": "30", "address": "2000 BOURGOGNE STREET", "city": "CHAMBLY", "province": "QC", "country": "CA", "postalCode": "J3L1Z4", "twitter": "None", "instagram": "None", "facebook": "None", "youtube": "None", "website": "None", "summary": "None", "logo": "None", "latitude": 45.448249633879875, "longitude": -73.27434780128678}, "886548395RR0001": {"name": "ST STEPHEN'S CHURCH, LINTLAW", "designationCode": "C", "categoryCode": "30", "address": "BOX 65", "city": "LINTLAW", "province": "SK", "country": "CA", "postalCode": "S0A2H0", "twitter": "None", "instagram": "None", "facebook": "None", "youtube": "None", "website": "None", "summary": "None", "logo": "None", "latitude": 52.066680000000076, "longitude": -103.23427999999996}, "140648866RR0001": {"name": "ST STEPHEN'S EVANGELICAL LUTHERAN CHURCH", "designationCode": "C", "categoryCode": "32", "address": "RR 1                          10 JOUDREY LANE", "city": "BLOCKHOUSE", "province": "NS", "country": "CA", "postalCode": "B0J1E0", "twitter": "None", "instagram": "None", "facebook": "None", "youtube": "None", "website": "None", "summary": "None", "logo": "None", "latitude": 44.46757319149985, "longitude": -64.50615467387047}, "119201978RR0001": {"name": "ST STEPHEN'S HOUSE PROPERTY CORPORATION", "designationCode": "C", "categoryCode": "56", "address": "91 BELLEVUE AVE", "city": "TORONTO", "province": "ON", "country": "CA", "postalCode": "M5T2N8", "twitter": "None", "instagram": "None", "facebook": "None", "youtube": "None", "website": "None", "summary": "None", "logo": "None", "latitude": 43.65619766778231, "longitude": -79.40408674199338}}