{"118926112RR0001": {"name": "FONDS DE PREVOYANCE DELIA TETREAULT", "designationCode": "C", "categoryCode": "09", "address": "121 AVE. MAPLEWOOD BUREAU 16", "city": "OUTREMONT", "province": "QC", "country": "CA", "postalCode": "H2V2M2", "twitter": "None", "instagram": "None", "facebook": "None", "youtube": "None", "website": "None", "summary": "None", "logo": "None", "latitude": 45.51406449128608, "longitude": -73.60149308009679}, "118926203RR0001": {"name": "FONDS DE PREVOYANCE MARGUERITE MARIE BERANGER", "designationCode": "C", "categoryCode": "09", "address": "311 - 822 COVERDALE RD", "city": "RIVERVIEW", "province": "NB", "country": "CA", "postalCode": "E1B4V5", "twitter": "None", "instagram": "None", "facebook": "None", "youtube": "None", "website": "None", "summary": "None", "logo": "None", "latitude": 46.05201109297786, "longitude": -64.83329270656078}, "857578348RR0001": {"name": "FONDS DE PREVOYANCE 1845", "designationCode": "C", "categoryCode": "46", "address": "27, RUE BRUYERE", "city": "OTTAWA", "province": "ON", "country": "CA", "postalCode": "K1N5C9", "twitter": "None", "instagram": "None", "facebook": "None", "youtube": "None", "website": "None", "summary": "None", "logo": "None", "latitude": 45.431560924964096, "longitude": -75.69739439912266}, "897244307RR0001": {"name": "FONDS DE RECHERCHE EN \u00c9COLOGIE URBAINE", "designationCode": "B", "categoryCode": "53", "address": "5445, 1ERE AVENUE", "city": "CHARLESBOURG", "province": "QC", "country": "CA", "postalCode": "G1H2V6", "twitter": "None", "instagram": "None", "facebook": "None", "youtube": "None", "website": "None", "summary": "None", "logo": "None", "latitude": 46.84898990339904, "longitude": -71.25516279006271}, "832813877RR0001": {"name": "FONDS DE RECHERCHE EN ORTHOPEDIE DE QUEBEC", "designationCode": "C", "categoryCode": "11", "address": "1401 18E RUE, HOPITAL DE L'ENFANT JESUS DEPART. D'ORTHOPEDIE", "city": "QUEBEC", "province": "QC", "country": "CA", "postalCode": "G1J1Z4", "twitter": "None", "instagram": "None", "facebook": "None", "youtube": "None", "website": "None", "summary": "None", "logo": "None", "latitude": 46.83611400000005, "longitude": -71.22595399999993}, "888749744RR0001": {"name": "FONDS DE RESSOURCES EDUCATIVES ET COMMUNAUTAIRES DU KAMOURASKA-RIVIERE-DU-LOUP TEMISCOUTA ET DES BASQUES (F R E C )", "designationCode": "C", "categoryCode": "21", "address": "26 RUE JOLY", "city": "RIVIERE-DU-LOUP", "province": "QC", "country": "CA", "postalCode": "G5R3H2", "twitter": "None", "instagram": "None", "facebook": "None", "youtube": "None", "website": "None", "summary": "None", "logo": "None", "latitude": 47.835144817646764, "longitude": -69.54243731585774}, "118926369RR0001": {"name": "FONDS DE SOLIDARITE DES GROUPES POPULAIRES DU QUEBEC METROPOLITAIN", "designationCode": "A", "categoryCode": "53", "address": "301 RUE DE CARILLON", "city": "QUEBEC", "province": "QC", "country": "CA", "postalCode": "G1K5B3", "twitter": "None", "instagram": "None", "facebook": "None", "youtube": "None", "website": "None", "summary": "None", "logo": "None", "latitude": 46.81151905689884, "longitude": -71.23715662155928}, "888047099RR0001": {"name": "FONDS DENIS-ANTOINE", "designationCode": "C", "categoryCode": "46", "address": "850 CH. DU SAULT SAINT-LOUIS", "city": "LA PRAIRIE", "province": "QC", "country": "CA", "postalCode": "J5R1E1", "twitter": "None", "instagram": "None", "facebook": "None", "youtube": "None", "website": "None", "summary": "None", "logo": "None", "latitude": 45.41094936225367, "longitude": -73.5054281673496}, "127067130RR0001": {"name": "FONDS DES BIENFAITEURS DE LA CIBPA INC", "designationCode": "C", "categoryCode": "21", "address": "8370 BOUL.LACODAIRE BUR 310", "city": "MONTREAL", "province": "QC", "country": "CA", "postalCode": "H1R3Y6", "twitter": "None", "instagram": "None", "facebook": "None", "youtube": "None", "website": "None", "summary": "None", "logo": "None", "latitude": 45.58593308825408, "longitude": -73.59577164997947}, "118926328RR0001": {"name": "FONDS DES MISSIONS DES PETITES FRANCISCAINES DE MARIE", "designationCode": "C", "categoryCode": "49", "address": "10 BOUL FAFARD", "city": "BAIE ST PAUL", "province": "QC", "country": "CA", "postalCode": "G0A1B0", "twitter": "None", "instagram": "None", "facebook": "None", "youtube": "None", "website": "None", "summary": "None", "logo": "None", "latitude": 47.288160000000005, "longitude": -71.49385772635696}, "118926336RR0001": {"name": "FONDS DES OEUVRES COMMUNAUTAIRES DES EMPLOYEES DE TELEBEC", "designationCode": "C", "categoryCode": "75", "address": "1 CARR. ALEXANDER GRAHAM BELL \u00c9DIFICE A, \u00c9TAGE 5", "city": "VERDUN", "province": "QC", "country": "CA", "postalCode": "H3E3B3", "twitter": "None", "instagram": "None", "facebook": "None", "youtube": "None", "website": "None", "summary": "None", "logo": "None", "latitude": 45.471999499855784, "longitude": -73.54142401125273}, "118926344RR0001": {"name": "FONDS DES OEUVRES DU CLUB KIWANIS DE CHICOUTIMI", "designationCode": "C", "categoryCode": "56", "address": "C.P. 8328", "city": "CHICOUTIMI", "province": "QC", "country": "CA", "postalCode": "G7H5C2", "twitter": "None", "instagram": "None", "facebook": "None", "youtube": "None", "website": "None", "summary": "None", "logo": "None", "latitude": 48.42928500000005, "longitude": -71.06546149999993}, "118926351RR0001": {"name": "FONDS DES OEUVRES DU CLUB RICHELIEU DE LA POCATIERE", "designationCode": "C", "categoryCode": "65", "address": "C.P. 5041", "city": "LA POCATIERE", "province": "QC", "country": "CA", "postalCode": "G0R1Z0", "twitter": "None", "instagram": "None", "facebook": "None", "youtube": "None", "website": "None", "summary": "None", "logo": "None", "latitude": 47.35548000000006, "longitude": -70.06540999999999}, "889636940RR0001": {"name": "FONDS DES ORGANISMES VOLONTAIRES D'EDUCATION POPULAIRE (FOVEP) SAGUENAY-LAC-ST-JEAN-CHIBOUGAMAU-CHAPAIS", "designationCode": "C", "categoryCode": "01", "address": "2372 RUE SAINT-DOMINIQUE", "city": "JONQUIERE", "province": "QC", "country": "CA", "postalCode": "G7X6K8", "twitter": "None", "instagram": "None", "facebook": "None", "youtube": "None", "website": "None", "summary": "None", "logo": "None", "latitude": 48.41253118373822, "longitude": -71.25459550320265}, "862616471RR0001": {"name": "FONDS DES SERVICES EDUCATIFS DU SEMINAIRE MARIE-REINE-DU-CLERGE", "designationCode": "C", "categoryCode": "21", "address": "1569, ROUTE 169", "city": "METABETCHOUAN-LAC-A-LA-CROIX", "province": "QC", "country": "CA", "postalCode": "G8G1A8", "twitter": "None", "instagram": "None", "facebook": "None", "youtube": "None", "website": "None", "summary": "None", "logo": "None", "latitude": 48.44036115019811, "longitude": -71.84211415524261}, "812863744RR0001": {"name": "FONDS DESCOTEAUX-WARD/DESCOTEAUX WARD FUND", "designationCode": "C", "categoryCode": "46", "address": "9467 BOULEVARD GOUIN OUEST", "city": "MONTR\u00c9AL", "province": "QC", "country": "CA", "postalCode": "H8Y1T2", "twitter": "None", "instagram": "None", "facebook": "None", "youtube": "None", "website": "None", "summary": "None", "logo": "None", "latitude": 45.50717986984239, "longitude": -73.77231086026309}, "896649951RR0001": {"name": "FONDS DISTAL INC.", "designationCode": "C", "categoryCode": "09", "address": "8000 ARMAND VIAU #100", "city": "QUEBEC", "province": "QC", "country": "CA", "postalCode": "G2C2E2", "twitter": "None", "instagram": "None", "facebook": "None", "youtube": "None", "website": "None", "summary": "None", "logo": "None", "latitude": 46.82048896586643, "longitude": -71.35215750109651}, "850516162RR0001": {"name": "FONDS DU REGROUPEMENT DES CENTRES DE LA PETITE ENFANCE DE LAMONTEREGIE", "designationCode": "C", "categoryCode": "29", "address": "1861, RUE PRINCE", "city": "SAINT-HUBERT", "province": "QC", "country": "CA", "postalCode": "J4T0A5", "twitter": "None", "instagram": "None", "facebook": "None", "youtube": "None", "website": "None", "summary": "None", "logo": "None", "latitude": 45.50031030281602, "longitude": -73.47767940495689}, "118926450RR0001": {"name": "FONDS DUROCHER", "designationCode": "C", "categoryCode": "09", "address": "80, RUE ST-CHARLES EST", "city": "LONGUEUIL", "province": "QC", "country": "CA", "postalCode": "J4H1A9", "twitter": "None", "instagram": "None", "facebook": "None", "youtube": "None", "website": "None", "summary": "None", "logo": "None", "latitude": 45.541586023573316, "longitude": -73.50759404365553}, "866019581RR0001": {"name": "FONDS EDGARD-LAROCHELLE", "designationCode": "C", "categoryCode": "46", "address": "180, PLACE JUGE DESNOYERS", "city": "LAVAL", "province": "QC", "country": "CA", "postalCode": "H7G1A4", "twitter": "None", "instagram": "None", "facebook": "None", "youtube": "None", "website": "None", "summary": "None", "logo": "None", "latitude": 45.562137598966906, "longitude": -73.67403434087336}, "134205566RR0001": {"name": "FONDS EDUC'ALCOOL INC", "designationCode": "C", "categoryCode": "22", "address": "606, RUE CATHCART, BUREAU 1000", "city": "MONTREAL", "province": "QC", "country": "CA", "postalCode": "H3B1K9", "twitter": "None", "instagram": "None", "facebook": "None", "youtube": "None", "website": "None", "summary": "None", "logo": "None", "latitude": 45.50352944489019, "longitude": -73.56822896984849}, "890410046RR0001": {"name": "FONDS EDUCATIONNEL BUTLER/STANBRIDUE EAST - THE BUTLER/STANBRIDGE EAST EDUCATIONAL FUND", "designationCode": "C", "categoryCode": "21", "address": "19 RIX", "city": "BEDFORD", "province": "QC", "country": "CA", "postalCode": "J0J1A0", "twitter": "None", "instagram": "None", "facebook": "None", "youtube": "None", "website": "None", "summary": "None", "logo": "None", "latitude": 45.11737813627445, "longitude": -72.98490354795472}, "118926492RR0001": {"name": "FONDS ELISABETH", "designationCode": "C", "categoryCode": "09", "address": "1193 BOUL. SAINT-LOUIS", "city": "TROIS-RIVI\u00c8RES", "province": "QC", "country": "CA", "postalCode": "G8Z2M8", "twitter": "None", "instagram": "None", "facebook": "None", "youtube": "None", "website": "None", "summary": "None", "logo": "None", "latitude": 46.348138059380325, "longitude": -72.5522534580179}, "118926484RR0001": {"name": "FONDS ELISABETH BERGERON", "designationCode": "C", "categoryCode": "09", "address": "2545 RUE DESSAULLES", "city": "SAINT-HYACINTHE", "province": "QC", "country": "CA", "postalCode": "J2S0K2", "twitter": "None", "instagram": "None", "facebook": "None", "youtube": "None", "website": "None", "summary": "None", "logo": "None", "latitude": 45.622354789018, "longitude": -72.95585532792617}, "821601275RR0001": {"name": "FONDS ELMIRE-ROY", "designationCode": "C", "categoryCode": "43", "address": "300, ALLEE DU ROSAIRE", "city": "RIMOUSKI", "province": "QC", "country": "CA", "postalCode": "G5L3E3", "twitter": "None", "instagram": "None", "facebook": "None", "youtube": "None", "website": "None", "summary": "None", "logo": "None", "latitude": 48.44988295585444, "longitude": -68.51725491750862}, "879975522RR0001": {"name": "FONDS ELZEAR DELAMARRE", "designationCode": "C", "categoryCode": "43", "address": "927 RUE JACQUES-CARTIER EST", "city": "CHICOUTIMI", "province": "QC", "country": "CA", "postalCode": "G7H2A3", "twitter": "None", "instagram": "None", "facebook": "None", "youtube": "None", "website": "None", "summary": "None", "logo": "None", "latitude": 48.42373440997723, "longitude": -71.04019612210753}, "130364656RR0001": {"name": "FONDS ESTHER BLONDIN", "designationCode": "C", "categoryCode": "09", "address": "1754 RUE PROVOST", "city": "LACHINE", "province": "QC", "country": "CA", "postalCode": "H8S1P1", "twitter": "None", "instagram": "None", "facebook": "None", "youtube": "None", "website": "None", "summary": "None", "logo": "None", "latitude": 45.441969525967906, "longitude": -73.67987211226844}, "878176940RR0001": {"name": "FONDS FOYER RICHELIEU WELLAND", "designationCode": "A", "categoryCode": "03", "address": "655 AVENUE TANGUAY", "city": "WELLAND", "province": "ON", "country": "CA", "postalCode": "L3B6A1", "twitter": "None", "instagram": "None", "facebook": "None", "youtube": "None", "website": "None", "summary": "None", "logo": "None", "latitude": 42.989771498268304, "longitude": -79.22398041618096}, "118926740RR0001": {"name": "FONDS FRAN\u00c7OIS-XAVIER", "designationCode": "C", "categoryCode": "09", "address": "895 RUE PERREAULT EST", "city": "ROUYN-NORANDA", "province": "QC", "country": "CA", "postalCode": "J9X5H5", "twitter": "None", "instagram": "None", "facebook": "None", "youtube": "None", "website": "None", "summary": "None", "logo": "None", "latitude": 48.237934533758185, "longitude": -78.99072363918864}, "866290489RR0001": {"name": "FONDS GABRIELISTE", "designationCode": "C", "categoryCode": "09", "address": "1601 BOUL GOUIN EST", "city": "MONTREAL", "province": "QC", "country": "CA", "postalCode": "H2C1C2", "twitter": "None", "instagram": "None", "facebook": "None", "youtube": "None", "website": "None", "summary": "None", "logo": "None", "latitude": 45.56598966224239, "longitude": -73.66200531008667}, "118926534RR0001": {"name": "FONDS GABRIELLE ROY", "designationCode": "B", "categoryCode": "03", "address": "451 AVENUE STUART", "city": "MONTREAL", "province": "QC", "country": "CA", "postalCode": "H2V3H1", "twitter": "None", "instagram": "None", "facebook": "None", "youtube": "None", "website": "None", "summary": "None", "logo": "None", "latitude": 45.516623184863406, "longitude": -73.60881086398534}, "809210800RR0001": {"name": "FONDS GB - GB FUNDS", "designationCode": "A", "categoryCode": "23", "address": "SUITE 3500                    1000 DE LA GAUCHETIERE WEST", "city": "MONTREAL", "province": "QC", "country": "CA", "postalCode": "H3B4W5", "twitter": "None", "instagram": "None", "facebook": "None", "youtube": "None", "website": "None", "summary": "None", "logo": "None", "latitude": 45.497674855919435, "longitude": -73.56857695619452}, "876561002RR0001": {"name": "FONDS GERARD-ST-PIERRE", "designationCode": "C", "categoryCode": "43", "address": "1481 CHEMIN DES VINGT", "city": "ST BRUNO", "province": "QC", "country": "CA", "postalCode": "J3V4P6", "twitter": "None", "instagram": "None", "facebook": "None", "youtube": "None", "website": "None", "summary": "None", "logo": "None", "latitude": 45.535624275244544, "longitude": -73.30018183974825}, "892342882RR0001": {"name": "FONDS GLORIA DEMERS, INC", "designationCode": "C", "categoryCode": "22", "address": "113 BOND STREET", "city": "ST. JOHN'S", "province": "NL", "country": "CA", "postalCode": "A1C1T6", "twitter": "None", "instagram": "None", "facebook": "None", "youtube": "None", "website": "None", "summary": "None", "logo": "None", "latitude": 47.56681246849216, "longitude": -52.70819983706513}, "118926559RR0001": {"name": "FONDS H\u00c9RITAGE DE ST-PHILIPPE D'ARGENTEUIL INC.", "designationCode": "A", "categoryCode": "43", "address": "146 RUE LANTHIER", "city": "BROWNSBURG-CHATHAM", "province": "QC", "country": "CA", "postalCode": "J8G1Z7", "twitter": "None", "instagram": "None", "facebook": "None", "youtube": "None", "website": "None", "summary": "None", "logo": "None", "latitude": 45.645096007213375, "longitude": -74.3819738593977}, "897693420RR0001": {"name": "FONDS HECTOR-DURAND", "designationCode": "C", "categoryCode": "46", "address": "3719, BOULEVARD GOUIN EST", "city": "MONTREAL-NORD", "province": "QC", "country": "CA", "postalCode": "H1H5L8", "twitter": "None", "instagram": "None", "facebook": "None", "youtube": "None", "website": "None", "summary": "None", "logo": "None", "latitude": 45.593507702752575, "longitude": -73.64833820959058}, "118926567RR0001": {"name": "FONDS HOPITAL STE-ANNE FUND INC.", "designationCode": "A", "categoryCode": "13", "address": "P.O.BOX 10 52 RUE ST-GERARD", "city": "STE ANNE", "province": "MB", "country": "CA", "postalCode": "R5H1C4", "twitter": "None", "instagram": "None", "facebook": "None", "youtube": "None", "website": "None", "summary": "None", "logo": "None", "latitude": 49.66799940739281, "longitude": -96.64825008211872}, "892968371RR0001": {"name": "FONDS HUMANITAIRE DE L'ASSOCIATION DES POLICIERS PROVINCIAUX DU QU\u00c9BEC (A.P.P.Q.)", "designationCode": "A", "categoryCode": "03", "address": "1981 LEONARD-DE-VINCI", "city": "STE-JULIE", "province": "QC", "country": "CA", "postalCode": "J3E1Y9", "twitter": "None", "instagram": "None", "facebook": "None", "youtube": "None", "website": "None", "summary": "None", "logo": "None", "latitude": 45.576439478792615, "longitude": -73.3304942231519}, "135971885RR0001": {"name": "FONDS HUMANITAIRE DE LA FRATERNITE DES POLICIERS ET POLICIERES DE LONGUEUIL", "designationCode": "C", "categoryCode": "03", "address": "1170 A RUE VOLTA", "city": "BOUCHERVILLE", "province": "QC", "country": "CA", "postalCode": "J4B7A2", "twitter": "None", "instagram": "None", "facebook": "None", "youtube": "None", "website": "None", "summary": "None", "logo": "None", "latitude": 45.56935573907919, "longitude": -73.44542007623029}, "128325891RR0001": {"name": "FONDS HUMANITAIRE DE LA FRATERNITE DES POLICIERS ET POLICIERES DE MONTREAL", "designationCode": "A", "categoryCode": "53", "address": "480 RUE GILFORD               BUREAU 300", "city": "MONTREAL", "province": "QC", "country": "CA", "postalCode": "H2J1N3", "twitter": "None", "instagram": "None", "facebook": "None", "youtube": "None", "website": "None", "summary": "None", "logo": "None", "latitude": 45.52666032361938, "longitude": -73.58624188147049}, "876675208RR0001": {"name": "FONDS JEAN-PAUL-REGIMBAL", "designationCode": "C", "categoryCode": "49", "address": "200, BOULEVARD ROBERT", "city": "GRANBY", "province": "QC", "country": "CA", "postalCode": "J2H0R2", "twitter": "None", "instagram": "None", "facebook": "None", "youtube": "None", "website": "None", "summary": "None", "logo": "None", "latitude": 45.388411560015506, "longitude": -72.69752228963003}, "118926153RR0001": {"name": "FONDS JEANNE-CHEVALIER", "designationCode": "C", "categoryCode": "09", "address": "253 RUE DU DOMAINE ST-PAUL", "city": "STE-ANNE-DES-MONTS", "province": "QC", "country": "CA", "postalCode": "G4V2G3", "twitter": "None", "instagram": "None", "facebook": "None", "youtube": "None", "website": "None", "summary": "None", "logo": "None", "latitude": 49.11740248765076, "longitude": -66.48007596932888}, "118926583RR0001": {"name": "FONDS JEANNE-LEBER", "designationCode": "C", "categoryCode": "09", "address": "12050 BOUL. GOUIN EST", "city": "MONTREAL", "province": "QC", "country": "CA", "postalCode": "H1C1B8", "twitter": "None", "instagram": "None", "facebook": "None", "youtube": "None", "website": "None", "summary": "None", "logo": "None", "latitude": 45.684780078798724, "longitude": -73.52801675194803}, "877417915RR0001": {"name": "FONDS JOHN-FORBES", "designationCode": "C", "categoryCode": "49", "address": "1640 RUE ST-HUBERT", "city": "MONTREAL", "province": "QC", "country": "CA", "postalCode": "H2L3Z3", "twitter": "None", "instagram": "None", "facebook": "None", "youtube": "None", "website": "None", "summary": "None", "logo": "None", "latitude": 45.51686077127951, "longitude": -73.56204223524135}, "129569208RR0001": {"name": "FONDS JOSEPH-ON\u00c9SIME-BROUSSEAU", "designationCode": "C", "categoryCode": "38", "address": "155 RUE COMMERCIALE", "city": "SAINT-DAMIEN-DE-BUCKLAND", "province": "QC", "country": "CA", "postalCode": "G0R2Y0", "twitter": "None", "instagram": "None", "facebook": "None", "youtube": "None", "website": "None", "summary": "None", "logo": "None", "latitude": 46.62461716703862, "longitude": -70.65923134151916}, "107656662RR0001": {"name": "FONDS JULES-LEDOUX", "designationCode": "C", "categoryCode": "46", "address": "129 RUE DU FRERE-THEODE", "city": "SHERBROOKE", "province": "QC", "country": "CA", "postalCode": "J1C0S3", "twitter": "None", "instagram": "None", "facebook": "None", "youtube": "None", "website": "None", "summary": "None", "logo": "None", "latitude": 45.472621968446404, "longitude": -71.95136015854378}, "859971871RR0001": {"name": "FONDS KIWANIS DE GRANBY/GRANBY KIWANIS FUND", "designationCode": "C", "categoryCode": "63", "address": "101 RUE PRINCIPALE", "city": "GRANBY", "province": "QC", "country": "CA", "postalCode": "J2G2T9", "twitter": "None", "instagram": "None", "facebook": "None", "youtube": "None", "website": "None", "summary": "None", "logo": "None", "latitude": 45.39859967724602, "longitude": -72.72336461890488}, "892485764RR0001": {"name": "FONDS L'ALLIANCE DES GARDERIES REGIONS 03-12(FAG03-12)", "designationCode": "C", "categoryCode": "29", "address": "2290 JEAN PERRIN BUREAU 222", "city": "QUEBEC", "province": "QC", "country": "CA", "postalCode": "G2C1T9", "twitter": "None", "instagram": "None", "facebook": "None", "youtube": "None", "website": "None", "summary": "None", "logo": "None", "latitude": 46.823559994777206, "longitude": -71.30777113200395}, "132286980RR0001": {"name": "FONDS LABRECQUE", "designationCode": "C", "categoryCode": "09", "address": "2710, AV. LAFLECHE", "city": "SHAWINIGAN", "province": "QC", "country": "CA", "postalCode": "G9N6H5", "twitter": "None", "instagram": "None", "facebook": "None", "youtube": "None", "website": "None", "summary": "None", "logo": "None", "latitude": 46.572404131859706, "longitude": -72.7580946350633}, "847741568RR0001": {"name": "FONDS LAMBERT-DESAULNIERS", "designationCode": "C", "categoryCode": "49", "address": "116, RUE NOTRE-DAME OUEST", "city": "MONTREAL", "province": "QC", "country": "CA", "postalCode": "H2Y1T2", "twitter": "None", "instagram": "None", "facebook": "None", "youtube": "None", "website": "None", "summary": "None", "logo": "None", "latitude": 45.50420998831457, "longitude": -73.55711405182119}, "118926625RR0001": {"name": "FONDS LEOCADIE BOURGEOIS", "designationCode": "C", "categoryCode": "09", "address": "251 RUE SAINT-JEAN-BAPTISTE", "city": "NICOLET", "province": "QC", "country": "CA", "postalCode": "J3T1X9", "twitter": "None", "instagram": "None", "facebook": "None", "youtube": "None", "website": "None", "summary": "None", "logo": "None", "latitude": 46.22824998782363, "longitude": -72.6223705195053}, "858848732RR0001": {"name": "FONDS LEON-LIVINHAC", "designationCode": "C", "categoryCode": "49", "address": "1640, RUE ST-HUBERT", "city": "MONTR\u00c9AL", "province": "QC", "country": "CA", "postalCode": "H2L3Z3", "twitter": "None", "instagram": "None", "facebook": "None", "youtube": "None", "website": "None", "summary": "None", "logo": "None", "latitude": 45.51686077127951, "longitude": -73.56204223524135}, "118926641RR0002": {"name": "FONDS LIEUTENANT-COLONEL RAOUL PELLERIN", "designationCode": "C", "categoryCode": "51", "address": "574 RUE ST-FRANCOIS-XAVIER", "city": "TROIS-RIVIERES", "province": "QC", "country": "CA", "postalCode": "G9A1R6", "twitter": "None", "instagram": "None", "facebook": "None", "youtube": "None", "website": "None", "summary": "None", "logo": "None", "latitude": 46.347729735789635, "longitude": -72.54194037174696}, "118926666RR0001": {"name": "FONDS LOUIS QUERBES", "designationCode": "C", "categoryCode": "09", "address": "450 QUERBES", "city": "OUTREMONT MTR", "province": "QC", "country": "CA", "postalCode": "H2V3W5", "twitter": "None", "instagram": "None", "facebook": "None", "youtube": "None", "website": "None", "summary": "None", "logo": "None", "latitude": 45.52068359253296, "longitude": -73.60496308301097}, "118924216RR0001": {"name": "FONDS LOUIS-Z\u00c9PHIRIN-MOREAU", "designationCode": "C", "categoryCode": "03", "address": "2545 RUE DESSAULLES", "city": "SAINT-HYACINTHE", "province": "QC", "country": "CA", "postalCode": "J2S0K2", "twitter": "None", "instagram": "None", "facebook": "None", "youtube": "None", "website": "None", "summary": "None", "logo": "None", "latitude": 45.622354789018, "longitude": -72.95585532792617}, "118926682RR0001": {"name": "FONDS MARGUERITE-BOURGEOYS", "designationCode": "C", "categoryCode": "09", "address": "2330 RUE SHERBROOKE OUEST", "city": "MONTREAL", "province": "QC", "country": "CA", "postalCode": "H3H1G8", "twitter": "None", "instagram": "None", "facebook": "None", "youtube": "None", "website": "None", "summary": "None", "logo": "None", "latitude": 45.491717192307924, "longitude": -73.58736313289891}, "118926708RR0001": {"name": "FONDS MARIE MICHEL THUOT", "designationCode": "C", "categoryCode": "09", "address": "16470, BOURDAGES SUD", "city": "ST-HYACINTHE", "province": "QC", "country": "CA", "postalCode": "J2T4J8", "twitter": "None", "instagram": "None", "facebook": "None", "youtube": "None", "website": "None", "summary": "None", "logo": "None", "latitude": 45.616190349211905, "longitude": -72.9427241230025}, "118926690RR0001": {"name": "FONDS MARIE-ANNE-LAVALLEE", "designationCode": "C", "categoryCode": "09", "address": "11800, BOIS-DE-BOULOGNE", "city": "MONTREAL", "province": "QC", "country": "CA", "postalCode": "H3M2X6", "twitter": "None", "instagram": "None", "facebook": "None", "youtube": "None", "website": "None", "summary": "None", "logo": "None", "latitude": 45.54080012236735, "longitude": -73.68802177312584}, "873005441RR0001": {"name": "FONDS MARIE-BERNARD", "designationCode": "C", "categoryCode": "43", "address": "430 60E RUE E", "city": "QUEBEC", "province": "QC", "country": "CA", "postalCode": "G1H2C1", "twitter": "None", "instagram": "None", "facebook": "None", "youtube": "None", "website": "None", "summary": "None", "logo": "None", "latitude": 46.85341850150056, "longitude": -71.25230321951658}, "893064212RR0001": {"name": "FONDS MARIE-FID\u00c8LE", "designationCode": "C", "categoryCode": "43", "address": "189, RUE DUPONT", "city": "PONT-ROUGE", "province": "QC", "country": "CA", "postalCode": "G3H1N4", "twitter": "None", "instagram": "None", "facebook": "None", "youtube": "None", "website": "None", "summary": "None", "logo": "None", "latitude": 46.75608364866507, "longitude": -71.69598880845234}, "870781267RR0001": {"name": "FONDS MARIE-RIBAULT", "designationCode": "C", "categoryCode": "43", "address": "981 AVENUE MURRAY", "city": "QUEBEC", "province": "QC", "country": "CA", "postalCode": "G1S3B4", "twitter": "None", "instagram": "None", "facebook": "None", "youtube": "None", "website": "None", "summary": "None", "logo": "None", "latitude": 46.799330615326866, "longitude": -71.2364905331526}, "887599868RR0001": {"name": "FONDS MARIE-SALOME", "designationCode": "C", "categoryCode": "09", "address": "5655 RUE DE SALABERRY", "city": "MONTREAL", "province": "QC", "country": "CA", "postalCode": "H4J1J5", "twitter": "None", "instagram": "None", "facebook": "None", "youtube": "None", "website": "None", "summary": "None", "logo": "None", "latitude": 45.528873699753234, "longitude": -73.71145253699511}, "891899858RR0001": {"name": "FONDS MICHEL LANCUP INC", "designationCode": "C", "categoryCode": "09", "address": "CASE POSTALE 3133", "city": "CHANDLER", "province": "QC", "country": "CA", "postalCode": "G0C1K0", "twitter": "None", "instagram": "None", "facebook": "None", "youtube": "None", "website": "None", "summary": "None", "logo": "None", "latitude": 48.35288400000006, "longitude": -64.69417699999994}, "890236870RR0001": {"name": "FONDS MONDIAL POUR L'ENSEIGNEMENT DU FRANCAIS (FMEF) (SECTION QUEBEC-CANADA)", "designationCode": "C", "categoryCode": "21", "address": "302 - 161 RUE DESLIERES", "city": "SAINT-BRUNO", "province": "QC", "country": "CA", "postalCode": "J3V6P8", "twitter": "None", "instagram": "None", "facebook": "None", "youtube": "None", "website": "None", "summary": "None", "logo": "None", "latitude": 45.52381897281999, "longitude": -73.36091434182565}, "118926732RR0001": {"name": "FONDS MOYSAN", "designationCode": "C", "categoryCode": "09", "address": "2029 HOLY CROSS", "city": "MONTREAL", "province": "QC", "country": "CA", "postalCode": "H4E2A4", "twitter": "None", "instagram": "None", "facebook": "None", "youtube": "None", "website": "None", "summary": "None", "logo": "None", "latitude": 45.45652650764605, "longitude": -73.59236122009348}, "834817322RR0001": {"name": "FONDS NOTRE-DAME DE LA VISITATION", "designationCode": "C", "categoryCode": "49", "address": "80 AV DES HOSPITALIERES", "city": "DOLBEAU-MISTASSINI", "province": "QC", "country": "CA", "postalCode": "G8L2Y3", "twitter": "None", "instagram": "None", "facebook": "None", "youtube": "None", "website": "None", "summary": "None", "logo": "None", "latitude": 48.887510932252475, "longitude": -72.24158026729839}, "855487591RR0001": {"name": "FONDS NOTRE-DAME DE NAZARETH", "designationCode": "C", "categoryCode": "46", "address": "471, RUE PRINCIPALE", "city": "ROUGEMONT", "province": "QC", "country": "CA", "postalCode": "J0L1M0", "twitter": "None", "instagram": "None", "facebook": "None", "youtube": "None", "website": "None", "summary": "None", "logo": "None", "latitude": 45.443849415066, "longitude": -73.06435667177627}, "888500311RR0001": {"name": "FONDS OBLAT DE L'UNIVERSIT\u00c9 SAINT-PAUL INC.", "designationCode": "A", "categoryCode": "23", "address": "223 MAIN STREET", "city": "OTTAWA", "province": "ON", "country": "CA", "postalCode": "K1S1C4", "twitter": "None", "instagram": "None", "facebook": "None", "youtube": "None", "website": "None", "summary": "None", "logo": "None", "latitude": 45.408374558716496, "longitude": -75.67756136006155}, "118926773RR0001": {"name": "FONDS PERE RICHARD INC.", "designationCode": "B", "categoryCode": "21", "address": "2738 RTE 148", "city": "GRENVILLE-SUR-LA-ROUGE", "province": "QC", "country": "CA", "postalCode": "J0V1B0", "twitter": "None", "instagram": "None", "facebook": "None", "youtube": "None", "website": "None", "summary": "None", "logo": "None", "latitude": 45.64508191112755, "longitude": -74.75170614672572}, "118926211RR0001": {"name": "FONDS PIERRE-CELESTIN", "designationCode": "C", "categoryCode": "09", "address": "949 BOUL ST-GERMAIN", "city": "RIMOUSKI", "province": "QC", "country": "CA", "postalCode": "G5L8Y9", "twitter": "None", "instagram": "None", "facebook": "None", "youtube": "None", "website": "None", "summary": "None", "logo": "None", "latitude": 48.423973686974755, "longitude": -68.5990968911545}, "141691493RR0001": {"name": "FONDS PIERRE-JULIEN-EYMARD", "designationCode": "C", "categoryCode": "49", "address": "12, BOULEVARD DES \u00c9TUDIANTS", "city": "QU\u00c9BEC", "province": "QC", "country": "CA", "postalCode": "G2A1N5", "twitter": "None", "instagram": "None", "facebook": "None", "youtube": "None", "website": "None", "summary": "None", "logo": "None", "latitude": 46.85535429421766, "longitude": -71.35689560035189}, "118926781RR0001": {"name": "FONDS POPULAIRE DE SOLIDARITE DE L'OUTAOUAIS INC.", "designationCode": "C", "categoryCode": "29", "address": "115 BOUL SACRE-COEUR", "city": "GATINEAU", "province": "QC", "country": "CA", "postalCode": "J8X1C5", "twitter": "None", "instagram": "None", "facebook": "None", "youtube": "None", "website": "None", "summary": "None", "logo": "None", "latitude": 45.43728742829908, "longitude": -75.71438591341101}, "886195650RR0001": {"name": "FONDS POPULAIRE DU MILLENAIRE", "designationCode": "C", "categoryCode": "09", "address": "200, RUE DE SALABERRY         LOCAL #124", "city": "JOLIETTE", "province": "QC", "country": "CA", "postalCode": "J6E4G1", "twitter": "None", "instagram": "None", "facebook": "None", "youtube": "None", "website": "None", "summary": "None", "logo": "None", "latitude": 46.018690542616355, "longitude": -73.43261046352916}, "858297146RR0001": {"name": "FONDS POPULAIRES DE PLESSISVILLE INC.", "designationCode": "C", "categoryCode": "09", "address": "1570, AVENUE ROUSSEAU", "city": "PLESSISVILLE", "province": "QC", "country": "CA", "postalCode": "G6L2V1", "twitter": "None", "instagram": "None", "facebook": "None", "youtube": "None", "website": "None", "summary": "None", "logo": "None", "latitude": 46.22192838470178, "longitude": -71.76854171187051}, "861484541RR0001": {"name": "FONDS POUR LE DEVELOPPEMENT DE LA MUSIQUE AU COLLEGE D'ALMA", "designationCode": "C", "categoryCode": "22", "address": "675, BOULEVARD AUGER OUEST", "city": "ALMA", "province": "QC", "country": "CA", "postalCode": "G8B2B7", "twitter": "None", "instagram": "None", "facebook": "None", "youtube": "None", "website": "None", "summary": "None", "logo": "None", "latitude": 48.54423504512577, "longitude": -71.65463081428082}, "118926807RR0001": {"name": "FONDS POUR LES ENFANTS AU LIBAN (FELIB)", "designationCode": "C", "categoryCode": "09", "address": "7880 CROISSANT DU BEAU-BOIS", "city": "MONTREAL", "province": "QC", "country": "CA", "postalCode": "H4K2Y4", "twitter": "None", "instagram": "None", "facebook": "None", "youtube": "None", "website": "None", "summary": "None", "logo": "None", "latitude": 45.51724200721336, "longitude": -73.73270342879002}, "863661757RR0001": {"name": "FONDS POUR LES JEUNES D'ANJOU", "designationCode": "A", "categoryCode": "03", "address": "7077, BEAUBIEN EST            BUREAU 205", "city": "ANJOU", "province": "QC", "country": "CA", "postalCode": "H1M2Y2", "twitter": "None", "instagram": "None", "facebook": "None", "youtube": "None", "website": "None", "summary": "None", "logo": "None", "latitude": 45.593447489324184, "longitude": -73.5576018181081}, "132592064RR0001": {"name": "FONDS PROVIDENCE", "designationCode": "C", "categoryCode": "09", "address": "12055 RUE GRENET", "city": "MONTREAL", "province": "QC", "country": "CA", "postalCode": "H4J2J5", "twitter": "None", "instagram": "None", "facebook": "None", "youtube": "None", "website": "None", "summary": "None", "logo": "None", "latitude": 45.528534048617615, "longitude": -73.71426693502242}, "878039403RR0001": {"name": "FONDS REGANCE", "designationCode": "C", "categoryCode": "43", "address": "1358 RUE BARRIN", "city": "QUEBEC", "province": "QC", "country": "CA", "postalCode": "G1S2G8", "twitter": "None", "instagram": "None", "facebook": "None", "youtube": "None", "website": "None", "summary": "None", "logo": "None", "latitude": 46.79336092229781, "longitude": -71.25371748433253}, "891689317RR0001": {"name": "FONDS RICHELIEU OTTAWA 1", "designationCode": "A", "categoryCode": "03", "address": "725 THICKET WAY", "city": "ORLEANS", "province": "ON", "country": "CA", "postalCode": "K4A3B6", "twitter": "None", "instagram": "None", "facebook": "None", "youtube": "None", "website": "None", "summary": "None", "logo": "None", "latitude": 45.46544316290622, "longitude": -75.47855208866646}, "868962903RR0001": {"name": "FONDS RIVIER", "designationCode": "C", "categoryCode": "09", "address": "3600 RUE BELANGER EST", "city": "MONTREAL", "province": "QC", "country": "CA", "postalCode": "H1X1B1", "twitter": "None", "instagram": "None", "facebook": "None", "youtube": "None", "website": "None", "summary": "None", "logo": "None", "latitude": 45.56027561835664, "longitude": -73.5913483305156}, "130523590RR0001": {"name": "FONDS ROSE-VIRGINIE PELLETIER / ROSE VIRGINIE PELLETIER FUND", "designationCode": "C", "categoryCode": "09", "address": "9467 OUEST BOUL. GOUIN", "city": "PIERREFONDS", "province": "QC", "country": "CA", "postalCode": "H8Y1T2", "twitter": "None", "instagram": "None", "facebook": "None", "youtube": "None", "website": "None", "summary": "None", "logo": "None", "latitude": 45.50717986984239, "longitude": -73.77231086026309}, "863664124RR0001": {"name": "FONDS SAINT-JEAN-BAPTISTE", "designationCode": "C", "categoryCode": "43", "address": "12, BOULEVARD DES \u00c9TUDIANTS", "city": "QU\u00c9BEC", "province": "QC", "country": "CA", "postalCode": "G2A1N5", "twitter": "None", "instagram": "None", "facebook": "None", "youtube": "None", "website": "None", "summary": "None", "logo": "None", "latitude": 46.85535429421766, "longitude": -71.35689560035189}, "862673324RR0001": {"name": "FONDS SAINT-JOSEPH", "designationCode": "C", "categoryCode": "43", "address": "260 BOUL LANGELIER", "city": "QUEBEC", "province": "QC", "country": "CA", "postalCode": "G1K5N1", "twitter": "None", "instagram": "None", "facebook": "None", "youtube": "None", "website": "None", "summary": "None", "logo": "None", "latitude": 46.8144777418778, "longitude": -71.23229006607409}, "118926898RR0001": {"name": "FONDS SAINT-JOSEPH / SAINT JOSEPH FUND", "designationCode": "C", "categoryCode": "09", "address": "245 AV DES PINS OUEST", "city": "MONTREAL", "province": "QC", "country": "CA", "postalCode": "H2W1R5", "twitter": "None", "instagram": "None", "facebook": "None", "youtube": "None", "website": "None", "summary": "None", "logo": "None", "latitude": 45.51266668413551, "longitude": -73.57730306977341}, "806655866RR0001": {"name": "FONDS SAINT-PAUL", "designationCode": "C", "categoryCode": "09", "address": "253 RUE DU DOMAINE SAINT-PAUL", "city": "STE-ANNE-DES-MONTS", "province": "QC", "country": "CA", "postalCode": "G4V2G3", "twitter": "None", "instagram": "None", "facebook": "None", "youtube": "None", "website": "None", "summary": "None", "logo": "None", "latitude": 49.11740248765076, "longitude": -66.48007596932888}, "140962606RR0001": {"name": "FONDS SAINTE-CROIX", "designationCode": "C", "categoryCode": "09", "address": "900, BOUL. DE LA COTE-VERTU", "city": "SAINT-LAURENT", "province": "QC", "country": "CA", "postalCode": "H4L4T9", "twitter": "None", "instagram": "None", "facebook": "None", "youtube": "None", "website": "None", "summary": "None", "logo": "None", "latitude": 45.51667897916799, "longitude": -73.6746147693176}, "844714279RR0001": {"name": "FONDS SALOME-MARTIN", "designationCode": "C", "categoryCode": "46", "address": "80, SAINT-CHARLES EST", "city": "LONGUEUIL", "province": "QC", "country": "CA", "postalCode": "J4H1A9", "twitter": "None", "instagram": "None", "facebook": "None", "youtube": "None", "website": "None", "summary": "None", "logo": "None", "latitude": 45.541586023573316, "longitude": -73.50759404365553}, "890190150RR0001": {"name": "FONDS SAPIENTIAE INC", "designationCode": "A", "categoryCode": "03", "address": "434,CHEMIN MONTREAL", "city": "OTTAWA", "province": "ON", "country": "CA", "postalCode": "K1K0V3", "twitter": "None", "instagram": "None", "facebook": "None", "youtube": "None", "website": "None", "summary": "None", "logo": "None", "latitude": 45.44016627168355, "longitude": -75.64961242864578}, "866672843RR0001": {"name": "FONDS SIMON-MANNOURY", "designationCode": "C", "categoryCode": "45", "address": "6125, 1RE AVENUE", "city": "CHARLESBOURG", "province": "QC", "country": "CA", "postalCode": "G1H2V9", "twitter": "None", "instagram": "None", "facebook": "None", "youtube": "None", "website": "None", "summary": "None", "logo": "None", "latitude": 46.85131037466116, "longitude": -71.25738216550234}, "880320411RR0001": {"name": "FONDS SOEUR IMELDA-LOSIER, R.H.S.J.", "designationCode": "B", "categoryCode": "25", "address": "3660 SUCC BUREAU CHEF", "city": "TRACADIE", "province": "NB", "country": "CA", "postalCode": "E1X1G5", "twitter": "None", "instagram": "None", "facebook": "None", "youtube": "None", "website": "None", "summary": "None", "logo": "None", "latitude": 47.52130200000006, "longitude": -64.91063149999994}, "890110174RR0001": {"name": "FONDS TEMPIER", "designationCode": "C", "categoryCode": "43", "address": "460, 1\u00c8RE RUE, BUREAU 600", "city": "RICHELIEU", "province": "QC", "country": "CA", "postalCode": "J3L4B5", "twitter": "None", "instagram": "None", "facebook": "None", "youtube": "None", "website": "None", "summary": "None", "logo": "None", "latitude": 45.44870556942925, "longitude": -73.2618040494552}, "118926930RR0001": {"name": "FONDS VIETNAMIEN D'ENTRAIDE ET DE DEVELOPPEMENT", "designationCode": "C", "categoryCode": "01", "address": "1388 PLACE VICTOR-HUGO", "city": "MONTREAL", "province": "QC", "country": "CA", "postalCode": "H3C5X4", "twitter": "None", "instagram": "None", "facebook": "None", "youtube": "None", "website": "None", "summary": "None", "logo": "None", "latitude": 45.491992075277864, "longitude": -73.56658450827334}, "842843674RR0001": {"name": "FONTAINE CHILDREN'S CHARITY FOUNDATION", "designationCode": "B", "categoryCode": "01", "address": "47 AUBURN MEADOWS CRES SE", "city": "CALGARY", "province": "AB", "country": "CA", "postalCode": "T3M2E3", "twitter": "None", "instagram": "None", "facebook": "None", "youtube": "None", "website": "None", "summary": "None", "logo": "None", "latitude": 50.89628792255762, "longitude": -113.95041788718329}, "864084090RR0001": {"name": "FONTBONNE MINISTRIES, SISTERS OF ST. JOSEPH, TORONTO", "designationCode": "C", "categoryCode": "09", "address": "101 THORNCLIFFE PARK ROAD", "city": "TORONTO", "province": "ON", "country": "CA", "postalCode": "M4H1M2", "twitter": "None", "instagram": "None", "facebook": "None", "youtube": "None", "website": "None", "summary": "None", "logo": "None", "latitude": 43.70847745213221, "longitude": -79.34405100121208}, "889101309RR0001": {"name": "FONTENEIGE UNIVERSITY CENTRE", "designationCode": "C", "categoryCode": "20", "address": "5615 WOODBURY AVENUE", "city": "MONTREAL", "province": "QC", "country": "CA", "postalCode": "H3T1S6", "twitter": "None", "instagram": "None", "facebook": "None", "youtube": "None", "website": "None", "summary": "None", "logo": "None", "latitude": 45.50619015211482, "longitude": -73.61908206437198}, "118926948RR0001": {"name": "FONTHILL BAPTIST CHURCH", "designationCode": "C", "categoryCode": "31", "address": "P O BOX 306", "city": "FONTHILL", "province": "ON", "country": "CA", "postalCode": "L0S1E0", "twitter": "None", "instagram": "None", "facebook": "None", "youtube": "None", "website": "None", "summary": "None", "logo": "None", "latitude": 43.04568000000006, "longitude": -79.28625999999997}, "119288918RR0046": {"name": "FONTHILL ONTARIO, CONGREGATION OF JEHOVAH'S WITNESSES,", "designationCode": "C", "categoryCode": "61", "address": "70 BEVERLY CRES", "city": "WELLAND", "province": "ON", "country": "CA", "postalCode": "L3C3P8", "twitter": "None", "instagram": "None", "facebook": "None", "youtube": "None", "website": "None", "summary": "None", "logo": "None", "latitude": 43.00712652986305, "longitude": -79.2640305}, "118926971RR0001": {"name": "FONTHILL UNITED CHURCH", "designationCode": "C", "categoryCode": "44", "address": "42 CHURCH HILL                P.O. BOX 926", "city": "FONTHILL", "province": "ON", "country": "CA", "postalCode": "L0S1E0", "twitter": "None", "instagram": "None", "facebook": "None", "youtube": "None", "website": "None", "summary": "None", "logo": "None", "latitude": 43.04368904965682, "longitude": -79.29091125578493}, "138954466RR0001": {"name": "FOO-KWOK KWANYIN BUDDHIST ASSOCIATION", "designationCode": "C", "categoryCode": "35", "address": "202-427 DUNLEVY AVENUE", "city": "VANCOUVER", "province": "BC", "country": "CA", "postalCode": "V6A3Y4", "twitter": "None", "instagram": "None", "facebook": "None", "youtube": "None", "website": "None", "summary": "None", "logo": "None", "latitude": 49.28103633953609, "longitude": -123.09546046364713}}