{"107505372RR0001": {"name": "INDEPENDENT LIVING RESOURCE CENTRE INC.", "designationCode": "C", "categoryCode": "09", "address": "SUITE 311A 393 PORTAGE AVE", "city": "WINNIPEG", "province": "MB", "country": "CA", "postalCode": "R3B3H6", "twitter": "None", "instagram": "None", "facebook": "None", "youtube": "None", "website": "None", "summary": "None", "logo": "None", "latitude": 49.89219673884805, "longitude": -97.14776200779028}, "127914463RR0001": {"name": "INDEPENDENT LIVING RESOURCE CENTRE OF CALGARY", "designationCode": "C", "categoryCode": "11", "address": "134-3359 27 ST NE", "city": "CALGARY", "province": "AB", "country": "CA", "postalCode": "T1Y5E4", "twitter": "None", "instagram": "None", "facebook": "None", "youtube": "None", "website": "None", "summary": "None", "logo": "None", "latitude": 51.08286569608748, "longitude": -113.99486418140096}, "872101928RR0001": {"name": "INDEPENDENT LIVING RESOURCE CENTRE THUNDER BAY", "designationCode": "C", "categoryCode": "09", "address": "102-130 BRODIE ST S", "city": "THUNDER BAY", "province": "ON", "country": "CA", "postalCode": "P7E1B9", "twitter": "None", "instagram": "None", "facebook": "None", "youtube": "None", "website": "None", "summary": "None", "logo": "None", "latitude": 48.38165127326639, "longitude": -89.24659701191366}, "106773575RR0001": {"name": "INDEPENDENT LIVING SERVICES OF SIMCOE COUNTY AND AREA", "designationCode": "C", "categoryCode": "09", "address": "1102-44 CEDAR POINTE DR", "city": "BARRIE", "province": "ON", "country": "CA", "postalCode": "L4N5R7", "twitter": "None", "instagram": "None", "facebook": "None", "youtube": "None", "website": "None", "summary": "None", "logo": "None", "latitude": 44.38353887039064, "longitude": -79.71156688582698}, "139156111RR0001": {"name": "INDEPENDENT LIVING VERNON SOCIETY", "designationCode": "C", "categoryCode": "09", "address": "107-3402 27TH AVE", "city": "VERNON", "province": "BC", "country": "CA", "postalCode": "V1T1S1", "twitter": "None", "instagram": "None", "facebook": "None", "youtube": "None", "website": "None", "summary": "None", "logo": "None", "latitude": 50.26130859781307, "longitude": -119.27748610949848}, "131643678RR0001": {"name": "INDEPENDENT PRODUCTION FUND/FONDS INDEPENTANT DE PRODUCTION", "designationCode": "B", "categoryCode": "22", "address": "1709-2 CARLTON ST", "city": "TORONTO", "province": "ON", "country": "CA", "postalCode": "M5B1J3", "twitter": "None", "instagram": "None", "facebook": "None", "youtube": "None", "website": "None", "summary": "None", "logo": "None", "latitude": 43.66142348211082, "longitude": -79.38282201832186}, "108084682RR0001": {"name": "INDEPENDENT WINE EDUCATION GUILD", "designationCode": "C", "categoryCode": "20", "address": "501 - 211 YONGE ST", "city": "TORONTO", "province": "ON", "country": "CA", "postalCode": "M5B1M4", "twitter": "None", "instagram": "None", "facebook": "None", "youtube": "None", "website": "None", "summary": "None", "logo": "None", "latitude": 43.65373364807546, "longitude": -79.37975697082943}, "832490346RR0001": {"name": "INDIA CANADA CULTURAL AND HERITAGE ASSOCIATION (ICCHA) INC.", "designationCode": "A", "categoryCode": "23", "address": "93 UPAVON RD", "city": "WINNIPEG", "province": "MB", "country": "CA", "postalCode": "R2N0H1", "twitter": "None", "instagram": "None", "facebook": "None", "youtube": "None", "website": "None", "summary": "None", "logo": "None", "latitude": 49.803871911046606, "longitude": -97.08512481416035}, "852185925RR0001": {"name": "INDIA CHRISTIAN FELLOWSHIP", "designationCode": "C", "categoryCode": "39", "address": "140 DARREN HILL TRAIL", "city": "MARKHAM", "province": "ON", "country": "CA", "postalCode": "L6E0M4", "twitter": "None", "instagram": "None", "facebook": "None", "youtube": "None", "website": "None", "summary": "None", "logo": "None", "latitude": 43.9099055825783, "longitude": -79.26027037134293}, "893513069RR0001": {"name": "INDIA FOR CHRIST", "designationCode": "C", "categoryCode": "39", "address": "P.O.BOX #486", "city": "SMITHS FALLS", "province": "ON", "country": "CA", "postalCode": "K7A4T4", "twitter": "None", "instagram": "None", "facebook": "None", "youtube": "None", "website": "None", "summary": "None", "logo": "None", "latitude": 44.90257200000005, "longitude": -76.02153199999994}, "888894268RR0001": {"name": "INDIA FUND", "designationCode": "C", "categoryCode": "09", "address": "1531 GRAFTON ST", "city": "HALIFAX", "province": "NS", "country": "CA", "postalCode": "B3J2Y3", "twitter": "None", "instagram": "None", "facebook": "None", "youtube": "None", "website": "None", "summary": "None", "logo": "None", "latitude": 44.64439061139251, "longitude": -63.57409284393179}, "891858334RR0001": {"name": "INDIA HERITAGE RESEARCH FOUNDATION (IHRF) CANADA", "designationCode": "C", "categoryCode": "39", "address": "19 MILLVIEW STREET", "city": "KITCHENER", "province": "ON", "country": "CA", "postalCode": "N2P1W7", "twitter": "None", "instagram": "None", "facebook": "None", "youtube": "None", "website": "None", "summary": "None", "logo": "None", "latitude": 43.39355633775763, "longitude": -80.41848193548378}, "886722594RR0001": {"name": "INDIA SCHOOL OF DANCE MUSIC AND THEATRE INC", "designationCode": "C", "categoryCode": "22", "address": "308 RIEL AVE", "city": "WINNIPEG", "province": "MB", "country": "CA", "postalCode": "R2M2N1", "twitter": "None", "instagram": "None", "facebook": "None", "youtube": "None", "website": "None", "summary": "None", "logo": "None", "latitude": 49.821989481245446, "longitude": -97.13060300138497}, "889204244RR0001": {"name": "INDIA-CANADA CULTURAL ASSOCIATION", "designationCode": "C", "categoryCode": "56", "address": "BOX 7194", "city": "SASKATOON", "province": "SK", "country": "CA", "postalCode": "S7K4J2", "twitter": "None", "instagram": "None", "facebook": "None", "youtube": "None", "website": "None", "summary": "None", "logo": "None", "latitude": 52.13049000000005, "longitude": -106.65926449999994}, "130527203RR0001": {"name": "INDIAN AND METIS FRIENDSHIP CENTRE OF WINNIPEG INC", "designationCode": "C", "categoryCode": "09", "address": "45 ROBINSON STREET", "city": "WINNIPEG", "province": "MB", "country": "CA", "postalCode": "R2W5H5", "twitter": "None", "instagram": "None", "facebook": "None", "youtube": "None", "website": "None", "summary": "None", "logo": "None", "latitude": 49.910051662213704, "longitude": -97.13995653465317}, "892215641RR0001": {"name": "INDIAN CREEK ROAD PUBLIC SCHOOL BOOSTER CLUB", "designationCode": "C", "categoryCode": "56", "address": "282 INDIAN CREEK RD E", "city": "CHATHAM", "province": "ON", "country": "CA", "postalCode": "N7M0M8", "twitter": "None", "instagram": "None", "facebook": "None", "youtube": "None", "website": "None", "summary": "None", "logo": "None", "latitude": 42.39312049405606, "longitude": -82.15781929381363}, "131164402RR0001": {"name": "INDIAN EQUITY FOUNDATION", "designationCode": "C", "categoryCode": "59", "address": "BOX 180", "city": "ENOCH", "province": "AB", "country": "CA", "postalCode": "T7X3Y3", "twitter": "None", "instagram": "None", "facebook": "None", "youtube": "None", "website": "None", "summary": "None", "logo": "None", "latitude": 53.503460000000075, "longitude": -113.74394999999998}, "118967991RR0001": {"name": "INDIAN FRIENDSHIP CENTRE IN PARRY SOUND", "designationCode": "C", "categoryCode": "56", "address": "13 BOWES ST", "city": "PARRY SOUND", "province": "ON", "country": "CA", "postalCode": "P2A2K7", "twitter": "None", "instagram": "None", "facebook": "None", "youtube": "None", "website": "None", "summary": "None", "logo": "None", "latitude": 45.34389251731227, "longitude": -80.02888336219632}, "107505588RR0001": {"name": "INDIAN HARBOUR LAKE PENTECOSTAL CHURCH", "designationCode": "C", "categoryCode": "36", "address": "RR 2", "city": "SHERBROOKE", "province": "NS", "country": "CA", "postalCode": "B0J3C0", "twitter": "None", "instagram": "None", "facebook": "None", "youtube": "None", "website": "None", "summary": "None", "logo": "None", "latitude": 44.62486683013651, "longitude": -64.54661386209058}, "118968015RR0001": {"name": "INDIAN HARBOUR UNITED BAPTIST CHURCH", "designationCode": "C", "categoryCode": "31", "address": "22 WETMORE LANE", "city": "INDIAN HARBOUR", "province": "NS", "country": "CA", "postalCode": "B3Z4E4", "twitter": "None", "instagram": "None", "facebook": "None", "youtube": "None", "website": "None", "summary": "None", "logo": "None", "latitude": 44.526029153499806, "longitude": -63.938069474349206}, "890942576RR0001": {"name": "INDIAN HEAD AGRICULTURAL RESEARCH FOUNDATION INC.", "designationCode": "C", "categoryCode": "23", "address": "BOX 156", "city": "INDIAN HEAD", "province": "SK", "country": "CA", "postalCode": "S0G2K0", "twitter": "None", "instagram": "None", "facebook": "None", "youtube": "None", "website": "None", "summary": "None", "logo": "None", "latitude": 50.52675000000005, "longitude": -103.66901999999999}, "118968031RR0001": {"name": "INDIAN HEAD HERITAGE CLUB INC.", "designationCode": "C", "categoryCode": "56", "address": "BOX 134", "city": "INDIAN HEAD", "province": "SK", "country": "CA", "postalCode": "S0G2K0", "twitter": "None", "instagram": "None", "facebook": "None", "youtube": "None", "website": "None", "summary": "None", "logo": "None", "latitude": 50.52675000000005, "longitude": -103.66901999999999}, "819216342RR0001": {"name": "INDIAN HEAD MAINLINE MUSIC FESTIVAL", "designationCode": "C", "categoryCode": "22", "address": "PO BOX 1272", "city": "INDIAN HEAD", "province": "SK", "country": "CA", "postalCode": "S0G2K0", "twitter": "None", "instagram": "None", "facebook": "None", "youtube": "None", "website": "None", "summary": "None", "logo": "None", "latitude": 50.52675000000005, "longitude": -103.66901999999999}, "118968049RR0001": {"name": "INDIAN HEAD MUSEUM SOCIETY", "designationCode": "C", "categoryCode": "50", "address": "BOX 566", "city": "INDIAN HEAD", "province": "SK", "country": "CA", "postalCode": "S0G2K0", "twitter": "None", "instagram": "None", "facebook": "None", "youtube": "None", "website": "None", "summary": "None", "logo": "None", "latitude": 50.52675000000005, "longitude": -103.66901999999999}, "886058395RR0001": {"name": "INDIAN POINT CEMETERY COMPANY", "designationCode": "C", "categoryCode": "59", "address": "319 INDIAN POINT ROAD", "city": "MAHONE BAY", "province": "NS", "country": "CA", "postalCode": "B0J2E0", "twitter": "None", "instagram": "None", "facebook": "None", "youtube": "None", "website": "None", "summary": "None", "logo": "None", "latitude": 44.46485219346175, "longitude": -64.30692698877593}, "118968098RR0001": {"name": "INDIAN POINT FIRE DEPARTMENT", "designationCode": "C", "categoryCode": "59", "address": "RR 2", "city": "MAHONE BAY", "province": "NS", "country": "CA", "postalCode": "B0J2E0", "twitter": "None", "instagram": "None", "facebook": "None", "youtube": "None", "website": "None", "summary": "None", "logo": "None", "latitude": 44.5107664683721, "longitude": -64.5603343504879}, "864829536RR0001": {"name": "INDIAN RESIDENTIAL SCHOOL SURVIVORS SOCIETY", "designationCode": "C", "categoryCode": "59", "address": "413 ESPLANADE W", "city": "NORTH VANCOUVER", "province": "BC", "country": "CA", "postalCode": "V7M1A6", "twitter": "None", "instagram": "None", "facebook": "None", "youtube": "None", "website": "None", "summary": "None", "logo": "None", "latitude": 49.31448160497079, "longitude": -123.08729415992927}, "118968106RR0001": {"name": "INDIAN YOUTH FRIENDSHIP SOCIETY", "designationCode": "C", "categoryCode": "09", "address": "401 N CUMBERLAND", "city": "THUNDERBAY", "province": "ON", "country": "CA", "postalCode": "P7A4P7", "twitter": "None", "instagram": "None", "facebook": "None", "youtube": "None", "website": "None", "summary": "None", "logo": "None", "latitude": 48.44669109934227, "longitude": -89.20191662542575}, "893116707RR0001": {"name": "INDIGENOUS BAR ASSOCIATION LAW STUDENT SCHOLARSHIP FOUNDATION", "designationCode": "C", "categoryCode": "21", "address": "57 LOUIS PASTEUR STREET", "city": "OTTAWA", "province": "ON", "country": "CA", "postalCode": "K1N6N5", "twitter": "None", "instagram": "None", "facebook": "None", "youtube": "None", "website": "None", "summary": "None", "logo": "None", "latitude": 45.424155383028356, "longitude": -75.68309778902444}, "863439345RR0001": {"name": "INDIGENOUS CULTURE AND MEDIA INNOVATIONS", "designationCode": "C", "categoryCode": "22", "address": "3076-1A MISSISSAUGA ROAD", "city": "HAGERSVILLE", "province": "ON", "country": "CA", "postalCode": "N0A1H0", "twitter": "None", "instagram": "None", "facebook": "None", "youtube": "None", "website": "None", "summary": "None", "logo": "None", "latitude": 42.979417698539336, "longitude": -80.04319539829761}, "140988452RR0001": {"name": "INDIGENOUS PERSPECTIVES SOCIETY", "designationCode": "C", "categoryCode": "01", "address": "664 GRANDERSON ROAD", "city": "VICTORIA", "province": "BC", "country": "CA", "postalCode": "V9B2R8", "twitter": "None", "instagram": "None", "facebook": "None", "youtube": "None", "website": "None", "summary": "None", "logo": "None", "latitude": 48.44724239107844, "longitude": -123.49337578587911}, "892533167RR0001": {"name": "INDO CANADIAN CULTURAL CLUB", "designationCode": "C", "categoryCode": "22", "address": "5204 TIFFANY CRT", "city": "MISSISSAUGA", "province": "ON", "country": "CA", "postalCode": "L5M5G9", "twitter": "None", "instagram": "None", "facebook": "None", "youtube": "None", "website": "None", "summary": "None", "logo": "None", "latitude": 43.565163842345264, "longitude": -79.7104195064922}, "887280790RR0001": {"name": "INDO-CANADIAN COMMUNITY CENTRE", "designationCode": "C", "categoryCode": "09", "address": "1993 ROBERTSON RD", "city": "NEPEAN", "province": "ON", "country": "CA", "postalCode": "K2H5B7", "twitter": "None", "instagram": "None", "facebook": "None", "youtube": "None", "website": "None", "summary": "None", "logo": "None", "latitude": 45.32486833475653, "longitude": -75.82639467793851}, "886432830RR0001": {"name": "INDO-CANADIAN COMMUNITY CENTRE SOCIETY", "designationCode": "C", "categoryCode": "56", "address": "877 TOWER ROAD", "city": "HALIFAX", "province": "NS", "country": "CA", "postalCode": "B3H3Y1", "twitter": "None", "instagram": "None", "facebook": "None", "youtube": "None", "website": "None", "summary": "None", "logo": "None", "latitude": 44.63116693450285, "longitude": -63.5777654533443}, "118968163RR0001": {"name": "INDO-CANADIAN FRIENDSHIP SOCIETY OF BRITISH COLUMBIA", "designationCode": "C", "categoryCode": "09", "address": "109A-1083 EAST KENT AVE NORTH", "city": "VANCOUVER", "province": "BC", "country": "CA", "postalCode": "V5X4V9", "twitter": "None", "instagram": "None", "facebook": "None", "youtube": "None", "website": "None", "summary": "None", "logo": "None", "latitude": 49.20888640663961, "longitude": -123.08427655571924}, "107505877RR0001": {"name": "INDO-CANADIAN SIKH ASSOCIATION OF PRINCE RUPERT BC", "designationCode": "C", "categoryCode": "49", "address": "200 4TH AVE E", "city": "PRINCE RUPERT", "province": "BC", "country": "CA", "postalCode": "V8J1N5", "twitter": "None", "instagram": "None", "facebook": "None", "youtube": "None", "website": "None", "summary": "None", "logo": "None", "latitude": 54.315259052166965, "longitude": -130.31832822312325}, "107505885RR0001": {"name": "INDO-CANADIAN WOMEN'S ASSOCIATION OF EDMONTON", "designationCode": "C", "categoryCode": "09", "address": "9342-34 AVE NW", "city": "EDMONTON", "province": "AB", "country": "CA", "postalCode": "T6E5X8", "twitter": "None", "instagram": "None", "facebook": "None", "youtube": "None", "website": "None", "summary": "None", "logo": "None", "latitude": 53.46626402752579, "longitude": -113.47596314677739}, "135887768RR0001": {"name": "INDO-CHINESE BUDDHIST ASSOCIATION", "designationCode": "C", "categoryCode": "35", "address": "2405 CENTRE STREET NW", "city": "CALGARY", "province": "AB", "country": "CA", "postalCode": "T2E2T8", "twitter": "None", "instagram": "None", "facebook": "None", "youtube": "None", "website": "None", "summary": "None", "logo": "None", "latitude": 51.05230397192986, "longitude": -114.00297264176778}, "892104928RR0001": {"name": "INDONESIAN CHRISTIAN CHURCH CANADA", "designationCode": "C", "categoryCode": "39", "address": "1000 PETROLIA ROAD", "city": "NORTH YORK", "province": "ON", "country": "CA", "postalCode": "M3J3L7", "twitter": "None", "instagram": "None", "facebook": "None", "youtube": "None", "website": "None", "summary": "None", "logo": "None", "latitude": 43.780193088810684, "longitude": -79.48908351361867}, "846056661RR0001": {"name": "INDONESIAN EVANGELICAL CHURCH VANCOUVER FELLOWSHIP", "designationCode": "C", "categoryCode": "39", "address": "2 - 7901 13TH AVE", "city": "BURNABY", "province": "BC", "country": "CA", "postalCode": "V3N2E8", "twitter": "None", "instagram": "None", "facebook": "None", "youtube": "None", "website": "None", "summary": "None", "logo": "None", "latitude": 49.22145178019497, "longitude": -122.93012520165605}, "865807739RR0001": {"name": "INDONESIAN FULL GOSPEL FELLOWSHIP TORONTO", "designationCode": "C", "categoryCode": "39", "address": "437 REVUS AVE", "city": "MISSISSAUGA", "province": "ON", "country": "CA", "postalCode": "L5G1S2", "twitter": "None", "instagram": "None", "facebook": "None", "youtube": "None", "website": "None", "summary": "None", "logo": "None", "latitude": 43.566946039702145, "longitude": -79.57445172551783}, "878986306RR0001": {"name": "INDONESIAN REFORMED EVANGELICAL CHURCH IN TORONTO", "designationCode": "C", "categoryCode": "39", "address": "55-57, 3065 RIDGEWAY DR", "city": "MISSISSAUGA", "province": "ON", "country": "CA", "postalCode": "L5L5M6", "twitter": "None", "instagram": "None", "facebook": "None", "youtube": "None", "website": "None", "summary": "None", "logo": "None", "latitude": 43.51851645830636, "longitude": -79.68890313918864}, "118834696RR0001": {"name": "INDSPIRE", "designationCode": "C", "categoryCode": "22", "address": "50 GENERATION DRIVE           SIX NATIONS OF THE GRAND RIVER", "city": "OHSWEKEN", "province": "ON", "country": "CA", "postalCode": "N0A1M0", "twitter": "None", "instagram": "None", "facebook": "None", "youtube": "None", "website": "None", "summary": "None", "logo": "None", "latitude": 43.08434700000005, "longitude": -80.10777949999994}, "107505810RR0001": {"name": "INDUS COMMUNITY SERVICES", "designationCode": "C", "categoryCode": "59", "address": "206-3038 HURONTARIO ST", "city": "MISSISSAUGA", "province": "ON", "country": "CA", "postalCode": "L5B3B9", "twitter": "None", "instagram": "None", "facebook": "None", "youtube": "None", "website": "None", "summary": "None", "logo": "None", "latitude": 43.581158812366624, "longitude": -79.6177990982744}, "118968205RR0001": {"name": "INDUSTRIAL ACCIDENT VICTIMS GROUP OF ONTARIO", "designationCode": "C", "categoryCode": "59", "address": "55 UNIVERSITY AVE;15TH FLOOR", "city": "TORONTO", "province": "ON", "country": "CA", "postalCode": "M5J2H7", "twitter": "None", "instagram": "None", "facebook": "None", "youtube": "None", "website": "None", "summary": "None", "logo": "None", "latitude": 43.64683659867845, "longitude": -79.38431430818304}, "897233482RR0001": {"name": "INDUSTRIES GOODWILL RENAISSANCE MONTREAL INC.", "designationCode": "C", "categoryCode": "09", "address": "7250 BOULEVARD SAINT-LAURENT", "city": "MONTREAL", "province": "QC", "country": "CA", "postalCode": "H2R2X9", "twitter": "None", "instagram": "None", "facebook": "None", "youtube": "None", "website": "None", "summary": "None", "logo": "None", "latitude": 45.535201650816745, "longitude": -73.61961215961664}, "890756869RR0001": {"name": "INFERTILITY NETWORK ASSOCIATION", "designationCode": "C", "categoryCode": "59", "address": "160 PICKERING ST", "city": "TORONTO", "province": "ON", "country": "CA", "postalCode": "M4E3J7", "twitter": "None", "instagram": "None", "facebook": "None", "youtube": "None", "website": "None", "summary": "None", "logo": "None", "latitude": 43.6836782098217, "longitude": -79.29138333210213}, "126222850RR0001": {"name": "INFINITHEATRE", "designationCode": "C", "categoryCode": "21", "address": "203 - 5413 BOUL SAINT-LAURENT", "city": "MONTREAL", "province": "QC", "country": "CA", "postalCode": "H2T1S5", "twitter": "None", "instagram": "None", "facebook": "None", "youtube": "None", "website": "None", "summary": "None", "logo": "None", "latitude": 45.52525621761199, "longitude": -73.59758166651288}, "844740944RR0001": {"name": "INFIRMI\u00c8RES ET INFIRMIERS SANS FRONTI\u00c8RES (IISF) / NURSES WITHOUT BORDERS (NWB)", "designationCode": "C", "categoryCode": "21", "address": "93 AV GEORGE", "city": "ROUYN-NORANDA", "province": "QC", "country": "CA", "postalCode": "J9X1B1", "twitter": "None", "instagram": "None", "facebook": "None", "youtube": "None", "website": "None", "summary": "None", "logo": "None", "latitude": 48.250246325581266, "longitude": -79.03109996557797}, "889063954RR0001": {"name": "INFO-AIR REGION SOREL-TRACY", "designationCode": "C", "categoryCode": "09", "address": "401 BONAVENTURE", "city": "SOREL-TRACY", "province": "QC", "country": "CA", "postalCode": "J3P4J9", "twitter": "None", "instagram": "None", "facebook": "None", "youtube": "None", "website": "None", "summary": "None", "logo": "None", "latitude": 46.04414307689412, "longitude": -73.09039929421766}, "889791778RR0001": {"name": "INFO-CRIME INC", "designationCode": "C", "categoryCode": "59", "address": "5255 BOUL HENRI-BOURASSA O    BUREAU 101", "city": "SAINT-LAURENT", "province": "QC", "country": "CA", "postalCode": "H4R2M6", "twitter": "None", "instagram": "None", "facebook": "None", "youtube": "None", "website": "None", "summary": "None", "logo": "None", "latitude": 45.52080738721196, "longitude": -73.71014811411477}, "882543184RR0001": {"name": "INFO-CRIME QUEBEC", "designationCode": "C", "categoryCode": "59", "address": "4995, RUE PAUL-PAU", "city": "MONTREAL", "province": "QC", "country": "CA", "postalCode": "H1K2M7", "twitter": "None", "instagram": "None", "facebook": "None", "youtube": "None", "website": "None", "summary": "None", "logo": "None", "latitude": 45.609215070229034, "longitude": -73.53119614126612}, "102484680RR0001": {"name": "INFO-FEMMES INC.", "designationCode": "C", "categoryCode": "09", "address": "2185 RUE DES ORMEAUX", "city": "MONTREAL", "province": "QC", "country": "CA", "postalCode": "H1L4W9", "twitter": "None", "instagram": "None", "facebook": "None", "youtube": "None", "website": "None", "summary": "None", "logo": "None", "latitude": 45.60032897919663, "longitude": -73.51568222647012}, "118968270RR0001": {"name": "INFO-NATURE MAURICIE", "designationCode": "C", "categoryCode": "52", "address": "11 - 702 5E RUE DE LA POINTE", "city": "SHAWINIGAN", "province": "QC", "country": "CA", "postalCode": "G9N1E9", "twitter": "None", "instagram": "None", "facebook": "None", "youtube": "None", "website": "None", "summary": "None", "logo": "None", "latitude": 46.54047659682424, "longitude": -72.75123825077775}, "125754242RR0001": {"name": "INFO-SECTE / INFO-CULT", "designationCode": "C", "categoryCode": "99", "address": "5655 AV. DU PARC SUITE 208", "city": "MONTREAL", "province": "QC", "country": "CA", "postalCode": "H2V4H2", "twitter": "None", "instagram": "None", "facebook": "None", "youtube": "None", "website": "None", "summary": "None", "logo": "None", "latitude": 45.52295926868244, "longitude": -73.60387142518334}, "118968262RR0001": {"name": "INFOLOGIS DE L'EST DE L'ILE DE MONTREAL", "designationCode": "C", "categoryCode": "59", "address": "2532 DES ORMEAUX", "city": "MONTREAL", "province": "QC", "country": "CA", "postalCode": "H1L4X5", "twitter": "None", "instagram": "None", "facebook": "None", "youtube": "None", "website": "None", "summary": "None", "logo": "None", "latitude": 45.60170608630055, "longitude": -73.52060910159263}, "118968411RR0001": {"name": "INFORM'ELLE INC.", "designationCode": "C", "categoryCode": "09", "address": "3757 MACKAY", "city": "SAINT-HUBERT", "province": "QC", "country": "CA", "postalCode": "J4T2P6", "twitter": "None", "instagram": "None", "facebook": "None", "youtube": "None", "website": "None", "summary": "None", "logo": "None", "latitude": 45.49099789093422, "longitude": -73.46904533775762}, "108040445RR0001": {"name": "INFORMATION & VOLUNTEER CENTRE FOR STRATHCONA COUNTY", "designationCode": "C", "categoryCode": "59", "address": "100 - ORDZE AVENUE", "city": "SHERWOOD PARK", "province": "AB", "country": "CA", "postalCode": "T8B1M6", "twitter": "None", "instagram": "None", "facebook": "None", "youtube": "None", "website": "None", "summary": "None", "logo": "None", "latitude": 53.511194501009605, "longitude": -113.32990205398464}, "890319262RR0001": {"name": "INFORMATION ALIMENTAIRE POPULAIRE CENTRE-SUD INC", "designationCode": "C", "categoryCode": "56", "address": "1710 BEAUDRY", "city": "MONTREAL", "province": "QC", "country": "CA", "postalCode": "H2L3E7", "twitter": "None", "instagram": "None", "facebook": "None", "youtube": "None", "website": "None", "summary": "None", "logo": "None", "latitude": 45.5203528956374, "longitude": -73.55927210658429}, "119146330RR0001": {"name": "INFORMATION ET REFERENCE REGION 02", "designationCode": "C", "categoryCode": "09", "address": "255 RUE COLLARD O.            SUITE 3", "city": "ALMA", "province": "QC", "country": "CA", "postalCode": "G8B1M8", "twitter": "None", "instagram": "None", "facebook": "None", "youtube": "None", "website": "None", "summary": "None", "logo": "None", "latitude": 48.54670579130347, "longitude": -71.64650606422775}, "118968338RR0001": {"name": "INFORMATION MARKHAM", "designationCode": "C", "categoryCode": "59", "address": "101 TOWN CENTRE BLVD.", "city": "MARKHAM", "province": "ON", "country": "CA", "postalCode": "L3R9W3", "twitter": "None", "instagram": "None", "facebook": "None", "youtube": "None", "website": "None", "summary": "None", "logo": "None", "latitude": 43.855543588936285, "longitude": -79.33993143675521}, "118968346RR0001": {"name": "INFORMATION NIAGARA INC.", "designationCode": "C", "categoryCode": "59", "address": "235 MARTINDALE ROAD           UNIT#10", "city": "ST CATHARINES", "province": "ON", "country": "CA", "postalCode": "L2W1A5", "twitter": "None", "instagram": "None", "facebook": "None", "youtube": "None", "website": "None", "summary": "None", "logo": "None", "latitude": 43.17316512568555, "longitude": -79.27454271146648}, "118968353RR0001": {"name": "INFORMATION ORILLIA INC.", "designationCode": "C", "categoryCode": "59", "address": "36 MISSISSAGA ST WEST", "city": "ORILLIA", "province": "ON", "country": "CA", "postalCode": "L3V3A6", "twitter": "None", "instagram": "None", "facebook": "None", "youtube": "None", "website": "None", "summary": "None", "logo": "None", "latitude": 44.607875893957456, "longitude": -79.42078172044486}, "891105587RR0001": {"name": "INFORMATION SARNIA LAMBTON", "designationCode": "C", "categoryCode": "59", "address": "PO BOX 354", "city": "SARNIA", "province": "ON", "country": "CA", "postalCode": "N7T7J2", "twitter": "None", "instagram": "None", "facebook": "None", "youtube": "None", "website": "None", "summary": "None", "logo": "None", "latitude": 42.97877700000005, "longitude": -82.40368399999993}, "834974768RR0001": {"name": "INFUSION CANADA", "designationCode": "C", "categoryCode": "13", "address": "3454 MCLAUCHLAN CRES", "city": "LONDON", "province": "ON", "country": "CA", "postalCode": "N6P0A4", "twitter": "None", "instagram": "None", "facebook": "None", "youtube": "None", "website": "None", "summary": "None", "logo": "None", "latitude": 42.92765332638932, "longitude": -81.30902555900495}, "126579242RR0001": {"name": "INGAMO FAMILY HOMES WOODSTOCK INC", "designationCode": "C", "categoryCode": "01", "address": "432-20 SPRINGBANK AVE N.", "city": "WOODSTOCK", "province": "ON", "country": "CA", "postalCode": "N4T1N7", "twitter": "None", "instagram": "None", "facebook": "None", "youtube": "None", "website": "None", "summary": "None", "logo": "None", "latitude": 43.152854672830244, "longitude": -80.73460318113167}, "118968429RR0001": {"name": "INGAMO HALL FRIENDSHIP CENTRE", "designationCode": "C", "categoryCode": "56", "address": "BOX 1293", "city": "INUVIK", "province": "NT", "country": "CA", "postalCode": "X0E0T0", "twitter": "None", "instagram": "None", "facebook": "None", "youtube": "None", "website": "None", "summary": "None", "logo": "None", "latitude": 68.36105000000003, "longitude": -133.73492999999996}, "141672238RR0001": {"name": "INGENIEURS SANS FRONTIERES QUEBEC", "designationCode": "C", "categoryCode": "09", "address": "204 - 8440 BOUL SAINT-LAURENT", "city": "MONTREAL", "province": "QC", "country": "CA", "postalCode": "H2P2M5", "twitter": "None", "instagram": "None", "facebook": "None", "youtube": "None", "website": "None", "summary": "None", "logo": "None", "latitude": 45.540272024121585, "longitude": -73.63619178463837}, "873499073RR0001": {"name": "INGERSOLL & DISTRICT HISTORICAL SOCIETY", "designationCode": "C", "categoryCode": "50", "address": "109 FRANCES ST", "city": "INGERSOLL", "province": "ON", "country": "CA", "postalCode": "N5C2H2", "twitter": "None", "instagram": "None", "facebook": "None", "youtube": "None", "website": "None", "summary": "None", "logo": "None", "latitude": 43.03523399388317, "longitude": -80.88445779127481}, "826839540RR0001": {"name": "INGERSOLL & DISTRICT INTER-CHURCH", "designationCode": "C", "categoryCode": "09", "address": "56 THAMES ST S", "city": "INGERSOLL", "province": "ON", "country": "CA", "postalCode": "N5C2S9", "twitter": "None", "instagram": "None", "facebook": "None", "youtube": "None", "website": "None", "summary": "None", "logo": "None", "latitude": 43.03998184292217, "longitude": -80.88441420208875}, "118968437RR0001": {"name": "INGERSOLL BLOCK PARENT PROGRAM", "designationCode": "C", "categoryCode": "59", "address": "109 FRANCES ST", "city": "INGERSOLL", "province": "ON", "country": "CA", "postalCode": "N5C2H2", "twitter": "None", "instagram": "None", "facebook": "None", "youtube": "None", "website": "None", "summary": "None", "logo": "None", "latitude": 43.03523399388317, "longitude": -80.88445779127481}, "890489065RR0001": {"name": "INGERSOLL CHORAL SOCIETY", "designationCode": "C", "categoryCode": "22", "address": "PO BOX 53", "city": "INGERSOLL", "province": "ON", "country": "CA", "postalCode": "N5C3K1", "twitter": "None", "instagram": "None", "facebook": "None", "youtube": "None", "website": "None", "summary": "None", "logo": "None", "latitude": 43.03811400000005, "longitude": -80.88381349999993}, "857511471RR0001": {"name": "INGERSOLL CHRISTIAN REFORMED CHURCH", "designationCode": "C", "categoryCode": "39", "address": "429 KING STREET WEST RR 4", "city": "INGERSOLL", "province": "ON", "country": "CA", "postalCode": "N5C3J7", "twitter": "None", "instagram": "None", "facebook": "None", "youtube": "None", "website": "None", "summary": "None", "logo": "None", "latitude": 43.02830156642081, "longitude": -80.90251195597003}, "890113590RR0001": {"name": "INGERSOLL COMMUNITY FOUNDATION", "designationCode": "B", "categoryCode": "03", "address": "45 KING STREET WEST", "city": "INGERSOLL", "province": "ON", "country": "CA", "postalCode": "N5C2J7", "twitter": "None", "instagram": "None", "facebook": "None", "youtube": "None", "website": "None", "summary": "None", "logo": "None", "latitude": 43.03715647229481, "longitude": -80.88378583071108}, "119288918RR0121": {"name": "INGERSOLL CONGREGATION OF JEHOVAH'S WITNESSES, ONTARIO", "designationCode": "C", "categoryCode": "61", "address": "PO BOX 446", "city": "THAMESFORD", "province": "ON", "country": "CA", "postalCode": "N0M2M0", "twitter": "None", "instagram": "None", "facebook": "None", "youtube": "None", "website": "None", "summary": "None", "logo": "None", "latitude": 43.05842000000007, "longitude": -80.99787999999995}, "118968460RR0001": {"name": "INGERSOLL CREATIVE ARTS CENTRE", "designationCode": "C", "categoryCode": "22", "address": "PO BOX 384", "city": "INGERSOLL", "province": "ON", "country": "CA", "postalCode": "N5C3V3", "twitter": "None", "instagram": "None", "facebook": "None", "youtube": "None", "website": "None", "summary": "None", "logo": "None", "latitude": 43.03811400000005, "longitude": -80.88381349999993}, "869785394RR0001": {"name": "INGERSOLL DISTRICT NATURE CLUB", "designationCode": "C", "categoryCode": "54", "address": "255 MUTUAL ST", "city": "INGERSOLL", "province": "ON", "country": "CA", "postalCode": "N5C2A9", "twitter": "None", "instagram": "None", "facebook": "None", "youtube": "None", "website": "None", "summary": "None", "logo": "None", "latitude": 43.048828793007544, "longitude": -80.8864775482008}, "118968494RR0001": {"name": "INGERSOLL PASTORAL CHARGE", "designationCode": "C", "categoryCode": "44", "address": "118 CHURCH STREET", "city": "INGERSOLL", "province": "ON", "country": "CA", "postalCode": "N5C2X6", "twitter": "None", "instagram": "None", "facebook": "None", "youtube": "None", "website": "None", "summary": "None", "logo": "None", "latitude": 43.03711347678753, "longitude": -80.88623220776385}, "891896946RR0001": {"name": "INGERSOLL SERVICES FOR SENIORS", "designationCode": "C", "categoryCode": "09", "address": "250 INGERSOLL ST S", "city": "INGERSOLL", "province": "ON", "country": "CA", "postalCode": "N5C3J7", "twitter": "None", "instagram": "None", "facebook": "None", "youtube": "None", "website": "None", "summary": "None", "logo": "None", "latitude": 43.0233839155252, "longitude": -80.8900276126852}, "132880790RR0001": {"name": "INGERSOLL SUPPORT SERVICES INC", "designationCode": "C", "categoryCode": "01", "address": "148 THAMES ST S", "city": "INGERSOLL", "province": "ON", "country": "CA", "postalCode": "N5C2T4", "twitter": "None", "instagram": "None", "facebook": "None", "youtube": "None", "website": "None", "summary": "None", "logo": "None", "latitude": 43.03801468208248, "longitude": -80.88259766581908}, "118968502RR0001": {"name": "INGERSOLL THEATRE OF PERFORMING ARTS", "designationCode": "C", "categoryCode": "22", "address": "88 THAMES STREET              BOX 304", "city": "INGERSOLL", "province": "ON", "country": "CA", "postalCode": "N5C3K5", "twitter": "None", "instagram": "None", "facebook": "None", "youtube": "None", "website": "None", "summary": "None", "logo": "None", "latitude": 43.0394548462404, "longitude": -80.88389270151183}, "140492554RR0001": {"name": "INGLENOOK CRECHE CHILD CARE CENTRE INC", "designationCode": "C", "categoryCode": "20", "address": "1032 2ND AVENUE W", "city": "OWEN SOUND", "province": "ON", "country": "CA", "postalCode": "N4K4M9", "twitter": "None", "instagram": "None", "facebook": "None", "youtube": "None", "website": "None", "summary": "None", "logo": "None", "latitude": 44.567669554561576, "longitude": -80.94622920765732}, "119288918RR0400": {"name": "INGLESIDE ONTARIO CONGREGATION OF JEHOVAH'S WITNESSES", "designationCode": "C", "categoryCode": "61", "address": "14300 DAFOE RD", "city": "INGLESIDE", "province": "ON", "country": "CA", "postalCode": "K0C1M0", "twitter": "None", "instagram": "None", "facebook": "None", "youtube": "None", "website": "None", "summary": "None", "logo": "None", "latitude": 44.997177143487825, "longitude": -75.04945786109981}, "893637066RR0001": {"name": "INGLESIDE VOLUNTEER FIRE FIGHTERS ASSOCIATION", "designationCode": "C", "categoryCode": "59", "address": "P O BOX 666", "city": "INGLESIDE", "province": "ON", "country": "CA", "postalCode": "K0C1M0", "twitter": "None", "instagram": "None", "facebook": "None", "youtube": "None", "website": "None", "summary": "None", "logo": "None", "latitude": 44.995790000000056, "longitude": -74.98682999999994}, "118782010RR0001": {"name": "INGLEWOOD CHILD DEVELOPMENT CENTRE SOCIETY", "designationCode": "C", "categoryCode": "01", "address": "2ND FLR-922 9TH AVE SE", "city": "CALGARY", "province": "AB", "country": "CA", "postalCode": "T2G0S4", "twitter": "None", "instagram": "None", "facebook": "None", "youtube": "None", "website": "None", "summary": "None", "logo": "None", "latitude": 51.043323033329514, "longitude": -114.04094643204068}, "131903171RR0001": {"name": "INGLEWOOD CHRISTIAN REFORMED CHURCH", "designationCode": "C", "categoryCode": "39", "address": "12330 - 113 AVE NW", "city": "EDMONTON", "province": "AB", "country": "CA", "postalCode": "T5M2W4", "twitter": "None", "instagram": "None", "facebook": "None", "youtube": "None", "website": "None", "summary": "None", "logo": "None", "latitude": 53.56209348268774, "longitude": -113.53544019317329}, "107506891RR0001": {"name": "INGLEWOOD PARENT PARTICIPATION PRESCHOOL SOCIETY", "designationCode": "C", "categoryCode": "20", "address": "1068 INGLEWOOD AVE", "city": "WEST VANCOUVER", "province": "BC", "country": "CA", "postalCode": "V7T1Y3", "twitter": "None", "instagram": "None", "facebook": "None", "youtube": "None", "website": "None", "summary": "None", "logo": "None", "latitude": 49.3344714884588, "longitude": -123.14492061226844}, "118968577RR0001": {"name": "INGLEWOOD UNITED BAPTIST CHURCH", "designationCode": "C", "categoryCode": "31", "address": "309 BAY ROAD                  RR 2", "city": "BRIDGETOWN", "province": "NS", "country": "CA", "postalCode": "B0S1C0", "twitter": "None", "instagram": "None", "facebook": "None", "youtube": "None", "website": "None", "summary": "None", "logo": "None", "latitude": 44.84340691076915, "longitude": -65.29627766945428}, "107506941RR0001": {"name": "INGLEWOOD UNITED CHURCH", "designationCode": "C", "categoryCode": "44", "address": "15712 MCLAUGHLIN ROAD", "city": "INGLEWOOD", "province": "ON", "country": "CA", "postalCode": "L7C1N2", "twitter": "None", "instagram": "None", "facebook": "None", "youtube": "None", "website": "None", "summary": "None", "logo": "None", "latitude": 43.7972546375152, "longitude": -79.93463117528411}, "118968585RR0001": {"name": "INGLIS AND DISTRICT COMMUNITY CLUB", "designationCode": "C", "categoryCode": "56", "address": "BOX 271", "city": "INGLIS", "province": "MB", "country": "CA", "postalCode": "R0J0X0", "twitter": "None", "instagram": "None", "facebook": "None", "youtube": "None", "website": "None", "summary": "None", "logo": "None", "latitude": 50.94838000000004, "longitude": -101.25137999999998}, "892894130RR0002": {"name": "INGLIS AREA HERITAGE COMMITTEE INC.", "designationCode": "C", "categoryCode": "52", "address": "BOX 81", "city": "INGLIS", "province": "MB", "country": "CA", "postalCode": "R0J0X0", "twitter": "None", "instagram": "None", "facebook": "None", "youtube": "None", "website": "None", "summary": "None", "logo": "None", "latitude": 50.94838000000004, "longitude": -101.25137999999998}, "118968601RR0001": {"name": "INGLIS VOLUNTEER FIREFIGHTERS", "designationCode": "C", "categoryCode": "59", "address": "BOX 10", "city": "INGLIS", "province": "MB", "country": "CA", "postalCode": "R0J0X0", "twitter": "None", "instagram": "None", "facebook": "None", "youtube": "None", "website": "None", "summary": "None", "logo": "None", "latitude": 50.94838000000004, "longitude": -101.25137999999998}, "118968619RR0001": {"name": "INGOLDSBY UNITED CHURCH", "designationCode": "C", "categoryCode": "44", "address": "1473 PARISH LINE ROAD", "city": "HALIBURTON", "province": "ON", "country": "CA", "postalCode": "K0M1S0", "twitter": "None", "instagram": "None", "facebook": "None", "youtube": "None", "website": "None", "summary": "None", "logo": "None", "latitude": 45.0357828040575, "longitude": -78.48231144656326}, "878707009RR0001": {"name": "INGOMAR / HARBOUR FIRST RESPONDERS", "designationCode": "C", "categoryCode": "11", "address": "R.R. 3", "city": "SHELBURNE", "province": "NS", "country": "CA", "postalCode": "B0T1W0", "twitter": "None", "instagram": "None", "facebook": "None", "youtube": "None", "website": "None", "summary": "None", "logo": "None", "latitude": 43.57026600000006, "longitude": -65.35813399999994}, "131814667RR0001": {"name": "INGOMAR WESLEYAN CHURCH", "designationCode": "C", "categoryCode": "39", "address": "RR 3", "city": "SHELBURNE", "province": "NS", "country": "CA", "postalCode": "B0T1W0", "twitter": "None", "instagram": "None", "facebook": "None", "youtube": "None", "website": "None", "summary": "None", "logo": "None", "latitude": 43.57026600000006, "longitude": -65.35813399999994}, "118968676RR0001": {"name": "ININEW FRIENDSHIP CENTRE", "designationCode": "C", "categoryCode": "09", "address": "190 THIRD AVE", "city": "COCHRANE", "province": "ON", "country": "CA", "postalCode": "P0L1C0", "twitter": "None", "instagram": "None", "facebook": "None", "youtube": "None", "website": "None", "summary": "None", "logo": "None", "latitude": 49.06341900000001, "longitude": -81.02972959654365}, "829786821RR0001": {"name": "INITIATIVE COMMUNAUTAIRE DE YALDEI", "designationCode": "C", "categoryCode": "09", "address": "2100 MARLOWE                  5TH FLOOR", "city": "MONTR\u00c9AL", "province": "QC", "country": "CA", "postalCode": "H4A3L5", "twitter": "None", "instagram": "None", "facebook": "None", "youtube": "None", "website": "None", "summary": "None", "logo": "None", "latitude": 45.47475877127951, "longitude": -73.60659329352518}, "865606800RR0001": {"name": "INITIATIVE 1,2,3 GO! RIVIERE-DES-PRAIRIES", "designationCode": "C", "categoryCode": "09", "address": "7650 BOUL. MAURICE DUPLESSIS", "city": "MONTR\u00c9AL", "province": "QC", "country": "CA", "postalCode": "H1E1M6", "twitter": "None", "instagram": "None", "facebook": "None", "youtube": "None", "website": "None", "summary": "None", "logo": "None", "latitude": 45.62731217868925, "longitude": -73.59508056558408}, "866234487RR0001": {"name": "INITIATIVES CULTURELLES INTERACTIVES (ICI PAR LES ARTS)/INTERACTIVE CULTURAL INITIATIVES (ICI THROUGH THE ARTS)", "designationCode": "C", "categoryCode": "22", "address": "22A RUE GOYER", "city": "SAINT-SAUVEUR", "province": "QC", "country": "CA", "postalCode": "J0R1R0", "twitter": "None", "instagram": "None", "facebook": "None", "youtube": "None", "website": "None", "summary": "None", "logo": "None", "latitude": 45.89208409174981, "longitude": -74.1567803529688}, "119045912RR0001": {"name": "INITIATIVES OF CHANGE ASSOCIATION (CANADA) / ASSOCIATION INITIATIVES ET CHANGEMENT (CANADA)", "designationCode": "C", "categoryCode": "43", "address": "101A - 225 METCALFE ST", "city": "OTTAWA", "province": "ON", "country": "CA", "postalCode": "K2P1P9", "twitter": "None", "instagram": "None", "facebook": "None", "youtube": "None", "website": "None", "summary": "None", "logo": "None", "latitude": 45.41741522121867, "longitude": -75.69264661570223}}