{"892828161RR0001": {"name": "EGLISE EVANGELIQUE DE JESUS-CHRIST DE VANIER", "designationCode": "C", "categoryCode": "39", "address": "11721 LANGERLIER #7", "city": "MONTREAL NORD", "province": "QC", "country": "CA", "postalCode": "H1G3M2", "twitter": "None", "instagram": "None", "facebook": "None", "youtube": "None", "website": "None", "summary": "None", "logo": "None", "latitude": 45.61518696309648, "longitude": -73.6126404323967}, "107287351RR0001": {"name": "EGLISE EVANGELIQUE DE JOLIETTE (AFFILIEE AUX EGLISES MENNONITES)", "designationCode": "C", "categoryCode": "34", "address": "1225 LA DOUCEUR", "city": "JOLIETTE", "province": "QC", "country": "CA", "postalCode": "J6E3X3", "twitter": "None", "instagram": "None", "facebook": "None", "youtube": "None", "website": "None", "summary": "None", "logo": "None", "latitude": 46.03356600000005, "longitude": -73.41713899999993}, "861065464RR0001": {"name": "EGLISE EVANGELIQUE DE L'ALLIANCE MISSIONNAIRE MARANATHA", "designationCode": "C", "categoryCode": "39", "address": "8330 PLACE MONT RICHARD", "city": "ANJOU", "province": "QC", "country": "CA", "postalCode": "H1K1H7", "twitter": "None", "instagram": "None", "facebook": "None", "youtube": "None", "website": "None", "summary": "None", "logo": "None", "latitude": 45.604563000000056, "longitude": -73.55495599999993}, "893292961RR0001": {"name": "EGLISE EVANGELIQUE DE L'ARCHIPEL", "designationCode": "C", "categoryCode": "36", "address": "17 CHEMIN CORMIER", "city": "L'ETANG-DU-NORD", "province": "QC", "country": "CA", "postalCode": "G4T3S8", "twitter": "None", "instagram": "None", "facebook": "None", "youtube": "None", "website": "None", "summary": "None", "logo": "None", "latitude": 47.37480808050083, "longitude": -61.91736027800192}, "133017103RR0001": {"name": "EGLISE EVANGELIQUE DE LA CITE CELESTE", "designationCode": "C", "categoryCode": "39", "address": "5885 RUE VIGNEAULT            SIEGE SOCIAL", "city": "BROSSARD", "province": "QC", "country": "CA", "postalCode": "J4W1C1", "twitter": "None", "instagram": "None", "facebook": "None", "youtube": "None", "website": "None", "summary": "None", "logo": "None", "latitude": 45.47174469109582, "longitude": -73.49516235870522}, "890877970RR0001": {"name": "EGLISE EVANGELIQUE DE LA NOUVELLE ALLIANCE", "designationCode": "C", "categoryCode": "39", "address": "3455 BELAIR", "city": "MONTREAL", "province": "QC", "country": "CA", "postalCode": "H2A2A8", "twitter": "None", "instagram": "None", "facebook": "None", "youtube": "None", "website": "None", "summary": "None", "logo": "None", "latitude": 45.5598899572681, "longitude": -73.59345468140096}, "877657221RR0001": {"name": "EGLISE EVANGELIQUE DE LA PENTECOTE", "designationCode": "C", "categoryCode": "36", "address": "11816 ROUTE 11", "city": "VILLAGE BLANCHARD", "province": "NB", "country": "CA", "postalCode": "E8P1R5", "twitter": "None", "instagram": "None", "facebook": "None", "youtube": "None", "website": "None", "summary": "None", "logo": "None", "latitude": 47.7087780074757, "longitude": -64.88767123846138}, "132890088RR0001": {"name": "EGLISE EVANGELIQUE DE LA PETITE NATION", "designationCode": "C", "categoryCode": "36", "address": "378 RANG STE JULIE E.         C.P. 5029", "city": "ST-ANDRE AVELLIN", "province": "QC", "country": "CA", "postalCode": "J0V1W0", "twitter": "None", "instagram": "None", "facebook": "None", "youtube": "None", "website": "None", "summary": "None", "logo": "None", "latitude": 45.7271454884588, "longitude": -75.04071330391251}, "853554038RR0001": {"name": "EGLISE EVANGELIQUE DE LACHUTE", "designationCode": "C", "categoryCode": "39", "address": "395 RUE GOUGEON", "city": "LACHUTE", "province": "QC", "country": "CA", "postalCode": "J8H3S8", "twitter": "None", "instagram": "None", "facebook": "None", "youtube": "None", "website": "None", "summary": "None", "logo": "None", "latitude": 45.65464649321934, "longitude": -74.35244942616428}, "863252185RR0001": {"name": "EGLISE EVANGELIQUE DE ST-JEROME", "designationCode": "C", "categoryCode": "39", "address": "38 A RUE LABELLE", "city": "ST-JEROME", "province": "QC", "country": "CA", "postalCode": "J7Z5K4", "twitter": "None", "instagram": "None", "facebook": "None", "youtube": "None", "website": "None", "summary": "None", "logo": "None", "latitude": 45.770233505135906, "longitude": -74.00248207813488}, "118887462RR0001": {"name": "EGLISE EVANGELIQUE DE VAUDREUIL - SOULANGES", "designationCode": "C", "categoryCode": "39", "address": "151 RUE VALOIS", "city": "VAUDREUIL-DORION", "province": "QC", "country": "CA", "postalCode": "J7V1T2", "twitter": "None", "instagram": "None", "facebook": "None", "youtube": "None", "website": "None", "summary": "None", "logo": "None", "latitude": 45.38559307550916, "longitude": -74.01425647129078}, "894374594RR0001": {"name": "EGLISE EVANGELIQUE DU CINQUANTIEME JOUR DE MONTREAL", "designationCode": "C", "categoryCode": "39", "address": "409 D'AVIGNON", "city": "DOLLARD-DES-ORMEAUX", "province": "QC", "country": "CA", "postalCode": "H9B1Y4", "twitter": "None", "instagram": "None", "facebook": "None", "youtube": "None", "website": "None", "summary": "None", "logo": "None", "latitude": 45.49168401722535, "longitude": -73.79576635763736}, "118895861RR0001": {"name": "EGLISE EVANGELIQUE DU SEMEUR", "designationCode": "C", "categoryCode": "31", "address": "2000 CH. ST-JEAN", "city": "LA PRAIRIE", "province": "QC", "country": "CA", "postalCode": "J5R0J3", "twitter": "None", "instagram": "None", "facebook": "None", "youtube": "None", "website": "None", "summary": "None", "logo": "None", "latitude": 45.40611788784713, "longitude": -73.46666239858025}, "892485160RR0001": {"name": "EGLISE EVANGELIQUE EBEN-EZER COMMUNAUTAIRE D'OTTAWA-VANIER", "designationCode": "C", "categoryCode": "39", "address": "150 DONALD STREET", "city": "OTTAWA", "province": "ON", "country": "CA", "postalCode": "K1K1M9", "twitter": "None", "instagram": "None", "facebook": "None", "youtube": "None", "website": "None", "summary": "None", "logo": "None", "latitude": 45.42729848124545, "longitude": -75.66245088481736}, "891259582RR0001": {"name": "EGLISE EVANGELIQUE GALILEE", "designationCode": "C", "categoryCode": "39", "address": "12265-54 AV RIVIERE DES PRAIRE", "city": "MONTREAL NORD", "province": "QC", "country": "CA", "postalCode": "H1E2J4", "twitter": "None", "instagram": "None", "facebook": "None", "youtube": "None", "website": "None", "summary": "None", "logo": "None", "latitude": 45.652099944774605, "longitude": -73.56865935968617}, "123089567RR0001": {"name": "EGLISE EVANGELIQUE GRECQUE CANADIENNE/GREEK CANADIAN GOSPEL CHURCH", "designationCode": "C", "categoryCode": "39", "address": "106 - 1255 BOUL LAIRD", "city": "MONT-ROYAL", "province": "QC", "country": "CA", "postalCode": "H3P2T1", "twitter": "None", "instagram": "None", "facebook": "None", "youtube": "None", "website": "None", "summary": "None", "logo": "None", "latitude": 45.517272831525226, "longitude": -73.64390162005873}, "118782630RR0017": {"name": "EGLISE EVANGELIQUE HAITIENNE DE L'ALLIANCE CHRETIENNE ET MISSIONNAIRE", "designationCode": "C", "categoryCode": "39", "address": "9000 7IEME AVENUE", "city": "MONTREAL", "province": "QC", "country": "CA", "postalCode": "H1Z2V6", "twitter": "None", "instagram": "None", "facebook": "None", "youtube": "None", "website": "None", "summary": "None", "logo": "None", "latitude": 45.56916265139369, "longitude": -73.62853323564539}, "118782630RR0013": {"name": "EGLISE EVANGELIQUE HAITIENNE DE L'ALLIANCE CHRETIENNE ET MISSIONNAIRE R.D.P. (RIVIERES DES PRARIES)", "designationCode": "C", "categoryCode": "39", "address": "12591 FERNAND GAUTHIER", "city": "MONTREAL", "province": "QC", "country": "CA", "postalCode": "H1E2X2", "twitter": "None", "instagram": "None", "facebook": "None", "youtube": "None", "website": "None", "summary": "None", "logo": "None", "latitude": 45.63634596309649, "longitude": -73.6048599323967}, "898204870RR0001": {"name": "EGLISE EVANGELIQUE HOSANNA / HOSANNA EVANGELICAL CHURCH", "designationCode": "C", "categoryCode": "39", "address": "4850 BOUL. GRAND", "city": "MONTREAL", "province": "QC", "country": "CA", "postalCode": "H3X3S2", "twitter": "None", "instagram": "None", "facebook": "None", "youtube": "None", "website": "None", "summary": "None", "logo": "None", "latitude": 45.472125731317576, "longitude": -73.63546443992718}, "861508117RR0001": {"name": "EGLISE EVANGELIQUE LE BON SAMARITAIN", "designationCode": "C", "categoryCode": "39", "address": "8050 RUE SAGARD APT # 2", "city": "MONTR\u00c9AL", "province": "QC", "country": "CA", "postalCode": "H2E2T3", "twitter": "None", "instagram": "None", "facebook": "None", "youtube": "None", "website": "None", "summary": "None", "logo": "None", "latitude": 45.55627573131757, "longitude": -73.61521549821099}, "141740142RR0001": {"name": "EGLISE EVANGELIQUE LE PHARE", "designationCode": "C", "categoryCode": "39", "address": "7245 BOUL LEVESQUE", "city": "LAVAL", "province": "QC", "country": "CA", "postalCode": "H7A1S3", "twitter": "None", "instagram": "None", "facebook": "None", "youtube": "None", "website": "None", "summary": "None", "logo": "None", "latitude": 45.648270669455734, "longitude": -73.61030363587042}, "141463646RR0001": {"name": "EGLISE EVANGELIQUE LES SOLDATS DE JESUS-CHRIST", "designationCode": "C", "categoryCode": "39", "address": "482 RUE BORDUAS", "city": "LEGARDEUR", "province": "QC", "country": "CA", "postalCode": "J5Z4L1", "twitter": "None", "instagram": "None", "facebook": "None", "youtube": "None", "website": "None", "summary": "None", "logo": "None", "latitude": 45.760499697184, "longitude": -73.48198523714593}, "118896265RR0001": {"name": "EGLISE EVANGELIQUE LIBRE GRECQUE DE MONTREAL", "designationCode": "C", "categoryCode": "39", "address": "7110 RUE DE L'EPEE", "city": "MONTREAL", "province": "QC", "country": "CA", "postalCode": "H3N2E1", "twitter": "None", "instagram": "None", "facebook": "None", "youtube": "None", "website": "None", "summary": "None", "logo": "None", "latitude": 45.52778103912524, "longitude": -73.62339822245941}, "872443916RR0001": {"name": "EGLISE EVANGELIQUE LUMIERE DES NATIONS", "designationCode": "C", "categoryCode": "39", "address": "CP 26025 CSP FLEURIMONT", "city": "SHERBROOKE", "province": "QC", "country": "CA", "postalCode": "J1G0E5", "twitter": "None", "instagram": "None", "facebook": "None", "youtube": "None", "website": "None", "summary": "None", "logo": "None", "latitude": 45.40668000000005, "longitude": -71.83974999999998}, "867766321RR0001": {"name": "EGLISE EVANGELIQUE LUSO-FRANCOPHONE", "designationCode": "C", "categoryCode": "39", "address": "47, RUE QUIDOZ", "city": "SAINTE-THERESE", "province": "QC", "country": "CA", "postalCode": "J7E4L3", "twitter": "None", "instagram": "None", "facebook": "None", "youtube": "None", "website": "None", "summary": "None", "logo": "None", "latitude": 45.652983975330166, "longitude": -73.83200563364872}, "140722778RR0001": {"name": "EGLISE EVANGELIQUE PENTECOTE \"MARANATHA\"", "designationCode": "C", "categoryCode": "39", "address": "2385 BOUL ROSEMONT", "city": "MONTREAL", "province": "QC", "country": "CA", "postalCode": "H2G1T9", "twitter": "None", "instagram": "None", "facebook": "None", "youtube": "None", "website": "None", "summary": "None", "logo": "None", "latitude": 45.545653403283445, "longitude": -73.58703507787507}, "870139151RR0001": {"name": "EGLISE EVANGELIQUE PENTECOTISTE CANADA HAITI", "designationCode": "C", "categoryCode": "39", "address": "723, RUE BERNARD", "city": "LAVAL", "province": "QC", "country": "CA", "postalCode": "H7V1T4", "twitter": "None", "instagram": "None", "facebook": "None", "youtube": "None", "website": "None", "summary": "None", "logo": "None", "latitude": 45.54566472912453, "longitude": -73.7477637685382}, "886386994RR0001": {"name": "EGLISE EVANGELIQUE SINAI", "designationCode": "C", "categoryCode": "39", "address": "3213-3215 JARRY EST", "city": "MONTR\u00c9AL", "province": "QC", "country": "CA", "postalCode": "H1Z2E3", "twitter": "None", "instagram": "None", "facebook": "None", "youtube": "None", "website": "None", "summary": "None", "logo": "None", "latitude": 45.56346239618559, "longitude": -73.60987141935293}, "801473349RR0001": {"name": "EGLISE GRACE MONTREAL/GRACE MONTREAL CHURCH", "designationCode": "C", "categoryCode": "39", "address": "P.O.BOX 55086                 RPO MACKAY", "city": "MONTREAL", "province": "QC", "country": "CA", "postalCode": "H3G2W5", "twitter": "None", "instagram": "None", "facebook": "None", "youtube": "None", "website": "None", "summary": "None", "logo": "None", "latitude": 45.49578752883003, "longitude": -73.57696970406137}, "140757733RR0001": {"name": "EGLISE HISPANIQUE SENDERO HACIA LA LUZ", "designationCode": "C", "categoryCode": "39", "address": "7055 AVENUE JEAN-BOURDON", "city": "MONTREAL", "province": "QC", "country": "CA", "postalCode": "H4K1G7", "twitter": "None", "instagram": "None", "facebook": "None", "youtube": "None", "website": "None", "summary": "None", "logo": "None", "latitude": 45.5253644160654, "longitude": -73.7297954242597}, "890710072RR0001": {"name": "EGLISE L'UNITE EN DIEU", "designationCode": "C", "categoryCode": "39", "address": "4 - 8013 21E AV", "city": "MONTREAL", "province": "QC", "country": "CA", "postalCode": "H1Z3S9", "twitter": "None", "instagram": "None", "facebook": "None", "youtube": "None", "website": "None", "summary": "None", "logo": "None", "latitude": 45.56987550000001, "longitude": -73.6023465}, "119012797RR0001": {"name": "EGLISE LE CHEMIN", "designationCode": "C", "categoryCode": "39", "address": "480 RUE DE VERNON", "city": "GATINEAU", "province": "QC", "country": "CA", "postalCode": "J9J3K5", "twitter": "None", "instagram": "None", "facebook": "None", "youtube": "None", "website": "None", "summary": "None", "logo": "None", "latitude": 45.44416113711119, "longitude": -75.80013584286486}, "802017673RR0001": {"name": "EGLISE LE ROCHER DES AGES", "designationCode": "C", "categoryCode": "39", "address": "6972 2E AVENUE", "city": "MONTREAL", "province": "QC", "country": "CA", "postalCode": "H2A2G3", "twitter": "None", "instagram": "None", "facebook": "None", "youtube": "None", "website": "None", "summary": "None", "logo": "None", "latitude": 45.55420175199727, "longitude": -73.5967626820075}, "860434083RR0001": {"name": "EGLISE LE ROCHER DES AIGLES", "designationCode": "C", "categoryCode": "39", "address": "12580, 63E AVENUE", "city": "MONTREAL", "province": "QC", "country": "CA", "postalCode": "H1C1M8", "twitter": "None", "instagram": "None", "facebook": "None", "youtube": "None", "website": "None", "summary": "None", "logo": "None", "latitude": 45.65918141603673, "longitude": -73.56573645296892}, "878770742RR0001": {"name": "EGLISE LUMIERE CELESTE", "designationCode": "C", "categoryCode": "39", "address": "111 RUE COLBERT", "city": "REPENTIGNY", "province": "QC", "country": "CA", "postalCode": "J5Z4M2", "twitter": "None", "instagram": "None", "facebook": "None", "youtube": "None", "website": "None", "summary": "None", "logo": "None", "latitude": 45.77114407715394, "longitude": -73.46652401774494}, "118941574RR0001": {"name": "EGLISE LUTHERERIENNE DU BON PASTEUR / GOOD SHEPHERD LUTHERAN CHURCH", "designationCode": "C", "categoryCode": "32", "address": "1389 AV VICTORIA", "city": "SAINT-LAMBERT", "province": "QC", "country": "CA", "postalCode": "J4R0A2", "twitter": "None", "instagram": "None", "facebook": "None", "youtube": "None", "website": "None", "summary": "None", "logo": "None", "latitude": 45.49081037105447, "longitude": -73.49425997547439}, "890515943RR0001": {"name": "EGLISE LUTHERIENNE DU CHRIST LE REDEMPTEUR/CHRIST THE REDEEMER LUTHERAN CHURCH", "designationCode": "C", "categoryCode": "32", "address": "57 WESTPARK DRIVE", "city": "DOLLARD DES ORMEAUX", "province": "QC", "country": "CA", "postalCode": "H9A2J8", "twitter": "None", "instagram": "None", "facebook": "None", "youtube": "None", "website": "None", "summary": "None", "logo": "None", "latitude": 45.49768090120274, "longitude": -73.82348575943568}, "131520298RR0001": {"name": "EGLISE LUTHERIENNE EVANGELIQUE DE LA TRINITE LETTONE DE MONTREAL", "designationCode": "C", "categoryCode": "32", "address": "1631 LANDRY STREET", "city": "CLARENCE CREEK", "province": "ON", "country": "CA", "postalCode": "K0A1N0", "twitter": "None", "instagram": "None", "facebook": "None", "youtube": "None", "website": "None", "summary": "None", "logo": "None", "latitude": 45.5095692830763, "longitude": -75.22008813865494}, "118793074RR0048": {"name": "EGLISE MARANATHA", "designationCode": "C", "categoryCode": "41", "address": "101-14595 SHERBROOKE EST", "city": "MONTR\u00c9AL", "province": "QC", "country": "CA", "postalCode": "H1A5N8", "twitter": "None", "instagram": "None", "facebook": "None", "youtube": "None", "website": "None", "summary": "None", "logo": "None", "latitude": 45.67763592062436, "longitude": -73.50253545602735}, "868437344RR0001": {"name": "EGLISE MENNONITE CHARISMATIQUE DU QUEBEC", "designationCode": "C", "categoryCode": "39", "address": "2047 ANG\u00c8LE", "city": "ST J\u00c9R\u00d4ME", "province": "QC", "country": "CA", "postalCode": "J5L1B5", "twitter": "None", "instagram": "None", "facebook": "None", "youtube": "None", "website": "None", "summary": "None", "logo": "None", "latitude": 45.80131455063776, "longitude": -74.03691704801203}, "119038370RR0001": {"name": "EGLISE MENNONITE DE MONTREAL / MENNONITE FELLOWSHIP OF MONTREAL", "designationCode": "C", "categoryCode": "34", "address": "120 DULUTH AVE", "city": "MONTREAL", "province": "QC", "country": "CA", "postalCode": "H2W1H1", "twitter": "None", "instagram": "None", "facebook": "None", "youtube": "None", "website": "None", "summary": "None", "logo": "None", "latitude": 45.51806356396797, "longitude": -73.57833540769819}, "894163773RR0001": {"name": "EGLISE METHODISTE LIBRE DE MONTREAL ST-HENRI", "designationCode": "C", "categoryCode": "39", "address": "3453, RUE NOTRE-DAME OUEST", "city": "MONTREAL", "province": "QC", "country": "CA", "postalCode": "H4C1P3", "twitter": "None", "instagram": "None", "facebook": "None", "youtube": "None", "website": "None", "summary": "None", "logo": "None", "latitude": 45.480311747446386, "longitude": -73.57970639621432}, "894163773RR0004": {"name": "EGLISE METHODISTE LIBRE DE ROSEMONT (MONTREAL)", "designationCode": "C", "categoryCode": "39", "address": "CP 389 SUCCURSALE ROSEMONT", "city": "MONTREAL", "province": "QC", "country": "CA", "postalCode": "H1X3C6", "twitter": "None", "instagram": "None", "facebook": "None", "youtube": "None", "website": "None", "summary": "None", "logo": "None", "latitude": 45.55697407537291, "longitude": -73.57715938598749}, "894163773RR0002": {"name": "EGLISE METHODISTE LIBRE DU QUEBEC-THE FREE METHODIST CHURCH OF QUEBEC", "designationCode": "C", "categoryCode": "39", "address": "11478 DE NORMANDIE", "city": "MONTR\u00c9AL-NORD", "province": "QC", "country": "CA", "postalCode": "H1G3N3", "twitter": "None", "instagram": "None", "facebook": "None", "youtube": "None", "website": "None", "summary": "None", "logo": "None", "latitude": 45.61217895308451, "longitude": -73.61081545103568}, "118896372RR0001": {"name": "EGLISE MISSIONNAIRE BAPTISTE LANDMARK DE L'AMOUR", "designationCode": "C", "categoryCode": "31", "address": "170 A                         HAUT-RIVIERE SUD", "city": "ST-CESAIRE", "province": "QC", "country": "CA", "postalCode": "J0L1T0", "twitter": "None", "instagram": "None", "facebook": "None", "youtube": "None", "website": "None", "summary": "None", "logo": "None", "latitude": 45.39503983957531, "longitude": -73.00181654625167}, "889209797RR0001": {"name": "EGLISE MISSIONNAIRE BAPTISTE LANDMARK DE L'ESPERANCE", "designationCode": "C", "categoryCode": "31", "address": "16505 6E AVENUE", "city": "ST-GEORGES BEAUCE", "province": "QC", "country": "CA", "postalCode": "G5Y6L9", "twitter": "None", "instagram": "None", "facebook": "None", "youtube": "None", "website": "None", "summary": "None", "logo": "None", "latitude": 46.10018594061969, "longitude": -70.64818671605413}, "898653530RR0001": {"name": "EGLISE MISSIONNAIRE BAPTISTE LANDMARK DE L'ESPOIR", "designationCode": "C", "categoryCode": "39", "address": "810 6E RANG", "city": "ROXTON POND", "province": "QC", "country": "CA", "postalCode": "J0E1Z0", "twitter": "None", "instagram": "None", "facebook": "None", "youtube": "None", "website": "None", "summary": "None", "logo": "None", "latitude": 45.45988312078918, "longitude": -72.65581014253772}, "136742400RR0001": {"name": "EGLISE MISSIONNAIRE BAPTISTE LANDMARK DE LA CHARITE", "designationCode": "C", "categoryCode": "31", "address": "10164 ALEXIS-CONTANT", "city": "SHERBROOKE", "province": "QC", "country": "CA", "postalCode": "J1N3G1", "twitter": "None", "instagram": "None", "facebook": "None", "youtube": "None", "website": "None", "summary": "None", "logo": "None", "latitude": 45.30418901861034, "longitude": -72.08857626054544}, "862707460RR0001": {"name": "EGLISE MISSIONNAIRE BAPTISTE LANDMARK DE LA FOI", "designationCode": "C", "categoryCode": "39", "address": "591, RUE JEAN BOURDON", "city": "LANORAIE D'AUTRAY", "province": "QC", "country": "CA", "postalCode": "J0K1E0", "twitter": "None", "instagram": "None", "facebook": "None", "youtube": "None", "website": "None", "summary": "None", "logo": "None", "latitude": 46.01422173411619, "longitude": -73.19969801641729}, "866041809RR0001": {"name": "EGLISE MON ROCHER", "designationCode": "C", "categoryCode": "39", "address": "235 RUE DONALD                BUREAU 269", "city": "OTTAWA", "province": "ON", "country": "CA", "postalCode": "K1K1N1", "twitter": "None", "instagram": "None", "facebook": "None", "youtube": "None", "website": "None", "summary": "None", "logo": "None", "latitude": 45.427624473310004, "longitude": -75.65873447558997}, "107807133RR0001": {"name": "EGLISE NOTRE-DAME DE FATIMA (OUR LADY OF FATIMA CHURCH)", "designationCode": "C", "categoryCode": "38", "address": "BOX 169", "city": "REDVERS", "province": "SK", "country": "CA", "postalCode": "S0C2H0", "twitter": "None", "instagram": "None", "facebook": "None", "youtube": "None", "website": "None", "summary": "None", "logo": "None", "latitude": 49.573392000000055, "longitude": -101.69623249999994}, "130633282RR0001": {"name": "EGLISE NOTRE-DAME DE LORETTE,", "designationCode": "C", "categoryCode": "38", "address": "73 CHEF MAURICE-BASTIEN", "city": "WENDAKE", "province": "QC", "country": "CA", "postalCode": "G0A4V0", "twitter": "None", "instagram": "None", "facebook": "None", "youtube": "None", "website": "None", "summary": "None", "logo": "None", "latitude": 46.86975600000005, "longitude": -71.35813699999993}, "868484288RR0001": {"name": "EGLISE NOUVELLE JERUSALEM", "designationCode": "C", "categoryCode": "39", "address": "6840 28E AVENUE               APP. 05", "city": "MONTR\u00c9AL", "province": "QC", "country": "CA", "postalCode": "H1T3J4", "twitter": "None", "instagram": "None", "facebook": "None", "youtube": "None", "website": "None", "summary": "None", "logo": "None", "latitude": 45.56789308630054, "longitude": -73.58269921094688}, "118896414RR0001": {"name": "EGLISE NOUVELLE REDEMPTRICE", "designationCode": "C", "categoryCode": "49", "address": "1001 DUCHESNEAU", "city": "QUEBEC", "province": "QC", "country": "CA", "postalCode": "G1W4B2", "twitter": "None", "instagram": "None", "facebook": "None", "youtube": "None", "website": "None", "summary": "None", "logo": "None", "latitude": 46.76526862952244, "longitude": -71.30699469920415}, "870450681RR0001": {"name": "EGLISE NOUVELLE VIE DE BEAUPORT", "designationCode": "C", "categoryCode": "36", "address": "1933 AV. JEAN-DE CLERMONT", "city": "QUEBEC", "province": "QC", "country": "CA", "postalCode": "G1E7E3", "twitter": "None", "instagram": "None", "facebook": "None", "youtube": "None", "website": "None", "summary": "None", "logo": "None", "latitude": 46.846713057961345, "longitude": -71.21206890363415}, "872056742RR0001": {"name": "EGLISE NOUVELLE VIE DE LONGUEUIL", "designationCode": "C", "categoryCode": "39", "address": "200, RUE DU PARC INDUSTRIEL", "city": "LONGUEUIL", "province": "QC", "country": "CA", "postalCode": "J4H3V6", "twitter": "None", "instagram": "None", "facebook": "None", "youtube": "None", "website": "None", "summary": "None", "logo": "None", "latitude": 45.548379190922944, "longitude": -73.49843317698621}, "892572264RR0001": {"name": "EGLISE ORTHODOXE D'ANTIOCHE DE LA VIERGE-MARIE/ST-MARY'S ANTIOCHIAN ORTHODOX CHURCH", "designationCode": "C", "categoryCode": "39", "address": "10841, GRANDE-ALL\u00c9E", "city": "MONTR\u00c9AL", "province": "QC", "country": "CA", "postalCode": "H3L2H8", "twitter": "None", "instagram": "None", "facebook": "None", "youtube": "None", "website": "None", "summary": "None", "logo": "None", "latitude": 45.552089707850726, "longitude": -73.67285555130009}, "823195870RR0001": {"name": "EGLISE ORTHODOXE ROUMAINE DE L'ASCENSION / BISERICA ORTHODOXA ROMAN \"INALTAREA DOMNULUI\"", "designationCode": "C", "categoryCode": "39", "address": "2006 RUE NORMAN", "city": "SAINT-LAURENT", "province": "QC", "country": "CA", "postalCode": "H4L4H4", "twitter": "None", "instagram": "None", "facebook": "None", "youtube": "None", "website": "None", "summary": "None", "logo": "None", "latitude": 45.52686303967349, "longitude": -73.69215806399662}, "859854044RR0001": {"name": "EGLISE ORTHODOXE ROUMAINE DES SAINTS ARCHANGES MICHEL ET GABRIEL/BISERICA ORTODOXA ROMANA SFINTII ARHANGHELI MIHAIL SI GAVRIIL", "designationCode": "C", "categoryCode": "39", "address": "2430 AVENUE CHARLAND", "city": "MONTREAL", "province": "QC", "country": "CA", "postalCode": "H1Z1C1", "twitter": "None", "instagram": "None", "facebook": "None", "youtube": "None", "website": "None", "summary": "None", "logo": "None", "latitude": 45.57074382263843, "longitude": -73.63960595195931}, "899612048RR0001": {"name": "EGLISE ORTHODOXE ROUMAINE SAINT-NICOLAS-MONTREAL", "designationCode": "C", "categoryCode": "46", "address": "4363 BOUL JACQUES-BIZARD", "city": "PIERREFONDS", "province": "QC", "country": "CA", "postalCode": "H9H4W3", "twitter": "None", "instagram": "None", "facebook": "None", "youtube": "None", "website": "None", "summary": "None", "logo": "None", "latitude": 45.476999162357956, "longitude": -73.85905951736957}, "855724241RR0001": {"name": "EGLISE ORTHODOXE RUSSE DE SAINT-SERAPHIN DE SAROV", "designationCode": "C", "categoryCode": "39", "address": "8011, AVENUE CHAMPAGNEUR", "city": "MONTREAL", "province": "QC", "country": "CA", "postalCode": "H3N2K4", "twitter": "None", "instagram": "None", "facebook": "None", "youtube": "None", "website": "None", "summary": "None", "logo": "None", "latitude": 45.53000696087478, "longitude": -73.63506527754058}, "108033168RR0001": {"name": "EGLISE ORTHODOXE SAINT-NICHOLAS D'ANTIOCHE/SAINT NICHOLAS ANTIOCHIAN ORTHODOX CHURCH", "designationCode": "C", "categoryCode": "39", "address": "80 DE CASTELNAU ST E", "city": "MONTREAL", "province": "QC", "country": "CA", "postalCode": "H2R1P2", "twitter": "None", "instagram": "None", "facebook": "None", "youtube": "None", "website": "None", "summary": "None", "logo": "None", "latitude": 45.536247849558634, "longitude": -73.6191078287266}, "106992399RR0001": {"name": "EGLISE PENTECOTE CRI DE CHIBOUGAMAU INC./ CREE PENTECOSTAL CHURCH OF CHIBOUGAMAU INC.", "designationCode": "C", "categoryCode": "36", "address": "CP 308", "city": "CHIBOUGAMAU", "province": "QC", "country": "CA", "postalCode": "G8P2K7", "twitter": "None", "instagram": "None", "facebook": "None", "youtube": "None", "website": "None", "summary": "None", "logo": "None"}, "897492757RR0001": {"name": "EGLISE PENTECOTE D'ALEXANDRIA", "designationCode": "C", "categoryCode": "36", "address": "CP 1164", "city": "ALEXANDRIA", "province": "ON", "country": "CA", "postalCode": "K0C1A0", "twitter": "None", "instagram": "None", "facebook": "None", "youtube": "None", "website": "None", "summary": "None", "logo": "None", "latitude": 45.324006000000054, "longitude": -74.57325649999993}, "133235986RR0001": {"name": "EGLISE PENTECOTE DE LA VALLEE DU RICHELIEU", "designationCode": "C", "categoryCode": "36", "address": "600, RUE MOUNTAINVIEW", "city": "OTTERBURN PARK", "province": "QC", "country": "CA", "postalCode": "J3H2K8", "twitter": "None", "instagram": "None", "facebook": "None", "youtube": "None", "website": "None", "summary": "None", "logo": "None", "latitude": 45.54200478016632, "longitude": -73.20070985758004}, "836516872RR0001": {"name": "EGLISE PENTECOTISTE CHRIST-ROI", "designationCode": "C", "categoryCode": "39", "address": "123, RUE REGENT", "city": "GREENFIELD PARK", "province": "QC", "country": "CA", "postalCode": "J4V2V1", "twitter": "None", "instagram": "None", "facebook": "None", "youtube": "None", "website": "None", "summary": "None", "logo": "None", "latitude": 45.48417027670387, "longitude": -73.47813386037866}, "889092623RR0001": {"name": "EGLISE PENTECOTISTE EL SHADDAI / EL SHADDAI PENTECOSTAL CHURCH", "designationCode": "C", "categoryCode": "39", "address": "1677 LACOMBE DRIVE", "city": "OTTAWA", "province": "ON", "country": "CA", "postalCode": "K4A2R9", "twitter": "None", "instagram": "None", "facebook": "None", "youtube": "None", "website": "None", "summary": "None", "logo": "None", "latitude": 45.47617251154119, "longitude": -75.48348108090484}, "137702239RR0001": {"name": "EGLISE PENTECOTISTE GRACE NOUVELLE ALLIANCE/GRACE NEW CONVENANT PENTECOSATL CHURCH", "designationCode": "C", "categoryCode": "39", "address": "6250 HAMILTON STREET", "city": "MONTREAL", "province": "QC", "country": "CA", "postalCode": "H4E3C4", "twitter": "None", "instagram": "None", "facebook": "None", "youtube": "None", "website": "None", "summary": "None", "logo": "None", "latitude": 45.455751261728885, "longitude": -73.59718615915529}, "809112279RR0001": {"name": "EGLISE PENTECOTISTE MISSIONNAIRE GETHSEMANI/IGLESIA PENTECOSTAL MISIONERA GETSEMANI", "designationCode": "C", "categoryCode": "47", "address": "1431 MOORE ST", "city": "LAVAL", "province": "QC", "country": "CA", "postalCode": "H7S1C7", "twitter": "None", "instagram": "None", "facebook": "None", "youtube": "None", "website": "None", "summary": "None", "logo": "None", "latitude": 45.57608136554321, "longitude": -73.73042461962604}, "863595823RR0001": {"name": "EGLISE PENTECOTISTE TORRE FUERTE", "designationCode": "C", "categoryCode": "39", "address": "1571 BEAUBIEN EST", "city": "MONTREAL", "province": "QC", "country": "CA", "postalCode": "H2G1L3", "twitter": "None", "instagram": "None", "facebook": "None", "youtube": "None", "website": "None", "summary": "None", "logo": "None", "latitude": 45.54233655259965, "longitude": -73.59745438080665}, "107835316RR0001": {"name": "EGLISE PEOPLES DE DEUX MONTAGNES", "designationCode": "C", "categoryCode": "39", "address": "370 AV 5E", "city": "DEUX-MONTAGNES", "province": "QC", "country": "CA", "postalCode": "J7R3E6", "twitter": "None", "instagram": "None", "facebook": "None", "youtube": "None", "website": "None", "summary": "None", "logo": "None", "latitude": 45.54841051705246, "longitude": -73.89769186513917}, "865877427RR0001": {"name": "EGLISE PRESBYTERIENNE CHAMBIT DE MONTREAL", "designationCode": "C", "categoryCode": "37", "address": "5545 SNOWDON AVE", "city": "MONTREAL", "province": "QC", "country": "CA", "postalCode": "H3X1Y8", "twitter": "None", "instagram": "None", "facebook": "None", "youtube": "None", "website": "None", "summary": "None", "logo": "None", "latitude": 45.480235578134895, "longitude": -73.62901437359328}, "894967306RR0001": {"name": "EGLISE PRESBYTERIENNE GHANEENNE DE MONTREAL/GHANAIAN PRESBYTERIAN CHURCH OF MONTREAL", "designationCode": "C", "categoryCode": "37", "address": "1345, RUE LAPOINTE", "city": "ST. LAURENT", "province": "QC", "country": "CA", "postalCode": "H4L1K5", "twitter": "None", "instagram": "None", "facebook": "None", "youtube": "None", "website": "None", "summary": "None", "logo": "None", "latitude": 45.52251642466375, "longitude": -73.6905291421315}, "107287609RR0001": {"name": "EGLISE PRESBYTERIENNE ST-LUC", "designationCode": "C", "categoryCode": "37", "address": "5790 17E AVE", "city": "MONTREAL", "province": "QC", "country": "CA", "postalCode": "H1X2R8", "twitter": "None", "instagram": "None", "facebook": "None", "youtube": "None", "website": "None", "summary": "None", "logo": "None", "latitude": 45.55703616290621, "longitude": -73.57632974660966}, "134082916RR0001": {"name": "EGLISE PROPHETIQUE CHRETIENNE INTERNATIONALE ALLIANCE & VIE", "designationCode": "C", "categoryCode": "39", "address": "4660 MONTEE ST-HUBERT", "city": "ST-HUBERT", "province": "QC", "country": "CA", "postalCode": "J3Y1V1", "twitter": "None", "instagram": "None", "facebook": "None", "youtube": "None", "website": "None", "summary": "None", "logo": "None", "latitude": 45.48577551099292, "longitude": -73.43803526773014}, "107287633RR0001": {"name": "EGLISE REFORMEE ST-MARC DE QUEBEC", "designationCode": "C", "categoryCode": "39", "address": "9180 RUE REMBRANDT", "city": "QUEBEC", "province": "QC", "country": "CA", "postalCode": "G2B4J6", "twitter": "None", "instagram": "None", "facebook": "None", "youtube": "None", "website": "None", "summary": "None", "logo": "None", "latitude": 46.83278117375491, "longitude": -71.35358018192055}, "862119583RR0001": {"name": "EGLISE RENAISSANCE DU LONG SAULT", "designationCode": "C", "categoryCode": "39", "address": "124 RUE DE LA MONTAGNE", "city": "LACHUTE", "province": "QC", "country": "CA", "postalCode": "J8H4L5", "twitter": "None", "instagram": "None", "facebook": "None", "youtube": "None", "website": "None", "summary": "None", "logo": "None", "latitude": 45.6637700424721, "longitude": -74.35844601448403}, "832713473RR0001": {"name": "EGLISE RESTAURATION DE QUEBEC", "designationCode": "C", "categoryCode": "49", "address": "850 AVENUE DE VIMY C.P.68", "city": "QU\u00c9BEC", "province": "QC", "country": "CA", "postalCode": "G1S0B7", "twitter": "None", "instagram": "None", "facebook": "None", "youtube": "None", "website": "None", "summary": "None", "logo": "None", "latitude": 46.791757488199025, "longitude": -71.2593997692307}, "898185525RR0001": {"name": "EGLISE RESTAURATION ET LOUANGE", "designationCode": "C", "categoryCode": "39", "address": "300 AVENUE LAFLEUR", "city": "LASALLE", "province": "QC", "country": "CA", "postalCode": "H8R3H5", "twitter": "None", "instagram": "None", "facebook": "None", "youtube": "None", "website": "None", "summary": "None", "logo": "None", "latitude": 45.42986997475325, "longitude": -73.64762486210941}, "133028662RR0001": {"name": "EGLISE SALUT ET DELIVRANCE DU CANADA INC", "designationCode": "C", "categoryCode": "39", "address": "492 SIMONDS SUD", "city": "GRANBY", "province": "QC", "country": "CA", "postalCode": "J2J1C3", "twitter": "None", "instagram": "None", "facebook": "None", "youtube": "None", "website": "None", "summary": "None", "logo": "None", "latitude": 45.39636638106647, "longitude": -72.7585027727218}, "108067737RR0001": {"name": "EGLISE SANS FRONTIERES", "designationCode": "C", "categoryCode": "39", "address": "4975 BOUL SIR-WILFRID-LAURIER", "city": "SAINT-HUBERT", "province": "QC", "country": "CA", "postalCode": "J3Y7R6", "twitter": "None", "instagram": "None", "facebook": "None", "youtube": "None", "website": "None", "summary": "None", "logo": "None", "latitude": 45.50705571769891, "longitude": -73.43320857689413}, "834967762RR0001": {"name": "EGLISE SELON LA VOLONTE DU SEIGNEUR JESUS-CHRIST", "designationCode": "C", "categoryCode": "39", "address": "595 BOURGEOYS #8", "city": "MONTREAL", "province": "QC", "country": "CA", "postalCode": "H3K2M3", "twitter": "None", "instagram": "None", "facebook": "None", "youtube": "None", "website": "None", "summary": "None", "logo": "None", "latitude": 45.48018104440536, "longitude": -73.55862602120739}, "870622982RR0001": {"name": "EGLISE SIMPLICITE ET PROSPERITE INC", "designationCode": "C", "categoryCode": "39", "address": "92 DOUCET", "city": "SHEFFORD", "province": "QC", "country": "CA", "postalCode": "J2M1B7", "twitter": "None", "instagram": "None", "facebook": "None", "youtube": "None", "website": "None", "summary": "None", "logo": "None", "latitude": 45.30748746047076, "longitude": -72.48985336219633}, "132753393RR0001": {"name": "EGLISE SION DE LA FRATERNITE", "designationCode": "C", "categoryCode": "39", "address": "6300 RUE DE LANAUDIERE", "city": "MONTREAL", "province": "QC", "country": "CA", "postalCode": "H2G3A7", "twitter": "None", "instagram": "None", "facebook": "None", "youtube": "None", "website": "None", "summary": "None", "logo": "None", "latitude": 45.539849924490866, "longitude": -73.59723238747175}, "118896513RR0001": {"name": "EGLISE ST. ANNE CHURCH", "designationCode": "C", "categoryCode": "38", "address": "BOX 100", "city": "WOLSELEY", "province": "SK", "country": "CA", "postalCode": "S0G5H0", "twitter": "None", "instagram": "None", "facebook": "None", "youtube": "None", "website": "None", "summary": "None", "logo": "None", "latitude": 50.411354882397546, "longitude": -102.93411353717349}, "862973021RR0001": {"name": "EGLISE ST-IVAN RILSKY / CHURCH ST. IVAN RILSKY", "designationCode": "C", "categoryCode": "39", "address": "1195, BOULEVARD SAUVE EST", "city": "MONTREAL", "province": "QC", "country": "CA", "postalCode": "H2C1Z8", "twitter": "None", "instagram": "None", "facebook": "None", "youtube": "None", "website": "None", "summary": "None", "logo": "None", "latitude": 45.55686089731085, "longitude": -73.65275282183035}, "119109817RR0063": {"name": "EGLISE STE. ANNE CHURCH", "designationCode": "C", "categoryCode": "38", "address": "12233 TECUMSEH RD E", "city": "TECUMSEH", "province": "ON", "country": "CA", "postalCode": "N8N1M3", "twitter": "None", "instagram": "None", "facebook": "None", "youtube": "None", "website": "None", "summary": "None", "logo": "None", "latitude": 42.31171573292884, "longitude": -82.88691498749607}, "867363467RR0001": {"name": "EGLISE SUR LE ROC", "designationCode": "C", "categoryCode": "39", "address": "5459 BOUL. BOURQUE", "city": "SHERBROOKE", "province": "QC", "country": "CA", "postalCode": "J1N1G8", "twitter": "None", "instagram": "None", "facebook": "None", "youtube": "None", "website": "None", "summary": "None", "logo": "None", "latitude": 45.364814577067015, "longitude": -71.99995435642526}, "137180097RR0001": {"name": "EGLISE TRADITIONNELLE ORTHODOXE HELLENIQUE DE SAINTE-ANNA DE MONTREAL/HELLENIC ORTHODOX TRADITIONAL CHURCH OF SAINT-ANNA", "designationCode": "C", "categoryCode": "39", "address": "7870 RUE BIRNAM", "city": "MONTREAL", "province": "QC", "country": "CA", "postalCode": "H3N2T5", "twitter": "None", "instagram": "None", "facebook": "None", "youtube": "None", "website": "None", "summary": "None", "logo": "None", "latitude": 45.52722507187383, "longitude": -73.6341198573489}, "118896547RR0001": {"name": "EGLISE UNIE DE THURSO", "designationCode": "C", "categoryCode": "44", "address": "161 RUE FRASER", "city": "THURSO", "province": "QC", "country": "CA", "postalCode": "J0X3B0", "twitter": "None", "instagram": "None", "facebook": "None", "youtube": "None", "website": "None", "summary": "None", "logo": "None", "latitude": 45.59847518956661, "longitude": -75.24567538770289}, "119060408RR0001": {"name": "EGLISE UNIE DE WATERVILLE-NORTH HATLEY UNITED CHURCH", "designationCode": "C", "categoryCode": "44", "address": "460 RUE PRINCIPALE SUD", "city": "WATERVILLE", "province": "QC", "country": "CA", "postalCode": "J0B3H0", "twitter": "None", "instagram": "None", "facebook": "None", "youtube": "None", "website": "None", "summary": "None", "logo": "None", "latitude": 45.276167955330685, "longitude": -71.89113212103565}, "107287724RR0001": {"name": "EGLISE UNIE SAINT-MARC", "designationCode": "C", "categoryCode": "44", "address": "142 RUE LEWIS", "city": "OTTAWA", "province": "ON", "country": "CA", "postalCode": "K2P0S7", "twitter": "None", "instagram": "None", "facebook": "None", "youtube": "None", "website": "None", "summary": "None", "logo": "None", "latitude": 45.416454691260746, "longitude": -75.68819062462359}, "107287716RR0001": {"name": "EGLISE UNIE ST-JEAN", "designationCode": "C", "categoryCode": "44", "address": "110 RUE STE-CATHERINE EST", "city": "MONTREAL", "province": "QC", "country": "CA", "postalCode": "H2X1K7", "twitter": "None", "instagram": "None", "facebook": "None", "youtube": "None", "website": "None", "summary": "None", "logo": "None", "latitude": 45.511016951699524, "longitude": -73.56275053009419}, "892832189RR0001": {"name": "EGLISE UNIE ST-PIERRE", "designationCode": "C", "categoryCode": "44", "address": "78 RUE STE URSULE", "city": "QUEBEC", "province": "QC", "country": "CA", "postalCode": "G1R4E8", "twitter": "None", "instagram": "None", "facebook": "None", "youtube": "None", "website": "None", "summary": "None", "logo": "None", "latitude": 46.81014437356464, "longitude": -71.20876357288341}, "827459876RR0001": {"name": "EGLISE VIE ABONDANTE RIVE-SUD", "designationCode": "C", "categoryCode": "39", "address": "7125 BOUL MARICOURT", "city": "SAINT-HUBERT", "province": "QC", "country": "CA", "postalCode": "J3Y1T3", "twitter": "None", "instagram": "None", "facebook": "None", "youtube": "None", "website": "None", "summary": "None", "logo": "None", "latitude": 45.47268336796739, "longitude": -73.40197565993375}, "828738740RR0001": {"name": "EGLISE VIE D'ESPOIR", "designationCode": "C", "categoryCode": "36", "address": "35 AV MARIEN", "city": "MONTREAL-EST", "province": "QC", "country": "CA", "postalCode": "H1B4T8", "twitter": "None", "instagram": "None", "facebook": "None", "youtube": "None", "website": "None", "summary": "None", "logo": "None", "latitude": 45.632649351116505, "longitude": -73.49689702094759}, "859577637RR0001": {"name": "EGLISE VIVANTE DE CHRIST/LIVING CHURCH OF CHRIST", "designationCode": "C", "categoryCode": "39", "address": "75 15E AV", "city": "LACHINE", "province": "QC", "country": "CA", "postalCode": "H8S3L7", "twitter": "None", "instagram": "None", "facebook": "None", "youtube": "None", "website": "None", "summary": "None", "logo": "None", "latitude": 45.432890528449406, "longitude": -73.67747919239389}, "818011272RR0001": {"name": "EGMONT AND DISTRICT VFD SOCIETY", "designationCode": "A", "categoryCode": "59", "address": "1662 LANGWORTHY ST", "city": "NORTH VANCOUVER", "province": "BC", "country": "CA", "postalCode": "V7K1N5", "twitter": "None", "instagram": "None", "facebook": "None", "youtube": "None", "website": "None", "summary": "None", "logo": "None", "latitude": 49.34489150432784, "longitude": -123.02606241618096}, "107287815RR0001": {"name": "EGYPT CHURCH OF THE NAZARENE", "designationCode": "C", "categoryCode": "39", "address": "6779 SMITH BLVD               RR 1", "city": "PEFFERLAW", "province": "ON", "country": "CA", "postalCode": "L0E1N0", "twitter": "None", "instagram": "None", "facebook": "None", "youtube": "None", "website": "None", "summary": "None", "logo": "None", "latitude": 44.270009867015105, "longitude": -79.30441378960137}, "859203168RR0001": {"name": "EHRLO CHILD AND FAMILY FOUNDATION INC.", "designationCode": "A", "categoryCode": "03", "address": "PO BOX 570", "city": "PILOT BUTTE", "province": "SK", "country": "CA", "postalCode": "S0G3Z0", "twitter": "None", "instagram": "None", "facebook": "None", "youtube": "None", "website": "None", "summary": "None", "logo": "None", "latitude": 50.479340000000036, "longitude": -104.41828999999996}}