{"854092558RR0001": {"name": "Gallery in the Grove", "designationCode": "C", "categoryCode": "22", "address": "PO BOX 339 HAMILTON RD", "city": "BRIGHTS GROVE", "province": "ON", "country": "CA", "postalCode": "N0N1C0", "twitter": "None", "instagram": "None", "facebook": "None", "youtube": "None", "website": "None", "summary": "None", "logo": "None", "latitude": 43.02974811923712, "longitude": -82.26245908633426}, "805938917RR0001": {"name": "Game Changer Foundation", "designationCode": "B", "categoryCode": "03", "address": "200, 1210 11TH AVENUE SW", "city": "CALGARY", "province": "AB", "country": "CA", "postalCode": "T3C0M4", "twitter": "None", "instagram": "None", "facebook": "None", "youtube": "None", "website": "None", "summary": "None", "logo": "None", "latitude": 51.04337059628888, "longitude": -114.09871944784327}, "844167643RR0001": {"name": "Gananoque Choral Society", "designationCode": "C", "categoryCode": "22", "address": "75 GARFIELD ST", "city": "GANANOQUE", "province": "ON", "country": "CA", "postalCode": "K7G3G2", "twitter": "None", "instagram": "None", "facebook": "None", "youtube": "None", "website": "None", "summary": "None", "logo": "None", "latitude": 44.327169135706235, "longitude": -76.17606475484395}, "847447414RR0001": {"name": "Ganaraska Hiking Trail Association Inc.", "designationCode": "C", "categoryCode": "52", "address": "BOX 693", "city": "ORILLIA", "province": "ON", "country": "CA", "postalCode": "L3V6K7", "twitter": "None", "instagram": "None", "facebook": "None", "youtube": "None", "website": "None", "summary": "None", "logo": "None", "latitude": 44.60657100000006, "longitude": -79.41824449999993}, "119288918RR0232": {"name": "Gander Congregation of Jehovah's Witnesses, Gander, Newfoundland", "designationCode": "C", "categoryCode": "61", "address": "30 HOBBS ST", "city": "GANDER", "province": "NL", "country": "CA", "postalCode": "A1V0E5", "twitter": "None", "instagram": "None", "facebook": "None", "youtube": "None", "website": "None", "summary": "None", "logo": "None", "latitude": 48.98513245759555, "longitude": -54.61881686581683}, "852895705RR0001": {"name": "Gandhian Initiative for Development of Support Services (GIDSS)", "designationCode": "C", "categoryCode": "59", "address": "40 ROSEPAC AVE", "city": "BRAMPTON", "province": "ON", "country": "CA", "postalCode": "L6Z2S4", "twitter": "None", "instagram": "None", "facebook": "None", "youtube": "None", "website": "None", "summary": "None", "logo": "None", "latitude": 43.71573857674989, "longitude": -79.78084274245472}, "806457008RR0001": {"name": "Gandy Charitable Foundation", "designationCode": "B", "categoryCode": "03", "address": "25 MOUNTVIEW AVE.", "city": "TORONTO", "province": "ON", "country": "CA", "postalCode": "M6P2L5", "twitter": "None", "instagram": "None", "facebook": "None", "youtube": "None", "website": "None", "summary": "None", "logo": "None", "latitude": 43.65538073189448, "longitude": -79.4613005585436}, "817202419RR0001": {"name": "Ganesha Temple Inc.", "designationCode": "C", "categoryCode": "48", "address": "21062 HURONTARIO ST", "city": "CALEDON", "province": "ON", "country": "CA", "postalCode": "L7K1X1", "twitter": "None", "instagram": "None", "facebook": "None", "youtube": "None", "website": "None", "summary": "None", "logo": "None", "latitude": 43.91118765987925, "longitude": -80.06544177742127}, "118935196RR0001": {"name": "Garden Lots Cemetery Society", "designationCode": "C", "categoryCode": "59", "address": "247 SILVER POINT ROAD         RR#1", "city": "LUNENBURG", "province": "NS", "country": "CA", "postalCode": "B0J2C0", "twitter": "None", "instagram": "None", "facebook": "None", "youtube": "None", "website": "None", "summary": "None", "logo": "None", "latitude": 44.379296207686, "longitude": -64.28013815554768}, "870686789RR0002": {"name": "Garderie Curs d'Enfants de l'Outaouais Inc. .", "designationCode": "C", "categoryCode": "01", "address": "A - 64 BOUL GREBER", "city": "GATINEAU", "province": "QC", "country": "CA", "postalCode": "J8T3P8", "twitter": "None", "instagram": "None", "facebook": "None", "youtube": "None", "website": "None", "summary": "None", "logo": "None", "latitude": 45.46235663336026, "longitude": -75.6998296019384}, "853525616RR0001": {"name": "Garderie Frisbi et compagnie", "designationCode": "C", "categoryCode": "01", "address": "115, RUE TOWNER", "city": "ST-JEAN-SUR-RICHELIEU", "province": "QC", "country": "CA", "postalCode": "J3B0B8", "twitter": "None", "instagram": "None", "facebook": "None", "youtube": "None", "website": "None", "summary": "None", "logo": "None", "latitude": 45.288094493219326, "longitude": -73.25508158381903}, "853944718RR0001": {"name": "Garderie Ile des Ch\u00eanes Daycare Inc.", "designationCode": "C", "categoryCode": "01", "address": "BOX 999", "city": "ILE DES CH\u00caNES", "province": "MB", "country": "CA", "postalCode": "R0A0T0", "twitter": "None", "instagram": "None", "facebook": "None", "youtube": "None", "website": "None", "summary": "None", "logo": "None", "latitude": 49.71193000000005, "longitude": -96.99441999999999}, "829855394RR0001": {"name": "Garderie Les Petits Genies Corporation", "designationCode": "C", "categoryCode": "01", "address": "570 RUE DES MEURONS", "city": "WINNIPEG", "province": "MB", "country": "CA", "postalCode": "R2H2P8", "twitter": "None", "instagram": "None", "facebook": "None", "youtube": "None", "website": "None", "summary": "None", "logo": "None", "latitude": 49.89090142131687, "longitude": -97.11203149789387}, "820540086RR0001": {"name": "Garnish-Frenchman's Cove Pastoral Charge", "designationCode": "C", "categoryCode": "44", "address": "POST OFFICE BOX 160", "city": "GARNISH", "province": "NL", "country": "CA", "postalCode": "A0E1T0", "twitter": "None", "instagram": "None", "facebook": "None", "youtube": "None", "website": "None", "summary": "None", "logo": "None", "latitude": 47.133230000000026, "longitude": -55.09828999999996}, "742860729RR0001": {"name": "Gary Segal Family Foundation", "designationCode": "B", "categoryCode": "03", "address": "1163 BALFOUR AVE", "city": "VANCOUVER", "province": "BC", "country": "CA", "postalCode": "V6H1X3", "twitter": "None", "instagram": "None", "facebook": "None", "youtube": "None", "website": "None", "summary": "None", "logo": "None", "latitude": 49.25197146047075, "longitude": -123.13138244324539}, "808055578RR0001": {"name": "Gary Whitelaw and Linda Mollenhauer Foundation", "designationCode": "B", "categoryCode": "03", "address": "14 LANGMUIR CRES", "city": "TORONTO", "province": "ON", "country": "CA", "postalCode": "M6S2A7", "twitter": "None", "instagram": "None", "facebook": "None", "youtube": "None", "website": "None", "summary": "None", "logo": "None", "latitude": 43.655160351116486, "longitude": -79.49460655995725}, "119070589RR0001": {"name": "Gas Station Arts Centre Inc.", "designationCode": "C", "categoryCode": "22", "address": "445 RIVER AVENUE", "city": "WINNIPEG", "province": "MB", "country": "CA", "postalCode": "R3L0C3", "twitter": "None", "instagram": "None", "facebook": "None", "youtube": "None", "website": "None", "summary": "None", "logo": "None", "latitude": 49.879372880950896, "longitude": -97.14590984153719}, "819510470RR0001": {"name": "Gasp\u00e9, Berceau du Canada", "designationCode": "C", "categoryCode": "50", "address": "179 MT\u00c9E WAKEHAM              C.P. 5117", "city": "GASP\u00c9", "province": "QC", "country": "CA", "postalCode": "G4X1V3", "twitter": "None", "instagram": "None", "facebook": "None", "youtube": "None", "website": "None", "summary": "None", "logo": "None", "latitude": 48.82637400000006, "longitude": -64.48889599999994}, "849419080RR0001": {"name": "Gate House Community Association", "designationCode": "C", "categoryCode": "22", "address": "PO BOX 70", "city": "PORT MCNEIL", "province": "BC", "country": "CA", "postalCode": "V0N2R0", "twitter": "None", "instagram": "None", "facebook": "None", "youtube": "None", "website": "None", "summary": "None", "logo": "None", "latitude": 50.581180000000074, "longitude": -127.06684999999999}, "862396678RR0001": {"name": "Gatehouse Family Daycare", "designationCode": "C", "categoryCode": "01", "address": "200 LONSDALE RD", "city": "TORONTO", "province": "ON", "country": "CA", "postalCode": "M4V1W6", "twitter": "None", "instagram": "None", "facebook": "None", "youtube": "None", "website": "None", "summary": "None", "logo": "None", "latitude": 43.690779173523765, "longitude": -79.40314577687674}, "719712895RR0001": {"name": "Gates of Zion", "designationCode": "C", "categoryCode": "39", "address": "956 PARAMOUNT DR", "city": "STONEY CREEK", "province": "ON", "country": "CA", "postalCode": "L8J2M9", "twitter": "None", "instagram": "None", "facebook": "None", "youtube": "None", "website": "None", "summary": "None", "logo": "None", "latitude": 43.19330463056164, "longitude": -79.79962766166545}, "818997371RR0001": {"name": "Gateway Alliance Church of the Christian and Missionary Alliance in Canada", "designationCode": "C", "categoryCode": "39", "address": "45 - 20 MCCONKEY CRES", "city": "BRANTFORD", "province": "ON", "country": "CA", "postalCode": "N3S0B9", "twitter": "None", "instagram": "None", "facebook": "None", "youtube": "None", "website": "None", "summary": "None", "logo": "None", "latitude": 43.149749785651636, "longitude": -80.23872014854729}, "119040319RR0001": {"name": "Gateway Centre for Learning", "designationCode": "C", "categoryCode": "21", "address": "488 DOMINION AVENUE", "city": "MIDLAND", "province": "ON", "country": "CA", "postalCode": "L4R1P6", "twitter": "None", "instagram": "None", "facebook": "None", "youtube": "None", "website": "None", "summary": "None", "logo": "None", "latitude": 44.75157430253883, "longitude": -79.88486364449157}, "844067025RR0001": {"name": "Gateway Centre of Excellence in Rural Health", "designationCode": "C", "categoryCode": "19", "address": "151 MAIN STREET SOUTH", "city": "SEAFORTH", "province": "ON", "country": "CA", "postalCode": "N0K1W0", "twitter": "None", "instagram": "None", "facebook": "None", "youtube": "None", "website": "None", "summary": "None", "logo": "None", "latitude": 43.54896620960084, "longitude": -81.39724037562775}, "806829115RR0001": {"name": "Gateway Chapter, Sweet Adelines", "designationCode": "C", "categoryCode": "22", "address": "97 - 51110 RANGE ROAD 214", "city": "SHERWOOD PARK", "province": "AB", "country": "CA", "postalCode": "T8E1G7", "twitter": "None", "instagram": "None", "facebook": "None", "youtube": "None", "website": "None", "summary": "None", "logo": "None", "latitude": 53.38255662940781, "longitude": -113.059573456056}, "107409328RR0001": {"name": "Gateway Christian Ministries", "designationCode": "C", "categoryCode": "39", "address": "P O BOX 1089", "city": "PRINCE GEORGE", "province": "BC", "country": "CA", "postalCode": "V2L4V2", "twitter": "None", "instagram": "None", "facebook": "None", "youtube": "None", "website": "None", "summary": "None", "logo": "None", "latitude": 53.91241800000006, "longitude": -122.74463149999994}, "118790187RR0001": {"name": "Gateway Church", "designationCode": "C", "categoryCode": "39", "address": "128 MARY ST", "city": "ARNPRIOR", "province": "ON", "country": "CA", "postalCode": "K7S1E6", "twitter": "None", "instagram": "None", "facebook": "None", "youtube": "None", "website": "None", "summary": "None", "logo": "None", "latitude": 45.43182519992031, "longitude": -76.36232078060564}, "732159090RR0001": {"name": "Gateway Church of Canterbury", "designationCode": "C", "categoryCode": "39", "address": "1936 ROUTE 122", "city": "SKIFF LAKE", "province": "NB", "country": "CA", "postalCode": "E6H1P7", "twitter": "None", "instagram": "None", "facebook": "None", "youtube": "None", "website": "None", "summary": "None", "logo": "None", "latitude": 45.83504470363067, "longitude": -67.5223836418049}, "890206584RR0001": {"name": "Gateway Church of The Christian and Missionary Alliance in Canada", "designationCode": "C", "categoryCode": "39", "address": "15 HALDIMAND RD 66", "city": "CALEDONIA", "province": "ON", "country": "CA", "postalCode": "N3W1N7", "twitter": "None", "instagram": "None", "facebook": "None", "youtube": "None", "website": "None", "summary": "None", "logo": "None", "latitude": 43.98177300000006, "longitude": -77.90372449999994}, "119120657RR0001": {"name": "Gateway Community Church", "designationCode": "C", "categoryCode": "39", "address": "155 HUGILL STREET", "city": "SAULT STE. MARIE", "province": "ON", "country": "CA", "postalCode": "P6A4E9", "twitter": "None", "instagram": "None", "facebook": "None", "youtube": "None", "website": "None", "summary": "None", "logo": "None", "latitude": 46.50672591618098, "longitude": -84.29042394676517}, "871255626RR0001": {"name": "Gateway Community Church", "designationCode": "C", "categoryCode": "36", "address": "BOX 1039", "city": "VIRGIL", "province": "ON", "country": "CA", "postalCode": "L0S1T0", "twitter": "None", "instagram": "None", "facebook": "None", "youtube": "None", "website": "None", "summary": "None", "logo": "None", "latitude": 43.21981000000005, "longitude": -79.12214999999998}, "891652927RR0001": {"name": "Gateway Community Church of Boyle", "designationCode": "C", "categoryCode": "39", "address": "BOX 599", "city": "BOYLE", "province": "AB", "country": "CA", "postalCode": "T0A0M0", "twitter": "None", "instagram": "None", "facebook": "None", "youtube": "None", "website": "None", "summary": "None", "logo": "None", "latitude": 54.58728000000008, "longitude": -112.80483999999996}, "106787823RR0001": {"name": "Gateway Community Church of Hinton, Alberta", "designationCode": "C", "categoryCode": "31", "address": "101 DOUGLAS DRIVE", "city": "HINTON", "province": "AB", "country": "CA", "postalCode": "T7V1C1", "twitter": "None", "instagram": "None", "facebook": "None", "youtube": "None", "website": "None", "summary": "None", "logo": "None", "latitude": 53.420785761065055, "longitude": -117.54999339768622}, "107608614RR0001": {"name": "Gateway Family Church", "designationCode": "C", "categoryCode": "36", "address": "4310 BLACK GOLD DRIVE", "city": "LEDUC", "province": "AB", "country": "CA", "postalCode": "T9E3C3", "twitter": "None", "instagram": "None", "facebook": "None", "youtube": "None", "website": "None", "summary": "None", "logo": "None", "latitude": 53.256588341706994, "longitude": -113.52935266959607}, "107396905RR0082": {"name": "Gateway Foursquare Church", "designationCode": "C", "categoryCode": "39", "address": "403 5TH AVENUE", "city": "CAMPBELL RIVER", "province": "BC", "country": "CA", "postalCode": "V9W3X5", "twitter": "None", "instagram": "None", "facebook": "None", "youtube": "None", "website": "None", "summary": "None", "logo": "None", "latitude": 50.0159274767734, "longitude": -125.24390002553523}, "841214463RR0001": {"name": "Gateway International Christian Church", "designationCode": "C", "categoryCode": "39", "address": "3982 BORRELLI DRIVE,", "city": "WINDSOR", "province": "ON", "country": "CA", "postalCode": "N9G2J1", "twitter": "None", "instagram": "None", "facebook": "None", "youtube": "None", "website": "None", "summary": "None", "logo": "None", "latitude": 42.25023738579831, "longitude": -83.02828291185313}, "810110585RR0001": {"name": "Gateway Ministries International", "designationCode": "C", "categoryCode": "39", "address": "909-6081 NO. 3 RD", "city": "RICHMOND", "province": "BC", "country": "CA", "postalCode": "V6Y2B2", "twitter": "None", "instagram": "None", "facebook": "None", "youtube": "None", "website": "None", "summary": "None", "logo": "None", "latitude": 49.16951428645726, "longitude": -123.13668028645726}, "889706313RR0001": {"name": "Gateway Missions", "designationCode": "C", "categoryCode": "39", "address": "975 MCKEOWN AVE", "city": "NORTH BAY", "province": "ON", "country": "CA", "postalCode": "P1B9P2", "twitter": "None", "instagram": "None", "facebook": "None", "youtube": "None", "website": "None", "summary": "None", "logo": "None", "latitude": 46.334163714466676, "longitude": -79.46797324678255}, "119288918RR1638": {"name": "Gateway Spanish Congregation of Jehovah's Witnesses, Winnipeg, Manitoba", "designationCode": "C", "categoryCode": "61", "address": "937 GATEWAY ROAD", "city": "WINNIPEG", "province": "MB", "country": "CA", "postalCode": "R2K3L1", "twitter": "None", "instagram": "None", "facebook": "None", "youtube": "None", "website": "None", "summary": "None", "logo": "None", "latitude": 49.926051538115615, "longitude": -97.07476256610369}, "815097571RR0001": {"name": "Gateway United Baptist Church", "designationCode": "C", "categoryCode": "31", "address": "13175 107 AVE", "city": "SURREY", "province": "BC", "country": "CA", "postalCode": "V3T2G2", "twitter": "None", "instagram": "None", "facebook": "None", "youtube": "None", "website": "None", "summary": "None", "logo": "None", "latitude": 49.19704545657561, "longitude": -122.85718110935426}, "763868122RR0001": {"name": "Gateway Victory Church of Calgary", "designationCode": "C", "categoryCode": "39", "address": "PO BOX 65077 RPO NORTH HILL", "city": "CALGARY", "province": "AB", "country": "CA", "postalCode": "T2N4T6", "twitter": "None", "instagram": "None", "facebook": "None", "youtube": "None", "website": "None", "summary": "None", "logo": "None", "latitude": 51.065150000000074, "longitude": -114.10340999999994}, "846352631RR0001": {"name": "Gateway Victory Church of Grimshaw", "designationCode": "C", "categoryCode": "39", "address": "4504-53 STREET                PO BOX 1378", "city": "GRIMSHAW", "province": "AB", "country": "CA", "postalCode": "T0H1W0", "twitter": "None", "instagram": "None", "facebook": "None", "youtube": "None", "website": "None", "summary": "None", "logo": "None", "latitude": 56.18481299999999, "longitude": -117.61552255423352}, "795931120RR0001": {"name": "Gather Women", "designationCode": "C", "categoryCode": "49", "address": "2305 CHEVERIE STREET", "city": "OAKVILLE", "province": "ON", "country": "CA", "postalCode": "L6J6C5", "twitter": "None", "instagram": "None", "facebook": "None", "youtube": "None", "website": "None", "summary": "None", "logo": "None", "latitude": 43.477385028593645, "longitude": -79.63536266723403}, "839039716RR0001": {"name": "Gathering of Rivers for Community Care", "designationCode": "C", "categoryCode": "21", "address": "233 COURT STREET SOUTH", "city": "THUNDER BAY", "province": "ON", "country": "CA", "postalCode": "P7B2X9", "twitter": "None", "instagram": "None", "facebook": "None", "youtube": "None", "website": "None", "summary": "None", "logo": "None", "latitude": 48.427861139044424, "longitude": -89.23008841644076}, "831086335RR0001": {"name": "Gathering Voices Society", "designationCode": "C", "categoryCode": "21", "address": "1200 WATERFRONT CENTRE        800 BURRARD STREET", "city": "VANCOUVER", "province": "BC", "country": "CA", "postalCode": "V7X1T2", "twitter": "None", "instagram": "None", "facebook": "None", "youtube": "None", "website": "None", "summary": "None", "logo": "None", "latitude": 49.2867400533782, "longitude": -123.11400005395502}, "119288918RR1644": {"name": "Gatineau Valley English Congregation of Jehovah's Witnesses,Maniwaki, Quebec", "designationCode": "C", "categoryCode": "61", "address": "217 MCDOUGALL ROAD", "city": "MANIWAKI", "province": "QC", "country": "CA", "postalCode": "J9E1V7", "twitter": "None", "instagram": "None", "facebook": "None", "youtube": "None", "website": "None", "summary": "None", "logo": "None", "latitude": 46.37069951009891, "longitude": -75.97764963918864}, "807484928RR0001": {"name": "Gatzsch Family Foundation", "designationCode": "B", "categoryCode": "09", "address": "6516 SILVER SPRINGS WAY NW", "city": "CALGARY", "province": "AB", "country": "CA", "postalCode": "T3B3G2", "twitter": "None", "instagram": "None", "facebook": "None", "youtube": "None", "website": "None", "summary": "None", "logo": "None", "latitude": 51.11099101082005, "longitude": -114.18258218541166}, "838729127RR0001": {"name": "Gauri Shankar Mandir Religious and Cultural Organization Inc.", "designationCode": "C", "categoryCode": "48", "address": "1071 QUEEN STREET WEST", "city": "BRAMPTON", "province": "ON", "country": "CA", "postalCode": "L6Y0B7", "twitter": "None", "instagram": "None", "facebook": "None", "youtube": "None", "website": "None", "summary": "None", "logo": "None", "latitude": 43.66503407686546, "longitude": -79.78310951523478}, "899685341RR0001": {"name": "Gavin Lake Forest Education Society", "designationCode": "C", "categoryCode": "56", "address": "72 SOUTH SEVENTH AVENUE", "city": "WILLIAMS LAKE", "province": "BC", "country": "CA", "postalCode": "V2G4N5", "twitter": "None", "instagram": "None", "facebook": "None", "youtube": "None", "website": "None", "summary": "None", "logo": "None", "latitude": 52.126710516792656, "longitude": -122.13537743378168}, "841583917RR0001": {"name": "Gawad Kalinga Canada", "designationCode": "C", "categoryCode": "09", "address": "PO BOX 37039                  ROSEBOROUGH PO", "city": "MISSISSAUGA", "province": "ON", "country": "CA", "postalCode": "L5V1N3", "twitter": "None", "instagram": "None", "facebook": "None", "youtube": "None", "website": "None", "summary": "None", "logo": "None", "latitude": 43.57904100000006, "longitude": -79.68395149999994}, "814996377RR0001": {"name": "Gay Lea Foundation", "designationCode": "B", "categoryCode": "03", "address": "5200 ORBITOR DRIVE", "city": "MISSISSAUGA", "province": "ON", "country": "CA", "postalCode": "L4W5B4", "twitter": "None", "instagram": "None", "facebook": "None", "youtube": "None", "website": "None", "summary": "None", "logo": "None", "latitude": 43.65932163636138, "longitude": -79.60539918422823}, "845976471RR0001": {"name": "Gay Lesbian Bisexual and Transgendered Pride Centre of Edmonton", "designationCode": "C", "categoryCode": "59", "address": "10608 105 AVE", "city": "EDMONTON", "province": "AB", "country": "CA", "postalCode": "T5H0L2", "twitter": "None", "instagram": "None", "facebook": "None", "youtube": "None", "website": "None", "summary": "None", "logo": "None", "latitude": 53.547784500432684, "longitude": -113.5034325}, "854262524RR0001": {"name": "Gayatri Pariwar-Western Ontario Canada", "designationCode": "C", "categoryCode": "48", "address": "111 PROVIDENT WAY", "city": "MOUNT HOPE", "province": "ON", "country": "CA", "postalCode": "L0R1W0", "twitter": "None", "instagram": "None", "facebook": "None", "youtube": "None", "website": "None", "summary": "None", "logo": "None", "latitude": 43.14977486759203, "longitude": -79.92200868096826}, "824250492RR0001": {"name": "Gays River Cemetery Society", "designationCode": "C", "categoryCode": "59", "address": "68 COLDSTREAM ROAD", "city": "GAYS RIVER", "province": "NS", "country": "CA", "postalCode": "B0N2H0", "twitter": "None", "instagram": "None", "facebook": "None", "youtube": "None", "website": "None", "summary": "None", "logo": "None", "latitude": 45.03644065500034, "longitude": -63.35281953147917}, "823877071RR0001": {"name": "Gearshifting Performance Works Inc.", "designationCode": "C", "categoryCode": "22", "address": "515 SHAFTESBURY BOULEVARD", "city": "WINNIPEG", "province": "MB", "country": "CA", "postalCode": "R3P0M3", "twitter": "None", "instagram": "None", "facebook": "None", "youtube": "None", "website": "None", "summary": "None", "logo": "None", "latitude": 49.85983600943508, "longitude": -97.23012783397805}, "829435684RR0001": {"name": "Geebboom Baptist Church", "designationCode": "C", "categoryCode": "39", "address": "489 DREWRY AVENUE,", "city": "NORTH YORK", "province": "ON", "country": "CA", "postalCode": "M2R2K9", "twitter": "None", "instagram": "None", "facebook": "None", "youtube": "None", "website": "None", "summary": "None", "logo": "None", "latitude": 43.78136680930821, "longitude": -79.44320451220501}, "897767240RR0001": {"name": "Gelmont Foundation/Fondation Gelmont", "designationCode": "B", "categoryCode": "03", "address": "600 - 615 BOUL RENE-LEVESQUE O", "city": "MONTREAL", "province": "QC", "country": "CA", "postalCode": "H3B1P5", "twitter": "None", "instagram": "None", "facebook": "None", "youtube": "None", "website": "None", "summary": "None", "logo": "None", "latitude": 45.50281258618496, "longitude": -73.56671187818093}, "118782358RR0001": {"name": "Gemach Zichron Yechiel", "designationCode": "C", "categoryCode": "09", "address": "CP 78556 CSP WILDERTON", "city": "MONTREAL", "province": "QC", "country": "CA", "postalCode": "H3S2W9", "twitter": "None", "instagram": "None", "facebook": "None", "youtube": "None", "website": "None", "summary": "None", "logo": "None", "latitude": 45.510582176912585, "longitude": -73.62536717691259}, "855253183RR0001": {"name": "Gencon Foundation", "designationCode": "B", "categoryCode": "03", "address": "501-426 BEACH CRES", "city": "VANCOUVER", "province": "BC", "country": "CA", "postalCode": "V6Z3E9", "twitter": "None", "instagram": "None", "facebook": "None", "youtube": "None", "website": "None", "summary": "None", "logo": "None", "latitude": 49.27187106894369, "longitude": -123.12757299529002}, "811015619RR0001": {"name": "Gendun Drubpa Buddhist Centre", "designationCode": "C", "categoryCode": "35", "address": "212 SOUTH 3RD AVE", "city": "WILLIAMS LAKE", "province": "BC", "country": "CA", "postalCode": "V2G1J4", "twitter": "None", "instagram": "None", "facebook": "None", "youtube": "None", "website": "None", "summary": "None", "logo": "None"}, "842361305RR0001": {"name": "Generation to Generation Korean Diaspora Christian Education Centre", "designationCode": "C", "categoryCode": "49", "address": "405 GORDON BAKER ROAD", "city": "TORONTO", "province": "ON", "country": "CA", "postalCode": "M2H2S6", "twitter": "None", "instagram": "None", "facebook": "None", "youtube": "None", "website": "None", "summary": "None", "logo": "None", "latitude": 43.80749485457894, "longitude": -79.34553741456577}, "815805866RR0001": {"name": "Generation Live Green", "designationCode": "C", "categoryCode": "52", "address": "8691 COPELAND RD", "city": "ASHTON", "province": "ON", "country": "CA", "postalCode": "K0A1B0", "twitter": "None", "instagram": "None", "facebook": "None", "youtube": "None", "website": "None", "summary": "None", "logo": "None", "latitude": 45.12801120557707, "longitude": -75.97158911471755}, "832411094RR0001": {"name": "Generation Rising", "designationCode": "C", "categoryCode": "20", "address": "81 HENDERSON HWY", "city": "WINNIPEG", "province": "MB", "country": "CA", "postalCode": "R2L1L2", "twitter": "None", "instagram": "None", "facebook": "None", "youtube": "None", "website": "None", "summary": "None", "logo": "None", "latitude": 49.91028142907847, "longitude": -97.11775461806816}, "793865296RR0001": {"name": "Generation With A Difference Inc.", "designationCode": "C", "categoryCode": "39", "address": "1308 CHEVRIER BLVD", "city": "WINNIPEG", "province": "MB", "country": "CA", "postalCode": "R3T1Y3", "twitter": "None", "instagram": "None", "facebook": "None", "youtube": "None", "website": "None", "summary": "None", "logo": "None", "latitude": 49.82802614458434, "longitude": -97.1626440972648}, "118903996RR0001": {"name": "Generations Church", "designationCode": "C", "categoryCode": "36", "address": "1300 PRINCESS ROYAL AVE", "city": "NANAIMO", "province": "BC", "country": "CA", "postalCode": "V9S5J5", "twitter": "None", "instagram": "None", "facebook": "None", "youtube": "None", "website": "None", "summary": "None", "logo": "None", "latitude": 49.18349797596923, "longitude": -123.9527509427}, "804727147RR0001": {"name": "Generations Church Ltd.", "designationCode": "C", "categoryCode": "39", "address": "PO BOX  25073                 RPO COBBLESTONE", "city": "GRANDE PRAIRIE", "province": "AB", "country": "CA", "postalCode": "T8X0E9", "twitter": "None", "instagram": "None", "facebook": "None", "youtube": "None", "website": "None", "summary": "None", "logo": "None", "latitude": 55.16555000000005, "longitude": -118.76424999999995}, "811271733RR0001": {"name": "Generations Community Church", "designationCode": "C", "categoryCode": "45", "address": "PO BOX 71", "city": "WELLESLEY", "province": "ON", "country": "CA", "postalCode": "N0B2T0", "twitter": "None", "instagram": "None", "facebook": "None", "youtube": "None", "website": "None", "summary": "None", "logo": "None", "latitude": 43.473507000000055, "longitude": -80.75355649999993}, "839906443RR0001": {"name": "Generations Unleashed", "designationCode": "C", "categoryCode": "19", "address": "15 CORAL GABLES CRESCENT", "city": "ELMIRA", "province": "ON", "country": "CA", "postalCode": "N3B3P4", "twitter": "None", "instagram": "None", "facebook": "None", "youtube": "None", "website": "None", "summary": "None", "logo": "None", "latitude": 43.5982175323159, "longitude": -80.57569344907377}, "836849323RR0001": {"name": "Generis International for Sustainable Development", "designationCode": "C", "categoryCode": "09", "address": "341 BERRY STREET", "city": "SHELBURNE", "province": "ON", "country": "CA", "postalCode": "L9V3C1", "twitter": "None", "instagram": "None", "facebook": "None", "youtube": "None", "website": "None", "summary": "None", "logo": "None", "latitude": 44.088691590599716, "longitude": -80.19966785483874}, "131172116RR0001": {"name": "Generous Space Ministries", "designationCode": "C", "categoryCode": "49", "address": "PO BOX 20014                  RPO APPLEWOOD VILLAGE", "city": "MISSISSAUGA", "province": "ON", "country": "CA", "postalCode": "L4Y4L2", "twitter": "None", "instagram": "None", "facebook": "None", "youtube": "None", "website": "None", "summary": "None", "logo": "None", "latitude": 43.58690700000005, "longitude": -79.64535049999994}, "811578186RR0001": {"name": "Generously Giving Back Ltd.", "designationCode": "C", "categoryCode": "09", "address": "18116 - 101 ST", "city": "EDMONTON", "province": "AB", "country": "CA", "postalCode": "T5X6K1", "twitter": "None", "instagram": "None", "facebook": "None", "youtube": "None", "website": "None", "summary": "None", "logo": "None", "latitude": 53.64367814042941, "longitude": -113.49723526911512}, "818902819RR0001": {"name": "Genesis Christian Centre", "designationCode": "C", "categoryCode": "36", "address": "101 - 5170 DUNSTER RD", "city": "NANAIMO", "province": "BC", "country": "CA", "postalCode": "V9T6M4", "twitter": "None", "instagram": "None", "facebook": "None", "youtube": "None", "website": "None", "summary": "None", "logo": "None", "latitude": 49.213986444135436, "longitude": -124.03520869541961}, "845516491RR0001": {"name": "Genesis Christian Society", "designationCode": "C", "categoryCode": "39", "address": "PO BOX 2484                   ABBOTSFORD STATION A", "city": "ABBOTSFORD", "province": "BC", "country": "CA", "postalCode": "V2T6R3", "twitter": "None", "instagram": "None", "facebook": "None", "youtube": "None", "website": "None", "summary": "None", "logo": "None", "latitude": 49.05161700000005, "longitude": -122.32930399999994}, "812043982RR0001": {"name": "Genesis Community Church of Brant", "designationCode": "C", "categoryCode": "39", "address": "24 ROYAL OAK DR", "city": "BRANTFORD", "province": "ON", "country": "CA", "postalCode": "N3R7P3", "twitter": "None", "instagram": "None", "facebook": "None", "youtube": "None", "website": "None", "summary": "None", "logo": "None", "latitude": 43.182716795429755, "longitude": -80.27603741921072}, "790793525RR0001": {"name": "Genesis Gospel Church", "designationCode": "C", "categoryCode": "36", "address": "PO BOX 6646 STN MAIN", "city": "FORT MCMURRAY", "province": "AB", "country": "CA", "postalCode": "T9H5R3", "twitter": "None", "instagram": "None", "facebook": "None", "youtube": "None", "website": "None", "summary": "None", "logo": "None", "latitude": 56.72886017135369, "longitude": -111.38020385943572}, "859635211RR0001": {"name": "Genesis International Outreach Project", "designationCode": "C", "categoryCode": "09", "address": "276 FERRIE STREET EAST", "city": "HAMILTON", "province": "ON", "country": "CA", "postalCode": "L7L3T7", "twitter": "None", "instagram": "None", "facebook": "None", "youtube": "None", "website": "None", "summary": "None", "logo": "None", "latitude": 43.26602795141106, "longitude": -79.85197912559863}, "740180120RR0001": {"name": "Genesis Praise Center", "designationCode": "C", "categoryCode": "39", "address": "17 RUTHERFORD AVE", "city": "YORK", "province": "ON", "country": "CA", "postalCode": "M6M2C5", "twitter": "None", "instagram": "None", "facebook": "None", "youtube": "None", "website": "None", "summary": "None", "logo": "None", "latitude": 43.690391802094844, "longitude": -79.4963341470945}, "845787183RR0001": {"name": "Genesis Protestant Reformed School Society of Lacombe", "designationCode": "C", "categoryCode": "20", "address": "5940 60TH AVE. CLOSE", "city": "LACOMBE", "province": "AB", "country": "CA", "postalCode": "T4L1X8", "twitter": "None", "instagram": "None", "facebook": "None", "youtube": "None", "website": "None", "summary": "None", "logo": "None", "latitude": 52.4774745, "longitude": -113.74879624617428}, "712579325RR0001": {"name": "GenofCan Inc.", "designationCode": "A", "categoryCode": "13", "address": "69 CARRINGTON DRIVE", "city": "RICHMOND HILL", "province": "ON", "country": "CA", "postalCode": "L4C7Y1", "twitter": "None", "instagram": "None", "facebook": "None", "youtube": "None", "website": "None", "summary": "None", "logo": "None", "latitude": 43.86940676686478, "longitude": -79.45592684690423}, "837100288RR0001": {"name": "Gentle Rain Fellowship of Faith Society", "designationCode": "C", "categoryCode": "39", "address": "P.O. BOX 1958                 RPO VILLAGE MALL", "city": "ALDERGROVE", "province": "BC", "country": "CA", "postalCode": "V4W2Z7", "twitter": "None", "instagram": "None", "facebook": "None", "youtube": "None", "website": "None", "summary": "None", "logo": "None", "latitude": 49.05967200000005, "longitude": -122.49342349999993}, "814790036RR0001": {"name": "Gentle Road Church of Christ Inc.", "designationCode": "C", "categoryCode": "39", "address": "655 ARGYLE STREET", "city": "REGINA", "province": "SK", "country": "CA", "postalCode": "S4T3P5", "twitter": "None", "instagram": "None", "facebook": "None", "youtube": "None", "website": "None", "summary": "None", "logo": "None", "latitude": 50.4685257485429, "longitude": -104.63259035036667}, "836026658RR0001": {"name": "Gentle Shepherd Community Church Inc.", "designationCode": "C", "categoryCode": "39", "address": "870 GRANDAME STREET", "city": "FREDERICTON", "province": "NB", "country": "CA", "postalCode": "E3B3Z8", "twitter": "None", "instagram": "None", "facebook": "None", "youtube": "None", "website": "None", "summary": "None", "logo": "None", "latitude": 45.9451351887299, "longitude": -66.65066583068848}, "808926711RR0001": {"name": "Geomeer Charitable Society", "designationCode": "C", "categoryCode": "09", "address": "PO BOX 21009 RPO TERWILLEGAR", "city": "EDMONTON", "province": "AB", "country": "CA", "postalCode": "T6R2V4", "twitter": "None", "instagram": "None", "facebook": "None", "youtube": "None", "website": "None", "summary": "None", "logo": "None", "latitude": 53.44985681916009, "longitude": -113.5903634394251}, "817507320RR0001": {"name": "Geopolitical Economy Research and Education Trust", "designationCode": "C", "categoryCode": "21", "address": "177 YALE AVE", "city": "WINNIPEG", "province": "MB", "country": "CA", "postalCode": "R3M0L2", "twitter": "None", "instagram": "None", "facebook": "None", "youtube": "None", "website": "None", "summary": "None", "logo": "None", "latitude": 49.87039185541566, "longitude": -97.16697115127809}, "834401374RR0001": {"name": "George & Dianne Tidball Legacy Foundation", "designationCode": "B", "categoryCode": "03", "address": "24550 72 AVE", "city": "LANGLEY", "province": "BC", "country": "CA", "postalCode": "V1M3W8", "twitter": "None", "instagram": "None", "facebook": "None", "youtube": "None", "website": "None", "summary": "None", "logo": "None", "latitude": 49.1331476867131, "longitude": -122.54370016902834}, "835849910RR0001": {"name": "George Brown Memorial Foundation", "designationCode": "B", "categoryCode": "05", "address": "1102 - 75 ELLEN ST", "city": "BARRIE", "province": "ON", "country": "CA", "postalCode": "L4N7R6", "twitter": "None", "instagram": "None", "facebook": "None", "youtube": "None", "website": "None", "summary": "None", "logo": "None", "latitude": 44.37930871357261, "longitude": -79.69202234733692}, "843148917RR0001": {"name": "George Street Galt Gospel Trust", "designationCode": "C", "categoryCode": "43", "address": "43 KENMORE AVENUE", "city": "CAMBRIDGE", "province": "ON", "country": "CA", "postalCode": "N1S3H4", "twitter": "None", "instagram": "None", "facebook": "None", "youtube": "None", "website": "None", "summary": "None", "logo": "None", "latitude": 43.36799567747716, "longitude": -80.3321081281088}, "840027205RR0001": {"name": "Georgian Bay Cancer Support Centre", "designationCode": "C", "categoryCode": "11", "address": "15 JEFFERY STREET", "city": "PENETANGUISHENE", "province": "ON", "country": "CA", "postalCode": "L9M1K5", "twitter": "None", "instagram": "None", "facebook": "None", "youtube": "None", "website": "None", "summary": "None", "logo": "None", "latitude": 44.768039144306925, "longitude": -79.93039821512507}, "118797166RR0001": {"name": "Georgian Bay General Hospital Volunteer Association", "designationCode": "C", "categoryCode": "19", "address": "1112 ANDREW'S DR.", "city": "MIDLAND", "province": "ON", "country": "CA", "postalCode": "L4R4P4", "twitter": "None", "instagram": "None", "facebook": "None", "youtube": "None", "website": "None", "summary": "None", "logo": "None", "latitude": 44.741920562482555, "longitude": -79.91163464194832}, "836719906RR0001": {"name": "Georgian Heights Church of God in Christ Mennonite", "designationCode": "C", "categoryCode": "39", "address": "POST OFFICE BOX 3352", "city": "MEAFORD", "province": "ON", "country": "CA", "postalCode": "N4L1A5", "twitter": "None", "instagram": "None", "facebook": "None", "youtube": "None", "website": "None", "summary": "None", "logo": "None", "latitude": 44.60664300000006, "longitude": -80.59286149999993}, "858603152RR0001": {"name": "Georgian Triangle Earth Day Celebration", "designationCode": "C", "categoryCode": "52", "address": "103 - 150 SAINT PAUL ST", "city": "COLLINGWOOD", "province": "ON", "country": "CA", "postalCode": "L9Y3P2", "twitter": "None", "instagram": "None", "facebook": "None", "youtube": "None", "website": "None", "summary": "None", "logo": "None", "latitude": 44.50024998927352, "longitude": -80.21316004828438}, "868004185RR0001": {"name": "Georgian Triangle Humane Society", "designationCode": "C", "categoryCode": "54", "address": "549 TENTH LINE", "city": "COLLINGWOOD", "province": "ON", "country": "CA", "postalCode": "L9Y0W1", "twitter": "None", "instagram": "None", "facebook": "None", "youtube": "None", "website": "None", "summary": "None", "logo": "None", "latitude": 44.50237928642952, "longitude": -80.25118539660734}, "841631021RR0001": {"name": "Georgina Baptist Church", "designationCode": "C", "categoryCode": "31", "address": "49 CHARTWELL CRESCENT", "city": "KESWICK", "province": "ON", "country": "CA", "postalCode": "L4P3N8", "twitter": "None", "instagram": "None", "facebook": "None", "youtube": "None", "website": "None", "summary": "None", "logo": "None", "latitude": 44.244189357464485, "longitude": -79.4629894471692}, "859938169RR0001": {"name": "Georgina Trades Training Inc.", "designationCode": "C", "categoryCode": "20", "address": "POST OFFICE BOX 699", "city": "SUTTON", "province": "ON", "country": "CA", "postalCode": "L0E1R0", "twitter": "None", "instagram": "None", "facebook": "None", "youtube": "None", "website": "None", "summary": "None", "logo": "None", "latitude": 44.304850000000044, "longitude": -79.36126999999993}, "816280531RR0001": {"name": "Georgina Y. Baidoo Foundation Inc.", "designationCode": "B", "categoryCode": "09", "address": "411-504 UNIVERSITY PARK DRIVE", "city": "REGINA", "province": "SK", "country": "CA", "postalCode": "S4V3L8", "twitter": "None", "instagram": "None", "facebook": "None", "youtube": "None", "website": "None", "summary": "None", "logo": "None", "latitude": 50.44089964520561, "longitude": -104.54936277122358}, "804660611RR0001": {"name": "Gerald A. Cooper-Key Foundation", "designationCode": "A", "categoryCode": "03", "address": "404 SILVER VALLEY BLVD NW", "city": "CALGARY", "province": "AB", "country": "CA", "postalCode": "T3B4L8", "twitter": "None", "instagram": "None", "facebook": "None", "youtube": "None", "website": "None", "summary": "None", "logo": "None", "latitude": 51.1036244737723, "longitude": -114.20903382624509}, "887908663RR0001": {"name": "Gerald Sheff and Shanitha Kachan Charitable Foundation", "designationCode": "B", "categoryCode": "05", "address": "1104 - 22 ST CLAIR AVE E", "city": "TORONTO", "province": "ON", "country": "CA", "postalCode": "M4T2S3", "twitter": "None", "instagram": "None", "facebook": "None", "youtube": "None", "website": "None", "summary": "None", "logo": "None", "latitude": 43.690058011175346, "longitude": -79.38485244552025}, "802552919RR0001": {"name": "Gerba Fondation / Gerba Foundation", "designationCode": "B", "categoryCode": "21", "address": "4629 RUE LOUIS B MAYER        SUITE 201", "city": "LAVAL", "province": "QC", "country": "CA", "postalCode": "H7P6G5", "twitter": "None", "instagram": "None", "facebook": "None", "youtube": "None", "website": "None", "summary": "None", "logo": "None", "latitude": 45.56416587050704, "longitude": -73.79143315471713}, "843617580RR0001": {"name": "Germain Street United Baptist Church Inc.", "designationCode": "C", "categoryCode": "31", "address": "844 SAND COVE RD", "city": "SAINT JOHN", "province": "NB", "country": "CA", "postalCode": "E2M3E6", "twitter": "None", "instagram": "None", "facebook": "None", "youtube": "None", "website": "None", "summary": "None", "logo": "None", "latitude": 45.24680649653756, "longitude": -66.0920296902591}, "139462873RR0001": {"name": "German Language School", "designationCode": "C", "categoryCode": "20", "address": "527 EASTERN AVE", "city": "LIVELY", "province": "ON", "country": "CA", "postalCode": "P3Y1M9", "twitter": "None", "instagram": "None", "facebook": "None", "youtube": "None", "website": "None", "summary": "None", "logo": "None", "latitude": 46.43502235053956, "longitude": -81.1410380950431}}