{"119175636RR0002": {"name": "ST. GEORGE THE MARTYR CHURCH", "designationCode": "C", "categoryCode": "30", "address": "R.R. # 1                      425 JIM YOUNG ROAD", "city": "SOUTH RIVER", "province": "ON", "country": "CA", "postalCode": "P0A1P0", "twitter": "None", "instagram": "None", "facebook": "None", "youtube": "None", "website": "None", "summary": "None", "logo": "None", "latitude": 45.850391710197094, "longitude": -79.49662617583424}, "108019449RR0001": {"name": "ST. GEORGE UNITED BAPTIST CHURCH", "designationCode": "C", "categoryCode": "31", "address": "25 MAIN ST", "city": "ST GEORGE", "province": "NB", "country": "CA", "postalCode": "E5C3H9", "twitter": "None", "instagram": "None", "facebook": "None", "youtube": "None", "website": "None", "summary": "None", "logo": "None", "latitude": 45.13024981155857, "longitude": -66.82309963725541}, "108153297RR0001": {"name": "ST. GEORGE UNITED CHURCH", "designationCode": "C", "categoryCode": "44", "address": "BOX 280, 9 BEVERLY ST.", "city": "ST. GEORGE", "province": "ON", "country": "CA", "postalCode": "N0E1N0", "twitter": "None", "instagram": "None", "facebook": "None", "youtube": "None", "website": "None", "summary": "None", "logo": "None", "latitude": 43.24566961174883, "longitude": -80.25214973899227}, "128671849RR0001": {"name": "ST. GEORGE'S (ISLINGTON) CHURCH NURSERY SCHOOL INC.", "designationCode": "C", "categoryCode": "20", "address": "4600 DUNDAS ST WEST", "city": "ETOBICOKE", "province": "ON", "country": "CA", "postalCode": "M9A1A5", "twitter": "None", "instagram": "None", "facebook": "None", "youtube": "None", "website": "None", "summary": "None", "logo": "None", "latitude": 43.65668553124803, "longitude": -79.52097189122266}, "106713753RR0015": {"name": "ST. GEORGE'S ANGLICAN CHURCH", "designationCode": "C", "categoryCode": "30", "address": "308 ROYAL AVE", "city": "KAMLOOPS", "province": "BC", "country": "CA", "postalCode": "V2B3P5", "twitter": "None", "instagram": "None", "facebook": "None", "youtube": "None", "website": "None", "summary": "None", "logo": "None", "latitude": 50.686400534566246, "longitude": -120.35962157839468}, "108018847RR0001": {"name": "ST. GEORGE'S ANGLICAN CHURCH", "designationCode": "C", "categoryCode": "30", "address": "2523 56 STREET NE", "city": "CALGARY", "province": "AB", "country": "CA", "postalCode": "T1Y6E7", "twitter": "None", "instagram": "None", "facebook": "None", "youtube": "None", "website": "None", "summary": "None", "logo": "None", "latitude": 51.07466059838998, "longitude": -113.95265704261634}, "108018854RR0002": {"name": "ST. GEORGE'S ANGLICAN CHURCH", "designationCode": "C", "categoryCode": "30", "address": "11733 87 AVE NW", "city": "EDMONTON", "province": "AB", "country": "CA", "postalCode": "T6G0Y4", "twitter": "None", "instagram": "None", "facebook": "None", "youtube": "None", "website": "None", "summary": "None", "logo": "None", "latitude": 53.522796532315894, "longitude": -113.533353}, "108019001RR0002": {"name": "ST. GEORGE'S ANGLICAN CHURCH", "designationCode": "C", "categoryCode": "30", "address": "10029 - 99 AVENUE", "city": "FORT SASKATCHEWAN", "province": "AB", "country": "CA", "postalCode": "T8L1R6", "twitter": "None", "instagram": "None", "facebook": "None", "youtube": "None", "website": "None", "summary": "None", "logo": "None", "latitude": 53.709210774366596, "longitude": -113.21451189278147}, "119174415RR0001": {"name": "ST. GEORGE'S ANGLICAN CHURCH", "designationCode": "C", "categoryCode": "30", "address": "1104-4TH ST. EAST", "city": "PRINCE ALBERT", "province": "SK", "country": "CA", "postalCode": "S6V0L2", "twitter": "None", "instagram": "None", "facebook": "None", "youtube": "None", "website": "None", "summary": "None", "logo": "None", "latitude": 53.20740439497359, "longitude": -105.71854697570554}, "119174431RR0002": {"name": "ST. GEORGE'S ANGLICAN CHURCH", "designationCode": "C", "categoryCode": "30", "address": "1 ST CLAIR ST", "city": "DEVON", "province": "AB", "country": "CA", "postalCode": "T9G1J3", "twitter": "None", "instagram": "None", "facebook": "None", "youtube": "None", "website": "None", "summary": "None", "logo": "None", "latitude": 53.363817031363624, "longitude": -113.7247880005196}, "119175156RR0002": {"name": "ST. GEORGE'S ANGLICAN CHURCH", "designationCode": "C", "categoryCode": "30", "address": "1011 - 5TH ST.", "city": "BRANDON", "province": "MB", "country": "CA", "postalCode": "R7A3M1", "twitter": "None", "instagram": "None", "facebook": "None", "youtube": "None", "website": "None", "summary": "None", "logo": "None", "latitude": 49.83467345212477, "longitude": -99.94454789794459}, "132073388RR0002": {"name": "ST. GEORGE'S ANGLICAN CHURCH", "designationCode": "C", "categoryCode": "30", "address": "PO BOX 452", "city": "OWEN SOUND", "province": "ON", "country": "CA", "postalCode": "N4K5P7", "twitter": "None", "instagram": "None", "facebook": "None", "youtube": "None", "website": "None", "summary": "None", "logo": "None", "latitude": 44.56423500000005, "longitude": -80.94243049999993}, "108099771RR0058": {"name": "ST. GEORGE'S ANGLICAN CHURCH, LOWVILLE", "designationCode": "C", "categoryCode": "30", "address": "RR 3                          7051 GUELPH LINE", "city": "CAMPBELLVILLE", "province": "ON", "country": "CA", "postalCode": "L0P1B0", "twitter": "None", "instagram": "None", "facebook": "None", "youtube": "None", "website": "None", "summary": "None", "logo": "None", "latitude": 43.448323816030644, "longitude": -79.92874978423433}, "119174514RR0001": {"name": "ST. GEORGE'S BENEVOLENT SOCIETY OF HAMILTON CHARITABLE TRUST", "designationCode": "C", "categoryCode": "05", "address": "25 SUNRISE CRES.", "city": "DUNDAS", "province": "ON", "country": "CA", "postalCode": "L9H3S1", "twitter": "None", "instagram": "None", "facebook": "None", "youtube": "None", "website": "None", "summary": "None", "logo": "None", "latitude": 43.25579401584037, "longitude": -79.96205731877193}, "119174530RR0001": {"name": "ST. GEORGE'S CATHEDRAL", "designationCode": "C", "categoryCode": "30", "address": "P O BOX 475", "city": "KINGSTON", "province": "ON", "country": "CA", "postalCode": "K7L4W5", "twitter": "None", "instagram": "None", "facebook": "None", "youtube": "None", "website": "None", "summary": "None", "logo": "None", "latitude": 44.23153200000006, "longitude": -76.47933049999993}, "893354167RR0001": {"name": "ST. GEORGE'S CHAPEL (PROTESTANT)", "designationCode": "C", "categoryCode": "39", "address": "CFB PETAWAWA", "city": "PETAWAWA", "province": "ON", "country": "CA", "postalCode": "K8H2X3", "twitter": "None", "instagram": "None", "facebook": "None", "youtube": "None", "website": "None", "summary": "None", "logo": "None", "latitude": 45.909910000000025, "longitude": -77.28948999999994}, "107909939RR0040": {"name": "ST. GEORGE'S CHURCH", "designationCode": "C", "categoryCode": "38", "address": "BOX 1299", "city": "HANNA", "province": "AB", "country": "CA", "postalCode": "T0J1P0", "twitter": "None", "instagram": "None", "facebook": "None", "youtube": "None", "website": "None", "summary": "None", "logo": "None", "latitude": 51.64780345530559, "longitude": -111.93814762829588}, "108019357RR0001": {"name": "ST. GEORGE'S CHURCH", "designationCode": "C", "categoryCode": "38", "address": "42 LVIV BLVD", "city": "OSHAWA", "province": "ON", "country": "CA", "postalCode": "L1H3C3", "twitter": "None", "instagram": "None", "facebook": "None", "youtube": "None", "website": "None", "summary": "None", "logo": "None", "latitude": 43.88224243437101, "longitude": -78.85493757591034}, "108084658RR0063": {"name": "ST. GEORGE'S CHURCH", "designationCode": "C", "categoryCode": "30", "address": "176 SHERRIFF ST.,             BOX 191", "city": "FITZROY HARBOUR", "province": "ON", "country": "CA", "postalCode": "K0A1X0", "twitter": "None", "instagram": "None", "facebook": "None", "youtube": "None", "website": "None", "summary": "None", "logo": "None", "latitude": 45.47100000000006, "longitude": -76.21540999999996}, "108084658RR0077": {"name": "ST. GEORGE'S CHURCH", "designationCode": "C", "categoryCode": "30", "address": "111 RUE BROADWAY E", "city": "GATINEAU", "province": "QC", "country": "CA", "postalCode": "J8P3V4", "twitter": "None", "instagram": "None", "facebook": "None", "youtube": "None", "website": "None", "summary": "None", "logo": "None", "latitude": 45.48462334390314, "longitude": -75.64946794004274}, "108084658RR0102": {"name": "ST. GEORGE'S CHURCH", "designationCode": "C", "categoryCode": "30", "address": "1173 VICTORIA STREET", "city": "PETAWAWA", "province": "ON", "country": "CA", "postalCode": "K8H2E6", "twitter": "None", "instagram": "None", "facebook": "None", "youtube": "None", "website": "None", "summary": "None", "logo": "None", "latitude": 45.90040337838164, "longitude": -77.27275656922892}, "108099771RR0003": {"name": "ST. GEORGE'S CHURCH", "designationCode": "C", "categoryCode": "30", "address": "83 CHURCH STREET", "city": "ST CATHARINES", "province": "ON", "country": "CA", "postalCode": "L2R3C7", "twitter": "None", "instagram": "None", "facebook": "None", "youtube": "None", "website": "None", "summary": "None", "logo": "None", "latitude": 43.16125934557656, "longitude": -79.2458372408386}, "108099771RR0011": {"name": "ST. GEORGE'S CHURCH", "designationCode": "C", "categoryCode": "30", "address": "163 QUEENSTON RD", "city": "NIAGARA ON THE LAKE", "province": "ON", "country": "CA", "postalCode": "L0S1J0", "twitter": "None", "instagram": "None", "facebook": "None", "youtube": "None", "website": "None", "summary": "None", "logo": "None", "latitude": 43.16467075823777, "longitude": -79.17807739814756}, "108099771RR0016": {"name": "ST. GEORGE'S CHURCH", "designationCode": "C", "categoryCode": "30", "address": "35 YOUNG ST.W. PO BOX 451", "city": "HARRISTON", "province": "ON", "country": "CA", "postalCode": "N0G1Z0", "twitter": "None", "instagram": "None", "facebook": "None", "youtube": "None", "website": "None", "summary": "None", "logo": "None", "latitude": 43.91011550706914, "longitude": -80.86840108990721}, "108099771RR0020": {"name": "ST. GEORGE'S CHURCH", "designationCode": "C", "categoryCode": "30", "address": "60 GUELPH ST", "city": "GEORGETOWN", "province": "ON", "country": "CA", "postalCode": "L7G3Z5", "twitter": "None", "instagram": "None", "facebook": "None", "youtube": "None", "website": "None", "summary": "None", "logo": "None", "latitude": 43.651166548907014, "longitude": -79.92195464132438}, "108099771RR0024": {"name": "ST. GEORGE'S CHURCH", "designationCode": "C", "categoryCode": "30", "address": "99 WOOLWICH ST", "city": "GUELPH", "province": "ON", "country": "CA", "postalCode": "N1H3V1", "twitter": "None", "instagram": "None", "facebook": "None", "youtube": "None", "website": "None", "summary": "None", "logo": "None", "latitude": 43.54759029672781, "longitude": -80.24860911238402}, "119109791RR0017": {"name": "ST. GEORGE'S CHURCH", "designationCode": "C", "categoryCode": "38", "address": "BOX 300", "city": "CRYSTAL BEACH", "province": "ON", "country": "CA", "postalCode": "L0S1B0", "twitter": "None", "instagram": "None", "facebook": "None", "youtube": "None", "website": "None", "summary": "None", "logo": "None", "latitude": 42.86278293157128, "longitude": -79.05396010264306}, "119174662RR0002": {"name": "ST. GEORGE'S CHURCH", "designationCode": "C", "categoryCode": "30", "address": "1101 STANLEY ST", "city": "MONTREAL", "province": "QC", "country": "CA", "postalCode": "H3B2S6", "twitter": "None", "instagram": "None", "facebook": "None", "youtube": "None", "website": "None", "summary": "None", "logo": "None", "latitude": 45.49748609383102, "longitude": -73.56962851038736}, "119174688RR0001": {"name": "ST. GEORGE'S CHURCH", "designationCode": "C", "categoryCode": "30", "address": "BOX 88, 15 DE L'AIGLON", "city": "STE-CATHERINE-DE-HATLEY", "province": "QC", "country": "CA", "postalCode": "J0B1W0", "twitter": "None", "instagram": "None", "facebook": "None", "youtube": "None", "website": "None", "summary": "None", "logo": "None", "latitude": 45.19812300000005, "longitude": -72.02162149999994}, "119174704RR0002": {"name": "ST. GEORGE'S CHURCH", "designationCode": "C", "categoryCode": "30", "address": "1710 RUE DU LAC", "city": "CLARENCEVILLE", "province": "QC", "country": "CA", "postalCode": "J0J1B0", "twitter": "None", "instagram": "None", "facebook": "None", "youtube": "None", "website": "None", "summary": "None", "logo": "None", "latitude": 45.046487517312244, "longitude": -73.17418144310116}, "119174738RR0002": {"name": "ST. GEORGE'S CHURCH", "designationCode": "C", "categoryCode": "30", "address": "130  PRINCIPALE", "city": "GRANBY", "province": "QC", "country": "CA", "postalCode": "J2G2V2", "twitter": "None", "instagram": "None", "facebook": "None", "youtube": "None", "website": "None", "summary": "None", "logo": "None", "latitude": 45.39900249371027, "longitude": -72.72460074150244}, "119174779RR0001": {"name": "ST. GEORGE'S CHURCH", "designationCode": "C", "categoryCode": "39", "address": "BOX 218                       38 BRIDGE STREET", "city": "HASTINGS", "province": "ON", "country": "CA", "postalCode": "K0L1Y0", "twitter": "None", "instagram": "None", "facebook": "None", "youtube": "None", "website": "None", "summary": "None", "logo": "None", "latitude": 45.055833482687746, "longitude": -77.85572522023772}, "119174795RR0001": {"name": "ST. GEORGE'S CHURCH", "designationCode": "C", "categoryCode": "30", "address": "PO BOX 92", "city": "HALIBURTON", "province": "ON", "country": "CA", "postalCode": "K0M1S0", "twitter": "None", "instagram": "None", "facebook": "None", "youtube": "None", "website": "None", "summary": "None", "logo": "None", "latitude": 45.24560095765924, "longitude": -78.57868961447684}, "119174837RR0001": {"name": "ST. GEORGE'S CHURCH", "designationCode": "C", "categoryCode": "30", "address": "14 ASHBURTON CRES", "city": "ANGUS", "province": "ON", "country": "CA", "postalCode": "L0M1B0", "twitter": "None", "instagram": "None", "facebook": "None", "youtube": "None", "website": "None", "summary": "None", "logo": "None", "latitude": 44.31281216515656, "longitude": -79.87772906869982}, "119174878RR0001": {"name": "ST. GEORGE'S CHURCH", "designationCode": "C", "categoryCode": "30", "address": "77 RANDALL DR", "city": "AJAX", "province": "ON", "country": "CA", "postalCode": "L1S6L4", "twitter": "None", "instagram": "None", "facebook": "None", "youtube": "None", "website": "None", "summary": "None", "logo": "None", "latitude": 43.852995388279815, "longitude": -79.05758905831246}, "119175115RR0001": {"name": "ST. GEORGE'S CHURCH", "designationCode": "C", "categoryCode": "39", "address": "PO BOX 88", "city": "WESTBOURNE", "province": "MB", "country": "CA", "postalCode": "R0H1P0", "twitter": "None", "instagram": "None", "facebook": "None", "youtube": "None", "website": "None", "summary": "None", "logo": "None", "latitude": 50.13037000000003, "longitude": -98.58095999999995}, "119175149RR0002": {"name": "ST. GEORGE'S CHURCH", "designationCode": "C", "categoryCode": "30", "address": "168 WILTON ST", "city": "WINNIPEG", "province": "MB", "country": "CA", "postalCode": "R3M3C3", "twitter": "None", "instagram": "None", "facebook": "None", "youtube": "None", "website": "None", "summary": "None", "logo": "None", "latitude": 49.86812852011087, "longitude": -97.16958811174885}, "119175180RR0001": {"name": "ST. GEORGE'S CHURCH", "designationCode": "C", "categoryCode": "30", "address": "PO BOX 188", "city": "LOON LAKE", "province": "SK", "country": "CA", "postalCode": "S0M1L0", "twitter": "None", "instagram": "None", "facebook": "None", "youtube": "None", "website": "None", "summary": "None", "logo": "None", "latitude": 53.8842735, "longitude": -109.57983525}, "848445169RR0001": {"name": "ST. GEORGE'S CHURCH", "designationCode": "C", "categoryCode": "38", "address": "PO BOX 190", "city": "ASSINIBOIA", "province": "SK", "country": "CA", "postalCode": "S0H0B0", "twitter": "None", "instagram": "None", "facebook": "None", "youtube": "None", "website": "None", "summary": "None", "logo": "None", "latitude": 49.63287300000006, "longitude": -105.99348049999993}, "870000049RR0001": {"name": "ST. GEORGE'S CHURCH", "designationCode": "C", "categoryCode": "30", "address": "23 PERRAULT AVE.", "city": "STE-ANNE DE BELLEUVE", "province": "QC", "country": "CA", "postalCode": "H9X2C6", "twitter": "None", "instagram": "None", "facebook": "None", "youtube": "None", "website": "None", "summary": "None", "logo": "None", "latitude": 45.4046321626464, "longitude": -73.9464743606098}, "873208896RR0001": {"name": "ST. GEORGE'S CHURCH", "designationCode": "C", "categoryCode": "30", "address": "6310 ST MARGARET'S BAY RD", "city": "HEAD OF ST MARGARETS BAY", "province": "NS", "country": "CA", "postalCode": "B3Z2B6", "twitter": "None", "instagram": "None", "facebook": "None", "youtube": "None", "website": "None", "summary": "None", "logo": "None", "latitude": 44.67991911959738, "longitude": -63.92084391378637}, "891744849RR0002": {"name": "ST. GEORGE'S CHURCH", "designationCode": "C", "categoryCode": "30", "address": "1905 MANITOBA ST              RR#2", "city": "BRACEBRIDGE", "province": "ON", "country": "CA", "postalCode": "P1L1W9", "twitter": "None", "instagram": "None", "facebook": "None", "youtube": "None", "website": "None", "summary": "None", "logo": "None", "latitude": 45.08271159091684, "longitude": -79.3399919788222}, "119174548RR0001": {"name": "ST. GEORGE'S CHURCH ALLANDALE", "designationCode": "C", "categoryCode": "30", "address": "9 GRANVILLE ST", "city": "BARRIE", "province": "ON", "country": "CA", "postalCode": "L4N3K1", "twitter": "None", "instagram": "None", "facebook": "None", "youtube": "None", "website": "None", "summary": "None", "logo": "None", "latitude": 44.37137401011218, "longitude": -79.6907989233262}, "119174555RR0002": {"name": "ST. GEORGE'S CHURCH CHATEAUGUAY", "designationCode": "C", "categoryCode": "30", "address": "162 ST FRANCIS BLVD", "city": "CHATEAUGUAY", "province": "QC", "country": "CA", "postalCode": "J6J1Y7", "twitter": "None", "instagram": "None", "facebook": "None", "youtube": "None", "website": "None", "summary": "None", "logo": "None", "latitude": 45.36792761945315, "longitude": -73.73588724730216}, "119174563RR0001": {"name": "ST. GEORGE'S CHURCH FAIRVALLEY", "designationCode": "C", "categoryCode": "30", "address": "6 WHISTLER PL                 RR #2", "city": "COLDWATER", "province": "ON", "country": "CA", "postalCode": "L0K1E0", "twitter": "None", "instagram": "None", "facebook": "None", "youtube": "None", "website": "None", "summary": "None", "logo": "None", "latitude": 44.65724926060369, "longitude": -79.58169062069297}, "108084658RR0066": {"name": "ST. GEORGE'S CHURCH WABA", "designationCode": "C", "categoryCode": "30", "address": "140 MILTON STEWART AVE", "city": "MCNAB BRAESIDE", "province": "ON", "country": "CA", "postalCode": "K7S0E1", "twitter": "None", "instagram": "None", "facebook": "None", "youtube": "None", "website": "None", "summary": "None", "logo": "None", "latitude": 45.44471399114187, "longitude": -76.51242129707454}, "119175321RR0001": {"name": "ST. GEORGE'S GREEK CATHOLIC CHURCH", "designationCode": "C", "categoryCode": "38", "address": "PO BOX 522", "city": "COURTLAND", "province": "ON", "country": "CA", "postalCode": "N0J1E0", "twitter": "None", "instagram": "None", "facebook": "None", "youtube": "None", "website": "None", "summary": "None", "logo": "None", "latitude": 38.330820000000074, "longitude": -121.57087999999999}, "119175339RR0001": {"name": "ST. GEORGE'S GREEK ORTHODOX CHURCH", "designationCode": "C", "categoryCode": "39", "address": "38 PURCELL'S COVE RD", "city": "HALIFAX", "province": "NS", "country": "CA", "postalCode": "B3N1R4", "twitter": "None", "instagram": "None", "facebook": "None", "youtube": "None", "website": "None", "summary": "None", "logo": "None", "latitude": 44.6346431018811, "longitude": -63.619070011339645}, "870030806RR0001": {"name": "ST. GEORGE'S HERITAGE COMMITTEE INC.", "designationCode": "C", "categoryCode": "52", "address": "P.O. BOX 262", "city": "BRIGUS", "province": "NL", "country": "CA", "postalCode": "A0A1K0", "twitter": "None", "instagram": "None", "facebook": "None", "youtube": "None", "website": "None", "summary": "None", "logo": "None", "latitude": 47.11258447559277, "longitude": -52.892937929567815}, "119175354RR0001": {"name": "ST. GEORGE'S LUTHERAN CHURCH", "designationCode": "C", "categoryCode": "32", "address": "410 COLLEGE ST", "city": "TORONTO", "province": "ON", "country": "CA", "postalCode": "M5T1S8", "twitter": "None", "instagram": "None", "facebook": "None", "youtube": "None", "website": "None", "summary": "None", "logo": "None", "latitude": 43.656765252870734, "longitude": -79.40639840437997}, "119175362RR0001": {"name": "ST. GEORGE'S MACEDONO-BULGARIAN EASTERN ORTHODOX CHURCH", "designationCode": "C", "categoryCode": "39", "address": "17 REGENT STREET", "city": "TORONTO", "province": "ON", "country": "CA", "postalCode": "M5A3N4", "twitter": "None", "instagram": "None", "facebook": "None", "youtube": "None", "website": "None", "summary": "None", "logo": "None", "latitude": 43.65779961532688, "longitude": -79.3636704452942}, "119175396RR0001": {"name": "ST. GEORGE'S MEMORIAL FUND INC.", "designationCode": "A", "categoryCode": "43", "address": "168 WILTON ST", "city": "WINNIPEG", "province": "MB", "country": "CA", "postalCode": "R3M3C3", "twitter": "None", "instagram": "None", "facebook": "None", "youtube": "None", "website": "None", "summary": "None", "logo": "None", "latitude": 49.86812852011087, "longitude": -97.16958811174885}, "107020331RR0054": {"name": "ST. GEORGE'S PARISH", "designationCode": "C", "categoryCode": "38", "address": "172 WALLACE COVE RD", "city": "BLACKS HARBOUR", "province": "NB", "country": "CA", "postalCode": "E5H1H1", "twitter": "None", "instagram": "None", "facebook": "None", "youtube": "None", "website": "None", "summary": "None", "logo": "None", "latitude": 45.052216896388146, "longitude": -66.79074098283104}, "119109817RR0117": {"name": "ST. GEORGE'S PARISH", "designationCode": "C", "categoryCode": "38", "address": "1164 COMMISSIONERS RD W", "city": "LONDON", "province": "ON", "country": "CA", "postalCode": "N6K1C7", "twitter": "None", "instagram": "None", "facebook": "None", "youtube": "None", "website": "None", "summary": "None", "logo": "None", "latitude": 42.95800697636936, "longitude": -81.32660057412417}, "106880107RR0042": {"name": "ST. GEORGE'S PARISH, LAKEVALE", "designationCode": "C", "categoryCode": "38", "address": "4404 HWY 337", "city": "LAKEVALE ANTIGONISH", "province": "NS", "country": "CA", "postalCode": "B2G2L2", "twitter": "None", "instagram": "None", "facebook": "None", "youtube": "None", "website": "None", "summary": "None", "logo": "None", "latitude": 45.78312798664927, "longitude": -61.91933316160083}, "108019217RR0001": {"name": "ST. GEORGE'S PRESBYTERIAN CHURCH", "designationCode": "C", "categoryCode": "37", "address": "PO BOX 212", "city": "RIVER JOHN", "province": "NS", "country": "CA", "postalCode": "B0K1N0", "twitter": "None", "instagram": "None", "facebook": "None", "youtube": "None", "website": "None", "summary": "None", "logo": "None", "latitude": 45.71633084188482, "longitude": -62.89386615532279}, "860572783RR0001": {"name": "ST. GEORGE'S PUBLIC SCHOOL FOUNDATION", "designationCode": "C", "categoryCode": "21", "address": "782 WATERLOO STREET", "city": "LONDON", "province": "ON", "country": "CA", "postalCode": "N6A3W4", "twitter": "None", "instagram": "None", "facebook": "None", "youtube": "None", "website": "None", "summary": "None", "logo": "None", "latitude": 42.998038856800655, "longitude": -81.24876132439876}, "895610780RR0001": {"name": "ST. GEORGE'S REFORMED EPISCOPAL CHURCH", "designationCode": "C", "categoryCode": "39", "address": "134 EMERSON ST", "city": "HAMILTON", "province": "ON", "country": "CA", "postalCode": "L8S2X8", "twitter": "None", "instagram": "None", "facebook": "None", "youtube": "None", "website": "None", "summary": "None", "logo": "None", "latitude": 43.25386540827511, "longitude": -79.92140123232717}, "812247005RR0001": {"name": "ST. GEORGE'S ROMAN CATHOLIC PARISH INC.", "designationCode": "C", "categoryCode": "38", "address": "RR #1", "city": "CARDIGAN", "province": "PE", "country": "CA", "postalCode": "C0A1G0", "twitter": "None", "instagram": "None", "facebook": "None", "youtube": "None", "website": "None", "summary": "None", "logo": "None", "latitude": 46.410999152731904, "longitude": -62.57920248076298}, "119175487RR0001": {"name": "ST. GEORGE'S ROMANIAN ORTHODOX CATHEDRAL", "designationCode": "C", "categoryCode": "39", "address": "1960 TECUMSEH RD EAST", "city": "WINDSOR", "province": "ON", "country": "CA", "postalCode": "N8W1E1", "twitter": "None", "instagram": "None", "facebook": "None", "youtube": "None", "website": "None", "summary": "None", "logo": "None", "latitude": 42.30153619069178, "longitude": -82.99879734277795}, "119175495RR0001": {"name": "ST. GEORGE'S ROMANIAN ORTHODOX CHURCH (TORONTO) INC.", "designationCode": "C", "categoryCode": "39", "address": "247 ROSETHORN AVE", "city": "TORONTO", "province": "ON", "country": "CA", "postalCode": "M6M3K9", "twitter": "None", "instagram": "None", "facebook": "None", "youtube": "None", "website": "None", "summary": "None", "logo": "None", "latitude": 43.68376431141435, "longitude": -79.46490056477602}, "119175503RR0001": {"name": "ST. GEORGE'S ROMANIAN ORTHODOX PARISH", "designationCode": "C", "categoryCode": "39", "address": "121 HARVARD AVE EAST", "city": "WINNIPEG", "province": "MB", "country": "CA", "postalCode": "R2C0L9", "twitter": "None", "instagram": "None", "facebook": "None", "youtube": "None", "website": "None", "summary": "None", "logo": "None", "latitude": 49.89905045325739, "longitude": -97.000821}, "108019282RR0001": {"name": "ST. GEORGE'S SCHOOL", "designationCode": "C", "categoryCode": "20", "address": "4175 29TH AVE W", "city": "VANCOUVER", "province": "BC", "country": "CA", "postalCode": "V6S1V6", "twitter": "None", "instagram": "None", "facebook": "None", "youtube": "None", "website": "None", "summary": "None", "logo": "None", "latitude": 49.246985487339444, "longitude": -123.20017957034143}, "119175529RR0001": {"name": "ST. GEORGE'S SCHOOL OF MONTREAL INC.", "designationCode": "C", "categoryCode": "20", "address": "3100 THE BOULEVARD", "city": "MONTREAL", "province": "QC", "country": "CA", "postalCode": "H3Y1R9", "twitter": "None", "instagram": "None", "facebook": "None", "youtube": "None", "website": "None", "summary": "None", "logo": "None", "latitude": 45.49418593318002, "longitude": -73.5969547549631}, "119175560RR0001": {"name": "ST. GEORGE'S SOCIETY OF TORONTO CHARITABLE TRUST FUND", "designationCode": "C", "categoryCode": "09", "address": "50 BALDWIN STREET             SUITE 306", "city": "TORONTO", "province": "ON", "country": "CA", "postalCode": "M5T1L4", "twitter": "None", "instagram": "None", "facebook": "None", "youtube": "None", "website": "None", "summary": "None", "logo": "None", "latitude": 43.65563021622701, "longitude": -79.39536851041602}, "108019407RR0001": {"name": "ST. GEORGE'S UNITED CHURCH", "designationCode": "C", "categoryCode": "44", "address": "505-6TH ST", "city": "COURTENAY", "province": "BC", "country": "CA", "postalCode": "V9N1M5", "twitter": "None", "instagram": "None", "facebook": "None", "youtube": "None", "website": "None", "summary": "None", "logo": "None", "latitude": 49.68923093366467, "longitude": -125.00105086342722}, "119175610RR0001": {"name": "ST. GEORGE'S WAKEFIELD ANGLICAN CHURCH", "designationCode": "C", "categoryCode": "30", "address": "PO BOX 219", "city": "CLANDEBOYE", "province": "MB", "country": "CA", "postalCode": "R0C0P0", "twitter": "None", "instagram": "None", "facebook": "None", "youtube": "None", "website": "None", "summary": "None", "logo": "None", "latitude": 50.24056236956417, "longitude": -96.97296586585428}, "108018904RR0001": {"name": "ST. GEORGE'S-IN-THE-PINES ANGLICAN CHURCH OF CANADA", "designationCode": "C", "categoryCode": "30", "address": "BOX 309", "city": "BANFF", "province": "AB", "country": "CA", "postalCode": "T1L1A4", "twitter": "None", "instagram": "None", "facebook": "None", "youtube": "None", "website": "None", "summary": "None", "logo": "None", "latitude": 51.17577900000006, "longitude": -115.57274299999993}, "889288080RR0001": {"name": "ST. GEORGES AND ST. ANTHONY COPTIC ORTHODOX CHURCH OF OTTAWA", "designationCode": "C", "categoryCode": "39", "address": "1081 CADBORO RD", "city": "GLOUCESTER", "province": "ON", "country": "CA", "postalCode": "K1J7T8", "twitter": "None", "instagram": "None", "facebook": "None", "youtube": "None", "website": "None", "summary": "None", "logo": "None", "latitude": 45.43271886652417, "longitude": -75.62185052461251}, "119174357RR0001": {"name": "ST. GEORGES ANGLICAN CEMETERY LONDON TOWNSHIP", "designationCode": "C", "categoryCode": "59", "address": "11765 PETTY ST", "city": "AILSA CRAIG", "province": "ON", "country": "CA", "postalCode": "N0M1A0", "twitter": "None", "instagram": "None", "facebook": "None", "youtube": "None", "website": "None", "summary": "None", "logo": "None", "latitude": 43.13775435772427, "longitude": -81.53653872044113}, "119174423RR0001": {"name": "ST. GEORGES ANGLICAN CHURCH", "designationCode": "C", "categoryCode": "30", "address": "624 AVENUE I SOUTH", "city": "SASKATOON", "province": "SK", "country": "CA", "postalCode": "S7M1Y8", "twitter": "None", "instagram": "None", "facebook": "None", "youtube": "None", "website": "None", "summary": "None", "logo": "None", "latitude": 52.12063841909517, "longitude": -106.68294723226985}, "119175511RR0001": {"name": "ST. GEORGES SCHOOL FOUNDATION", "designationCode": "A", "categoryCode": "23", "address": "4175 29TH AVE W", "city": "VANCOUVER", "province": "BC", "country": "CA", "postalCode": "V6S1V1", "twitter": "None", "instagram": "None", "facebook": "None", "youtube": "None", "website": "None", "summary": "None", "logo": "None", "latitude": 49.246985487339444, "longitude": -123.20017957034143}, "119174340RR0001": {"name": "ST. GEORGES' ANGLICAN CEMETERY CLAYTON", "designationCode": "C", "categoryCode": "59", "address": "GENERAL DELIVERY", "city": "CLAYTON", "province": "ON", "country": "CA", "postalCode": "K0A1P0", "twitter": "None", "instagram": "None", "facebook": "None", "youtube": "None", "website": "None", "summary": "None", "logo": "None", "latitude": 45.2115736191322, "longitude": -76.27480115929175}, "107876476RR0032": {"name": "ST. GERARD MAJELLA CHURCH", "designationCode": "C", "categoryCode": "38", "address": "211 PENTAGON BLVD.", "city": "SAULT STE MARIE", "province": "ON", "country": "CA", "postalCode": "P6B5J4", "twitter": "None", "instagram": "None", "facebook": "None", "youtube": "None", "website": "None", "summary": "None", "logo": "None", "latitude": 46.528388054157546, "longitude": -84.30003237096756}, "108019464RR0001": {"name": "ST. GERARD PARISH", "designationCode": "C", "categoryCode": "38", "address": "45 FOSTER ST", "city": "WINNIPEG", "province": "MB", "country": "CA", "postalCode": "R2L1V8", "twitter": "None", "instagram": "None", "facebook": "None", "youtube": "None", "website": "None", "summary": "None", "logo": "None", "latitude": 49.90397021842005, "longitude": -97.0920754671941}, "119175685RR0001": {"name": "ST. GERARD SCHOOL INC.", "designationCode": "C", "categoryCode": "20", "address": "40 FOSTER ST", "city": "WINNIPEG", "province": "MB", "country": "CA", "postalCode": "R2L1V7", "twitter": "None", "instagram": "None", "facebook": "None", "youtube": "None", "website": "None", "summary": "None", "logo": "None", "latitude": 49.9039707305095, "longitude": -97.09215952891076}, "119175693RR0001": {"name": "ST. GERARD'S CHURCH", "designationCode": "C", "categoryCode": "38", "address": "125 THIRD AVE N", "city": "YORKTON", "province": "SK", "country": "CA", "postalCode": "S3N1C4", "twitter": "None", "instagram": "None", "facebook": "None", "youtube": "None", "website": "None", "summary": "None", "logo": "None", "latitude": 51.214707000000004, "longitude": -102.45995861431726}, "107909939RR0019": {"name": "ST. GERARDS PARISH", "designationCode": "C", "categoryCode": "38", "address": "8944 ELBOW DRIVE S W", "city": "CALGARY", "province": "AB", "country": "CA", "postalCode": "T2V1L2", "twitter": "None", "instagram": "None", "facebook": "None", "youtube": "None", "website": "None", "summary": "None", "logo": "None", "latitude": 50.97397387898897, "longitude": -114.08446950066383}, "107585515RR0012": {"name": "ST. GERTRUDE PARISH", "designationCode": "C", "categoryCode": "38", "address": "CP 700", "city": "SMOOTH ROCK FALLS", "province": "ON", "country": "CA", "postalCode": "P0L2B0", "twitter": "None", "instagram": "None", "facebook": "None", "youtube": "None", "website": "None", "summary": "None", "logo": "None", "latitude": 49.276020000000074, "longitude": -81.63271999999995}, "107020331RR0033": {"name": "ST. GERTRUDE'S PARISH", "designationCode": "C", "categoryCode": "38", "address": "105 UNION ST", "city": "WOODSTOCK", "province": "NB", "country": "CA", "postalCode": "E7M2W4", "twitter": "None", "instagram": "None", "facebook": "None", "youtube": "None", "website": "None", "summary": "None", "logo": "None", "latitude": 46.14524212450594, "longitude": -67.57594802731391}, "898470737RR0001": {"name": "ST. GHEORGHE ROMANIAN ORTHODOX CHURCH", "designationCode": "C", "categoryCode": "39", "address": "1932 8TH AVE", "city": "NEW WESTMINSTER", "province": "BC", "country": "CA", "postalCode": "V3M2T4", "twitter": "None", "instagram": "None", "facebook": "None", "youtube": "None", "website": "None", "summary": "None", "logo": "None", "latitude": 49.20327451303475, "longitude": -122.94752226712846}, "119175826RR0001": {"name": "ST. GILES CHURCH BARRIE", "designationCode": "C", "categoryCode": "30", "address": "95 COOK STREET", "city": "BARRIE", "province": "ON", "country": "CA", "postalCode": "L4M4G5", "twitter": "None", "instagram": "None", "facebook": "None", "youtube": "None", "website": "None", "summary": "None", "logo": "None", "latitude": 44.39850677185643, "longitude": -79.6701745434244}, "108019571RR0001": {"name": "ST. GILES PRESBYTERIAN CHURCH", "designationCode": "C", "categoryCode": "37", "address": "132 REGENT STREET", "city": "NORTH SYDNEY", "province": "NS", "country": "CA", "postalCode": "B2A2G5", "twitter": "None", "instagram": "None", "facebook": "None", "youtube": "None", "website": "None", "summary": "None", "logo": "None", "latitude": 46.20589754342441, "longitude": -60.271783920624365}, "108019605RR0001": {"name": "ST. GILES PRESBYTERIAN CHURCH", "designationCode": "C", "categoryCode": "37", "address": "205 LINWELL RD", "city": "ST CATHARINES", "province": "ON", "country": "CA", "postalCode": "L2N1S1", "twitter": "None", "instagram": "None", "facebook": "None", "youtube": "None", "website": "None", "summary": "None", "logo": "None", "latitude": 43.1927547760687, "longitude": -79.24603879808414}, "108019647RR0001": {"name": "ST. GILES PRESBYTERIAN CHURCH", "designationCode": "C", "categoryCode": "37", "address": "1102-23 AVENUE NW", "city": "CALGARY", "province": "AB", "country": "CA", "postalCode": "T2M1T7", "twitter": "None", "instagram": "None", "facebook": "None", "youtube": "None", "website": "None", "summary": "None", "logo": "None", "latitude": 51.07323445715252, "longitude": -114.08488342492353}, "119175859RR0001": {"name": "ST. GILES PRESBYTERIAN CHURCH", "designationCode": "C", "categoryCode": "37", "address": "977 ST PAULS ST", "city": "PETERBOROUGH", "province": "ON", "country": "CA", "postalCode": "K9H6J7", "twitter": "None", "instagram": "None", "facebook": "None", "youtube": "None", "website": "None", "summary": "None", "logo": "None", "latitude": 44.327532631186955, "longitude": -78.32735156789218}, "119175966RR0001": {"name": "ST. GILES PRESCHOOL (COUNCIL OF PARENT PARTICIPATION PRESCHOOLS IN BRITISH COLUMBIA", "designationCode": "C", "categoryCode": "20", "address": "320 15TH AVE E", "city": "VANCOUVER", "province": "BC", "country": "CA", "postalCode": "V5T2R1", "twitter": "None", "instagram": "None", "facebook": "None", "youtube": "None", "website": "None", "summary": "None", "logo": "None", "latitude": 49.25745152120741, "longitude": -123.09779097016562}, "119175974RR0001": {"name": "ST. GILES UNITED CHURCH OF CANADA", "designationCode": "C", "categoryCode": "44", "address": "192 INGLEWOOD DR", "city": "GRAND BAY-WESTFIELD", "province": "NB", "country": "CA", "postalCode": "E5K2E5", "twitter": "None", "instagram": "None", "facebook": "None", "youtube": "None", "website": "None", "summary": "None", "logo": "None", "latitude": 45.327993653067125, "longitude": -66.19891157074862}, "132708199RR0001": {"name": "ST. GREGORIOS MALANKARA ORTHODOX SYRIAN CHURCH, EDMONTON, ALBERTA", "designationCode": "C", "categoryCode": "39", "address": "15603 99 AVE NW", "city": "EDMONTON", "province": "AB", "country": "CA", "postalCode": "T5P0J2", "twitter": "None", "instagram": "None", "facebook": "None", "youtube": "None", "website": "None", "summary": "None", "logo": "None", "latitude": 53.537448532315906, "longitude": -113.59082152553522}, "119176030RR0001": {"name": "ST. GREGORIOS ORTHODOX CHURCH OF TORONTO", "designationCode": "C", "categoryCode": "39", "address": "6890 PROFESSIONAL CRT", "city": "MISSISSAUGA", "province": "ON", "country": "CA", "postalCode": "L4V1X6", "twitter": "None", "instagram": "None", "facebook": "None", "youtube": "None", "website": "None", "summary": "None", "logo": "None", "latitude": 43.70838591476733, "longitude": -79.63204630864438}, "119176055RR0001": {"name": "ST. GREGORY ILLUMINATOR THE ARMENIAN APOSTOLIC CHURCH", "designationCode": "C", "categoryCode": "39", "address": "49 CARLTON ST", "city": "ST CATHARINES", "province": "ON", "country": "CA", "postalCode": "L2R1P7", "twitter": "None", "instagram": "None", "facebook": "None", "youtube": "None", "website": "None", "summary": "None", "logo": "None", "latitude": 43.16878831253953, "longitude": -79.25940351361866}, "119176063RR0001": {"name": "ST. GREGORY OF NYSSA ORTHODOX MISSION", "designationCode": "C", "categoryCode": "39", "address": "974 SYDENHAM RD", "city": "KINGSTON", "province": "ON", "country": "CA", "postalCode": "K7M3L7", "twitter": "None", "instagram": "None", "facebook": "None", "youtube": "None", "website": "None", "summary": "None", "logo": "None", "latitude": 44.26218095337296, "longitude": -76.54403372297902}, "119110443RR0013": {"name": "ST. GREGORY THE GREAT CHURCH", "designationCode": "C", "categoryCode": "38", "address": "7 CHURCH STREET", "city": "PICTON", "province": "ON", "country": "CA", "postalCode": "K0K2T0", "twitter": "None", "instagram": "None", "facebook": "None", "youtube": "None", "website": "None", "summary": "None", "logo": "None", "latitude": 44.00905375530274, "longitude": -77.13261403190212}, "119110450RR0105": {"name": "ST. GREGORY THE GREAT PARISH", "designationCode": "C", "categoryCode": "38", "address": "125 CENTENNIAL PARKWAY N", "city": "HAMILTON", "province": "ON", "country": "CA", "postalCode": "L8E1H8", "twitter": "None", "instagram": "None", "facebook": "None", "youtube": "None", "website": "None", "summary": "None", "logo": "None", "latitude": 43.23257204691549, "longitude": -79.76240370459891}, "107876476RR0033": {"name": "ST. GREGORY'S CHURCH", "designationCode": "C", "categoryCode": "38", "address": "71 ESTELLE ST", "city": "SAULT STE. MARIE", "province": "ON", "country": "CA", "postalCode": "P6C2C3", "twitter": "None", "instagram": "None", "facebook": "None", "youtube": "None", "website": "None", "summary": "None", "logo": "None", "latitude": 46.53472984198227, "longitude": -84.35317482126682}, "119109833RR0038": {"name": "ST. GREGORY'S CHURCH", "designationCode": "C", "categoryCode": "38", "address": "BOX 160", "city": "LIVERPOOL", "province": "NS", "country": "CA", "postalCode": "B0T1K0", "twitter": "None", "instagram": "None", "facebook": "None", "youtube": "None", "website": "None", "summary": "None", "logo": "None", "latitude": 44.55097261852782, "longitude": -64.99385689482226}, "119176071RR0001": {"name": "ST. GREGORY'S CHURCH, PILOT MOUND", "designationCode": "C", "categoryCode": "38", "address": "PO BOX 391", "city": "PILOT MOUND", "province": "MB", "country": "CA", "postalCode": "R0G1P0", "twitter": "None", "instagram": "None", "facebook": "None", "youtube": "None", "website": "None", "summary": "None", "logo": "None", "latitude": 49.20280000000008, "longitude": -98.89433999999994}, "119110450RR0077": {"name": "ST. GREGORY'S PARISH", "designationCode": "C", "categoryCode": "38", "address": "10 ST-GREGORY DRIVE", "city": "CAMBRIDGE", "province": "ON", "country": "CA", "postalCode": "N1S2Z1", "twitter": "None", "instagram": "None", "facebook": "None", "youtube": "None", "website": "None", "summary": "None", "logo": "None", "latitude": 43.348010306480006, "longitude": -80.32805951249347}, "119176196RR0001": {"name": "ST. HEDWIG'S PARISH", "designationCode": "C", "categoryCode": "38", "address": "227-11 STREET", "city": "BRANDON", "province": "MB", "country": "CA", "postalCode": "R7A4J7", "twitter": "None", "instagram": "None", "facebook": "None", "youtube": "None", "website": "None", "summary": "None", "logo": "None", "latitude": 49.84646663607322, "longitude": -99.9527521835237}, "108019852RR0001": {"name": "ST. HELEN'S ANGLICAN CHURCH", "designationCode": "C", "categoryCode": "30", "address": "PO BOX 727", "city": "FAIRVIEW", "province": "AB", "country": "CA", "postalCode": "T0H1L0", "twitter": "None", "instagram": "None", "facebook": "None", "youtube": "None", "website": "None", "summary": "None", "logo": "None", "latitude": 56.06862000000007, "longitude": -118.39200999999997}}