{"119235844RR0001": {"name": "THE COMMUNITY FOUNDATION OF SOUTH-EAST NEW BRUNSWICK INC./LA FONDATION COMMUNAUTAIRE SUD-EST DU NOUVEAU BRUNSWICK INC.", "designationCode": "A", "categoryCode": "53", "address": "PO BOX 1383", "city": "MONCTON", "province": "NB", "country": "CA", "postalCode": "E1C8T6", "twitter": "None", "instagram": "None", "facebook": "None", "youtube": "None", "website": "None", "summary": "None", "logo": "None", "latitude": 46.08834900000005, "longitude": -64.77824149999994}, "869933762RR0001": {"name": "THE COMMUNITY HARVEST FOOD BANK", "designationCode": "C", "categoryCode": "09", "address": "301 32ND ST", "city": "CASTLEGAR", "province": "BC", "country": "CA", "postalCode": "V1N3S6", "twitter": "None", "instagram": "None", "facebook": "None", "youtube": "None", "website": "None", "summary": "None", "logo": "None", "latitude": 49.271728329579275, "longitude": -117.64513173684658}, "882059629RR0001": {"name": "THE COMMUNITY JUSTICE CENTRE OF THE COMOX VALLEY SOCIETY", "designationCode": "C", "categoryCode": "59", "address": "520 4TH ST", "city": "COURTENAY", "province": "BC", "country": "CA", "postalCode": "V9N1H2", "twitter": "None", "instagram": "None", "facebook": "None", "youtube": "None", "website": "None", "summary": "None", "logo": "None", "latitude": 49.69042213818822, "longitude": -125.00259547915206}, "119228013RR0001": {"name": "THE COMMUNITY OF THE SISTERS OF THE HOLY NAMES OF JESUS AND MARY", "designationCode": "C", "categoryCode": "46", "address": "550 WELLINGTON CRES", "city": "WINNIPEG", "province": "MB", "country": "CA", "postalCode": "R3M0C1", "twitter": "None", "instagram": "None", "facebook": "None", "youtube": "None", "website": "None", "summary": "None", "logo": "None", "latitude": 49.875972052400066, "longitude": -97.1619229021366}, "886614122RR0001": {"name": "THE COMMUNITY OPPORTUNITY FOUNDATION OF ALBERTA", "designationCode": "A", "categoryCode": "21", "address": "137 SPRINGBANK HEIGHTS LOOP", "city": "CALGARY", "province": "AB", "country": "CA", "postalCode": "T3Z1C4", "twitter": "None", "instagram": "None", "facebook": "None", "youtube": "None", "website": "None", "summary": "None", "logo": "None", "latitude": 51.13568955997553, "longitude": -114.33540033604696}, "893180844RR0001": {"name": "THE COMMUNITY PANTRY", "designationCode": "C", "categoryCode": "09", "address": "P O BOX 54", "city": "MOUNT FOREST", "province": "ON", "country": "CA", "postalCode": "N0G2L0", "twitter": "None", "instagram": "None", "facebook": "None", "youtube": "None", "website": "None", "summary": "None", "logo": "None", "latitude": 44.031723000000056, "longitude": -81.09871549999994}, "886903897RR0001": {"name": "THE COMMUNITY PLAYERS OF NEW HAMBURG", "designationCode": "C", "categoryCode": "22", "address": "1015 SILVER SPRINGS DRIVE", "city": "BADEN", "province": "ON", "country": "CA", "postalCode": "N3A3R6", "twitter": "None", "instagram": "None", "facebook": "None", "youtube": "None", "website": "None", "summary": "None", "logo": "None", "latitude": 43.39526336989413, "longitude": -80.65793097869845}, "858975303RR0001": {"name": "THE COMMUNITY SHARE FOOD BANK INC.", "designationCode": "C", "categoryCode": "09", "address": "186 WESTWOOD AVE", "city": "TORONTO", "province": "ON", "country": "CA", "postalCode": "M4K2B1", "twitter": "None", "instagram": "None", "facebook": "None", "youtube": "None", "website": "None", "summary": "None", "logo": "None", "latitude": 43.68644119790516, "longitude": -79.34886737552652}, "107987174RR0001": {"name": "THE COMMUNITY SOCIAL PLANNING COUNCIL OF TORONTO", "designationCode": "C", "categoryCode": "09", "address": "2 CARLTON ST SUITE 1001", "city": "TORONTO", "province": "ON", "country": "CA", "postalCode": "M5B1J3", "twitter": "None", "instagram": "None", "facebook": "None", "youtube": "None", "website": "None", "summary": "None", "logo": "None", "latitude": 43.66141244936224, "longitude": -79.38286545198797}, "131556086RR0001": {"name": "THE COMOX VALLEY LIFELINE SOCIETY", "designationCode": "C", "categoryCode": "59", "address": "392 10TH ST", "city": "COURTENAY", "province": "BC", "country": "CA", "postalCode": "V9N1P5", "twitter": "None", "instagram": "None", "facebook": "None", "youtube": "None", "website": "None", "summary": "None", "logo": "None", "latitude": 49.68761023187439, "longitude": -124.9971903569673}, "119228062RR0001": {"name": "THE COMOX VALLEY MARINE RESCUE SOCIETY", "designationCode": "C", "categoryCode": "59", "address": "A - 2040 GUTHRIE RD", "city": "COMOX", "province": "BC", "country": "CA", "postalCode": "V9M3P6", "twitter": "None", "instagram": "None", "facebook": "None", "youtube": "None", "website": "None", "summary": "None", "logo": "None", "latitude": 49.688308542847494, "longitude": -124.93694239508915}, "119228070RR0001": {"name": "THE COMOX VALLEY THERAPEUTIC RIDING SOCIETY", "designationCode": "C", "categoryCode": "56", "address": "PO 3666 STN MAIN", "city": "COURTENAY", "province": "BC", "country": "CA", "postalCode": "V9N7P1", "twitter": "None", "instagram": "None", "facebook": "None", "youtube": "None", "website": "None", "summary": "None", "logo": "None", "latitude": 49.68669300000006, "longitude": -124.99317349999993}, "119228088RR0001": {"name": "THE COMOX VALLEY UNITARIAN FELLOWSHIP", "designationCode": "C", "categoryCode": "39", "address": "250 BEACH DRIVE", "city": "COMOX", "province": "BC", "country": "CA", "postalCode": "V9M1P9", "twitter": "None", "instagram": "None", "facebook": "None", "youtube": "None", "website": "None", "summary": "None", "logo": "None", "latitude": 49.675641485429054, "longitude": -124.93685874020437}, "118871441RR0001": {"name": "THE COMPANIONS OF THE CROSS", "designationCode": "C", "categoryCode": "49", "address": "199 BAYSWATER AVENUE", "city": "OTTAWA", "province": "ON", "country": "CA", "postalCode": "K1Y2G5", "twitter": "None", "instagram": "None", "facebook": "None", "youtube": "None", "website": "None", "summary": "None", "logo": "None", "latitude": 45.40015532751452, "longitude": -75.71681324989922}, "108024217RR0001": {"name": "THE COMPANY OF THE CROSS (ALBERTA)", "designationCode": "A", "categoryCode": "20", "address": "51165 RGE RD.30               SITE 1,COMP.1, R.R. 1", "city": "WARBURG", "province": "AB", "country": "CA", "postalCode": "T0C2T0", "twitter": "None", "instagram": "None", "facebook": "None", "youtube": "None", "website": "None", "summary": "None", "logo": "None", "latitude": 53.15965655840934, "longitude": -114.29428292593336}, "860308949RR0001": {"name": "THE COMPANY THEATRE FOR CULTURAL EXCHANGE AND EDUCATION / LA COMPAGNIE TH\u00c9\u00c2TRALE POUR L'\u00c9CHANGE CULTUREL ET L'\u00c9DUCATION", "designationCode": "C", "categoryCode": "22", "address": "310 - 15 CASE GOODS LANE", "city": "TORONTO", "province": "ON", "country": "CA", "postalCode": "M5A3C4", "twitter": "None", "instagram": "None", "facebook": "None", "youtube": "None", "website": "None", "summary": "None", "logo": "None", "latitude": 43.649968882595665, "longitude": -79.3585262463212}, "886181395RR0001": {"name": "THE COMPASSINATE FRIENDS - KAMLOOPS CHAPTER", "designationCode": "C", "categoryCode": "09", "address": "PO BOX 891", "city": "LOGAN LAKE", "province": "BC", "country": "CA", "postalCode": "V0K1W0", "twitter": "None", "instagram": "None", "facebook": "None", "youtube": "None", "website": "None", "summary": "None", "logo": "None", "latitude": 50.49127000000004, "longitude": -120.81466999999998}, "119228211RR0001": {"name": "THE COMPASSIONATE FRIENDS", "designationCode": "C", "categoryCode": "09", "address": "#4 69 CAMPBELL CRES SE", "city": "MEDICINE HAT", "province": "AB", "country": "CA", "postalCode": "T1B1J7", "twitter": "None", "instagram": "None", "facebook": "None", "youtube": "None", "website": "None", "summary": "None", "logo": "None", "latitude": 50.01292928860633, "longitude": -110.64141087511078}, "871227740RR0001": {"name": "THE COMPASSIONATE FRIENDS - ASSINIBOIA CHAPTER", "designationCode": "C", "categoryCode": "09", "address": "BOX 358", "city": "ASSINIBOIA", "province": "SK", "country": "CA", "postalCode": "S0H0B0", "twitter": "None", "instagram": "None", "facebook": "None", "youtube": "None", "website": "None", "summary": "None", "logo": "None", "latitude": 49.63287300000006, "longitude": -105.99348049999993}, "817382542RR0001": {"name": "THE COMPASSIONATE FRIENDS - VERNON", "designationCode": "C", "categoryCode": "11", "address": "9720 DELCLIFFE ROAD", "city": "VERNON", "province": "BC", "country": "CA", "postalCode": "V1H1K9", "twitter": "None", "instagram": "None", "facebook": "None", "youtube": "None", "website": "None", "summary": "None", "logo": "None", "latitude": 50.18987151067582, "longitude": -119.43110205981301}, "119228138RR0001": {"name": "THE COMPASSIONATE FRIENDS INC", "designationCode": "C", "categoryCode": "11", "address": "685 WILLIAM AVE", "city": "WINNIPEG", "province": "MB", "country": "CA", "postalCode": "R3E0Z2", "twitter": "None", "instagram": "None", "facebook": "None", "youtube": "None", "website": "None", "summary": "None", "logo": "None", "latitude": 49.90460601973551, "longitude": -97.15693593173286}, "119228146RR0001": {"name": "THE COMPASSIONATE FRIENDS INC", "designationCode": "C", "categoryCode": "59", "address": "79 MILFORD CRESCENT", "city": "REGINA", "province": "SK", "country": "CA", "postalCode": "S4N1K6", "twitter": "None", "instagram": "None", "facebook": "None", "youtube": "None", "website": "None", "summary": "None", "logo": "None", "latitude": 50.4524702514571, "longitude": -104.55005613852482}, "888830593RR0001": {"name": "THE COMPASSIONATE FRIENDS OF CALGARY", "designationCode": "C", "categoryCode": "11", "address": "51 PATTERSON RISE SW", "city": "CALGARY", "province": "AB", "country": "CA", "postalCode": "T3H2E5", "twitter": "None", "instagram": "None", "facebook": "None", "youtube": "None", "website": "None", "summary": "None", "logo": "None", "latitude": 51.06262054731955, "longitude": -114.18064225145709}, "893266965RR0001": {"name": "THE COMPASSIONATE FRIENDS OF COQUITLAM, B.C.", "designationCode": "C", "categoryCode": "59", "address": "331 FINNIGAN STREET", "city": "COQUITLAM", "province": "BC", "country": "CA", "postalCode": "V3K5J8", "twitter": "None", "instagram": "None", "facebook": "None", "youtube": "None", "website": "None", "summary": "None", "logo": "None", "latitude": 49.24059350291418, "longitude": -122.83687845833596}, "889062899RR0001": {"name": "THE COMPASSIONATE FRIENDS OF KELOWNA, BRITISH COLUMBIA", "designationCode": "C", "categoryCode": "09", "address": "650 GIBSON ROAD", "city": "KELOWNA", "province": "BC", "country": "CA", "postalCode": "V1P1C2", "twitter": "None", "instagram": "None", "facebook": "None", "youtube": "None", "website": "None", "summary": "None", "logo": "None", "latitude": 49.896387000000004, "longitude": -119.36434317946771}, "119228187RR0001": {"name": "THE COMPASSIONATE FRIENDS OF NIAGARA", "designationCode": "C", "categoryCode": "09", "address": "2544 DORCHESTER ROAD", "city": "NIAGARA FALLS", "province": "ON", "country": "CA", "postalCode": "L2J2Y8", "twitter": "None", "instagram": "None", "facebook": "None", "youtube": "None", "website": "None", "summary": "None", "logo": "None", "latitude": 43.135281900917526, "longitude": -79.11265301731225}, "886516798RR0001": {"name": "THE COMPASSIONATE FRIENDS OF PORTAGE PLAINS INC", "designationCode": "C", "categoryCode": "09", "address": "BOX 1641", "city": "PORTAGE LA PRAIRIE", "province": "MB", "country": "CA", "postalCode": "R1N3P1", "twitter": "None", "instagram": "None", "facebook": "None", "youtube": "None", "website": "None", "summary": "None", "logo": "None", "latitude": 49.97301900000005, "longitude": -98.29058299999993}, "121087928RR0001": {"name": "THE COMPASSIONATE FRIENDS OF SOUTHWESTERN MANITOBA INC", "designationCode": "C", "categoryCode": "09", "address": "327 8TH STREET", "city": "BRANDON", "province": "MB", "country": "CA", "postalCode": "R7A3X5", "twitter": "None", "instagram": "None", "facebook": "None", "youtube": "None", "website": "None", "summary": "None", "logo": "None", "latitude": 49.84500524562873, "longitude": -99.94866894820841}, "875623720RR0001": {"name": "THE COMPASSIONATE FRIENDS VICTORIA CHAPTER", "designationCode": "C", "categoryCode": "11", "address": "959 GLEN WILLOW PLACE", "city": "VICTORIA", "province": "BC", "country": "CA", "postalCode": "V9B4W3", "twitter": "None", "instagram": "None", "facebook": "None", "youtube": "None", "website": "None", "summary": "None", "logo": "None", "latitude": 48.43794294450236, "longitude": -123.51600401274725}, "864932520RR0001": {"name": "THE COMPASSIONATE FRIENDS-OTTAWA VALLEY/OUTAOUAIS CHAPTER", "designationCode": "C", "categoryCode": "11", "address": "31 MAPLEHILL WAY", "city": "NEPEAN", "province": "ON", "country": "CA", "postalCode": "K2C3H1", "twitter": "None", "instagram": "None", "facebook": "None", "youtube": "None", "website": "None", "summary": "None", "logo": "None", "latitude": 45.25015848739094, "longitude": -75.70962037581499}, "891480642RR0001": {"name": "THE COMPASSIONATE FRIENDS/NORTH VANCOUVER CHAPTER", "designationCode": "C", "categoryCode": "59", "address": "3380 LONSDALE AVENUE", "city": "NORTH VANCOUVER", "province": "BC", "country": "CA", "postalCode": "V7N2K2", "twitter": "None", "instagram": "None", "facebook": "None", "youtube": "None", "website": "None", "summary": "None", "logo": "None", "latitude": 49.339862413266786, "longitude": -123.0719013267647}, "891475568RR0001": {"name": "THE COMPASSIONATE FRIENDS/SASKATOON", "designationCode": "C", "categoryCode": "11", "address": "1681 EDWARD AVENUE", "city": "SASKATOON", "province": "SK", "country": "CA", "postalCode": "S7K3B7", "twitter": "None", "instagram": "None", "facebook": "None", "youtube": "None", "website": "None", "summary": "None", "logo": "None", "latitude": 52.152044940331216, "longitude": -106.64601908578094}, "891114043RR0001": {"name": "THE COMPUTING SOCIETY TO REBOOT CANADA", "designationCode": "C", "categoryCode": "21", "address": "15 PRINCE ARTHUR AVENUE", "city": "TORONTO", "province": "ON", "country": "CA", "postalCode": "M5R1B2", "twitter": "None", "instagram": "None", "facebook": "None", "youtube": "None", "website": "None", "summary": "None", "logo": "None", "latitude": 43.669626790986364, "longitude": -79.39583529641071}, "886594191RR0001": {"name": "THE CONCERNED KIDS CHARITY OF TORONTO", "designationCode": "C", "categoryCode": "59", "address": "206 - 2333 DUNDAS ST W", "city": "TORONTO", "province": "ON", "country": "CA", "postalCode": "M6R3A6", "twitter": "None", "instagram": "None", "facebook": "None", "youtube": "None", "website": "None", "summary": "None", "logo": "None", "latitude": 43.65258315160868, "longitude": -79.44912761159188}, "130363336RR0001": {"name": "THE CONCORDIA FOUNDATION INC", "designationCode": "A", "categoryCode": "13", "address": "100 - 1115 MOLSON ST", "city": "WINNIPEG", "province": "MB", "country": "CA", "postalCode": "R2K2N5", "twitter": "None", "instagram": "None", "facebook": "None", "youtube": "None", "website": "None", "summary": "None", "logo": "None", "latitude": 49.911704744839895, "longitude": -97.06301736832738}, "889572079RR0001": {"name": "THE CONCORDIA SEMINARY FOUNDATION - ST CATHARINES", "designationCode": "A", "categoryCode": "03", "address": "470 GLENRIDGE AVENUE", "city": "ST. CATHARINES", "province": "ON", "country": "CA", "postalCode": "L2T4C3", "twitter": "None", "instagram": "None", "facebook": "None", "youtube": "None", "website": "None", "summary": "None", "logo": "None", "latitude": 43.12448249785025, "longitude": -79.2424632349166}, "106966799RR0001": {"name": "THE CONESTOGA COLLEGE INSTITUTE OF TECHNOLOGY AND ADVANCED LEARNING", "designationCode": "C", "categoryCode": "23", "address": "299 DOON VALLEY DR.", "city": "KITCHENER", "province": "ON", "country": "CA", "postalCode": "N2G4M4", "twitter": "None", "instagram": "None", "facebook": "None", "youtube": "None", "website": "None", "summary": "None", "logo": "None", "latitude": 43.39227532533988, "longitude": -80.40424095750922}, "106966427RR0002": {"name": "THE CONFEDERATION COLLEGE OF APPLIED ARTS AND TECHNOLOGY", "designationCode": "C", "categoryCode": "20", "address": "1450 NAKINA DR                PO BOX 398", "city": "THUNDER BAY", "province": "ON", "country": "CA", "postalCode": "P7C4W1", "twitter": "None", "instagram": "None", "facebook": "None", "youtube": "None", "website": "None", "summary": "None", "logo": "None", "latitude": 48.403200650090575, "longitude": -89.27022357383862}, "876778226RR0001": {"name": "THE CONFEDERATION COLLEGE OF APPLIED ARTS AND TECHNOLOGY EMPLOYEES' CHARITY TRUST", "designationCode": "B", "categoryCode": "75", "address": "PO BOX 398", "city": "THUNDER BAY", "province": "ON", "country": "CA", "postalCode": "P7C4W1", "twitter": "None", "instagram": "None", "facebook": "None", "youtube": "None", "website": "None", "summary": "None", "logo": "None", "latitude": 48.39406800000006, "longitude": -89.28487699999994}, "107408056RR0001": {"name": "THE CONFLUENCE HERITAGE SOCIETY", "designationCode": "C", "categoryCode": "52", "address": "PO BOX 2141 STN MAIN", "city": "ROCKY MOUNTAIN HOUSE", "province": "AB", "country": "CA", "postalCode": "T4T1B6", "twitter": "None", "instagram": "None", "facebook": "None", "youtube": "None", "website": "None", "summary": "None", "logo": "None", "latitude": 52.37758500000005, "longitude": -114.93030049999993}, "108084658RR0112": {"name": "THE CONGREGATION OF ASCENSION/ST. JOHN'S", "designationCode": "C", "categoryCode": "30", "address": "36 MILL ST. RR2", "city": "KILLALOE", "province": "ON", "country": "CA", "postalCode": "K0J2A0", "twitter": "None", "instagram": "None", "facebook": "None", "youtube": "None", "website": "None", "summary": "None", "logo": "None", "latitude": 45.55168504830048, "longitude": -77.4176853000747}, "888105798RR0001": {"name": "THE CONGREGATION OF THE CATHOLICS OF QUEBEC SPEAKING THE ENGLISH LANGUAGE", "designationCode": "C", "categoryCode": "38", "address": "1145 AV. DE SALABERRY", "city": "QUEBEC", "province": "QC", "country": "CA", "postalCode": "G1R2V7", "twitter": "None", "instagram": "None", "facebook": "None", "youtube": "None", "website": "None", "summary": "None", "logo": "None", "latitude": 46.80392230088276, "longitude": -71.22412326724013}, "140913724RR0001": {"name": "THE CONGREGATION OF THE RUSSO GREEK CATHOLIC ORTHODOX CHURCH OF STAR IN THE PROVINCE OF ALBERTA", "designationCode": "C", "categoryCode": "39", "address": "BOX 1049", "city": "LAMONT", "province": "AB", "country": "CA", "postalCode": "T0B2R0", "twitter": "None", "instagram": "None", "facebook": "None", "youtube": "None", "website": "None", "summary": "None", "logo": "None", "latitude": 53.759960000000035, "longitude": -112.77838999999994}, "106967904RR0001": {"name": "THE CONGREGATION OF THE SISTERS OF MERCY OF NEWFOUNDLAND", "designationCode": "C", "categoryCode": "46", "address": "PO BOX 1757 STN C", "city": "ST. JOHN'S", "province": "NL", "country": "CA", "postalCode": "A1C5P5", "twitter": "None", "instagram": "None", "facebook": "None", "youtube": "None", "website": "None", "summary": "None", "logo": "None", "latitude": 47.56082100000006, "longitude": -52.71219349999993}, "129121299RR0001": {"name": "THE CONGREGATION OF THE SISTERS OF ST. ELIZABETH OF THE THIRD ORDER REGULAR OF ST. FRANCIS OF ASSISI", "designationCode": "C", "categoryCode": "46", "address": "331 CORNISH RD                BOX 141", "city": "SASKATOON", "province": "SK", "country": "CA", "postalCode": "S7T0T9", "twitter": "None", "instagram": "None", "facebook": "None", "youtube": "None", "website": "None", "summary": "None", "logo": "None", "latitude": 52.08652547994646, "longitude": -106.63019180682672}, "119228351RR0001": {"name": "THE CONGREGATION OF THE SISTERS OF THE PRESENTATION", "designationCode": "C", "categoryCode": "46", "address": "POB 2100", "city": "ST JOHNS", "province": "NL", "country": "CA", "postalCode": "A1C5R6", "twitter": "None", "instagram": "None", "facebook": "None", "youtube": "None", "website": "None", "summary": "None", "logo": "None", "latitude": 47.56082100000006, "longitude": -52.71219349999993}, "119228369RR0001": {"name": "THE CONGREGATION OF THE SONS OF JACOB", "designationCode": "C", "categoryCode": "39", "address": "977 PREMIER RD", "city": "NORTH BAY", "province": "ON", "country": "CA", "postalCode": "P1A2H9", "twitter": "None", "instagram": "None", "facebook": "None", "youtube": "None", "website": "None", "summary": "None", "logo": "None", "latitude": 46.255180673322215, "longitude": -79.42578026204599}, "119228377RR0001": {"name": "THE CONGREGATION OF THE UPHOLDERS OF THE LAW OF TORAH (MACHZIKEI TORAH) OF MONT", "designationCode": "C", "categoryCode": "42", "address": "6034 RUE HUTCHISON", "city": "OUTREMONT", "province": "QC", "country": "CA", "postalCode": "H2V4C2", "twitter": "None", "instagram": "None", "facebook": "None", "youtube": "None", "website": "None", "summary": "None", "logo": "None", "latitude": 45.523991756852794, "longitude": -73.60853474245472}, "119147130RR0001": {"name": "THE CONGREGATION SHAAREY ZEDEK", "designationCode": "C", "categoryCode": "42", "address": "561 WELLINGTON CRES", "city": "WINNIPEG", "province": "MB", "country": "CA", "postalCode": "R3M0A6", "twitter": "None", "instagram": "None", "facebook": "None", "youtube": "None", "website": "None", "summary": "None", "logo": "None", "latitude": 49.87614810889198, "longitude": -97.16194514611355}, "891206831RR0001": {"name": "THE CONGREGATIONAL CHRISTIAN CHURCH OF MONCTON, INC", "designationCode": "C", "categoryCode": "39", "address": "1530 RYAN STREET", "city": "MONCTON", "province": "NB", "country": "CA", "postalCode": "E1G2V3", "twitter": "None", "instagram": "None", "facebook": "None", "youtube": "None", "website": "None", "summary": "None", "logo": "None", "latitude": 46.12701085841675, "longitude": -64.88626212836768}, "118874346RR0001": {"name": "THE CONN SMYTHE FOUNDATION", "designationCode": "B", "categoryCode": "05", "address": "77 KING STREET WEST, SUITE 400", "city": "TORONTO", "province": "ON", "country": "CA", "postalCode": "M5K0A1", "twitter": "None", "instagram": "None", "facebook": "None", "youtube": "None", "website": "None", "summary": "None", "logo": "None", "latitude": 43.648179812626424, "longitude": -79.38219527808883}, "865095970RR0001": {"name": "THE CONNAUGHT AND DISTRICT HISTORICAL SOCIETY", "designationCode": "C", "categoryCode": "50", "address": "3923 MUNICIPAL ROAD", "city": "CONNAUTHT", "province": "ON", "country": "CA", "postalCode": "P0N1A0", "twitter": "None", "instagram": "None", "facebook": "None", "youtube": "None", "website": "None", "summary": "None", "logo": "None", "latitude": 48.620156315176345, "longitude": -80.89891180253994}, "866983356RR0001": {"name": "THE CONNOR, CLARK & LUNN FOUNDATION", "designationCode": "B", "categoryCode": "03", "address": "2300 - 1111 GEORGIA ST W", "city": "VANCOUVER", "province": "BC", "country": "CA", "postalCode": "V6E4M3", "twitter": "None", "instagram": "None", "facebook": "None", "youtube": "None", "website": "None", "summary": "None", "logo": "None", "latitude": 49.28608828117593, "longitude": -123.12372379721876}, "899765358RR0001": {"name": "THE CONSERVATION EDUCATION W I S E FOUNDATION", "designationCode": "C", "categoryCode": "53", "address": "911 SYLVESTER CRESCENT SW", "city": "CALGARY", "province": "AB", "country": "CA", "postalCode": "T2W0R8", "twitter": "None", "instagram": "None", "facebook": "None", "youtube": "None", "website": "None", "summary": "None", "logo": "None", "latitude": 50.95892758728148, "longitude": -114.08368523036528}, "890657570RR0001": {"name": "THE CONSERVATIVE MENNONITE CHURCH OF ONTARIO", "designationCode": "C", "categoryCode": "39", "address": "3127 PATRICK STREET", "city": "FORDWICH", "province": "ON", "country": "CA", "postalCode": "N0G1V0", "twitter": "None", "instagram": "None", "facebook": "None", "youtube": "None", "website": "None", "summary": "None", "logo": "None", "latitude": 43.86532837330482, "longitude": -81.02976464262244}, "119228419RR0001": {"name": "THE CONSERVER SOCIETY OF HAMILTON AND DISTRICT INC.", "designationCode": "C", "categoryCode": "52", "address": "22 VEEVERS  DRIVE", "city": "HAMILTON", "province": "ON", "country": "CA", "postalCode": "L8K5P5", "twitter": "None", "instagram": "None", "facebook": "None", "youtube": "None", "website": "None", "summary": "None", "logo": "None", "latitude": 43.211246470425415, "longitude": -79.78536565531748}, "878177161RR0001": {"name": "THE CONTEMPLATIVE SOCIETY", "designationCode": "C", "categoryCode": "49", "address": "PO BOX 23031 RPO COOK STREET", "city": "VICTORIA", "province": "BC", "country": "CA", "postalCode": "V8V4Z8", "twitter": "None", "instagram": "None", "facebook": "None", "youtube": "None", "website": "None", "summary": "None", "logo": "None", "latitude": 48.41744385501512, "longitude": -123.35552859189666}, "888445061RR0001": {"name": "THE CONTEMPORARY ART SOCIETY OF VANCOUVER", "designationCode": "C", "categoryCode": "22", "address": "PO BOX 3518 VANCOUVER MAIN", "city": "VANCOUVER", "province": "BC", "country": "CA", "postalCode": "V6B3Y4", "twitter": "None", "instagram": "None", "facebook": "None", "youtube": "None", "website": "None", "summary": "None", "logo": "None", "latitude": 49.24741000000006, "longitude": -123.10113999999999}, "106972086RR0001": {"name": "THE CONVALESCENT HOME OF WINNIPEG", "designationCode": "C", "categoryCode": "01", "address": "276 HUGO STREET N", "city": "WINNIPEG", "province": "MB", "country": "CA", "postalCode": "R3M2N6", "twitter": "None", "instagram": "None", "facebook": "None", "youtube": "None", "website": "None", "summary": "None", "logo": "None", "latitude": 49.87056069885743, "longitude": -97.14992093923469}, "875300808RR0001": {"name": "THE COOK-REES MEMORIAL FUND FOR WATER SEARCH AND SAFETY", "designationCode": "B", "categoryCode": "59", "address": "21 MARKET PLACE", "city": "STRATFORD", "province": "ON", "country": "CA", "postalCode": "N5A1A4", "twitter": "None", "instagram": "None", "facebook": "None", "youtube": "None", "website": "None", "summary": "None", "logo": "None", "latitude": 43.36951956895962, "longitude": -80.98201420191586}, "106972326RR0001": {"name": "THE COOK'S CREEK HERITAGE MUSEUM AND SOCIAL CLUB INCORPORATED", "designationCode": "C", "categoryCode": "50", "address": "BOX 10, GRP 22,  RR # 2", "city": "DUGALD", "province": "MB", "country": "CA", "postalCode": "R0E0K0", "twitter": "None", "instagram": "None", "facebook": "None", "youtube": "None", "website": "None", "summary": "None", "logo": "None", "latitude": 49.88499864004564, "longitude": -96.36123557915003}, "861750966RR0001": {"name": "THE COOKING FIRE THEATRE FESTIVAL", "designationCode": "C", "categoryCode": "22", "address": "9 NORTHERN PLACE", "city": "TORONTO", "province": "ON", "country": "CA", "postalCode": "M6K2V1", "twitter": "None", "instagram": "None", "facebook": "None", "youtube": "None", "website": "None", "summary": "None", "logo": "None", "latitude": 43.64739833971952, "longitude": -79.43796006382372}, "119228492RR0001": {"name": "THE COOL AID SOCIETY OF GRANDE PRAIRIE", "designationCode": "C", "categoryCode": "09", "address": "9645 PRAIRIE ROAD", "city": "GRANDE PRAIRIE", "province": "AB", "country": "CA", "postalCode": "T8V6G5", "twitter": "None", "instagram": "None", "facebook": "None", "youtube": "None", "website": "None", "summary": "None", "logo": "None", "latitude": 55.15324823561675, "longitude": -118.7857594824862}, "892904848RR0001": {"name": "THE COPTIC ORTHODOX PATRIARCHATE OF ALEXANDRIA SAINT MENA'S", "designationCode": "C", "categoryCode": "49", "address": "167 WILLET ST", "city": "HALIFAX", "province": "NS", "country": "CA", "postalCode": "B3M3L6", "twitter": "None", "instagram": "None", "facebook": "None", "youtube": "None", "website": "None", "summary": "None", "logo": "None", "latitude": 44.654406170148235, "longitude": -63.64705681998402}, "871954954RR0001": {"name": "THE COQUITLAM CHORALE SOCIETY", "designationCode": "C", "categoryCode": "22", "address": "417 - 220 NEWPORT DR", "city": "PORT MOODY", "province": "BC", "country": "CA", "postalCode": "V3H5B8", "twitter": "None", "instagram": "None", "facebook": "None", "youtube": "None", "website": "None", "summary": "None", "logo": "None", "latitude": 49.28241484143599, "longitude": -122.8270433053277}, "890762347RR0001": {"name": "THE COQUITLAM FOUNDATION", "designationCode": "A", "categoryCode": "53", "address": "1207 PINETREE WAY", "city": "COQUITLAM", "province": "BC", "country": "CA", "postalCode": "V3B7Y3", "twitter": "None", "instagram": "None", "facebook": "None", "youtube": "None", "website": "None", "summary": "None", "logo": "None", "latitude": 49.28577952436885, "longitude": -122.7917676171459}, "888006848RR0001": {"name": "THE COQUITLAM MONTESSORI SOCIETYY", "designationCode": "C", "categoryCode": "20", "address": "550 POIRIER STREET", "city": "COQUITLAM", "province": "BC", "country": "CA", "postalCode": "V3J6A7", "twitter": "None", "instagram": "None", "facebook": "None", "youtube": "None", "website": "None", "summary": "None", "logo": "None", "latitude": 49.2519136902591, "longitude": -122.84659407556647}, "119228591RR0001": {"name": "THE CORNERSTONE", "designationCode": "C", "categoryCode": "39", "address": "23 CENTRE ST", "city": "CHATHAM", "province": "ON", "country": "CA", "postalCode": "N7M4W1", "twitter": "None", "instagram": "None", "facebook": "None", "youtube": "None", "website": "None", "summary": "None", "logo": "None", "latitude": 42.40381941049681, "longitude": -82.18461770884075}, "131611097RR0001": {"name": "THE CORNERSTONE CHRISTIAN ACADEMY OF CAMROSE", "designationCode": "C", "categoryCode": "20", "address": "PO BOX 99", "city": "KINGMAN", "province": "AB", "country": "CA", "postalCode": "T0B2M0", "twitter": "None", "instagram": "None", "facebook": "None", "youtube": "None", "website": "None", "summary": "None", "logo": "None", "latitude": 53.214473731357494, "longitude": -112.75463232247537}, "131505950RR0001": {"name": "THE CORNERSTONE COMMUNITY SERVICES SOCIETY", "designationCode": "C", "categoryCode": "01", "address": "108 JOSEPH ST", "city": "VICTORIA", "province": "BC", "country": "CA", "postalCode": "V8S3H5", "twitter": "None", "instagram": "None", "facebook": "None", "youtube": "None", "website": "None", "summary": "None", "logo": "None", "latitude": 48.40843137468982, "longitude": -123.34802994327406}, "106974702RR0001": {"name": "THE CORNERSTONE COUNSELING SOCIETY OF EDMONTON", "designationCode": "C", "categoryCode": "09", "address": "302 - 10140 117 ST NW", "city": "EDMONTON", "province": "AB", "country": "CA", "postalCode": "T5K1X3", "twitter": "None", "instagram": "None", "facebook": "None", "youtube": "None", "website": "None", "summary": "None", "logo": "None", "latitude": 53.54117550000001, "longitude": -113.5231515}, "119228609RR0001": {"name": "THE CORNHILL COMMUNITY HALL INC", "designationCode": "C", "categoryCode": "56", "address": "2700 ROUTE 890", "city": "CORN HILL", "province": "NB", "country": "CA", "postalCode": "E4Z1M2", "twitter": "None", "instagram": "None", "facebook": "None", "youtube": "None", "website": "None", "summary": "None", "logo": "None", "latitude": 45.91411311831488, "longitude": -65.31125346030244}, "890788326RR0001": {"name": "THE CORNWALL SPORTS HALL OF FAME", "designationCode": "C", "categoryCode": "50", "address": "1240 RIVERDALE AVE", "city": "CORNWALL", "province": "ON", "country": "CA", "postalCode": "K6J5V4", "twitter": "None", "instagram": "None", "facebook": "None", "youtube": "None", "website": "None", "summary": "None", "logo": "None", "latitude": 45.022302179006374, "longitude": -74.77687378631181}, "119228625RR0001": {"name": "THE CORONATION HEALTH CARE COMPLEX AUXILIARY", "designationCode": "C", "categoryCode": "19", "address": "BOX 1071", "city": "CORONATION", "province": "AB", "country": "CA", "postalCode": "T0C1C0", "twitter": "None", "instagram": "None", "facebook": "None", "youtube": "None", "website": "None", "summary": "None", "logo": "None", "latitude": 52.08834149999997, "longitude": -111.43338299999999}, "888129640RR0001": {"name": "THE CORP OF THE CO OF ESSEX SUN PARLOR HOME FOR SR CITIZENS", "designationCode": "C", "categoryCode": "10", "address": "175 TALBOT STREET EAST", "city": "LEAMINGTON", "province": "ON", "country": "CA", "postalCode": "N8H1L9", "twitter": "None", "instagram": "None", "facebook": "None", "youtube": "None", "website": "None", "summary": "None", "logo": "None", "latitude": 42.05544624342695, "longitude": -82.59037533030103}, "119024693RR0001": {"name": "THE CORPORATION OF LORNE PARK BAPTIST CHURCH", "designationCode": "C", "categoryCode": "31", "address": "1500 INDIAN RD", "city": "PORT CREDIT", "province": "ON", "country": "CA", "postalCode": "L5H1S7", "twitter": "None", "instagram": "None", "facebook": "None", "youtube": "None", "website": "None", "summary": "None", "logo": "None", "latitude": 43.53566998415965, "longitude": -79.63346112129948}, "819155417RR0001": {"name": "THE CORPORATION OF MARTIN GROVE BAPTIST CHURCH", "designationCode": "C", "categoryCode": "31", "address": "35 HEDGES BOULEVARD", "city": "ETOBICOKE", "province": "ON", "country": "CA", "postalCode": "M9B3C3", "twitter": "None", "instagram": "None", "facebook": "None", "youtube": "None", "website": "None", "summary": "None", "logo": "None", "latitude": 43.6687068636969, "longitude": -79.55938491006413}, "119228633RR0001": {"name": "THE CORPORATION OF MASSEY HALL AND ROY THOMSON HALL", "designationCode": "C", "categoryCode": "09", "address": "60 SIMCOE ST.", "city": "TORONTO", "province": "ON", "country": "CA", "postalCode": "M5J2H5", "twitter": "None", "instagram": "None", "facebook": "None", "youtube": "None", "website": "None", "summary": "None", "logo": "None", "latitude": 43.64680345017032, "longitude": -79.38589550421226}, "108023516RR0001": {"name": "THE CORPORATION OF ST. JOHN'S-KILMARNOCK SCHOOL", "designationCode": "C", "categoryCode": "20", "address": "2201 SHANTZ STATION RD", "city": "BRESLAU", "province": "ON", "country": "CA", "postalCode": "N0B1M0", "twitter": "None", "instagram": "None", "facebook": "None", "youtube": "None", "website": "None", "summary": "None", "logo": "None", "latitude": 43.50793367969698, "longitude": -80.38591480082637}, "108139924RR0001": {"name": "THE CORPORATION OF THE ANGLICAN PARISH OF ANDOVER", "designationCode": "C", "categoryCode": "30", "address": "1295 WEST RIVERSIDE DR", "city": "PERTH ANDOVER", "province": "NB", "country": "CA", "postalCode": "E7H5G9", "twitter": "None", "instagram": "None", "facebook": "None", "youtube": "None", "website": "None", "summary": "None", "logo": "None", "latitude": 46.74949554985055, "longitude": -67.6966385304333}, "128912680RR0001": {"name": "THE CORPORATION OF THE ANGLICAN PARISH OF BATHURST", "designationCode": "C", "categoryCode": "30", "address": "432 KING AVE", "city": "BATHURST", "province": "NB", "country": "CA", "postalCode": "E2A1P5", "twitter": "None", "instagram": "None", "facebook": "None", "youtube": "None", "website": "None", "summary": "None", "logo": "None", "latitude": 47.617643724168545, "longitude": -65.65255159694952}, "118786771RR0001": {"name": "THE CORPORATION OF THE ANGLICAN PARISH OF BRIGHT", "designationCode": "C", "categoryCode": "30", "address": "39 ISLANDVIEW DR", "city": "DOUGLAS", "province": "NB", "country": "CA", "postalCode": "E3G7R7", "twitter": "None", "instagram": "None", "facebook": "None", "youtube": "None", "website": "None", "summary": "None", "logo": "None", "latitude": 45.99542414850814, "longitude": -66.76321633671843}, "107813750RR0001": {"name": "THE CORPORATION OF THE ANGLICAN PARISH OF CAMBRIDGE AND WATERBOROUGH", "designationCode": "C", "categoryCode": "30", "address": "2266 LOWER CAMBRIDGE RD", "city": "CAMBRIDGE NARROWS", "province": "NB", "country": "CA", "postalCode": "E4C1T1", "twitter": "None", "instagram": "None", "facebook": "None", "youtube": "None", "website": "None", "summary": "None", "logo": "None", "latitude": 45.82897498928253, "longitude": -65.95671399750748}, "108071242RR0001": {"name": "THE CORPORATION OF THE ANGLICAN PARISH OF CAMPOBELLO", "designationCode": "C", "categoryCode": "30", "address": "92 NORTH RD", "city": "WELSHPOOL", "province": "NB", "country": "CA", "postalCode": "E5E1C3", "twitter": "None", "instagram": "None", "facebook": "None", "youtube": "None", "website": "None", "summary": "None", "logo": "None", "latitude": 44.889426838190595, "longitude": -66.9535945048259}, "106713233RR0001": {"name": "THE CORPORATION OF THE ANGLICAN PARISH OF CANTERBURY, BENTON AND KIRKLAND", "designationCode": "C", "categoryCode": "30", "address": "125 CHARLES STREET", "city": "WOODSTOCK", "province": "NB", "country": "CA", "postalCode": "E7M1H6", "twitter": "None", "instagram": "None", "facebook": "None", "youtube": "None", "website": "None", "summary": "None", "logo": "None", "latitude": 46.142004741041085, "longitude": -67.58487730362405}, "119077147RR0001": {"name": "THE CORPORATION OF THE ANGLICAN PARISH OF CENTRAL KINGS", "designationCode": "C", "categoryCode": "30", "address": "PO BOX 1154", "city": "HAMPTON", "province": "NB", "country": "CA", "postalCode": "E5N8H2", "twitter": "None", "instagram": "None", "facebook": "None", "youtube": "None", "website": "None", "summary": "None", "logo": "None", "latitude": 45.52417500000006, "longitude": -65.82911299999994}, "106713266RR0001": {"name": "THE CORPORATION OF THE ANGLICAN PARISH OF CHATHAM", "designationCode": "C", "categoryCode": "30", "address": "207 WELLINGTON ST", "city": "MIRAMICHI", "province": "NB", "country": "CA", "postalCode": "E1N1M8", "twitter": "None", "instagram": "None", "facebook": "None", "youtube": "None", "website": "None", "summary": "None", "logo": "None", "latitude": 47.03104682543704, "longitude": -65.46491134390313}, "108031097RR0001": {"name": "THE CORPORATION OF THE ANGLICAN PARISH OF COLDBROOK - ST. MARY", "designationCode": "C", "categoryCode": "30", "address": "646 WESTMORLAND RD", "city": "SAINT JOHN", "province": "NB", "country": "CA", "postalCode": "E2J2H4", "twitter": "None", "instagram": "None", "facebook": "None", "youtube": "None", "website": "None", "summary": "None", "logo": "None", "latitude": 45.31660632448476, "longitude": -66.00626123056682}, "129845848RR0001": {"name": "THE CORPORATION OF THE ANGLICAN PARISH OF DENMARK", "designationCode": "C", "categoryCode": "30", "address": "5 FOLEY BROOK ROAD", "city": "NEW DENMARK", "province": "NB", "country": "CA", "postalCode": "E7G1N7", "twitter": "None", "instagram": "None", "facebook": "None", "youtube": "None", "website": "None", "summary": "None", "logo": "None", "latitude": 46.99439897198328, "longitude": -67.59088154330883}, "134595529RR0001": {"name": "THE CORPORATION OF THE ANGLICAN PARISH OF DERBY AND BLACKVILLE", "designationCode": "C", "categoryCode": "30", "address": "91 BARNETTVILLE RD.", "city": "BARNETTVILLE", "province": "NB", "country": "CA", "postalCode": "E9B1W1", "twitter": "None", "instagram": "None", "facebook": "None", "youtube": "None", "website": "None", "summary": "None", "logo": "None", "latitude": 46.763716461855736, "longitude": -65.79196271109112}, "129848032RR0001": {"name": "THE CORPORATION OF THE ANGLICAN PARISH OF DOUGLAS AND NASHWAAKSIS", "designationCode": "C", "categoryCode": "30", "address": "75 MAIN STREET", "city": "NASHWAAKSIS FREDERICTON", "province": "NB", "country": "CA", "postalCode": "E3A1C2", "twitter": "None", "instagram": "None", "facebook": "None", "youtube": "None", "website": "None", "summary": "None", "logo": "None", "latitude": 45.98142973633789, "longitude": -66.66079010768081}, "118783836RR0001": {"name": "THE CORPORATION OF THE ANGLICAN PARISH OF EAST SAINT JOHN", "designationCode": "C", "categoryCode": "30", "address": "15 BURNS AVE", "city": "ROTHESAY", "province": "NB", "country": "CA", "postalCode": "E2E1Z3", "twitter": "None", "instagram": "None", "facebook": "None", "youtube": "None", "website": "None", "summary": "None", "logo": "None", "latitude": 45.411762684973326, "longitude": -65.98912574640319}, "106917875RR0001": {"name": "THE CORPORATION OF THE ANGLICAN PARISH OF FREDERICTON", "designationCode": "C", "categoryCode": "30", "address": "245 WESTMORLAND ST", "city": "FREDERICTON", "province": "NB", "country": "CA", "postalCode": "E3B3L9", "twitter": "None", "instagram": "None", "facebook": "None", "youtube": "None", "website": "None", "summary": "None", "logo": "None", "latitude": 45.960720421605316, "longitude": -66.64825483322731}, "129464012RR0001": {"name": "THE CORPORATION OF THE ANGLICAN PARISH OF FREDERICTON JUNCTION", "designationCode": "C", "categoryCode": "30", "address": "136 JOHN CHESSIE DR", "city": "YOHO", "province": "NB", "country": "CA", "postalCode": "E6K2Z4", "twitter": "None", "instagram": "None", "facebook": "None", "youtube": "None", "website": "None", "summary": "None", "logo": "None", "latitude": 45.779479585847305, "longitude": -66.86607958390235}, "118876952RR0001": {"name": "THE CORPORATION OF THE ANGLICAN PARISH OF GAGETOWN", "designationCode": "C", "categoryCode": "30", "address": "3 COURTHOUSE ROAD", "city": "GAGETOWN", "province": "NB", "country": "CA", "postalCode": "E5M1E1", "twitter": "None", "instagram": "None", "facebook": "None", "youtube": "None", "website": "None", "summary": "None", "logo": "None", "latitude": 45.78560758006811, "longitude": -66.14503093144441}, "107813867RR0001": {"name": "THE CORPORATION OF THE ANGLICAN PARISH OF GONDOLA POINT", "designationCode": "C", "categoryCode": "30", "address": "12 QUISPAMSIS ROAD", "city": "QUISPAMSIS", "province": "NB", "country": "CA", "postalCode": "E2E1M2", "twitter": "None", "instagram": "None", "facebook": "None", "youtube": "None", "website": "None", "summary": "None", "logo": "None", "latitude": 45.443523479860474, "longitude": -65.98793015710648}, "135401123RR0001": {"name": "THE CORPORATION OF THE ANGLICAN PARISH OF HAMMOND RIVER", "designationCode": "C", "categoryCode": "30", "address": "2 HAMMOND RIVER RD", "city": "QUISPAMSIS", "province": "NB", "country": "CA", "postalCode": "E2E4Z8", "twitter": "None", "instagram": "None", "facebook": "None", "youtube": "None", "website": "None", "summary": "None", "logo": "None", "latitude": 45.4565807699232, "longitude": -65.90793950608818}, "128974482RR0001": {"name": "THE CORPORATION OF THE ANGLICAN PARISH OF HARDWICKE", "designationCode": "C", "categoryCode": "30", "address": "7414 ROUTE 117", "city": "MIRAMICHI BAY", "province": "NB", "country": "CA", "postalCode": "E1N5L7", "twitter": "None", "instagram": "None", "facebook": "None", "youtube": "None", "website": "None", "summary": "None", "logo": "None", "latitude": 47.03650788083373, "longitude": -65.18728702131182}, "119112076RR0001": {"name": "THE CORPORATION OF THE ANGLICAN PARISH OF HILLBOROUGH RIVERSIDE", "designationCode": "C", "categoryCode": "30", "address": "39 MILL STREET", "city": "HILLSBOROUGH", "province": "NB", "country": "CA", "postalCode": "E4H2Z7", "twitter": "None", "instagram": "None", "facebook": "None", "youtube": "None", "website": "None", "summary": "None", "logo": "None", "latitude": 45.92489841123216, "longitude": -64.64459519700029}, "130257801RR0001": {"name": "THE CORPORATION OF THE ANGLICAN PARISH OF KENT", "designationCode": "C", "categoryCode": "30", "address": "2850 ROUTE 510", "city": "TARGETTVILLE", "province": "NB", "country": "CA", "postalCode": "E4T1V9", "twitter": "None", "instagram": "None", "facebook": "None", "youtube": "None", "website": "None", "summary": "None", "logo": "None", "latitude": 46.54348820447517, "longitude": -65.03038485901189}}