{"813896248RR0001": {"name": "Happy Hearts Childcare Centre Inc.", "designationCode": "C", "categoryCode": "01", "address": "PO BOX 1058", "city": "SHELLBROOK", "province": "SK", "country": "CA", "postalCode": "S0J2E0", "twitter": "None", "instagram": "None", "facebook": "None", "youtube": "None", "website": "None", "summary": "None", "logo": "None", "latitude": 53.22621000000004, "longitude": -106.39020999999997}, "825418403RR0001": {"name": "Happy Korean Presbyterian Church", "designationCode": "C", "categoryCode": "39", "address": "35 LYTTON BLVD", "city": "TORONTO", "province": "ON", "country": "CA", "postalCode": "M4R1L2", "twitter": "None", "instagram": "None", "facebook": "None", "youtube": "None", "website": "None", "summary": "None", "logo": "None", "latitude": 43.71579480151795, "longitude": -79.4030772270184}, "848802252RR0001": {"name": "Happy Science Congregation of Canada", "designationCode": "C", "categoryCode": "35", "address": "845 THE QUEENSWAY", "city": "ETOBICOKE", "province": "ON", "country": "CA", "postalCode": "M8Z1N6", "twitter": "None", "instagram": "None", "facebook": "None", "youtube": "None", "website": "None", "summary": "None", "logo": "None", "latitude": 43.62483088923211, "longitude": -79.50928730070987}, "107466229RR0001": {"name": "Happy Time Nursery Co-OP Inc.", "designationCode": "C", "categoryCode": "20", "address": "POST OFFICE BOX 1191", "city": "BEAUSEJOUR", "province": "MB", "country": "CA", "postalCode": "R0E0C0", "twitter": "None", "instagram": "None", "facebook": "None", "youtube": "None", "website": "None", "summary": "None", "logo": "None", "latitude": 50.061750000000075, "longitude": -96.50519999999995}, "805642725RR0001": {"name": "Happy Valley Baptist Church", "designationCode": "C", "categoryCode": "31", "address": "STATION B.  BOX 2277", "city": "GOOSE BAY", "province": "NL", "country": "CA", "postalCode": "A0P1E0", "twitter": "None", "instagram": "None", "facebook": "None", "youtube": "None", "website": "None", "summary": "None", "logo": "None", "latitude": 53.29994604790562, "longitude": -60.31652858280004}, "119288918RR0555": {"name": "Happy Valley Congregation of Jehovah's Witnesses, Happy Valley, Newfoundland", "designationCode": "C", "categoryCode": "61", "address": "BOX 366,STATION B", "city": "GOOSE BAY", "province": "NL", "country": "CA", "postalCode": "A0P1E0", "twitter": "None", "instagram": "None", "facebook": "None", "youtube": "None", "website": "None", "summary": "None", "logo": "None", "latitude": 53.29581900000005, "longitude": -60.29593999999993}, "817884059RR0001": {"name": "Happy Village International / Le Joyeux village international", "designationCode": "C", "categoryCode": "20", "address": "8 - 1840 RUE MULLINS", "city": "MONTREAL", "province": "QC", "country": "CA", "postalCode": "H3K1N8", "twitter": "None", "instagram": "None", "facebook": "None", "youtube": "None", "website": "None", "summary": "None", "logo": "None", "latitude": 45.48118994587113, "longitude": -73.56111072771088}, "851639005RR0001": {"name": "Harambee Cultural Society", "designationCode": "C", "categoryCode": "29", "address": "4357 BRAY STREET", "city": "KELOWNA", "province": "BC", "country": "CA", "postalCode": "V1W2K1", "twitter": "None", "instagram": "None", "facebook": "None", "youtube": "None", "website": "None", "summary": "None", "logo": "None", "latitude": 49.825079077990665, "longitude": -119.48585847432055}, "833700552RR0001": {"name": "Harambee 4 Humanity", "designationCode": "C", "categoryCode": "20", "address": "4699 DANIEL ST", "city": "RAMARA", "province": "ON", "country": "CA", "postalCode": "L3V0M9", "twitter": "None", "instagram": "None", "facebook": "None", "youtube": "None", "website": "None", "summary": "None", "logo": "None", "latitude": 44.59764712908976, "longitude": -79.3497862758958}, "839318789RR0001": {"name": "Harbour of Hope Fellowship", "designationCode": "C", "categoryCode": "39", "address": "5 EMILY ST", "city": "PARRY SOUND", "province": "ON", "country": "CA", "postalCode": "P2A2P4", "twitter": "None", "instagram": "None", "facebook": "None", "youtube": "None", "website": "None", "summary": "None", "logo": "None", "latitude": 45.3356482209302, "longitude": -80.02837111327806}, "784074924RR0001": {"name": "Harbour of Hope Refugee Assistance Society", "designationCode": "C", "categoryCode": "09", "address": "200-1245 ESQUIMALT RD", "city": "VICTORIA", "province": "BC", "country": "CA", "postalCode": "V9A3P2", "twitter": "None", "instagram": "None", "facebook": "None", "youtube": "None", "website": "None", "summary": "None", "logo": "None", "latitude": 48.43002758338635, "longitude": -123.41543088328815}, "823122619RR0001": {"name": "Harbour Breton Volunteer Fire Department", "designationCode": "C", "categoryCode": "59", "address": "P.O. BOX 459                  41 CANADA DR.", "city": "HARBOUR BRETON", "province": "NL", "country": "CA", "postalCode": "A0H1P0", "twitter": "None", "instagram": "None", "facebook": "None", "youtube": "None", "website": "None", "summary": "None", "logo": "None", "latitude": 47.4769182226191, "longitude": -55.832681729957606}, "130565963RR0017": {"name": "HarbourView Community Church", "designationCode": "C", "categoryCode": "39", "address": "886 CRAIGFLOWER RD", "city": "VICTORIA", "province": "BC", "country": "CA", "postalCode": "V9A2X5", "twitter": "None", "instagram": "None", "facebook": "None", "youtube": "None", "website": "None", "summary": "None", "logo": "None", "latitude": 48.44079716515655, "longitude": -123.39892474242606}, "861396646RR0001": {"name": "Harcourt Joint Cemetery Corporation Inc.", "designationCode": "C", "categoryCode": "59", "address": "101 WILLOWDALE LANE", "city": "HARCOURT", "province": "NB", "country": "CA", "postalCode": "E4T4M3", "twitter": "None", "instagram": "None", "facebook": "None", "youtube": "None", "website": "None", "summary": "None", "logo": "None", "latitude": 46.491706001838125, "longitude": -65.26717757769778}, "840041917RR0001": {"name": "Hardcore Ministries Canada", "designationCode": "C", "categoryCode": "39", "address": "17082 WYTON DRIVE             RR 2", "city": "THORNDALE", "province": "ON", "country": "CA", "postalCode": "N0M2P0", "twitter": "None", "instagram": "None", "facebook": "None", "youtube": "None", "website": "None", "summary": "None", "logo": "None", "latitude": 43.079466822667065, "longitude": -81.12649046240398}, "835682220RR0001": {"name": "Hardy Family Foundation", "designationCode": "B", "categoryCode": "05", "address": "1020 - 510 SEYMOUR ST", "city": "VANCOUVER", "province": "BC", "country": "CA", "postalCode": "V6B3J5", "twitter": "None", "instagram": "None", "facebook": "None", "youtube": "None", "website": "None", "summary": "None", "logo": "None", "latitude": 49.283833801517076, "longitude": -123.11400485110151}, "766014492RR0001": {"name": "Harivad Foundation", "designationCode": "B", "categoryCode": "05", "address": "2900-550 BURRARD STREET", "city": "VANCOUVER", "province": "BC", "country": "CA", "postalCode": "V6C0A3", "twitter": "None", "instagram": "None", "facebook": "None", "youtube": "None", "website": "None", "summary": "None", "logo": "None", "latitude": 49.28596391921073, "longitude": -123.11870289255033}, "827708025RR0001": {"name": "Harmonie de Drummondville", "designationCode": "C", "categoryCode": "22", "address": "C.P. 591", "city": "DRUMMONDVILLE", "province": "QC", "country": "CA", "postalCode": "J2B6W6", "twitter": "None", "instagram": "None", "facebook": "None", "youtube": "None", "website": "None", "summary": "None", "logo": "None", "latitude": 45.880359000000055, "longitude": -72.46958749999993}, "840875678RR0001": {"name": "Harmonie de Granby", "designationCode": "C", "categoryCode": "22", "address": "176 RUE SAINT-CHARLES S", "city": "GRANBY", "province": "QC", "country": "CA", "postalCode": "J2G7A4", "twitter": "None", "instagram": "None", "facebook": "None", "youtube": "None", "website": "None", "summary": "None", "logo": "None", "latitude": 45.39698843935027, "longitude": -72.73463718073712}, "836763748RR0001": {"name": "Harmonie vocale de Saint-Hyacinthe", "designationCode": "C", "categoryCode": "22", "address": "1675 RUE SAINT-PIERRE O", "city": "SAINT-HYACINTHE", "province": "QC", "country": "CA", "postalCode": "J2T1P4", "twitter": "None", "instagram": "None", "facebook": "None", "youtube": "None", "website": "None", "summary": "None", "logo": "None", "latitude": 45.620225111028006, "longitude": -72.94172788304012}, "893021964RR0001": {"name": "Harmony Baptist Church", "designationCode": "C", "categoryCode": "31", "address": "1640 CARMEN DRIVE", "city": "MISSISSAUGA", "province": "ON", "country": "CA", "postalCode": "L5G3Z1", "twitter": "None", "instagram": "None", "facebook": "None", "youtube": "None", "website": "None", "summary": "None", "logo": "None", "latitude": 43.575427605574696, "longitude": -79.59085793245403}, "839962040RR0001": {"name": "Harmony Centre Owen Sound", "designationCode": "C", "categoryCode": "56", "address": "890 4TH AVENUE EAST", "city": "OWEN SOUND", "province": "ON", "country": "CA", "postalCode": "N4K2N7", "twitter": "None", "instagram": "None", "facebook": "None", "youtube": "None", "website": "None", "summary": "None", "logo": "None", "latitude": 44.56600832861103, "longitude": -80.93912854916586}, "108083973RR0001": {"name": "Harmony Foundation of Canada La fondation harmonie du Canada", "designationCode": "C", "categoryCode": "21", "address": "PO BOX 50022                  15-1594 FAIRFIELD RD", "city": "VICTORIA", "province": "BC", "country": "CA", "postalCode": "V8S1G1", "twitter": "None", "instagram": "None", "facebook": "None", "youtube": "None", "website": "None", "summary": "None", "logo": "None", "latitude": 48.41235038444201, "longitude": -123.33847692893424}, "871059135RR0001": {"name": "Harmony Prayer Centre of St. Thomas", "designationCode": "C", "categoryCode": "39", "address": "7 HITCH CRES", "city": "ST THOMAS", "province": "ON", "country": "CA", "postalCode": "N5R5X8", "twitter": "None", "instagram": "None", "facebook": "None", "youtube": "None", "website": "None", "summary": "None", "logo": "None", "latitude": 42.772633927568606, "longitude": -81.15758675615453}, "839415668RR0001": {"name": "Harold F. Vilas - Charitable Trust", "designationCode": "B", "categoryCode": "15", "address": "1 PLACE VILLE MARIE           5TH FLOOR SOUTH", "city": "MONTREAL", "province": "QC", "country": "CA", "postalCode": "H3B2B2", "twitter": "None", "instagram": "None", "facebook": "None", "youtube": "None", "website": "None", "summary": "None", "logo": "None", "latitude": 45.50188724476333, "longitude": -73.56787382018557}, "842128480RR0001": {"name": "Harold Latrace Family and Associates Foundation", "designationCode": "B", "categoryCode": "03", "address": "211-4TH AVENUE S", "city": "SASKATOON", "province": "SK", "country": "CA", "postalCode": "S7K1N1", "twitter": "None", "instagram": "None", "facebook": "None", "youtube": "None", "website": "None", "summary": "None", "logo": "None", "latitude": 52.125982186796655, "longitude": -106.66147797201192}, "819488925RR0001": {"name": "Harold Patrick Leask and Jean Beatrice Leask Foundation", "designationCode": "B", "categoryCode": "03", "address": "1709 HOLLIS ST", "city": "HALIFAX", "province": "NS", "country": "CA", "postalCode": "B3J1W1", "twitter": "None", "instagram": "None", "facebook": "None", "youtube": "None", "website": "None", "summary": "None", "logo": "None", "latitude": 44.647722827370295, "longitude": -63.57286089243476}, "832350029RR0001": {"name": "Harris Community Hall Development Fund Inc.", "designationCode": "C", "categoryCode": "56", "address": "PO BOX 10", "city": "HARRIS", "province": "SK", "country": "CA", "postalCode": "S0L1K0", "twitter": "None", "instagram": "None", "facebook": "None", "youtube": "None", "website": "None", "summary": "None", "logo": "None", "latitude": 51.73293484496974, "longitude": -107.5750478076201}, "118953512RR0001": {"name": "Harris Tessier New Horizons Centre Inc.", "designationCode": "C", "categoryCode": "56", "address": "PO BOX 279", "city": "HARRIS", "province": "SK", "country": "CA", "postalCode": "S0L1K0", "twitter": "None", "instagram": "None", "facebook": "None", "youtube": "None", "website": "None", "summary": "None", "logo": "None", "latitude": 51.73293484496974, "longitude": -107.5750478076201}, "806241444RR0001": {"name": "Harrison-Bergeron Private Foundation", "designationCode": "B", "categoryCode": "03", "address": "2627 POINT GREY ROAD", "city": "VANCOUVER", "province": "BC", "country": "CA", "postalCode": "V6K1A4", "twitter": "None", "instagram": "None", "facebook": "None", "youtube": "None", "website": "None", "summary": "None", "logo": "None", "latitude": 49.27282741453388, "longitude": -123.16484808375691}, "808637854RR0001": {"name": "Harriston Historical Society", "designationCode": "C", "categoryCode": "50", "address": "BOX 638", "city": "HARRISTON", "province": "ON", "country": "CA", "postalCode": "N0G1Z0", "twitter": "None", "instagram": "None", "facebook": "None", "youtube": "None", "website": "None", "summary": "None", "logo": "None", "latitude": 43.89520950000001, "longitude": -80.970777}, "851119552RR0001": {"name": "Harry and Barb Silverberg Family Charitable Foundation", "designationCode": "B", "categoryCode": "05", "address": "113 CARTWRIGHT AVENUE", "city": "TORONTO", "province": "ON", "country": "CA", "postalCode": "M6A1V4", "twitter": "None", "instagram": "None", "facebook": "None", "youtube": "None", "website": "None", "summary": "None", "logo": "None", "latitude": 43.72210884147988, "longitude": -79.4656343151366}, "837805100RR0001": {"name": "Hartland Charitable Trust", "designationCode": "B", "categoryCode": "45", "address": "3525-2ND AVENUE SOUTH", "city": "LETHBRIDGE", "province": "AB", "country": "CA", "postalCode": "T1J4V1", "twitter": "None", "instagram": "None", "facebook": "None", "youtube": "None", "website": "None", "summary": "None", "logo": "None", "latitude": 49.69690587383681, "longitude": -112.78867252756454}, "801330168RR0001": {"name": "Hartney Old English Church", "designationCode": "C", "categoryCode": "39", "address": "602 RIVER AVE                 BOX 42", "city": "HARTNEY", "province": "MB", "country": "CA", "postalCode": "R0M0X0", "twitter": "None", "instagram": "None", "facebook": "None", "youtube": "None", "website": "None", "summary": "None", "logo": "None", "latitude": 49.48333417387364, "longitude": -100.5257847431605}, "795136324RR0001": {"name": "Hartwell Children's Education Foundation LTD.", "designationCode": "B", "categoryCode": "21", "address": "505 21 AVE SW", "city": "CALGARY", "province": "AB", "country": "CA", "postalCode": "T2S0G9", "twitter": "None", "instagram": "None", "facebook": "None", "youtube": "None", "website": "None", "summary": "None", "logo": "None", "latitude": 51.0341954995673, "longitude": -114.07210144463038}, "837841154RR0001": {"name": "Harvest for Humanity Foundation", "designationCode": "C", "categoryCode": "09", "address": "9450 222 ST", "city": "LANGLEY", "province": "BC", "country": "CA", "postalCode": "V1M3T7", "twitter": "None", "instagram": "None", "facebook": "None", "youtube": "None", "website": "None", "summary": "None", "logo": "None", "latitude": 49.17459777674328, "longitude": -122.60708049391859}, "808038087RR0001": {"name": "Harvest Bible Chapel Brampton", "designationCode": "C", "categoryCode": "39", "address": "500 GREAT LAKES BLVD", "city": "OAKVILLE", "province": "ON", "country": "CA", "postalCode": "L6L6X9", "twitter": "None", "instagram": "None", "facebook": "None", "youtube": "None", "website": "None", "summary": "None", "logo": "None", "latitude": 43.38606260834465, "longitude": -79.73974369331752}, "841098395RR0001": {"name": "Harvest Bible Chapel Brantford", "designationCode": "C", "categoryCode": "39", "address": "500 GREAT LAKES BOULEVARD,", "city": "OAKVILLE", "province": "ON", "country": "CA", "postalCode": "L6L6X9", "twitter": "None", "instagram": "None", "facebook": "None", "youtube": "None", "website": "None", "summary": "None", "logo": "None", "latitude": 43.38606260834465, "longitude": -79.73974369331752}, "833497480RR0001": {"name": "Harvest Bible Chapel Calgary Inc.", "designationCode": "C", "categoryCode": "39", "address": "225 FIRST AVENUE N.W.", "city": "AIRDRIE", "province": "AB", "country": "CA", "postalCode": "T4B2M8", "twitter": "None", "instagram": "None", "facebook": "None", "youtube": "None", "website": "None", "summary": "None", "logo": "None", "latitude": 51.29264451788919, "longitude": -114.0172515}, "824786842RR0001": {"name": "Harvest Bible Chapel Durham Region Inc.", "designationCode": "C", "categoryCode": "39", "address": "UNIT 3                        31 BALDWIN STREET", "city": "BROOKLIN", "province": "ON", "country": "CA", "postalCode": "L1M1A7", "twitter": "None", "instagram": "None", "facebook": "None", "youtube": "None", "website": "None", "summary": "None", "logo": "None", "latitude": 43.95574192004264, "longitude": -78.96128393576191}, "857468029RR0001": {"name": "Harvest Bible Chapel Muskoka Region Inc.", "designationCode": "C", "categoryCode": "39", "address": "2 - 50 BALL'S DR", "city": "BRACEBRIDGE", "province": "ON", "country": "CA", "postalCode": "P1L1T1", "twitter": "None", "instagram": "None", "facebook": "None", "youtube": "None", "website": "None", "summary": "None", "logo": "None", "latitude": 45.046021550060836, "longitude": -79.32647244186042}, "813631900RR0001": {"name": "Harvest Bible Chapel Niagara", "designationCode": "C", "categoryCode": "39", "address": "500 GREAT LAKES BLVD", "city": "OAKVILLE", "province": "ON", "country": "CA", "postalCode": "L6L6X9", "twitter": "None", "instagram": "None", "facebook": "None", "youtube": "None", "website": "None", "summary": "None", "logo": "None", "latitude": 43.38606260834465, "longitude": -79.73974369331752}, "820314433RR0001": {"name": "Harvest Bible Chapel Toronto West", "designationCode": "C", "categoryCode": "39", "address": "500 GREAT LAKES BOULEVARD,", "city": "OAKVILLE", "province": "ON", "country": "CA", "postalCode": "L6L6X9", "twitter": "None", "instagram": "None", "facebook": "None", "youtube": "None", "website": "None", "summary": "None", "logo": "None", "latitude": 43.38606260834465, "longitude": -79.73974369331752}, "849024146RR0001": {"name": "Harvest Bible Chapel Windsor Inc.", "designationCode": "C", "categoryCode": "39", "address": "2001 SPRING GARDEN RD", "city": "WINDSOR", "province": "ON", "country": "CA", "postalCode": "N9E3P8", "twitter": "None", "instagram": "None", "facebook": "None", "youtube": "None", "website": "None", "summary": "None", "logo": "None", "latitude": 42.267777480091624, "longitude": -83.05349085651217}, "106884695RR0001": {"name": "Harvest Bible Chapel York Region Inc.", "designationCode": "C", "categoryCode": "31", "address": "8176 MCCOWAN RD", "city": "MARKHAM", "province": "ON", "country": "CA", "postalCode": "L3P3J3", "twitter": "None", "instagram": "None", "facebook": "None", "youtube": "None", "website": "None", "summary": "None", "logo": "None", "latitude": 43.86120963252357, "longitude": -79.28306732422494}, "830503553RR0001": {"name": "Harvest Bible Fellowship Canada Inc.", "designationCode": "C", "categoryCode": "49", "address": "PO BOX 25002                  RPO WEST BRANTFORD", "city": "BRANTFORD", "province": "ON", "country": "CA", "postalCode": "N3T6K5", "twitter": "None", "instagram": "None", "facebook": "None", "youtube": "None", "website": "None", "summary": "None", "logo": "None", "latitude": 43.14300920844691, "longitude": -80.26710173448376}, "822530317RR0001": {"name": "Harvest Chapel International", "designationCode": "C", "categoryCode": "39", "address": "20 COACHLIGHT CRESCENT", "city": "BRAMPTON", "province": "ON", "country": "CA", "postalCode": "L6P2Y7", "twitter": "None", "instagram": "None", "facebook": "None", "youtube": "None", "website": "None", "summary": "None", "logo": "None", "latitude": 43.76884922176692, "longitude": -79.7204319923826}, "836439091RR0001": {"name": "Harvest Church International", "designationCode": "C", "categoryCode": "39", "address": "1930 EAGLE STREET", "city": "ABBOTSFORD", "province": "BC", "country": "CA", "postalCode": "V2S3A6", "twitter": "None", "instagram": "None", "facebook": "None", "youtube": "None", "website": "None", "summary": "None", "logo": "None", "latitude": 49.03700517346644, "longitude": -122.30502016261774}, "803363662RR0001": {"name": "Harvest Church International Red Deer", "designationCode": "C", "categoryCode": "39", "address": "PO BOX 26028", "city": "RED DEER", "province": "AB", "country": "CA", "postalCode": "T4N6X7", "twitter": "None", "instagram": "None", "facebook": "None", "youtube": "None", "website": "None", "summary": "None", "logo": "None", "latitude": 52.26852300000006, "longitude": -113.80901299999994}, "817119324RR0001": {"name": "Harvest Community Church", "designationCode": "C", "categoryCode": "39", "address": "PO BOX 20012 RPO CARLETON MEWS", "city": "CARLETON PLACE", "province": "ON", "country": "CA", "postalCode": "K7C4K3", "twitter": "None", "instagram": "None", "facebook": "None", "youtube": "None", "website": "None", "summary": "None", "logo": "None", "latitude": 45.146902499999996, "longitude": -76.14629550000001}, "872293972RR0001": {"name": "Harvest House Atlantic Inc.", "designationCode": "C", "categoryCode": "49", "address": "182 HIGH STREET", "city": "MONCTON", "province": "NB", "country": "CA", "postalCode": "E1C6B7", "twitter": "None", "instagram": "None", "facebook": "None", "youtube": "None", "website": "None", "summary": "None", "logo": "None", "latitude": 46.09030462308849, "longitude": -64.79126779796857}, "899801609RR0001": {"name": "Harvest House Community Outreach Centre Glace Bay", "designationCode": "C", "categoryCode": "09", "address": "P.O. BOX 205", "city": "GLACE BAY", "province": "NS", "country": "CA", "postalCode": "B1A5V2", "twitter": "None", "instagram": "None", "facebook": "None", "youtube": "None", "website": "None", "summary": "None", "logo": "None", "latitude": 46.19686200000005, "longitude": -59.95771099999993}, "808125215RR0001": {"name": "Harvest House Grand Manan Incorporated", "designationCode": "B", "categoryCode": "20", "address": "570 RTE 776", "city": "GRAND MANAN", "province": "NB", "country": "CA", "postalCode": "E5G2C9", "twitter": "None", "instagram": "None", "facebook": "None", "youtube": "None", "website": "None", "summary": "None", "logo": "None", "latitude": 44.73043156649865, "longitude": -66.75859405363444}, "795968890RR0001": {"name": "Harvest House Tobique Inc.", "designationCode": "C", "categoryCode": "09", "address": "81 RIDGEWELL ST", "city": "PLASTER ROCK", "province": "NB", "country": "CA", "postalCode": "E7G2N6", "twitter": "None", "instagram": "None", "facebook": "None", "youtube": "None", "website": "None", "summary": "None", "logo": "None", "latitude": 46.91217521374321, "longitude": -67.3946669687205}, "841638596RR0001": {"name": "Harvest House Woodstock Inc.", "designationCode": "C", "categoryCode": "09", "address": "123 FOUNDRY ST                PO BOX 6199", "city": "WOODSTOCK", "province": "NB", "country": "CA", "postalCode": "E7M1S3", "twitter": "None", "instagram": "None", "facebook": "None", "youtube": "None", "website": "None", "summary": "None", "logo": "None", "latitude": 46.145189325841066, "longitude": -67.57383444338963}, "809442593RR0001": {"name": "Harvest International Baptist Church (Calgary)", "designationCode": "B", "categoryCode": "39", "address": "472 TEMPLEVALE DR NE", "city": "CALGARY", "province": "AB", "country": "CA", "postalCode": "T1Y4V5", "twitter": "None", "instagram": "None", "facebook": "None", "youtube": "None", "website": "None", "summary": "None", "logo": "None", "latitude": 51.090723838190314, "longitude": -113.94179979695896}, "839916004RR0001": {"name": "Harvest Mission Church", "designationCode": "C", "categoryCode": "39", "address": "1805-9868 CAMERON ST", "city": "BURNABY", "province": "BC", "country": "CA", "postalCode": "V3J0A5", "twitter": "None", "instagram": "None", "facebook": "None", "youtube": "None", "website": "None", "summary": "None", "logo": "None", "latitude": 49.25333452322873, "longitude": -122.89447131922034}, "823024856RR0001": {"name": "Harvest Outreach International Inc.", "designationCode": "C", "categoryCode": "39", "address": "17 ALDERWOOD CRT", "city": "ST THOMAS", "province": "ON", "country": "CA", "postalCode": "N5P0B2", "twitter": "None", "instagram": "None", "facebook": "None", "youtube": "None", "website": "None", "summary": "None", "logo": "None", "latitude": 42.808026272997566, "longitude": -81.16750930735162}, "840504625RR0001": {"name": "Harvest Sun Music & Art Society Inc.", "designationCode": "C", "categoryCode": "59", "address": "BOX 36", "city": "KELWOOD", "province": "MB", "country": "CA", "postalCode": "R0J0Y0", "twitter": "None", "instagram": "None", "facebook": "None", "youtube": "None", "website": "None", "summary": "None", "logo": "None", "latitude": 50.624870000000044, "longitude": -99.46165999999994}, "856534672RR0001": {"name": "Harvest Time International Ministries", "designationCode": "B", "categoryCode": "47", "address": "20538-123RD AVE", "city": "MAPLE RIDGE", "province": "BC", "country": "CA", "postalCode": "V2X4A7", "twitter": "None", "instagram": "None", "facebook": "None", "youtube": "None", "website": "None", "summary": "None", "logo": "None", "latitude": 49.226224506780675, "longitude": -122.652153}, "801901067RR0001": {"name": "Harvest-Time Worship Center", "designationCode": "C", "categoryCode": "39", "address": "41 WHITELEAS AVE", "city": "SCARBOROUGH", "province": "ON", "country": "CA", "postalCode": "M1B1W8", "twitter": "None", "instagram": "None", "facebook": "None", "youtube": "None", "website": "None", "summary": "None", "logo": "None", "latitude": 43.80883063890019, "longitude": -79.22955620009819}, "824061220RR0001": {"name": "Harvesters Global Foundation", "designationCode": "C", "categoryCode": "21", "address": "2110 WILEROSE ST.", "city": "ABBOTSFORD", "province": "BC", "country": "CA", "postalCode": "V2S2Z6", "twitter": "None", "instagram": "None", "facebook": "None", "youtube": "None", "website": "None", "summary": "None", "logo": "None", "latitude": 49.04032567055225, "longitude": -122.30808157158535}, "842149619RR0001": {"name": "Harvestime Pentecostal Church", "designationCode": "C", "categoryCode": "39", "address": "PO BOX 1113                   CDO PRINCE RUPERT", "city": "PRINCE RUPERT", "province": "BC", "country": "CA", "postalCode": "V8J4H6", "twitter": "None", "instagram": "None", "facebook": "None", "youtube": "None", "website": "None", "summary": "None", "logo": "None", "latitude": 54.313233000000054, "longitude": -130.32604249999994}, "801961830RR0001": {"name": "Harvestime Pentecostal Ministries", "designationCode": "C", "categoryCode": "39", "address": "1504 - 3620 KANEFF CRES", "city": "MISSISSAUGA", "province": "ON", "country": "CA", "postalCode": "L5A3X1", "twitter": "None", "instagram": "None", "facebook": "None", "youtube": "None", "website": "None", "summary": "None", "logo": "None", "latitude": 43.592718951411044, "longitude": -79.63230976048813}, "855406195RR0001": {"name": "Harvesting Hope", "designationCode": "C", "categoryCode": "47", "address": "PO BOX 97090,                 7871 WESTMINSTER HWY", "city": "RICHMOND", "province": "BC", "country": "CA", "postalCode": "V6X1A4", "twitter": "None", "instagram": "None", "facebook": "None", "youtube": "None", "website": "None", "summary": "None", "logo": "None", "latitude": 49.17023750432784, "longitude": -123.13803052553521}, "118954148RR0001": {"name": "Harvey Memorial Community Centre Inc.", "designationCode": "C", "categoryCode": "56", "address": "58 HANSELPACKER RD", "city": "HARVEY STATION", "province": "NB", "country": "CA", "postalCode": "E6K1A3", "twitter": "None", "instagram": "None", "facebook": "None", "youtube": "None", "website": "None", "summary": "None", "logo": "None", "latitude": 45.7333730841979, "longitude": -67.00333542515878}, "810393645RR0001": {"name": "Harvey Music Festival", "designationCode": "C", "categoryCode": "22", "address": "2231 ROUTE 3", "city": "HARVEY YORK COUNTY", "province": "NB", "country": "CA", "postalCode": "E6K1M9", "twitter": "None", "instagram": "None", "facebook": "None", "youtube": "None", "website": "None", "summary": "None", "logo": "None", "latitude": 45.73025115731896, "longitude": -67.00374423912147}, "119237808RR0001": {"name": "Hastings Manor Auxiliary", "designationCode": "C", "categoryCode": "19", "address": "124 LEMOINE STREET", "city": "BELLEVILLE", "province": "ON", "country": "CA", "postalCode": "K8P4H1", "twitter": "None", "instagram": "None", "facebook": "None", "youtube": "None", "website": "None", "summary": "None", "logo": "None", "latitude": 44.181185050782, "longitude": -77.40304372041061}, "811068485RR0001": {"name": "Hatch Charitable Foundation", "designationCode": "B", "categoryCode": "02", "address": "2800 SPEAKMAN DRIVE", "city": "MISSISSAUGA", "province": "ON", "country": "CA", "postalCode": "L5K2R7", "twitter": "None", "instagram": "None", "facebook": "None", "youtube": "None", "website": "None", "summary": "None", "logo": "None", "latitude": 43.51599402660308, "longitude": -79.66961902573676}, "836990804RR0001": {"name": "Hats On For Awareness", "designationCode": "A", "categoryCode": "03", "address": "11 - 7695 JANE STREET", "city": "CONCORD", "province": "ON", "country": "CA", "postalCode": "L4K1A8", "twitter": "None", "instagram": "None", "facebook": "None", "youtube": "None", "website": "None", "summary": "None", "logo": "None", "latitude": 43.79302457314322, "longitude": -79.5242248759888}, "826042103RR0001": {"name": "Hatzolas Yisroel D'Arizal", "designationCode": "C", "categoryCode": "09", "address": "#200 160 CHEMIN BATES", "city": "MOUNT ROYAL", "province": "QC", "country": "CA", "postalCode": "H3S1A3", "twitter": "None", "instagram": "None", "facebook": "None", "youtube": "None", "website": "None", "summary": "None", "logo": "None", "latitude": 45.516033839286855, "longitude": -73.62832473423175}, "801749680RR0001": {"name": "Hau-Cheong Chau Foundation", "designationCode": "B", "categoryCode": "03", "address": "4051 PINE CRES", "city": "VANCOUVER", "province": "BC", "country": "CA", "postalCode": "V6J4K6", "twitter": "None", "instagram": "None", "facebook": "None", "youtube": "None", "website": "None", "summary": "None", "logo": "None", "latitude": 49.25000021065844, "longitude": -123.14750277188509}, "803130418RR0001": {"name": "Haugen Community Healthcare Society", "designationCode": "C", "categoryCode": "11", "address": "PO BOX 495", "city": "ARMSTRONG", "province": "BC", "country": "CA", "postalCode": "V0E1B0", "twitter": "None", "instagram": "None", "facebook": "None", "youtube": "None", "website": "None", "summary": "None", "logo": "None", "latitude": 50.44798500000006, "longitude": -119.19492799999993}, "751791724RR0001": {"name": "Havelock Greenhill & Loyalist Cemetery Fund", "designationCode": "C", "categoryCode": "59", "address": "4264 ROUTE 880", "city": "HAVELOCK", "province": "NB", "country": "CA", "postalCode": "E4Z5J7", "twitter": "None", "instagram": "None", "facebook": "None", "youtube": "None", "website": "None", "summary": "None", "logo": "None", "latitude": 45.97609270428094, "longitude": -65.33940001136652}, "772127296RR0001": {"name": "Haven of Worship", "designationCode": "C", "categoryCode": "39", "address": "21-1975 ROSEFIELD ROAD,", "city": "PICKERING", "province": "ON", "country": "CA", "postalCode": "L1V3E3", "twitter": "None", "instagram": "None", "facebook": "None", "youtube": "None", "website": "None", "summary": "None", "logo": "None", "latitude": 43.84585231920462, "longitude": -79.08932094647764}, "804095214RR0001": {"name": "Haven on the Queensway", "designationCode": "C", "categoryCode": "09", "address": "1536 THE QUEENSWAY", "city": "TORONTO", "province": "ON", "country": "CA", "postalCode": "M8Z1T8", "twitter": "None", "instagram": "None", "facebook": "None", "youtube": "None", "website": "None", "summary": "None", "logo": "None", "latitude": 43.61867905580231, "longitude": -79.5371375162444}, "879977965RR0001": {"name": "Haven Baptist Church", "designationCode": "C", "categoryCode": "31", "address": "P.O. BOX 7293", "city": "SASKATOON", "province": "SK", "country": "CA", "postalCode": "S7K4E3", "twitter": "None", "instagram": "None", "facebook": "None", "youtube": "None", "website": "None", "summary": "None", "logo": "None", "latitude": 52.13049000000005, "longitude": -106.65926449999994}, "819976499RR0001": {"name": "Havila Canada", "designationCode": "C", "categoryCode": "09", "address": "357 RUE GAUTHIER", "city": "SAINT-JEROME", "province": "QC", "country": "CA", "postalCode": "J7Y3G2", "twitter": "None", "instagram": "None", "facebook": "None", "youtube": "None", "website": "None", "summary": "None", "logo": "None", "latitude": 45.7788919350511, "longitude": -74.01268336078269}, "821190428RR0001": {"name": "Havre Cur\u00e9 H\u00e9bert", "designationCode": "C", "categoryCode": "09", "address": "225 RUE LABONT\u00c9", "city": "H\u00c9BERTVILLE", "province": "QC", "country": "CA", "postalCode": "G8N0C7", "twitter": "None", "instagram": "None", "facebook": "None", "youtube": "None", "website": "None", "summary": "None", "logo": "None", "latitude": 48.3880057868314, "longitude": -71.67634792327875}, "824981260RR0001": {"name": "Hawkins-Gignac Foundation for CO Education", "designationCode": "B", "categoryCode": "59", "address": "9 SUNSET AVENUE", "city": "BRANTFORD", "province": "ON", "country": "CA", "postalCode": "N3T5G1", "twitter": "None", "instagram": "None", "facebook": "None", "youtube": "None", "website": "None", "summary": "None", "logo": "None", "latitude": 43.14078503941368, "longitude": -80.2964959644528}, "820833762RR0001": {"name": "Hawthorne Arts Foundation", "designationCode": "B", "categoryCode": "22", "address": "206 - 1521 GRAFTON ST", "city": "HALIFAX", "province": "NS", "country": "CA", "postalCode": "B3J2B9", "twitter": "None", "instagram": "None", "facebook": "None", "youtube": "None", "website": "None", "summary": "None", "logo": "None", "latitude": 44.64431424785042, "longitude": -63.574080324023384}, "809139892RR0001": {"name": "Hayastan Foundation Toronto Inc.", "designationCode": "C", "categoryCode": "09", "address": "280 SHEPPARD AVENUE EAST      SUITE 209", "city": "TORONTO", "province": "ON", "country": "CA", "postalCode": "M2N3B1", "twitter": "None", "instagram": "None", "facebook": "None", "youtube": "None", "website": "None", "summary": "None", "logo": "None", "latitude": 43.7642951579432, "longitude": -79.3984587320387}, "837757616RR0001": {"name": "Hayati Children's Foundation of Alberta", "designationCode": "C", "categoryCode": "09", "address": "102-526 18 AVE SW", "city": "CALGARY", "province": "AB", "country": "CA", "postalCode": "T2S0C5", "twitter": "None", "instagram": "None", "facebook": "None", "youtube": "None", "website": "None", "summary": "None", "logo": "None", "latitude": 51.03697553318127, "longitude": -114.07312341618096}, "867052045RR0001": {"name": "Hayes Haven Personal Care Home Inc.", "designationCode": "C", "categoryCode": "01", "address": "920 MCKAY STREET", "city": "INDIAN HEAD", "province": "SK", "country": "CA", "postalCode": "S0G2K0", "twitter": "None", "instagram": "None", "facebook": "None", "youtube": "None", "website": "None", "summary": "None", "logo": "None", "latitude": 50.53158914354435, "longitude": -103.66176663597523}, "823747282RR0001": {"name": "Hazel Breakey Youth Foundation / Fondation Jeunesse Hazel Breakey", "designationCode": "A", "categoryCode": "03", "address": "1270 CHEMIN SAINTE-FOY        BUREAU 1124", "city": "QU\u00c9BEC", "province": "QC", "country": "CA", "postalCode": "G1S1A4", "twitter": "None", "instagram": "None", "facebook": "None", "youtube": "None", "website": "None", "summary": "None", "logo": "None", "latitude": 46.795915761948145, "longitude": -71.251954217053}, "888647971RR0001": {"name": "Hazelden Betty Ford Society of Canada", "designationCode": "C", "categoryCode": "57", "address": "61059 KENSINGTON RPO", "city": "CALGARY", "province": "AB", "country": "CA", "postalCode": "T2N4S6", "twitter": "None", "instagram": "None", "facebook": "None", "youtube": "None", "website": "None", "summary": "None", "logo": "None", "latitude": 51.0524867557722, "longitude": -114.10475500718039}, "889291134RR0001": {"name": "Head of Millstream Union Cemetery", "designationCode": "C", "categoryCode": "59", "address": "1390 CARSONVILLE RD", "city": "HEAD OF MILLSTREAM", "province": "NB", "country": "CA", "postalCode": "E4G1V4", "twitter": "None", "instagram": "None", "facebook": "None", "youtube": "None", "website": "None", "summary": "None", "logo": "None", "latitude": 45.87573949232529, "longitude": -65.50659524280144}, "804891968RR0001": {"name": "Headingley Community Foundation Inc.", "designationCode": "A", "categoryCode": "03", "address": "5353 PORTAGE AVENUE", "city": "HEADINGLEY", "province": "MB", "country": "CA", "postalCode": "R4H1J9", "twitter": "None", "instagram": "None", "facebook": "None", "youtube": "None", "website": "None", "summary": "None", "logo": "None", "latitude": 49.87602387361516, "longitude": -97.40338445396665}, "868804097RR0001": {"name": "Headingley Municipal Library", "designationCode": "C", "categoryCode": "50", "address": "49 ALBORO STREET", "city": "HEADINGLEY", "province": "MB", "country": "CA", "postalCode": "R4J1A3", "twitter": "None", "instagram": "None", "facebook": "None", "youtube": "None", "website": "None", "summary": "None", "logo": "None", "latitude": 49.86663723840097, "longitude": -97.40983654628853}, "845473255RR0001": {"name": "Heads up for Inclusion", "designationCode": "C", "categoryCode": "59", "address": "250 SHERBROOKE ST. UNIT 6", "city": "PETERBOROUGH", "province": "ON", "country": "CA", "postalCode": "K9J2N4", "twitter": "None", "instagram": "None", "facebook": "None", "youtube": "None", "website": "None", "summary": "None", "logo": "None", "latitude": 44.300980456287135, "longitude": -78.3241322557276}, "819773391RR0001": {"name": "Headstone Ministries", "designationCode": "C", "categoryCode": "39", "address": "103 - 125 FORSYTHE ST", "city": "OAKVILLE", "province": "ON", "country": "CA", "postalCode": "L6K3K1", "twitter": "None", "instagram": "None", "facebook": "None", "youtube": "None", "website": "None", "summary": "None", "logo": "None", "latitude": 43.442714366928186, "longitude": -79.67310307409551}, "811577188RR0001": {"name": "Headwater Learning Solutions Foundation", "designationCode": "C", "categoryCode": "21", "address": "4500 - 855 2 ST SW", "city": "CALGARY", "province": "AB", "country": "CA", "postalCode": "T2P4K7", "twitter": "None", "instagram": "None", "facebook": "None", "youtube": "None", "website": "None", "summary": "None", "logo": "None", "latitude": 51.04920186667524, "longitude": -114.0676309458328}, "814535225RR0001": {"name": "Headwaters Communities in Action", "designationCode": "C", "categoryCode": "21", "address": "246372 HOCKLEY ROAD", "city": "ORANGEVILLE", "province": "ON", "country": "CA", "postalCode": "L9W6K4", "twitter": "None", "instagram": "None", "facebook": "None", "youtube": "None", "website": "None", "summary": "None", "logo": "None", "latitude": 43.948738875382304, "longitude": -80.09190427477061}, "831024203RR0001": {"name": "Headwaters Foundation", "designationCode": "A", "categoryCode": "03", "address": "1250 - 1500 GEORGIA ST W      PO BOX 62", "city": "VANCOUVER", "province": "BC", "country": "CA", "postalCode": "V6G2Z6", "twitter": "None", "instagram": "None", "facebook": "None", "youtube": "None", "website": "None", "summary": "None", "logo": "None", "latitude": 49.29013479542975, "longitude": -123.1300069287031}, "866751746RR0001": {"name": "Headway School Society of Alberta", "designationCode": "C", "categoryCode": "20", "address": "10435-76 STREET", "city": "EDMONTON", "province": "AB", "country": "CA", "postalCode": "T6A3B1", "twitter": "None", "instagram": "None", "facebook": "None", "youtube": "None", "website": "None", "summary": "None", "logo": "None", "latitude": 53.547506999999996, "longitude": -113.44451423016373}, "804026490RR0001": {"name": "Healing and Cancer Foundation (HCF) / Fondation cancer et bien-\u00eatre (FCB)", "designationCode": "C", "categoryCode": "11", "address": "5820 UNIVERSITY AVENUE        DICKSON BUILDING ROOM 2025  RO", "city": "HALIFAX", "province": "NS", "country": "CA", "postalCode": "B3H1V7", "twitter": "None", "instagram": "None", "facebook": "None", "youtube": "None", "website": "None", "summary": "None", "logo": "None", "latitude": 44.63875279801886, "longitude": -63.582630376363035}, "850553058RR0001": {"name": "Healing with Smiles-Keepsmiling Alliance", "designationCode": "C", "categoryCode": "11", "address": "4099 ERIN MILLS PARKWAY       UNIT 15", "city": "MISSISSAUGA", "province": "ON", "country": "CA", "postalCode": "L5L3P9", "twitter": "None", "instagram": "None", "facebook": "None", "youtube": "None", "website": "None", "summary": "None", "logo": "None", "latitude": 43.55095382083721, "longitude": -79.68980414378167}, "830772430RR0001": {"name": "Healing Hands Christian Ministry", "designationCode": "C", "categoryCode": "39", "address": "811-1900 NORTH SHERIDAN WAY", "city": "MISSISSAUGA", "province": "ON", "country": "CA", "postalCode": "L5K2R3", "twitter": "None", "instagram": "None", "facebook": "None", "youtube": "None", "website": "None", "summary": "None", "logo": "None", "latitude": 43.52791696194265, "longitude": -79.64575704858895}, "806064481RR0001": {"name": "Healing Haven Wildlife Rescue Inc.", "designationCode": "C", "categoryCode": "54", "address": "POST OFFICE BOX 126", "city": "DORINTOSH", "province": "SK", "country": "CA", "postalCode": "S0M0T0", "twitter": "None", "instagram": "None", "facebook": "None", "youtube": "None", "website": "None", "summary": "None", "logo": "None", "latitude": 54.36689000000007, "longitude": -108.63475999999997}, "812996726RR0001": {"name": "Healing Hearts Foundation", "designationCode": "C", "categoryCode": "11", "address": "1285 TRISTAN PL", "city": "VICTORIA", "province": "BC", "country": "CA", "postalCode": "V8Z7B9", "twitter": "None", "instagram": "None", "facebook": "None", "youtube": "None", "website": "None", "summary": "None", "logo": "None", "latitude": 48.47354308630055, "longitude": -123.4168487282878}}