{"131444812RR0001": {"name": "ACTION 3E AGE DU TRANSCONTINENTAL", "designationCode": "C", "categoryCode": "09", "address": "C.P. 782", "city": "POH\u00c9N\u00c9GAMOOK", "province": "QC", "country": "CA", "postalCode": "G0L1J0", "twitter": "None", "instagram": "None", "facebook": "None", "youtube": "None", "website": "None", "summary": "None", "logo": "None", "latitude": 47.454900000000066, "longitude": -69.15425999999997}, "137802039RR0001": {"name": "ACTION-HAITI ST-JEAN-SUR-RICHELIEU", "designationCode": "C", "categoryCode": "09", "address": "CP 99043 CSP DU TREMBLAY", "city": "LONGUEUIL", "province": "QC", "country": "CA", "postalCode": "J4N0A5", "twitter": "None", "instagram": "None", "facebook": "None", "youtube": "None", "website": "None", "summary": "None", "logo": "None", "latitude": 45.548707591486526, "longitude": -73.44414175511473}, "895387538RR0001": {"name": "ACTION-LOGEMENT CENTRE D'INFORMATION REGION D'OTTAWA-CARLETON", "designationCode": "C", "categoryCode": "01", "address": "261 CHEMIN MONTREAL           LOCAL 200", "city": "OTTAWA", "province": "ON", "country": "CA", "postalCode": "K1L6C7", "twitter": "None", "instagram": "None", "facebook": "None", "youtube": "None", "website": "None", "summary": "None", "logo": "None", "latitude": 45.436502469645994, "longitude": -75.66061392356723}, "887473189RR0001": {"name": "ACTION-PARTAGE DE WINDSOR", "designationCode": "C", "categoryCode": "09", "address": "743 DE LA ROUTE 143", "city": "WINDSOR", "province": "QC", "country": "CA", "postalCode": "J1S2X2", "twitter": "None", "instagram": "None", "facebook": "None", "youtube": "None", "website": "None", "summary": "None", "logo": "None", "latitude": 45.53004109592471, "longitude": -71.98405927992876}, "888523214RR0001": {"name": "ACTION-QUARTIERS", "designationCode": "C", "categoryCode": "09", "address": "2 RUE FORTIER                 C.P. 79025", "city": "GATINEAU", "province": "QC", "country": "CA", "postalCode": "J8Y4P5", "twitter": "None", "instagram": "None", "facebook": "None", "youtube": "None", "website": "None", "summary": "None", "logo": "None", "latitude": 45.43640779204885, "longitude": -75.73710719877896}, "889468070RR0001": {"name": "ACTION-SERVICES AUX PROCHES AIDANTS DE LONGUEUIL", "designationCode": "C", "categoryCode": "09", "address": "95-2160 CHEMIN DU TREMBLAY", "city": "LONGUEUIL", "province": "QC", "country": "CA", "postalCode": "J4N1A8", "twitter": "None", "instagram": "None", "facebook": "None", "youtube": "None", "website": "None", "summary": "None", "logo": "None", "latitude": 45.54803222450824, "longitude": -73.44616269121138}, "108062753RR0001": {"name": "ACTIONMARGUERITE (SAINT-BONIFACE) INC.", "designationCode": "C", "categoryCode": "20", "address": "185 DESPINS ST", "city": "WINNIPEG", "province": "MB", "country": "CA", "postalCode": "R2H2B3", "twitter": "None", "instagram": "None", "facebook": "None", "youtube": "None", "website": "None", "summary": "None", "logo": "None", "latitude": 49.88731858914793, "longitude": -97.12064954598252}, "107399784RR0001": {"name": "ACTIONMARGUERITE (SAINT-VITAL) INC.", "designationCode": "C", "categoryCode": "01", "address": "185, DESPINS STREET", "city": "WINNIPEG", "province": "MB", "country": "CA", "postalCode": "R2H2B3", "twitter": "None", "instagram": "None", "facebook": "None", "youtube": "None", "website": "None", "summary": "None", "logo": "None", "latitude": 49.88731858914793, "longitude": -97.12064954598252}, "875209108RR0001": {"name": "ACTIONS COMMUNAUTAIRES ET BENEVOLES DE NOTRE-DAME DU MONT-CARMEL", "designationCode": "C", "categoryCode": "09", "address": "3860 RUE DE L'HOTEL-DE-VILLE", "city": "NOTRE-DAME-DU-MONT-CARMEL", "province": "QC", "country": "CA", "postalCode": "G0X3J0", "twitter": "None", "instagram": "None", "facebook": "None", "youtube": "None", "website": "None", "summary": "None", "logo": "None", "latitude": 46.47228039832045, "longitude": -72.67614879817106}, "869820209RR0001": {"name": "ACTIONS FAMILLES SAINT-MARTINE / SAINT-URBAIN-PREMIER", "designationCode": "C", "categoryCode": "01", "address": "1 - 122 RUE SAINT-JOSEPH", "city": "SAINTE-MARTINE", "province": "QC", "country": "CA", "postalCode": "J0S1V0", "twitter": "None", "instagram": "None", "facebook": "None", "youtube": "None", "website": "None", "summary": "None", "logo": "None", "latitude": 45.24516865280732, "longitude": -73.80530931020225}, "895131175RR0001": {"name": "ACTIONS INTERCULTURELLES DE D\u00c9VELOPPEMENT ET D'\u00c9DUCATION (AIDE) INC.", "designationCode": "C", "categoryCode": "21", "address": "465 RUE LAWFORD", "city": "SHERBROOKE", "province": "QC", "country": "CA", "postalCode": "J1G2C2", "twitter": "None", "instagram": "None", "facebook": "None", "youtube": "None", "website": "None", "summary": "None", "logo": "None", "latitude": 45.40073469438539, "longitude": -71.88303142864578}, "888213923RR0001": {"name": "ACTIVE AGING CANADA INC./VIEILLIR ACTIVEMENT CANADA INC.", "designationCode": "C", "categoryCode": "21", "address": "PO BOX 143 STN MAIN", "city": "SHELBURNE", "province": "ON", "country": "CA", "postalCode": "L9V3L8", "twitter": "None", "instagram": "None", "facebook": "None", "youtube": "None", "website": "None", "summary": "None", "logo": "None", "latitude": 44.13508148877166, "longitude": -80.33158927439862}, "886567650RR0001": {"name": "ACTIVE LIVING ALLIANCE FOR CANADIANS WITH A DISABILITY ALLIANCE DE VIE ACTIVE POUR LES CANADIENS/CANADIENNES AYANT UN HANDICAP", "designationCode": "C", "categoryCode": "03", "address": "104-720 BELFAST RD", "city": "OTTAWA", "province": "ON", "country": "CA", "postalCode": "K1G0Z5", "twitter": "None", "instagram": "None", "facebook": "None", "youtube": "None", "website": "None", "summary": "None", "logo": "None", "latitude": 45.41468202354466, "longitude": -75.64218780685536}, "131170789RR0001": {"name": "ACTIVE SUPPORT AGAINST POVERTY", "designationCode": "C", "categoryCode": "09", "address": "1188 6TH AVE", "city": "PRINCE GEORGE", "province": "BC", "country": "CA", "postalCode": "V2L3M6", "twitter": "None", "instagram": "None", "facebook": "None", "youtube": "None", "website": "None", "summary": "None", "logo": "None", "latitude": 53.91425717608782, "longitude": -122.74608176987364}, "894791532RR0001": {"name": "ACTIVITY HAVEN SENIOR CENTRE (PETERBOROUGH)", "designationCode": "C", "categoryCode": "09", "address": "180 BARNARDO AVE", "city": "PETERBOROUGH", "province": "ON", "country": "CA", "postalCode": "K9H5V3", "twitter": "None", "instagram": "None", "facebook": "None", "youtube": "None", "website": "None", "summary": "None", "logo": "None", "latitude": 44.31931361953912, "longitude": -78.32102054561744}, "870108131RR0001": {"name": "ACTON CITIZENS' BAND", "designationCode": "C", "categoryCode": "22", "address": "79 CHURCHILL RD N", "city": "ACTON", "province": "ON", "country": "CA", "postalCode": "L7J2H9", "twitter": "None", "instagram": "None", "facebook": "None", "youtube": "None", "website": "None", "summary": "None", "logo": "None", "latitude": 43.64100740634188, "longitude": -80.03334248124544}, "119288918RR1109": {"name": "ACTON CONGREGATION OF JEHOVAH'S WITNESSES", "designationCode": "C", "categoryCode": "61", "address": "175 MAY ST", "city": "ROCKWOOD", "province": "ON", "country": "CA", "postalCode": "N0B2K0", "twitter": "None", "instagram": "None", "facebook": "None", "youtube": "None", "website": "None", "summary": "None", "logo": "None", "latitude": 43.60617680988513, "longitude": -80.13678889520472}, "890957640RR0001": {"name": "ACTON FOOD SHARE", "designationCode": "C", "categoryCode": "09", "address": "P.O. BOX 74", "city": "ACTON", "province": "ON", "country": "CA", "postalCode": "L7J2M2", "twitter": "None", "instagram": "None", "facebook": "None", "youtube": "None", "website": "None", "summary": "None", "logo": "None", "latitude": 43.630719000000056, "longitude": -80.04032449999994}, "897807335RR0001": {"name": "ACTON LEGION SENIOR RESIDENCES INCORPORATED", "designationCode": "C", "categoryCode": "09", "address": "201 - 15 MARTIN ST", "city": "MILTON", "province": "ON", "country": "CA", "postalCode": "L9T2R1", "twitter": "None", "instagram": "None", "facebook": "None", "youtube": "None", "website": "None", "summary": "None", "logo": "None", "latitude": 43.513870650585616, "longitude": -79.88331510072726}, "890089196RR0001": {"name": "ACTON SENIORS' RECREATION CENTRE", "designationCode": "C", "categoryCode": "56", "address": "415 QUEEN ST E", "city": "ACTON", "province": "ON", "country": "CA", "postalCode": "L7J2N2", "twitter": "None", "instagram": "None", "facebook": "None", "youtube": "None", "website": "None", "summary": "None", "logo": "None", "latitude": 43.6410329791498, "longitude": -80.02430997056688}, "118777457RR0001": {"name": "ACTORS FUND OF CANADA", "designationCode": "C", "categoryCode": "09", "address": "SUITE 301-1000 YONGE STREET", "city": "TORONTO", "province": "ON", "country": "CA", "postalCode": "M4W2K2", "twitter": "None", "instagram": "None", "facebook": "None", "youtube": "None", "website": "None", "summary": "None", "logo": "None", "latitude": 43.675733776848105, "longitude": -79.38905557496089}, "894218619RR0001": {"name": "ACTORS REPERTORY COMPANY", "designationCode": "C", "categoryCode": "22", "address": "207-157 CARLTON STREET", "city": "TORONTO", "province": "ON", "country": "CA", "postalCode": "M5A2K3", "twitter": "None", "instagram": "None", "facebook": "None", "youtube": "None", "website": "None", "summary": "None", "logo": "None", "latitude": 43.663294834843455, "longitude": -79.37244587301637}, "866171374RR0001": {"name": "ACTS CHRISTIAN FELLOWSHIP INC.", "designationCode": "C", "categoryCode": "47", "address": "8 JACOB FISHER AVE", "city": "THORNHILL", "province": "ON", "country": "CA", "postalCode": "L4J8J5", "twitter": "None", "instagram": "None", "facebook": "None", "youtube": "None", "website": "None", "summary": "None", "logo": "None", "latitude": 43.79590144157196, "longitude": -79.44063386736087}, "840036925RR0001": {"name": "ACTS OF GRACE FOUNDATION", "designationCode": "B", "categoryCode": "05", "address": "PO BOX 20035 RPO BRANT HILLS", "city": "BURLINGTON", "province": "ON", "country": "CA", "postalCode": "L7P0A4", "twitter": "None", "instagram": "None", "facebook": "None", "youtube": "None", "website": "None", "summary": "None", "logo": "None", "latitude": 43.354133216158296, "longitude": -79.8397593895576}, "892342429RR0001": {"name": "ACTS 13 CHRISTIAN MINISTRIES", "designationCode": "C", "categoryCode": "47", "address": "100 GLENCOYNE CRES", "city": "SCARBOROUGH", "province": "ON", "country": "CA", "postalCode": "M1W2Z2", "twitter": "None", "instagram": "None", "facebook": "None", "youtube": "None", "website": "None", "summary": "None", "logo": "None", "latitude": 43.81713708133752, "longitude": -79.33233687414155}, "853062362RR0001": {"name": "ACTS 29 INCORPORATED", "designationCode": "C", "categoryCode": "31", "address": "74 EAST 40TH AVE.", "city": "VANCOUVER", "province": "BC", "country": "CA", "postalCode": "V5W1L4", "twitter": "None", "instagram": "None", "facebook": "None", "youtube": "None", "website": "None", "summary": "None", "logo": "None", "latitude": 49.23450653952926, "longitude": -123.10415422162271}, "140573320RR0001": {"name": "ACTUA", "designationCode": "C", "categoryCode": "21", "address": "111 MURRAY ST", "city": "OTTAWA", "province": "ON", "country": "CA", "postalCode": "K1N5M5", "twitter": "None", "instagram": "None", "facebook": "None", "youtube": "None", "website": "None", "summary": "None", "logo": "None", "latitude": 45.430149160734665, "longitude": -75.69273213765464}, "891057796RR0001": {"name": "ACWAM OUTREACH MINISTRIES", "designationCode": "C", "categoryCode": "47", "address": "PO BOX 372, 105 CHRISTINA ST S", "city": "SARNIA", "province": "ON", "country": "CA", "postalCode": "N7T7J2", "twitter": "None", "instagram": "None", "facebook": "None", "youtube": "None", "website": "None", "summary": "None", "logo": "None", "latitude": 42.97064398906433, "longitude": -82.40794502519383}, "890795743RR0001": {"name": "ACWI HERITAGE CORP.", "designationCode": "C", "categoryCode": "52", "address": "181 HIGGINS AVE, RM 304       BOX 103", "city": "WINNIPEG", "province": "MB", "country": "CA", "postalCode": "R3B3G1", "twitter": "None", "instagram": "None", "facebook": "None", "youtube": "None", "website": "None", "summary": "None", "logo": "None", "latitude": 49.90420237001527, "longitude": -97.13186954550187}, "811094101RR0001": {"name": "AD DEUM FOUNDATION", "designationCode": "C", "categoryCode": "59", "address": "1600-1095 PENDER W ST", "city": "VANCOUVER", "province": "BC", "country": "CA", "postalCode": "V6E2M6", "twitter": "None", "instagram": "None", "facebook": "None", "youtube": "None", "website": "None", "summary": "None", "logo": "None", "latitude": 49.28823328847204, "longitude": -123.12287800965208}, "860577188RR0001": {"name": "AD VENTURES ALBERTA CHARITABLE FOUNDATION", "designationCode": "B", "categoryCode": "03", "address": "PO BOX 353", "city": "BRAGG CREEK", "province": "AB", "country": "CA", "postalCode": "T0L0K0", "twitter": "None", "instagram": "None", "facebook": "None", "youtube": "None", "website": "None", "summary": "None", "logo": "None", "latitude": 50.951040000000035, "longitude": -114.56075999999996}, "864353727RR0001": {"name": "ADA - ANXIETY DISORDERS ASSOCIATION OF BRITISH COLUMBIA", "designationCode": "C", "categoryCode": "11", "address": "311 - 409 GRANVILLE ST", "city": "VANCOUVER", "province": "BC", "country": "CA", "postalCode": "V6C1T2", "twitter": "None", "instagram": "None", "facebook": "None", "youtube": "None", "website": "None", "summary": "None", "logo": "None", "latitude": 49.28514383654554, "longitude": -123.11419112049143}, "872090105RR0001": {"name": "ADAM SCOTT FOUNDATION", "designationCode": "C", "categoryCode": "21", "address": "175 LANGTON ST.", "city": "PETERBOROUGH", "province": "ON", "country": "CA", "postalCode": "K9H6K3", "twitter": "None", "instagram": "None", "facebook": "None", "youtube": "None", "website": "None", "summary": "None", "logo": "None", "latitude": 44.328739007721985, "longitude": -78.32141562712698}, "890175573RR0001": {"name": "ADAMIWKA GREEK CATHOLIC HOLY GHOST CHURCH", "designationCode": "B", "categoryCode": "39", "address": "POST OFFICE BOX 594", "city": "ROSTHERN", "province": "SK", "country": "CA", "postalCode": "S0K3R0", "twitter": "None", "instagram": "None", "facebook": "None", "youtube": "None", "website": "None", "summary": "None", "logo": "None", "latitude": 52.66773000000006, "longitude": -106.32977999999997}, "868562745RR0001": {"name": "ADAMS LAKE COMMUNITY SOCIETY", "designationCode": "C", "categoryCode": "59", "address": "29 - 601 BEATTY AVE NW", "city": "SALMON ARM", "province": "BC", "country": "CA", "postalCode": "V1E3J6", "twitter": "None", "instagram": "None", "facebook": "None", "youtube": "None", "website": "None", "summary": "None", "logo": "None", "latitude": 50.70011417775625, "longitude": -119.29407282224376}, "118777473RR0001": {"name": "ADAPTAVIE INC.", "designationCode": "C", "categoryCode": "11", "address": "525 BOUL. HAMEL EST           LOCAL F-122", "city": "QU\u00c9BEC", "province": "QC", "country": "CA", "postalCode": "G1M2S8", "twitter": "None", "instagram": "None", "facebook": "None", "youtube": "None", "website": "None", "summary": "None", "logo": "None", "latitude": 46.819959000000054, "longitude": -71.24871049999993}, "894761030RR0001": {"name": "ADARSAN TZEDAKAH FOUNDATION", "designationCode": "B", "categoryCode": "03", "address": "676 GOLDEN AVENUE", "city": "OTTAWA", "province": "ON", "country": "CA", "postalCode": "K2A2G2", "twitter": "None", "instagram": "None", "facebook": "None", "youtube": "None", "website": "None", "summary": "None", "logo": "None", "latitude": 45.38138935414626, "longitude": -75.75357154053886}, "100048800RR0001": {"name": "ADAS ISRAEL CONGREGATION OF HAMILTON,", "designationCode": "C", "categoryCode": "42", "address": "125 CLINE AVE. SOUTH", "city": "HAMILTON", "province": "ON", "country": "CA", "postalCode": "L8S1X2", "twitter": "None", "instagram": "None", "facebook": "None", "youtube": "None", "website": "None", "summary": "None", "logo": "None", "latitude": 43.25674722147847, "longitude": -79.9109174250391}, "118777481RR0001": {"name": "ADAS YESHURUN HERZLIA CONGREGATION", "designationCode": "C", "categoryCode": "42", "address": "620 BROCK ST", "city": "WINNIPEG", "province": "MB", "country": "CA", "postalCode": "R3N0Z4", "twitter": "None", "instagram": "None", "facebook": "None", "youtube": "None", "website": "None", "summary": "None", "logo": "None", "latitude": 49.85961075797798, "longitude": -97.18888041837401}, "123272882RR0001": {"name": "ADATH ISRAEL CONGREGATION", "designationCode": "C", "categoryCode": "42", "address": "37 SOUTHBOURNE AVENUE", "city": "DOWNSVIEW", "province": "ON", "country": "CA", "postalCode": "M3H1A4", "twitter": "None", "instagram": "None", "facebook": "None", "youtube": "None", "website": "None", "summary": "None", "logo": "None", "latitude": 43.738914575596056, "longitude": -79.4310960796641}, "118777507RR0001": {"name": "ADATH SHALOM CONGREGATION", "designationCode": "C", "categoryCode": "42", "address": "31 NADOLNY SACHS PVT", "city": "OTTAWA", "province": "ON", "country": "CA", "postalCode": "K2A1R9", "twitter": "None", "instagram": "None", "facebook": "None", "youtube": "None", "website": "None", "summary": "None", "logo": "None", "latitude": 45.37610551650419, "longitude": -75.75253331672313}, "130043276RR0001": {"name": "ADDICTION SERVICES FOR YORK REGION", "designationCode": "C", "categoryCode": "57", "address": "14785 YONGE STREET, SUITE 210", "city": "AURORA", "province": "ON", "country": "CA", "postalCode": "L4G1N1", "twitter": "None", "instagram": "None", "facebook": "None", "youtube": "None", "website": "None", "summary": "None", "logo": "None", "latitude": 43.988337449910496, "longitude": -79.46480613483216}, "130561822RR0001": {"name": "ADDICTION SERVICES OF THAMES VALLEY", "designationCode": "C", "categoryCode": "57", "address": "200 QUEENS AVE. SUITE 260", "city": "LONDON", "province": "ON", "country": "CA", "postalCode": "N6A1J3", "twitter": "None", "instagram": "None", "facebook": "None", "youtube": "None", "website": "None", "summary": "None", "logo": "None", "latitude": 42.98543886652416, "longitude": -81.24867862712786}, "852954064RR0001": {"name": "ADDICTION SERVICES OF THAMES VALLEY FOUNDATION", "designationCode": "A", "categoryCode": "13", "address": "260-200 QUEENS AVENUE,", "city": "LONDON", "province": "ON", "country": "CA", "postalCode": "N6A1J3", "twitter": "None", "instagram": "None", "facebook": "None", "youtube": "None", "website": "None", "summary": "None", "logo": "None", "latitude": 42.98543886652416, "longitude": -81.24867862712786}, "118781558RR0001": {"name": "ADDICTIONS AND MENTAL HEALTH ONTARIO", "designationCode": "C", "categoryCode": "57", "address": "2002 - 180 DUNDAS ST W", "city": "TORONTO", "province": "ON", "country": "CA", "postalCode": "M5G1Z8", "twitter": "None", "instagram": "None", "facebook": "None", "youtube": "None", "website": "None", "summary": "None", "logo": "None", "latitude": 43.65505800000001, "longitude": -79.38679049999999}, "107863847RR0004": {"name": "ADDICTIONS FOUNDATION OF MANITOBA", "designationCode": "A", "categoryCode": "53", "address": "1031 PORTAGE AVENUE", "city": "WINNIPEG", "province": "MB", "country": "CA", "postalCode": "R3G0R8", "twitter": "None", "instagram": "None", "facebook": "None", "youtube": "None", "website": "None", "summary": "None", "logo": "None", "latitude": 49.8845654094003, "longitude": -97.17628505704306}, "118781566RR0001": {"name": "ADDICTIONS RECOVERY INC.", "designationCode": "C", "categoryCode": "57", "address": "PO BOX 44058 REDWOOD CENTRE   C-1155 MAIN ST", "city": "WINNIPEG", "province": "MB", "country": "CA", "postalCode": "R2W5M3", "twitter": "None", "instagram": "None", "facebook": "None", "youtube": "None", "website": "None", "summary": "None", "logo": "None", "latitude": 49.91830849789386, "longitude": -97.13005432160014}, "891114241RR0001": {"name": "ADDISON UNITED CHURCH", "designationCode": "C", "categoryCode": "44", "address": "9007 COUNTY RD 29", "city": "ADDISON", "province": "ON", "country": "CA", "postalCode": "K0E1A0", "twitter": "None", "instagram": "None", "facebook": "None", "youtube": "None", "website": "None", "summary": "None", "logo": "None", "latitude": 44.66421616022163, "longitude": -75.88559955670272}, "894226851RR0001": {"name": "ADEP ASSOCIATION POUR LE DEVELOPPEMENT PARTICIPE", "designationCode": "C", "categoryCode": "09", "address": "1999 PATRICK-FARRAR", "city": "CHAMBLY", "province": "QC", "country": "CA", "postalCode": "J3L4N7", "twitter": "None", "instagram": "None", "facebook": "None", "youtube": "None", "website": "None", "summary": "None", "logo": "None", "latitude": 45.4110094205088, "longitude": -73.28252328005074}, "133003194RR0001": {"name": "ADHIKA-PHILIPPINE DEVELOPMENT CONCERNS", "designationCode": "C", "categoryCode": "03", "address": "1610 - 21 ICEBOAT TERR", "city": "TORONTO", "province": "ON", "country": "CA", "postalCode": "M5V4A9", "twitter": "None", "instagram": "None", "facebook": "None", "youtube": "None", "website": "None", "summary": "None", "logo": "None", "latitude": 43.64059602801672, "longitude": -79.39722675491954}, "130602030RR0001": {"name": "ADJALA UNITED CHURCH", "designationCode": "C", "categoryCode": "44", "address": "8309 10TH SIDEROAD            RR #1", "city": "LORETTO", "province": "ON", "country": "CA", "postalCode": "L0G1L0", "twitter": "None", "instagram": "None", "facebook": "None", "youtube": "None", "website": "None", "summary": "None", "logo": "None", "latitude": 44.0180913595565, "longitude": -79.90631862503733}, "106685571RR0001": {"name": "ADLERIAN PSYCHOLOGY ASSOCIATION OF BRITISH COLUMBIA", "designationCode": "C", "categoryCode": "09", "address": "440 - 2184 BROADWAY W", "city": "VANCOUVER", "province": "BC", "country": "CA", "postalCode": "V6K2E1", "twitter": "None", "instagram": "None", "facebook": "None", "youtube": "None", "website": "None", "summary": "None", "logo": "None", "latitude": 49.26384550288553, "longitude": -123.1549939118818}, "106685613RR0001": {"name": "ADMASTON PASTORAL CHARGE", "designationCode": "C", "categoryCode": "44", "address": "3179 BENNETT-LAFONT ROAD", "city": "RENFREW", "province": "ON", "country": "CA", "postalCode": "K7V3Z8", "twitter": "None", "instagram": "None", "facebook": "None", "youtube": "None", "website": "None", "summary": "None", "logo": "None", "latitude": 45.54099073287636, "longitude": -76.70209086156022}, "832583744RR0001": {"name": "ADMH PARTNERS IN CARING FOUNDATION", "designationCode": "A", "categoryCode": "13", "address": "350 JOHN STREET NORTH", "city": "ARNPRIOR", "province": "ON", "country": "CA", "postalCode": "K7S2P6", "twitter": "None", "instagram": "None", "facebook": "None", "youtube": "None", "website": "None", "summary": "None", "logo": "None", "latitude": 45.44095003467163, "longitude": -76.35223024113647}, "136720026RR0001": {"name": "ADMINISTRATIVE SCIENCES ASSOCIATION OF CANADA (ASAC)/ASSOCIATION DES SCIENCES ADMINISTRATIVES DU CANADA (ASAC)", "designationCode": "C", "categoryCode": "21", "address": "SAINT MARY'S UNIVERSITY       923 ROBIE ST.", "city": "HALIFAX", "province": "NS", "country": "CA", "postalCode": "B3H3C3", "twitter": "None", "instagram": "None", "facebook": "None", "youtube": "None", "website": "None", "summary": "None", "logo": "None", "latitude": 44.63262000000003, "longitude": -63.58314999999993}, "106685712RR0001": {"name": "ADMIRAL DIGBY LIBRARY AND HISTORICAL SOCIETY", "designationCode": "C", "categoryCode": "50", "address": "PO BOX 1644                   95 MONTAGUE ROW", "city": "DIGBY", "province": "NS", "country": "CA", "postalCode": "B0V1A0", "twitter": "None", "instagram": "None", "facebook": "None", "youtube": "None", "website": "None", "summary": "None", "logo": "None", "latitude": 44.62004900138499, "longitude": -65.75472936499494}, "889683165RR0001": {"name": "ADMIRAL HOLINESS CHURCH", "designationCode": "C", "categoryCode": "39", "address": "1118 WINNIE STREET", "city": "SWIFT CURRENT", "province": "SK", "country": "CA", "postalCode": "S9H1R1", "twitter": "None", "instagram": "None", "facebook": "None", "youtube": "None", "website": "None", "summary": "None", "logo": "None", "latitude": 50.28613051399404, "longitude": -107.78433291618097}, "852615129RR0001": {"name": "ADMIRAL MURRAY NAVAL ASSOC. BURSARY FUND", "designationCode": "C", "categoryCode": "21", "address": "553 CHISHOLM ST", "city": "NEW GLASGOW", "province": "NS", "country": "CA", "postalCode": "B2H3J6", "twitter": "None", "instagram": "None", "facebook": "None", "youtube": "None", "website": "None", "summary": "None", "logo": "None", "latitude": 45.57841490175424, "longitude": -62.646460599659385}, "129206868RR0001": {"name": "ADOJEUNE INC", "designationCode": "C", "categoryCode": "01", "address": "22, RUE D'AUVERGNE", "city": "GATINEAU", "province": "QC", "country": "CA", "postalCode": "J8T6J8", "twitter": "None", "instagram": "None", "facebook": "None", "youtube": "None", "website": "None", "summary": "None", "logo": "None", "latitude": 45.4744634357436, "longitude": -75.72615884843344}, "894573674RR0001": {"name": "ADOLESCENT HEALTH & SUPPORT CENTRE", "designationCode": "C", "categoryCode": "59", "address": "202-35 WEBSTER ST", "city": "KENTVILLE", "province": "NS", "country": "CA", "postalCode": "B4N1H4", "twitter": "None", "instagram": "None", "facebook": "None", "youtube": "None", "website": "None", "summary": "None", "logo": "None", "latitude": 45.07849799896582, "longitude": -64.49794558903767}, "139423859RR0001": {"name": "ADOLESCENT'S FAMILY SUPPORT SERVICES OF NIAGARA", "designationCode": "C", "categoryCode": "09", "address": "285 EAST MAIN ST", "city": "WELLAND", "province": "ON", "country": "CA", "postalCode": "L3B3X1", "twitter": "None", "instagram": "None", "facebook": "None", "youtube": "None", "website": "None", "summary": "None", "logo": "None", "latitude": 42.99327388743543, "longitude": -79.24172058026845}, "860323112RR0001": {"name": "ADOLPH ISAAC COSINER ESTATE", "designationCode": "B", "categoryCode": "25", "address": "PO BOX 10085                  LCD PACIFIC CENTRE", "city": "VANCOUVER", "province": "BC", "country": "CA", "postalCode": "V7Y1B6", "twitter": "None", "instagram": "None", "facebook": "None", "youtube": "None", "website": "None", "summary": "None", "logo": "None", "latitude": 49.28299000000004, "longitude": -123.11890999999997}, "118777648RR0001": {"name": "ADOLPHUSTOWN UNITED CHURCH", "designationCode": "C", "categoryCode": "44", "address": "8790 BATH RD HWY 33           RR 1", "city": "BATH", "province": "ON", "country": "CA", "postalCode": "K0H1G0", "twitter": "None", "instagram": "None", "facebook": "None", "youtube": "None", "website": "None", "summary": "None", "logo": "None", "latitude": 44.10889799378554, "longitude": -76.92315542833194}, "877176305RR0001": {"name": "ADONAI RESTORATION MINISTRIES INC.", "designationCode": "C", "categoryCode": "39", "address": "207 ROBERTA AVE", "city": "WINNIPEG", "province": "MB", "country": "CA", "postalCode": "R2K0K2", "twitter": "None", "instagram": "None", "facebook": "None", "youtube": "None", "website": "None", "summary": "None", "logo": "None", "latitude": 49.9321008953776, "longitude": -97.09873506021705}, "874943301RR0001": {"name": "ADOPT-A-CHILD", "designationCode": "C", "categoryCode": "09", "address": "23 MAITLAND DRIVE", "city": "BELLEVILLE", "province": "ON", "country": "CA", "postalCode": "K8N4Z5", "twitter": "None", "instagram": "None", "facebook": "None", "youtube": "None", "website": "None", "summary": "None", "logo": "None", "latitude": 44.19555468445937, "longitude": -77.41354144659229}, "890366040RR0001": {"name": "ADOPT-A-DOG SAVE-A-LIFE INC.", "designationCode": "C", "categoryCode": "54", "address": "2 PARKER AVE", "city": "ETOBICOKE", "province": "ON", "country": "CA", "postalCode": "M8Z4L5", "twitter": "None", "instagram": "None", "facebook": "None", "youtube": "None", "website": "None", "summary": "None", "logo": "None", "latitude": 43.624575849010355, "longitude": -79.51301504789646}, "898301007RR0001": {"name": "ADOPTION ANIMALE ROSIE", "designationCode": "C", "categoryCode": "54", "address": "3551 BOULEVARD SAINT-CHARLES  BUREAU 440", "city": "KIRKLAND", "province": "QC", "country": "CA", "postalCode": "H9H3C4", "twitter": "None", "instagram": "None", "facebook": "None", "youtube": "None", "website": "None", "summary": "None", "logo": "None", "latitude": 45.456789821570574, "longitude": -73.86289059596673}, "883232837RR0001": {"name": "ADOPTION CHATS SANS ABRI", "designationCode": "C", "categoryCode": "54", "address": "575 CHEMIN DE LA CANARDI\u00c8RE", "city": "QU\u00c9BEC", "province": "QC", "country": "CA", "postalCode": "G1J2B5", "twitter": "None", "instagram": "None", "facebook": "None", "youtube": "None", "website": "None", "summary": "None", "logo": "None", "latitude": 46.82726833389116, "longitude": -71.2262701078537}, "138031596RR0001": {"name": "ADOPTION COUNCIL OF CANADA - CONSEIL D'ADOPTION DU CANADA", "designationCode": "C", "categoryCode": "59", "address": "416 - 2249 CARLING AVE", "city": "OTTAWA", "province": "ON", "country": "CA", "postalCode": "K2B7E9", "twitter": "None", "instagram": "None", "facebook": "None", "youtube": "None", "website": "None", "summary": "None", "logo": "None", "latitude": 45.3688841815452, "longitude": -75.77383296505838}, "888975372RR0001": {"name": "ADOPTION COUNCIL OF ONTARIO", "designationCode": "C", "categoryCode": "09", "address": "202 - 36 EGLINTON AVE W", "city": "TORONTO", "province": "ON", "country": "CA", "postalCode": "M4R1A1", "twitter": "None", "instagram": "None", "facebook": "None", "youtube": "None", "website": "None", "summary": "None", "logo": "None", "latitude": 43.706429223440374, "longitude": -79.39989737552654}, "118777655RR0001": {"name": "ADOPTION OPTIONS ALBERTA LTD.", "designationCode": "C", "categoryCode": "59", "address": "304-10109-106 ST", "city": "EDMONTON", "province": "AB", "country": "CA", "postalCode": "T5J3L7", "twitter": "None", "instagram": "None", "facebook": "None", "youtube": "None", "website": "None", "summary": "None", "logo": "None", "latitude": 53.54115998834325, "longitude": -113.50287738395198}, "133231233RR0001": {"name": "ADOPTION OPTIONS MANITOBA INC", "designationCode": "C", "categoryCode": "59", "address": "1313 PORTAGE AVENUE", "city": "WINNIPEG", "province": "MB", "country": "CA", "postalCode": "R3G0V3", "twitter": "None", "instagram": "None", "facebook": "None", "youtube": "None", "website": "None", "summary": "None", "logo": "None", "latitude": 49.882801263402314, "longitude": -97.18826695934557}, "140650805RR0001": {"name": "ADOPTION SUPPORT CENTRE OF SASKATCHEWAN, INC.", "designationCode": "C", "categoryCode": "59", "address": "527 MAIN ST                   UNIT 1A", "city": "SASKATOON", "province": "SK", "country": "CA", "postalCode": "S7N0C2", "twitter": "None", "instagram": "None", "facebook": "None", "youtube": "None", "website": "None", "summary": "None", "logo": "None", "latitude": 52.11682251154119, "longitude": -106.65779319317329}, "118777671RR0001": {"name": "ADOPTIVE FAMILIES ASSOCIATION OF BRITISH COLUMBIA", "designationCode": "C", "categoryCode": "09", "address": "#200 - 7342 WINSTON STREET", "city": "BURNABY", "province": "BC", "country": "CA", "postalCode": "V5A2H1", "twitter": "None", "instagram": "None", "facebook": "None", "youtube": "None", "website": "None", "summary": "None", "logo": "None", "latitude": 49.2499014921415, "longitude": -122.95030636084228}, "132056813RR0001": {"name": "ADRA CANADA", "designationCode": "C", "categoryCode": "03", "address": "20 ROBERT ST W", "city": "NEWCASTLE", "province": "ON", "country": "CA", "postalCode": "L1B1C6", "twitter": "None", "instagram": "None", "facebook": "None", "youtube": "None", "website": "None", "summary": "None", "logo": "None", "latitude": 43.91212994312985, "longitude": -78.58724831017359}, "886071802RR0001": {"name": "ADRIANA & ROCKY LOFRANCO CHARITABLE FOUNDATION", "designationCode": "B", "categoryCode": "03", "address": "4950 YONGE ST. STE 600", "city": "TORONTO", "province": "ON", "country": "CA", "postalCode": "M2N6K1", "twitter": "None", "instagram": "None", "facebook": "None", "youtube": "None", "website": "None", "summary": "None", "logo": "None", "latitude": 43.764914169571306, "longitude": -79.4118300078476}, "132257031RR0001": {"name": "ADSUM ASSOCIATION FOR WOMEN & CHILDREN", "designationCode": "C", "categoryCode": "01", "address": "2421 BRUNSWICK ST", "city": "HALIFAX", "province": "NS", "country": "CA", "postalCode": "B3K2Z4", "twitter": "None", "instagram": "None", "facebook": "None", "youtube": "None", "website": "None", "summary": "None", "logo": "None", "latitude": 44.656103723296134, "longitude": -63.58622307908717}, "837393271RR0001": {"name": "ADULLAM CAMP MINISTRIES", "designationCode": "C", "categoryCode": "49", "address": "64 WYANDOTT STREET", "city": "CHATHAM", "province": "ON", "country": "CA", "postalCode": "N7M2T3", "twitter": "None", "instagram": "None", "facebook": "None", "youtube": "None", "website": "None", "summary": "None", "logo": "None", "latitude": 42.387303772952954, "longitude": -82.1736953884527}, "131766933RR0001": {"name": "ADULT BASIC EDUCATION ASSOCIATION OF HAMILTON-WENTWORTH", "designationCode": "C", "categoryCode": "59", "address": "117 - 77 JAMES ST N", "city": "HAMILTON", "province": "ON", "country": "CA", "postalCode": "L8R2K3", "twitter": "None", "instagram": "None", "facebook": "None", "youtube": "None", "website": "None", "summary": "None", "logo": "None", "latitude": 43.25848239855161, "longitude": -79.86832355277254}, "846418630RR0001": {"name": "ADULT DISABLED DOWNHILL SKIING (A.D.D.S.)", "designationCode": "C", "categoryCode": "56", "address": "730 EGLINTON AVENUE EAST", "city": "TORONTO", "province": "ON", "country": "CA", "postalCode": "M4G2K7", "twitter": "None", "instagram": "None", "facebook": "None", "youtube": "None", "website": "None", "summary": "None", "logo": "None", "latitude": 43.712871190691786, "longitude": -79.36840697766742}, "119066090RR0001": {"name": "ADULT INTEGRATED MENTAL HEALTH SERVICES SOCIETY", "designationCode": "C", "categoryCode": "01", "address": "9 - 3151 LAKESHORE RD         STE 497", "city": "KELOWNA", "province": "BC", "country": "CA", "postalCode": "V1W3S9", "twitter": "None", "instagram": "None", "facebook": "None", "youtube": "None", "website": "None", "summary": "None", "logo": "None", "latitude": 49.86092555214848, "longitude": -119.49116409717426}, "869655985RR0001": {"name": "ADULT LEARNING ASSOCIATION OF CAPE BRETON COUNTY", "designationCode": "C", "categoryCode": "21", "address": "PO BOX 1283", "city": "SYDNEY", "province": "NS", "country": "CA", "postalCode": "B1P6J9", "twitter": "None", "instagram": "None", "facebook": "None", "youtube": "None", "website": "None", "summary": "None", "logo": "None", "latitude": 46.137372000000056, "longitude": -60.19552249999994}, "107375644RR0001": {"name": "ADULT RECREATION THERAPY CENTRE", "designationCode": "C", "categoryCode": "09", "address": "58 EASTON RD", "city": "BRANTFORD", "province": "ON", "country": "CA", "postalCode": "N3P1J5", "twitter": "None", "instagram": "None", "facebook": "None", "youtube": "None", "website": "None", "summary": "None", "logo": "None", "latitude": 43.176907485457704, "longitude": -80.24050671354397}, "861370682RR0001": {"name": "ADULT RECREATIONAL CHOIR SOCIETY OF CALGARY", "designationCode": "C", "categoryCode": "22", "address": "BOX 68242                     28 CROWFOOT TERRACE NW", "city": "CALGARY", "province": "AB", "country": "CA", "postalCode": "T3G3N8", "twitter": "None", "instagram": "None", "facebook": "None", "youtube": "None", "website": "None", "summary": "None", "logo": "None", "latitude": 51.126918356115524, "longitude": -114.19876515827268}, "739185692RR0001": {"name": "ADVANCE CHRISTIAN CHURCH CALGARY", "designationCode": "C", "categoryCode": "39", "address": "45 LEGACY TERR SE", "city": "CALGARY", "province": "AB", "country": "CA", "postalCode": "T2X0X8", "twitter": "None", "instagram": "None", "facebook": "None", "youtube": "None", "website": "None", "summary": "None", "logo": "None", "latitude": 50.8568497764887, "longitude": -114.01559497323423}, "106686488RR0001": {"name": "ADVANCE SOCIETY INNISFAIL: SUPPORT FOR DEVELOPMENTALLY DISABLED", "designationCode": "C", "categoryCode": "59", "address": "4404 49 AVE", "city": "INNISFAIL", "province": "AB", "country": "CA", "postalCode": "T4G1M7", "twitter": "None", "instagram": "None", "facebook": "None", "youtube": "None", "website": "None", "summary": "None", "logo": "None", "latitude": 52.02191607799065, "longitude": -113.94713687105447}, "131966178RR0001": {"name": "ADVANCED CORONARY TREATMENT (ACT) FOUNDATION OF CANADA, INC.", "designationCode": "C", "categoryCode": "19", "address": "2-379 HOLLAND AVE", "city": "OTTAWA", "province": "ON", "country": "CA", "postalCode": "K1Y0Y9", "twitter": "None", "instagram": "None", "facebook": "None", "youtube": "None", "website": "None", "summary": "None", "logo": "None", "latitude": 45.39339607605741, "longitude": -75.72818053840408}, "860508993RR0001": {"name": "ADVANCEMENT OF SCRIPTURE KNOWLEDGE ATLANTIC (ASKA)", "designationCode": "C", "categoryCode": "39", "address": "70 OCHTERLONEY ST. UNIT 302", "city": "DARTMOUTH", "province": "NS", "country": "CA", "postalCode": "B2Y1C2", "twitter": "None", "instagram": "None", "facebook": "None", "youtube": "None", "website": "None", "summary": "None", "logo": "None", "latitude": 44.66711171994926, "longitude": -63.56782241658499}, "886696194RR0001": {"name": "ADVANCEMENT OF SCRIPTURE KNOWLEDGE GREAT LAKES REGION", "designationCode": "C", "categoryCode": "47", "address": "113 TAYLOR AVENUE", "city": "CAMBRIDGE", "province": "ON", "country": "CA", "postalCode": "N1R7M3", "twitter": "None", "instagram": "None", "facebook": "None", "youtube": "None", "website": "None", "summary": "None", "logo": "None", "latitude": 43.35146471885273, "longitude": -80.29047849676869}, "866873243RR0001": {"name": "ADVANCING INDIGENOUS MISSIONS", "designationCode": "C", "categoryCode": "47", "address": "235 PRINCESS STREET", "city": "WINNIPEG", "province": "MB", "country": "CA", "postalCode": "R3B1L9", "twitter": "None", "instagram": "None", "facebook": "None", "youtube": "None", "website": "None", "summary": "None", "logo": "None", "latitude": 49.90222538051818, "longitude": -97.1393934849677}, "118777804RR0001": {"name": "ADVANCING THE MINISTRIES OF THE GOSPEL INTERNATIONAL", "designationCode": "C", "categoryCode": "47", "address": "70 SATCHELL BLVD", "city": "TORONTO", "province": "ON", "country": "CA", "postalCode": "M1C3B4", "twitter": "None", "instagram": "None", "facebook": "None", "youtube": "None", "website": "None", "summary": "None", "logo": "None", "latitude": 43.78772245158395, "longitude": -79.15657222534495}, "118777820RR0001": {"name": "ADVENT CHRISTIAN CHURCH", "designationCode": "C", "categoryCode": "39", "address": "P.O.BOX 31", "city": "BEAR RIVER", "province": "NS", "country": "CA", "postalCode": "B0S1B0", "twitter": "None", "instagram": "None", "facebook": "None", "youtube": "None", "website": "None", "summary": "None", "logo": "None", "latitude": 44.57421000000005, "longitude": -65.65773999999993}, "888188463RR0001": {"name": "ADVENT CHRISTIAN CHURCH", "designationCode": "C", "categoryCode": "39", "address": "2650 CEDARVILLE RD", "city": "OGDEN", "province": "QC", "country": "CA", "postalCode": "J0B3E3", "twitter": "None", "instagram": "None", "facebook": "None", "youtube": "None", "website": "None", "summary": "None", "logo": "None", "latitude": 45.0251995072408, "longitude": -72.21410834023115}, "107786584RR0001": {"name": "ADVENT HEALTH CARE CORPORATION", "designationCode": "C", "categoryCode": "10", "address": "541 FINCH AVE WEST", "city": "TORONTO", "province": "ON", "country": "CA", "postalCode": "M2R3Y3", "twitter": "None", "instagram": "None", "facebook": "None", "youtube": "None", "website": "None", "summary": "None", "logo": "None", "latitude": 43.77306241073215, "longitude": -79.4469466001084}, "106686603RR0001": {"name": "ADVENT LUTHERAN CHURCH", "designationCode": "C", "categoryCode": "32", "address": "BOX 496", "city": "EVANSBURG", "province": "AB", "country": "CA", "postalCode": "T0E0T0", "twitter": "None", "instagram": "None", "facebook": "None", "youtube": "None", "website": "None", "summary": "None", "logo": "None", "latitude": 53.59391000000005, "longitude": -115.02120999999994}, "118777887RR0001": {"name": "ADVENT LUTHERAN CHURCH", "designationCode": "C", "categoryCode": "32", "address": "52 CARIBOU RD", "city": "THOMPSON", "province": "MB", "country": "CA", "postalCode": "R8N0L1", "twitter": "None", "instagram": "None", "facebook": "None", "youtube": "None", "website": "None", "summary": "None", "logo": "None", "latitude": 55.74300023617617, "longitude": -97.86088765362545}, "118777903RR0001": {"name": "ADVENT LUTHERAN CHURCH", "designationCode": "C", "categoryCode": "32", "address": "11 SCENIC ACRES GATE NW", "city": "CALGARY", "province": "AB", "country": "CA", "postalCode": "T3L1E4", "twitter": "None", "instagram": "None", "facebook": "None", "youtube": "None", "website": "None", "summary": "None", "logo": "None", "latitude": 51.11424102801673, "longitude": -114.20987995519063}, "132350349RR0001": {"name": "ADVENT LUTHERAN CHURCH,", "designationCode": "C", "categoryCode": "32", "address": "2800 DON MILLS ROAD", "city": "NORTH YORK", "province": "ON", "country": "CA", "postalCode": "M2J3B6", "twitter": "None", "instagram": "None", "facebook": "None", "youtube": "None", "website": "None", "summary": "None", "logo": "None", "latitude": 43.78002035832985, "longitude": -79.34947577240469}, "885908632RR0001": {"name": "ADVENTIST CARE FOUNDATION INC.", "designationCode": "A", "categoryCode": "03", "address": "301 REDONDA ST", "city": "WINNIPEG", "province": "MB", "country": "CA", "postalCode": "R2C1L7", "twitter": "None", "instagram": "None", "facebook": "None", "youtube": "None", "website": "None", "summary": "None", "logo": "None", "latitude": 49.900248000000005, "longitude": -96.97989612565597}, "875949224RR0001": {"name": "ADVENTIST COMMUNITY SERVICES - WINNIPEG", "designationCode": "C", "categoryCode": "09", "address": "91 STADACONA STREET", "city": "WINNIPEG", "province": "MB", "country": "CA", "postalCode": "R2L1R1", "twitter": "None", "instagram": "None", "facebook": "None", "youtube": "None", "website": "None", "summary": "None", "logo": "None", "latitude": 49.90885952464682, "longitude": -97.10969233378017}}