{"119008621RR0001": {"name": "L'ASSOCIATION DE LA COLONIE DE VACANCES DE GRANBY", "designationCode": "C", "categoryCode": "56", "address": "C.P. #4", "city": "GRANBY", "province": "QC", "country": "CA", "postalCode": "J2G8E2", "twitter": "None", "instagram": "None", "facebook": "None", "youtube": "None", "website": "None", "summary": "None", "logo": "None", "latitude": 45.40189939908514, "longitude": -72.72572603296238}, "888241874RR0001": {"name": "L'ASSOCIATION DE LA COMMUNAUTE CHALDEENE DU QUEBEC", "designationCode": "C", "categoryCode": "09", "address": "3554 PLACE JOEL", "city": "LAVAL", "province": "QC", "country": "CA", "postalCode": "H7P5C8", "twitter": "None", "instagram": "None", "facebook": "None", "youtube": "None", "website": "None", "summary": "None", "logo": "None", "latitude": 45.564400340008, "longitude": -73.80887926519132}, "876575226RR0001": {"name": "L'ASSOCIATION DE LA GARDERIE DES ENFANTS DE L'ECOLE BILINGUE", "designationCode": "C", "categoryCode": "01", "address": "1166 W. 14TH AVE", "city": "VANCOUVER", "province": "BC", "country": "CA", "postalCode": "V6H1P6", "twitter": "None", "instagram": "None", "facebook": "None", "youtube": "None", "website": "None", "summary": "None", "logo": "None", "latitude": 49.25875648066854, "longitude": -123.13034380252755}, "119008654RR0001": {"name": "L'ASSOCIATION DE MONUMENT NATIONAL-DE-NOTRE-DAME DE L'ASSOMPTION INC.", "designationCode": "C", "categoryCode": "52", "address": "2 RUE ST JOSPEH", "city": "ROGERSVILLE", "province": "NB", "country": "CA", "postalCode": "E4Y2H2", "twitter": "None", "instagram": "None", "facebook": "None", "youtube": "None", "website": "None", "summary": "None", "logo": "None", "latitude": 46.73190222214398, "longitude": -65.42557147820611}, "887361681RR0001": {"name": "L'ASSOCIATION DE PARENTS D'ENFANT TRISOMIQUE-21 LANAUDIERE", "designationCode": "C", "categoryCode": "59", "address": "245, CH. DES ANGLAIS", "city": "MASCOUCHE", "province": "QC", "country": "CA", "postalCode": "J7L3P3", "twitter": "None", "instagram": "None", "facebook": "None", "youtube": "None", "website": "None", "summary": "None", "logo": "None", "latitude": 45.73084100695356, "longitude": -73.65564451321464}, "134529536RR0001": {"name": "L'ASSOCIATION DE PRIERES JOHN MAIN/THE JOHN MAIN PRAYER ASSOCIATION", "designationCode": "C", "categoryCode": "46", "address": "2000 SHERBROOKE OUEST", "city": "MONTREAL", "province": "QC", "country": "CA", "postalCode": "H3H1G4", "twitter": "None", "instagram": "None", "facebook": "None", "youtube": "None", "website": "None", "summary": "None", "logo": "None", "latitude": 45.49368344489018, "longitude": -73.5842704953837}, "106734338RR0001": {"name": "L'ASSOCIATION DE PROTECTION DE LA RIVIERE MOISIE INC.", "designationCode": "C", "categoryCode": "59", "address": "660 BOUL. LAURE LOCAL 103", "city": "SEPT-ILES", "province": "QC", "country": "CA", "postalCode": "G4R1X9", "twitter": "None", "instagram": "None", "facebook": "None", "youtube": "None", "website": "None", "summary": "None", "logo": "None", "latitude": 50.21692957397993, "longitude": -66.38024271715064}, "119008670RR0001": {"name": "L'ASSOCIATION DE PUBLICATION FLM-FLM PUBLISHING ASSOCIATION", "designationCode": "C", "categoryCode": "21", "address": "PO BOX 4400 STN A", "city": "FREDERICTON", "province": "NB", "country": "CA", "postalCode": "E3B5A3", "twitter": "None", "instagram": "None", "facebook": "None", "youtube": "None", "website": "None", "summary": "None", "logo": "None", "latitude": 45.96062100000006, "longitude": -66.63911299999994}, "125111781RR0001": {"name": "L'ASSOCIATION DE REPENTIGNY POUR L'AVANCEMENT DE LA MUSIQUE L'ARAM", "designationCode": "C", "categoryCode": "22", "address": "101-543 RUE NOTRE-DAME", "city": "REPENTIGNY", "province": "QC", "country": "CA", "postalCode": "J6A2T8", "twitter": "None", "instagram": "None", "facebook": "None", "youtube": "None", "website": "None", "summary": "None", "logo": "None", "latitude": 45.7437923422297, "longitude": -73.43956487541097}, "107600736RR0001": {"name": "L'ASSOCIATION DE SPINA BIFIDA ET D'HYDROCEPHALIE DU QUEBEC-QUEBEC SPINA BIFIDA & HYDROCEPHALUS ASSOCIATION", "designationCode": "C", "categoryCode": "11", "address": "7000, AV. DU PARC, PORTE 309", "city": "MONTREAL", "province": "QC", "country": "CA", "postalCode": "H3N1X1", "twitter": "None", "instagram": "None", "facebook": "None", "youtube": "None", "website": "None", "summary": "None", "logo": "None", "latitude": 45.52974575434264, "longitude": -73.62027633265039}, "119008787RR0004": {"name": "L'ASSOCIATION DES \u00c9GLISES DES FR\u00c8RES MENNONITES DE LA PROVINCE DE QU\u00c9BEC", "designationCode": "C", "categoryCode": "34", "address": "4824 CH. DE LA C\u00d4TE-DES-NEIGESBUREAU 301", "city": "MONTR\u00c9AL", "province": "QC", "country": "CA", "postalCode": "H3V1G4", "twitter": "None", "instagram": "None", "facebook": "None", "youtube": "None", "website": "None", "summary": "None", "logo": "None", "latitude": 45.49532050288555, "longitude": -73.61328180391251}, "845191782RR0001": {"name": "L'ASSOCIATION DES \u00c9TUDES DU PROCHE-ORIENT ANCIEN / THE SOCIETY FOR NEAR EASTERN STUDIES", "designationCode": "C", "categoryCode": "21", "address": "C.P.8888, SUCCURSALE          CENTRE-VILLE", "city": "MONTR\u00c9AL", "province": "QC", "country": "CA", "postalCode": "H3C3P8", "twitter": "None", "instagram": "None", "facebook": "None", "youtube": "None", "website": "None", "summary": "None", "logo": "None", "latitude": 45.49833600000005, "longitude": -73.55148649999994}, "896362274RR0001": {"name": "L'ASSOCIATION DES AIDANTS NATURELS ET AIDANTES NATURELLES DUBASSIN MASKINONGE \"MAINS TENDRES\"", "designationCode": "C", "categoryCode": "09", "address": "2501 RUE LAFLECHE", "city": "SAINT-PAULIN", "province": "QC", "country": "CA", "postalCode": "J0K3G0", "twitter": "None", "instagram": "None", "facebook": "None", "youtube": "None", "website": "None", "summary": "None", "logo": "None", "latitude": 46.41477821856521, "longitude": -73.01426900256747}, "872181821RR0001": {"name": "L'ASSOCIATION DES ANCIENS, ANCIENNES ET AMI-E-S DU COLL\u00c8GE COMMUNAUTAIRE DE CAMPBELLTON INC.", "designationCode": "C", "categoryCode": "21", "address": "CP 309", "city": "CAMPBELLTON", "province": "NB", "country": "CA", "postalCode": "E3N3G7", "twitter": "None", "instagram": "None", "facebook": "None", "youtube": "None", "website": "None", "summary": "None", "logo": "None", "latitude": 47.99757300000006, "longitude": -66.66103249999993}, "119008779RR0001": {"name": "L'ASSOCIATION DES AUXILIAIRES BENEVOLES DE L'HOPITAL MAISONNEUVE-ROSEMONT", "designationCode": "C", "categoryCode": "15", "address": "5415 BOUL DE L'ASSOMPTION     PAULETTE SICARD", "city": "MONTREAL", "province": "QC", "country": "CA", "postalCode": "H1T2M4", "twitter": "None", "instagram": "None", "facebook": "None", "youtube": "None", "website": "None", "summary": "None", "logo": "None", "latitude": 45.57324177293997, "longitude": -73.55892172905466}, "119008712RR0001": {"name": "L'ASSOCIATION DES AUXILIAIRES BENEVOLES DES ESTABLISSEMENTS DE SANTE DU QUEBEC", "designationCode": "C", "categoryCode": "19", "address": "505 BOUL DE MAISONNEUVE O 400", "city": "MONTREAL", "province": "QC", "country": "CA", "postalCode": "H3A3C2", "twitter": "None", "instagram": "None", "facebook": "None", "youtube": "None", "website": "None", "summary": "None", "logo": "None", "latitude": 45.50548035749312, "longitude": -73.57047988582697}, "118793017RR0001": {"name": "L'ASSOCIATION DES AUXILIAIRES BENEVOLES DU CENTRE ST-LAMBERT (CHSLD DE LA MRC DE CHAMPLAIN)", "designationCode": "C", "categoryCode": "19", "address": "831 AV NOTRE-DAME, BUR 114", "city": "SAINT-LAMBERT", "province": "QC", "country": "CA", "postalCode": "J4R1S1", "twitter": "None", "instagram": "None", "facebook": "None", "youtube": "None", "website": "None", "summary": "None", "logo": "None", "latitude": 45.49841917317798, "longitude": -73.50339066530078}, "870266863RR0001": {"name": "L'ASSOCIATION DES AUXILIAIRES DU CENTRE D'ACCUEIL CHAMPLAIN", "designationCode": "C", "categoryCode": "19", "address": "275 RUE PERRIER", "city": "VANIER", "province": "ON", "country": "CA", "postalCode": "K1L5C6", "twitter": "None", "instagram": "None", "facebook": "None", "youtube": "None", "website": "None", "summary": "None", "logo": "None", "latitude": 45.44290663670716, "longitude": -75.66015224190646}, "135507531RR0001": {"name": "L'ASSOCIATION DES B\u00c9N\u00c9VOLES DU C.H.S.L.D. VIGI PIERREFONDS INC.", "designationCode": "C", "categoryCode": "09", "address": "14775 BOUL PIERREFONDS", "city": "PIERREFONDS", "province": "QC", "country": "CA", "postalCode": "H9H4Y1", "twitter": "None", "instagram": "None", "facebook": "None", "youtube": "None", "website": "None", "summary": "None", "logo": "None", "latitude": 45.485238507934525, "longitude": -73.85809551961994}, "863534426RR0001": {"name": "L'ASSOCIATION DES BENEVOLES DU CHSLD CHANOINE-AUDET", "designationCode": "C", "categoryCode": "09", "address": "2155 CH DU SAULT", "city": "LEVIS", "province": "QC", "country": "CA", "postalCode": "G6W2K7", "twitter": "None", "instagram": "None", "facebook": "None", "youtube": "None", "website": "None", "summary": "None", "logo": "None", "latitude": 46.75502168584435, "longitude": -71.23735679756454}, "891923773RR0001": {"name": "L'ASSOCIATION DES BENEVOLES DU CHSLD VIGI DOLLARD-DES-ORMEAUX INC.", "designationCode": "C", "categoryCode": "01", "address": "197 THORNHILL", "city": "DOLLARD DES ORMEAUX", "province": "QC", "country": "CA", "postalCode": "H9B3H8", "twitter": "None", "instagram": "None", "facebook": "None", "youtube": "None", "website": "None", "summary": "None", "logo": "None", "latitude": 45.47974128758123, "longitude": -73.81570499157455}, "889827457RR0001": {"name": "L'ASSOCIATION DES BENEVOLES DU FOYER DE CHARLESBOURG", "designationCode": "C", "categoryCode": "09", "address": "797 RUE DES CALCEDOINES", "city": "QUEBEC", "province": "QC", "country": "CA", "postalCode": "G2L2T3", "twitter": "None", "instagram": "None", "facebook": "None", "youtube": "None", "website": "None", "summary": "None", "logo": "None", "latitude": 46.877274546742626, "longitude": -71.25073245614291}, "107600363RR0001": {"name": "L'ASSOCIATION DES CENTRES JEUNESSE DU QUEBEC", "designationCode": "C", "categoryCode": "59", "address": "1001 BOUL. DE MAISONNEUVE O.  SUITE 410", "city": "MONTREAL", "province": "QC", "country": "CA", "postalCode": "H3A3C8", "twitter": "None", "instagram": "None", "facebook": "None", "youtube": "None", "website": "None", "summary": "None", "logo": "None", "latitude": 45.50139672606609, "longitude": -73.57428365044137}, "891654576RR0001": {"name": "L'ASSOCIATION DES CHEVALIERS BENEVOLES DE L'HOTEL-DIEU DE ST-HYACINTHE", "designationCode": "C", "categoryCode": "19", "address": "1800 RUE DESSAULLES", "city": "ST-HYACINTHE", "province": "QC", "country": "CA", "postalCode": "J2S2T2", "twitter": "None", "instagram": "None", "facebook": "None", "youtube": "None", "website": "None", "summary": "None", "logo": "None", "latitude": 45.62536457269854, "longitude": -72.94960190490643}, "880396601RR0001": {"name": "L'ASSOCIATION DES CHEVALIERS DU LOTUS D'OR / ASSOCIATION OF THE KNIGHTS OF THE GOLDEN LOTUS", "designationCode": "C", "categoryCode": "39", "address": "7060 COLUMBIA RIVER ROAD      P.O. BOX 188", "city": "WASA", "province": "BC", "country": "CA", "postalCode": "V0B2K0", "twitter": "None", "instagram": "None", "facebook": "None", "youtube": "None", "website": "None", "summary": "None", "logo": "None", "latitude": 34.026556920701815, "longitude": -81.06525126616926}, "118792993RR0001": {"name": "L'ASSOCIATION DES DAMES AUXILIAIRES DE L'HOPITAL ST-JOSEPH DE LA PROVIDENCE", "designationCode": "C", "categoryCode": "19", "address": "11844 AV DE BOIS-DE-BOULOGNE", "city": "MONTREAL", "province": "QC", "country": "CA", "postalCode": "H3M2X7", "twitter": "None", "instagram": "None", "facebook": "None", "youtube": "None", "website": "None", "summary": "None", "logo": "None", "latitude": 45.541535136794074, "longitude": -73.69042176591248}, "138799911RR0001": {"name": "L'ASSOCIATION DES FAMILLES MONOPARENTALES ET RECOMPOSEES DE L'OUTAOUAIS", "designationCode": "C", "categoryCode": "09", "address": "85 BOUL SAINT-JOSEPH", "city": "GATINEAU", "province": "QC", "country": "CA", "postalCode": "J8Y3W6", "twitter": "None", "instagram": "None", "facebook": "None", "youtube": "None", "website": "None", "summary": "None", "logo": "None", "latitude": 45.428976000000006, "longitude": -75.73340213685137}, "129645172RR0001": {"name": "L'ASSOCIATION DES FOYERS DE GROUPE DU MADAWASKA INC", "designationCode": "C", "categoryCode": "01", "address": "CP 666  STN MAIN", "city": "EDMUNDSTON", "province": "NB", "country": "CA", "postalCode": "E3V3S1", "twitter": "None", "instagram": "None", "facebook": "None", "youtube": "None", "website": "None", "summary": "None", "logo": "None", "latitude": 47.37372000000006, "longitude": -68.32513249999994}, "119008795RR0001": {"name": "L'ASSOCIATION DES GRANDS BRULES F.L.AM.", "designationCode": "C", "categoryCode": "09", "address": "1750, AVE. DE VITRE           BUREAU 102", "city": "QU\u00c9BEC", "province": "QC", "country": "CA", "postalCode": "G1J1Z6", "twitter": "None", "instagram": "None", "facebook": "None", "youtube": "None", "website": "None", "summary": "None", "logo": "None", "latitude": 46.83707973772288, "longitude": -71.22379533582438}, "890495781RR0001": {"name": "L'ASSOCIATION DES GROUPES DE JEUNES DES HAUTS-RELIEFS", "designationCode": "C", "categoryCode": "09", "address": "210 CARON", "city": "HAM NORD", "province": "QC", "country": "CA", "postalCode": "G0P1A0", "twitter": "None", "instagram": "None", "facebook": "None", "youtube": "None", "website": "None", "summary": "None", "logo": "None", "latitude": 45.90321626839399, "longitude": -71.64441851139696}, "119015931RR0001": {"name": "L'ASSOCIATION DES GROUPES DE VIE MARIALE, MARIE-MERE-DE-L'EGLISE", "designationCode": "C", "categoryCode": "49", "address": "1795, RUE GRANT", "city": "LONGUEUIL", "province": "QC", "country": "CA", "postalCode": "J4J3V7", "twitter": "None", "instagram": "None", "facebook": "None", "youtube": "None", "website": "None", "summary": "None", "logo": "None"}, "894391069RR0001": {"name": "L'ASSOCIATION DES JURISTES CATHOLIQUES DU QU\u00c9BEC", "designationCode": "C", "categoryCode": "59", "address": "11903 RUE JAMES-MORRICE", "city": "MONTR\u00c9AL", "province": "QC", "country": "CA", "postalCode": "H3M2G5", "twitter": "None", "instagram": "None", "facebook": "None", "youtube": "None", "website": "None", "summary": "None", "logo": "None", "latitude": 45.53709720067511, "longitude": -73.69685566873457}, "119008860RR0001": {"name": "L'ASSOCIATION DES JURISTES D'EXPRESSION FRANCAISE DE L'ONTARIO", "designationCode": "C", "categoryCode": "23", "address": "1400 - 85 ALBERT ST", "city": "OTTAWA", "province": "ON", "country": "CA", "postalCode": "K1P6A4", "twitter": "None", "instagram": "None", "facebook": "None", "youtube": "None", "website": "None", "summary": "None", "logo": "None", "latitude": 45.42076882295, "longitude": -75.69835894262502}, "130623234RR0001": {"name": "L'ASSOCIATION DES LARYNGECTOMISES DE MONTREAL INC/MONTREAL ASSOCIATION OF LARYNGECTOMEES", "designationCode": "C", "categoryCode": "11", "address": "5565 SHERBROOKE EST", "city": "MONTREAL", "province": "QC", "country": "CA", "postalCode": "H1N1A2", "twitter": "None", "instagram": "None", "facebook": "None", "youtube": "None", "website": "None", "summary": "None", "logo": "None", "latitude": 45.57127880609907, "longitude": -73.55061032157265}, "891330599RR0001": {"name": "L'ASSOCIATION DES PARENTS D'ADOS DU FJORD", "designationCode": "C", "categoryCode": "59", "address": "864 RUE DE LA FABRIQUE", "city": "LA BAIE", "province": "QC", "country": "CA", "postalCode": "G7B2S8", "twitter": "None", "instagram": "None", "facebook": "None", "youtube": "None", "website": "None", "summary": "None", "logo": "None", "latitude": 48.340547158520124, "longitude": -70.88075653554719}, "133722595RR0001": {"name": "L'ASSOCIATION DES PARENTS D'ENFANTS HANDICAPES DU TEMISCAMINGUE INC", "designationCode": "C", "categoryCode": "09", "address": "3 RUE INDUSTRIELLE BUREAU 4", "city": "VILLE-MARIE", "province": "QC", "country": "CA", "postalCode": "J9V1S3", "twitter": "None", "instagram": "None", "facebook": "None", "youtube": "None", "website": "None", "summary": "None", "logo": "None", "latitude": 47.32957209965941, "longitude": -79.43485671397664}, "887384394RR0001": {"name": "L'ASSOCIATION DES PARENTS DES ENFANTS HANDICAP\u00c9S RICHELIEU-VAL-MASKA", "designationCode": "C", "categoryCode": "09", "address": "16675, AVENUE DESROCHERS", "city": "SAINT-HYACINTHE", "province": "QC", "country": "CA", "postalCode": "J2T3K3", "twitter": "None", "instagram": "None", "facebook": "None", "youtube": "None", "website": "None", "summary": "None", "logo": "None", "latitude": 45.61994963030186, "longitude": -72.93371918541166}, "119008928RR0001": {"name": "L'ASSOCIATION DES PARENTS DES PETITS MUSICIENS DE SAINT-NOELDE THETFORD INC.", "designationCode": "C", "categoryCode": "22", "address": "375 RUE LABB\u00c9", "city": "THETFORD-MINES", "province": "QC", "country": "CA", "postalCode": "G6G1Z4", "twitter": "None", "instagram": "None", "facebook": "None", "youtube": "None", "website": "None", "summary": "None", "logo": "None", "latitude": 46.098617970050036, "longitude": -71.29747433599726}, "131202913RR0001": {"name": "L'ASSOCIATION DES PERSONNES AGEES DE LA RESIDENCE DE LA BAIE-DES-CHALEURS / THE CHALEUR BAY SENIORS'RESIDENCE ASSOCIATIO", "designationCode": "C", "categoryCode": "01", "address": "196 PERRON BLVD W CP 1258", "city": "NEW RICHMOND", "province": "QC", "country": "CA", "postalCode": "G0C2B0", "twitter": "None", "instagram": "None", "facebook": "None", "youtube": "None", "website": "None", "summary": "None", "logo": "None", "latitude": 48.166019232615646, "longitude": -65.86729882344648}, "100301878RR0001": {"name": "L'ASSOCIATION DES PERSONNES HANDICAP\u00c9ES MATAWINIE APHM INC.", "designationCode": "C", "categoryCode": "59", "address": "4046, RUE QUEEN", "city": "RAWDON", "province": "QC", "country": "CA", "postalCode": "J0K1S0", "twitter": "None", "instagram": "None", "facebook": "None", "youtube": "None", "website": "None", "summary": "None", "logo": "None", "latitude": 46.05209822678726, "longitude": -73.72164571533297}, "120494877RR0001": {"name": "L'ASSOCIATION DES PERSONNES HANDICAPEES DE BELLECHASSE (L'A P H B )", "designationCode": "C", "categoryCode": "09", "address": "355 RUE SAINT-JEAN", "city": "HONFLEUR", "province": "QC", "country": "CA", "postalCode": "G0R1N0", "twitter": "None", "instagram": "None", "facebook": "None", "youtube": "None", "website": "None", "summary": "None", "logo": "None", "latitude": 46.65413588594919, "longitude": -70.8829544002448}, "874649874RR0001": {"name": "L'ASSOCIATION DES PERSONNES HANDICAPEES DE CHIBOUGAMAU A.P.H.C.", "designationCode": "C", "categoryCode": "09", "address": "336, CHEMIN MERRILL", "city": "CHIBOUGAMAU", "province": "QC", "country": "CA", "postalCode": "G8P2X4", "twitter": "None", "instagram": "None", "facebook": "None", "youtube": "None", "website": "None", "summary": "None", "logo": "None", "latitude": 49.921239918950945, "longitude": -74.36648460225646}, "119008845RR0001": {"name": "L'ASSOCIATION DES PERSONNES HANDICAPEES DE LA MRC RIVIERE DU NORD", "designationCode": "C", "categoryCode": "09", "address": "300 RUE LONPRE", "city": "ST-JEROME", "province": "QC", "country": "CA", "postalCode": "J7Y3B9", "twitter": "None", "instagram": "None", "facebook": "None", "youtube": "None", "website": "None", "summary": "None", "logo": "None", "latitude": 45.77601224923541, "longitude": -74.01035252458294}, "120291141RR0001": {"name": "L'ASSOCIATION DES PERSONNES HANDICAPEES DU KAMOURASKA EST INC", "designationCode": "C", "categoryCode": "09", "address": "612 RUE TACH\u00c9", "city": "ST-PASCAL", "province": "QC", "country": "CA", "postalCode": "G0L3Y0", "twitter": "None", "instagram": "None", "facebook": "None", "youtube": "None", "website": "None", "summary": "None", "logo": "None", "latitude": 47.52592025116863, "longitude": -69.8048101608574}, "118793686RR0001": {"name": "L'ASSOCIATION DES PERSONNES STOMIS\u00c9ES DE L'ESTRIE", "designationCode": "C", "categoryCode": "11", "address": "C.P. 661", "city": "SHERBROOKE", "province": "QC", "country": "CA", "postalCode": "J1H5K5", "twitter": "None", "instagram": "None", "facebook": "None", "youtube": "None", "website": "None", "summary": "None", "logo": "None", "latitude": 45.403251000000054, "longitude": -71.88894349999994}, "130364003RR0001": {"name": "L'ASSOCIATION DES POPOTES ROULANTES DU MONTREAL METROPOLITAIN", "designationCode": "C", "categoryCode": "09", "address": "1919 RUE ST-JACQUES", "city": "MONTREAL", "province": "QC", "country": "CA", "postalCode": "H3J1H2", "twitter": "None", "instagram": "None", "facebook": "None", "youtube": "None", "website": "None", "summary": "None", "logo": "None", "latitude": 45.488602350828025, "longitude": -73.5726859087078}, "118793652RR0001": {"name": "L'ASSOCIATION DES SCOUTS DU DISTRICT DE SUDBURY", "designationCode": "C", "categoryCode": "29", "address": "30, CHEMIN STE-ANNE, 2E \u00c9TAGE", "city": "SUDBURY", "province": "ON", "country": "CA", "postalCode": "P3C5E1", "twitter": "None", "instagram": "None", "facebook": "None", "youtube": "None", "website": "None", "summary": "None", "logo": "None", "latitude": 46.495026951604025, "longitude": -80.99642400064212}, "869777466RR0001": {"name": "L'ASSOCIATION DES SOINS ET SERVICES \u00c0 DOMICILE INC.", "designationCode": "C", "categoryCode": "09", "address": "2 - 2226 RUE SAUCIER", "city": "JONQUIERE", "province": "QC", "country": "CA", "postalCode": "G7S3T6", "twitter": "None", "instagram": "None", "facebook": "None", "youtube": "None", "website": "None", "summary": "None", "logo": "None", "latitude": 48.41324123091353, "longitude": -71.17237808840666}, "893629444RR0001": {"name": "L'ASSOCIATION DES TCC DES DEUX RIVES (QUEBEC-CHAUDIERE-APPALACHES)", "designationCode": "C", "categoryCode": "09", "address": "14 RUE SAINT-AMAND", "city": "QUEBEC", "province": "QC", "country": "CA", "postalCode": "G2A2K9", "twitter": "None", "instagram": "None", "facebook": "None", "youtube": "None", "website": "None", "summary": "None", "logo": "None", "latitude": 46.85452957397995, "longitude": -71.35925387619037}, "106731656RR0001": {"name": "L'ASSOCIATION DU CANCER DE L'EST DU QUEBEC", "designationCode": "C", "categoryCode": "11", "address": "151, RUE SAINT-LOUIS          CP 4151", "city": "RIMOUSKI", "province": "QC", "country": "CA", "postalCode": "G5L0A4", "twitter": "None", "instagram": "None", "facebook": "None", "youtube": "None", "website": "None", "summary": "None", "logo": "None", "latitude": 48.44821461336497, "longitude": -68.5298685682958}, "892659566RR0001": {"name": "L'ASSOCIATION DU CIMETIERE DE CLIFTON EST INC./EAST CLIFTON CEMETERY CORPORATION", "designationCode": "C", "categoryCode": "59", "address": "70 LOW FOREST RD.", "city": "SAWYERVILLE", "province": "QC", "country": "CA", "postalCode": "J0B3A0", "twitter": "None", "instagram": "None", "facebook": "None", "youtube": "None", "website": "None", "summary": "None", "logo": "None", "latitude": 45.31741090008081, "longitude": -71.61632118947969}, "897603627RR0001": {"name": "L'ASSOCIATION DU MARAIS DE LA RIVI\u00c8RE AUX CERISES (LAMRAC)", "designationCode": "C", "categoryCode": "52", "address": "69 CH. ROY                    R.R. 2", "city": "CANTON MAGOG", "province": "QC", "country": "CA", "postalCode": "J1X3W3", "twitter": "None", "instagram": "None", "facebook": "None", "youtube": "None", "website": "None", "summary": "None", "logo": "None", "latitude": 45.28176947515727, "longitude": -72.18025127295294}, "120397633RR0001": {"name": "L'ASSOCIATION DU SYNDROME DE TURNER DU QUEBEC", "designationCode": "C", "categoryCode": "11", "address": "1484 MONTEE GAGNON", "city": "VAL-DAVID", "province": "QC", "country": "CA", "postalCode": "J0T2N0", "twitter": "None", "instagram": "None", "facebook": "None", "youtube": "None", "website": "None", "summary": "None", "logo": "None"}, "891069981RR0001": {"name": "L'ASSOCIATION FOYERS-ECOLES ROYAL VALE HOME AND SCHOOL ASSOCIATION", "designationCode": "C", "categoryCode": "21", "address": "5851 SOMERLED AVENUE", "city": "MONTREAL", "province": "QC", "country": "CA", "postalCode": "H3X2A5", "twitter": "None", "instagram": "None", "facebook": "None", "youtube": "None", "website": "None", "summary": "None", "logo": "None", "latitude": 45.47495649489277, "longitude": -73.63186494413944}, "886336882RR0001": {"name": "L'ASSOCIATION GIMILIS CHESED KEREN CHAVA B'NAI LEVI/GIMILIS CHESED KEREN CHAVA B'NAI LEVI ASSOCIATION", "designationCode": "C", "categoryCode": "09", "address": "36 BETH HALEVY", "city": "BOISBRIAND", "province": "QC", "country": "CA", "postalCode": "J7E4H4", "twitter": "None", "instagram": "None", "facebook": "None", "youtube": "None", "website": "None", "summary": "None", "logo": "None", "latitude": 45.61320126559535, "longitude": -73.87193081115454}, "119307205RR0001": {"name": "L'ASSOCIATION HEBRAIQUE DES JEUNES HOMMES, JEUNES FEMMES DE MONTREAL/THE YOUNG MEN'S AND YOUNG WOMEN'S HEBREW ASSOCIATION OF MONTREAL", "designationCode": "C", "categoryCode": "49", "address": "5500 WESTBURY AVENUE", "city": "MONTREAL", "province": "QC", "country": "CA", "postalCode": "H3W2W8", "twitter": "None", "instagram": "None", "facebook": "None", "youtube": "None", "website": "None", "summary": "None", "logo": "None", "latitude": 45.48852085120341, "longitude": -73.63422599059359}, "888093861RR0001": {"name": "L'ASSOCIATION HISTORIQUE FRANCOPHONE DE VICTORIA", "designationCode": "C", "categoryCode": "50", "address": "3429 PATTISON WAY", "city": "VICTORIA", "province": "BC", "country": "CA", "postalCode": "V9C4K8", "twitter": "None", "instagram": "None", "facebook": "None", "youtube": "None", "website": "None", "summary": "None", "logo": "None", "latitude": 48.417503133504496, "longitude": -123.50443758921473}, "131950396RR0001": {"name": "L'ASSOCIATION IRIS INC", "designationCode": "C", "categoryCode": "09", "address": "2430 HENRI BOURASSA EST       BUREAU 101", "city": "MONTREAL", "province": "QC", "country": "CA", "postalCode": "H2B1T7", "twitter": "None", "instagram": "None", "facebook": "None", "youtube": "None", "website": "None", "summary": "None", "logo": "None", "latitude": 45.57705293782106, "longitude": -73.65408608240539}, "119009066RR0001": {"name": "L'ASSOCIATION ISLAMIQUE SHIANE HAIDERY, INC./SHIANE HAIDERY ISLAMIC ASSOCATION, INC.", "designationCode": "C", "categoryCode": "60", "address": "2174, RUE BELGRAVE", "city": "MONTREAL", "province": "QC", "country": "CA", "postalCode": "H4A2L8", "twitter": "None", "instagram": "None", "facebook": "None", "youtube": "None", "website": "None", "summary": "None", "logo": "None", "latitude": 45.4671868262451, "longitude": -73.61659345726808}, "845327675RR0001": {"name": "L'ASSOCIATION LA BELLE VIE INC.", "designationCode": "C", "categoryCode": "09", "address": "169 ROUTE ST-FRANCOIS", "city": "PABOS", "province": "QC", "country": "CA", "postalCode": "G0C2H0", "twitter": "None", "instagram": "None", "facebook": "None", "youtube": "None", "website": "None", "summary": "None", "logo": "None", "latitude": 48.377452241290186, "longitude": -64.6490240989385}, "886575307RR0001": {"name": "L'ASSOCIATION LES VOIX D'ACADIE", "designationCode": "C", "categoryCode": "22", "address": "201 C AVENUE DU PORTAGE", "city": "DARTMOUTH", "province": "NS", "country": "CA", "postalCode": "B2X3T4", "twitter": "None", "instagram": "None", "facebook": "None", "youtube": "None", "website": "None", "summary": "None", "logo": "None", "latitude": 44.704819314530084, "longitude": -63.53163352080242}, "131501843RR0001": {"name": "L'ASSOCIATION MIDI QUARANTE INC", "designationCode": "C", "categoryCode": "09", "address": "204-3100 BOUL DE LA CONCORDE E", "city": "DUVERNAY LAVAL", "province": "QC", "country": "CA", "postalCode": "H7E2B8", "twitter": "None", "instagram": "None", "facebook": "None", "youtube": "None", "website": "None", "summary": "None", "logo": "None", "latitude": 45.58371747211137, "longitude": -73.67527264641443}, "891290470RR0001": {"name": "L'ASSOCIATION MUSULMANE DE MONTREAL-NORD", "designationCode": "C", "categoryCode": "39", "address": "10395 AV. PELLETIER", "city": "MONTR\u00c9AL-NORD", "province": "QC", "country": "CA", "postalCode": "H1H3R2", "twitter": "None", "instagram": "None", "facebook": "None", "youtube": "None", "website": "None", "summary": "None", "logo": "None", "latitude": 45.588931868168935, "longitude": -73.62973159380235}, "126288372RR0001": {"name": "L'ASSOCIATION MUSULMANE TURQUEDE MONTREAL - THE MUSLIM TURKISH ASSOCIATION OF MONTREAL", "designationCode": "C", "categoryCode": "09", "address": "416 BOUL. NEPTUNE", "city": "DORVAL", "province": "QC", "country": "CA", "postalCode": "H9S2L8", "twitter": "None", "instagram": "None", "facebook": "None", "youtube": "None", "website": "None", "summary": "None", "logo": "None", "latitude": 45.44728333083274, "longitude": -73.77379545602734}, "890878176RR0001": {"name": "L'ASSOCIATION NOTRE DAME", "designationCode": "C", "categoryCode": "49", "address": "216 RUE DE NORMANDIE", "city": "CHICOUTIMI", "province": "QC", "country": "CA", "postalCode": "G7H3G1", "twitter": "None", "instagram": "None", "facebook": "None", "youtube": "None", "website": "None", "summary": "None", "logo": "None", "latitude": 48.42684046018229, "longitude": -71.02234640010946}, "106733231RR0001": {"name": "L'ASSOCIATION PARITAIRE POUR LA SANTE ET LA SECURITE DU TRAVAIL DU SECTEUR AFFAIRES MUNICIPALES", "designationCode": "C", "categoryCode": "11", "address": "715 VICTORIA SQ               BUREAU 710", "city": "MONTREAL", "province": "QC", "country": "CA", "postalCode": "H2Y2H7", "twitter": "None", "instagram": "None", "facebook": "None", "youtube": "None", "website": "None", "summary": "None", "logo": "None", "latitude": 45.50141872773955, "longitude": -73.56066105730285}, "894040260RR0001": {"name": "L'ASSOCIATION POUR ENFANTS AYANT DES TROUBLES D'APPRENTISSAGE (CHAPITRE DE L'OUTAOUAIS)", "designationCode": "C", "categoryCode": "11", "address": "109 RUE WRIGHT                LOCAL 203", "city": "GATINEAU", "province": "QC", "country": "CA", "postalCode": "J8X2G7", "twitter": "None", "instagram": "None", "facebook": "None", "youtube": "None", "website": "None", "summary": "None", "logo": "None", "latitude": 45.42702050432782, "longitude": -75.71872264071786}, "118828896RR0001": {"name": "L'ASSOCIATION POUR L'INTEGRATION COMMUNAUTAIRE DE MEMRAMCOOK INC.", "designationCode": "C", "categoryCode": "11", "address": "280 OLD SHEDIAC RD", "city": "MEMRAMCOOK", "province": "NB", "country": "CA", "postalCode": "E4K1W3", "twitter": "None", "instagram": "None", "facebook": "None", "youtube": "None", "website": "None", "summary": "None", "logo": "None", "latitude": 46.01803316813148, "longitude": -64.57648342515982}, "891726267RR0001": {"name": "L'ASSOCIATION POUR L'INTEGRATION SOCIALE (REGION BOIS-FRANCS)", "designationCode": "C", "categoryCode": "09", "address": "59 RUE MONFETTE               LOCAL 105", "city": "VICTORIAVILLE", "province": "QC", "country": "CA", "postalCode": "G6P1J8", "twitter": "None", "instagram": "None", "facebook": "None", "youtube": "None", "website": "None", "summary": "None", "logo": "None", "latitude": 46.06164779188039, "longitude": -71.9668892342031}, "100305275RR0001": {"name": "L'ASSOCIATION POUR L'INTEGRATION SOCIALE (REGION DE QUEBEC)", "designationCode": "C", "categoryCode": "11", "address": "5225 3IEME AVENUE OUEST", "city": "CHARLESBOURG", "province": "QC", "country": "CA", "postalCode": "G1H6G6", "twitter": "None", "instagram": "None", "facebook": "None", "youtube": "None", "website": "None", "summary": "None", "logo": "None", "latitude": 46.846274144872794, "longitude": -71.25840792466374}, "893674739RR0001": {"name": "L'ASSOCIATION POUR LA PROMOTION DES DROITS DES PERSONNES HANDICAPEES DE JONQUIERE", "designationCode": "C", "categoryCode": "09", "address": "2435 ST-JEAN BAPTISTE CP814", "city": "JONQUI\u00c8RE", "province": "QC", "country": "CA", "postalCode": "G7X7W6", "twitter": "None", "instagram": "None", "facebook": "None", "youtube": "None", "website": "None", "summary": "None", "logo": "None", "latitude": 48.407347655837086, "longitude": -71.26621818939371}, "118794700RR0001": {"name": "L'ASSOCIATION POUR LA PROTECTION DU LAC MASSAWIPPI INC. / LAKE MASSAWIPPI WATER PROTECTION INC.", "designationCode": "C", "categoryCode": "52", "address": "P.O. BOX 2703", "city": "NORTH HATLEY", "province": "QC", "country": "CA", "postalCode": "J0B2C0", "twitter": "None", "instagram": "None", "facebook": "None", "youtube": "None", "website": "None", "summary": "None", "logo": "None", "latitude": 45.216229442813834, "longitude": -71.94152649235272}, "836831347RR0001": {"name": "L'ASSOCIATION QU\u00c9B\u00c9COISE EN ACCOMPAGNEMENT PASTORAL", "designationCode": "C", "categoryCode": "47", "address": "622 LACORDAIRE", "city": "SHERBROOKE", "province": "QC", "country": "CA", "postalCode": "J1G3L3", "twitter": "None", "instagram": "None", "facebook": "None", "youtube": "None", "website": "None", "summary": "None", "logo": "None", "latitude": 45.39531652510252, "longitude": -71.87273556272721}, "129950358RR0001": {"name": "L'ASSOCIATION REGIONALE DU SPORT ETUDIANT DE QUEBEC ET DE CHAUDIERE-APPALACHES (A.R.S.E.Q.C.A.) INC.", "designationCode": "C", "categoryCode": "56", "address": "762, JACQUES BERTHIAUME       PORT 6", "city": "QU\u00c9BEC", "province": "QC", "country": "CA", "postalCode": "G1V3T1", "twitter": "None", "instagram": "None", "facebook": "None", "youtube": "None", "website": "None", "summary": "None", "logo": "None", "latitude": 46.77968425780509, "longitude": -71.3063006253675}, "889042396RR0001": {"name": "L'ASSOCIATION UN COEUR POUR TOUS LANAUDIERE INC", "designationCode": "C", "categoryCode": "11", "address": "144 RUE ST-JOSEPH", "city": "JOLIETTE", "province": "QC", "country": "CA", "postalCode": "J6E5C4", "twitter": "None", "instagram": "None", "facebook": "None", "youtube": "None", "website": "None", "summary": "None", "logo": "None", "latitude": 46.026606530122855, "longitude": -73.44158207325879}, "134125038RR0001": {"name": "L'ASSOCIATION ZOROASTRIENNE DU QUEBEC/THE ZOROASTRIAN ASSOCIATION OF QUEBEC", "designationCode": "C", "categoryCode": "39", "address": "P.O. BOX 26735                STN BEACONSFIELD", "city": "BEACONSFIELD", "province": "QC", "country": "CA", "postalCode": "H9W6G7", "twitter": "None", "instagram": "None", "facebook": "None", "youtube": "None", "website": "None", "summary": "None", "logo": "None", "latitude": 45.42473400000006, "longitude": -73.86463249999993}, "119009041RR0001": {"name": "L'ASSOCIATION, EPILESPIE COTE-NORD, INC.", "designationCode": "C", "categoryCode": "11", "address": "652 RUE DEQUEN", "city": "SEPT-ILES", "province": "QC", "country": "CA", "postalCode": "G4R2R5", "twitter": "None", "instagram": "None", "facebook": "None", "youtube": "None", "website": "None", "summary": "None", "logo": "None", "latitude": 50.212464000000054, "longitude": -66.38965549999993}, "120383476RR0001": {"name": "L'ATELIER D'ART SOCIAL DE MONTREAL", "designationCode": "C", "categoryCode": "29", "address": "10583 GRANDE-ALLEE", "city": "MONTREAL", "province": "QC", "country": "CA", "postalCode": "H3L2M6", "twitter": "None", "instagram": "None", "facebook": "None", "youtube": "None", "website": "None", "summary": "None", "logo": "None", "latitude": 45.55079949971444, "longitude": -73.66857524185313}, "119009207RR0001": {"name": "L'ATELIER D'ARTISANAT CENTRE-VILLE INC./THE CENTER CITY CRAFT SHOP INC.", "designationCode": "A", "categoryCode": "59", "address": "3680 JEANNE-MANCE APP.213", "city": "MONTREAL", "province": "QC", "country": "CA", "postalCode": "H2X2K5", "twitter": "None", "instagram": "None", "facebook": "None", "youtube": "None", "website": "None", "summary": "None", "logo": "None", "latitude": 45.51161383345846, "longitude": -73.57612466876323}, "119009215RR0001": {"name": "L'ATELIER DE C\u00c9RAMIQUE SAINT-ELME", "designationCode": "C", "categoryCode": "22", "address": "23 RUE HUGUES-POMMIER", "city": "QU\u00c9BEC", "province": "QC", "country": "CA", "postalCode": "G1E4T8", "twitter": "None", "instagram": "None", "facebook": "None", "youtube": "None", "website": "None", "summary": "None", "logo": "None", "latitude": 46.859192360928894, "longitude": -71.19363890339774}, "120782131RR0001": {"name": "L'ATELIER DE L'ENFANT SOLEIL", "designationCode": "C", "categoryCode": "20", "address": "150 BOUL PERROT", "city": "ILE-PERROT", "province": "QC", "country": "CA", "postalCode": "J7V3G1", "twitter": "None", "instagram": "None", "facebook": "None", "youtube": "None", "website": "None", "summary": "None", "logo": "None", "latitude": 45.39805007054621, "longitude": -73.96129001673435}, "106735400RR0001": {"name": "L'ATELIER DE READAPTATION AU TRAVAIL DE BEAUCE INC.", "designationCode": "C", "categoryCode": "59", "address": "1280, AVE DU PALAIS", "city": "ST JOSEPH DE BEAUCE", "province": "QC", "country": "CA", "postalCode": "G0S2V0", "twitter": "None", "instagram": "None", "facebook": "None", "youtube": "None", "website": "None", "summary": "None", "logo": "None", "latitude": 46.295258694904994, "longitude": -70.8668175152921}, "106735418RR0001": {"name": "L'ATELIER DES COPAINS CO-OP LTEE.", "designationCode": "C", "categoryCode": "09", "address": "1710 ROUTE 205", "city": "SAINT FRANCOIS", "province": "NB", "country": "CA", "postalCode": "E7A1P8", "twitter": "None", "instagram": "None", "facebook": "None", "youtube": "None", "website": "None", "summary": "None", "logo": "None", "latitude": 47.244902162166916, "longitude": -68.6832848446427}, "102990355RR0001": {"name": "L'ATELIER DES LETTRES EN ALPHABETISATION DE CENTRE-SUD", "designationCode": "C", "categoryCode": "20", "address": "1710 BEAUDRY", "city": "MONTREAL", "province": "QC", "country": "CA", "postalCode": "H2L3E7", "twitter": "None", "instagram": "None", "facebook": "None", "youtube": "None", "website": "None", "summary": "None", "logo": "None", "latitude": 45.5203528956374, "longitude": -73.55927210658429}, "102990561RR0001": {"name": "L'ATELIER LA FL\u00c8CHE DE FER INC.", "designationCode": "C", "categoryCode": "01", "address": "1730, RUE EIFFEL", "city": "BOUCHERVILLE", "province": "QC", "country": "CA", "postalCode": "J4B7W1", "twitter": "None", "instagram": "None", "facebook": "None", "youtube": "None", "website": "None", "summary": "None", "logo": "None", "latitude": 45.571930560015495, "longitude": -73.3826182488027}, "100318997RR0001": {"name": "L'ATELIER R.A.D.O. INC.", "designationCode": "C", "categoryCode": "09", "address": "CP 432 STN MAIN", "city": "EDMUNDSTON", "province": "NB", "country": "CA", "postalCode": "E3V3L1", "twitter": "None", "instagram": "None", "facebook": "None", "youtube": "None", "website": "None", "summary": "None", "logo": "None", "latitude": 47.37372000000006, "longitude": -68.32513249999994}, "133422535RR0001": {"name": "L'ATELIER: \"ENSEMBLE ON SE TIENT\"", "designationCode": "C", "categoryCode": "09", "address": "185 RUE DU MOULIN", "city": "ST-EUSTACHE", "province": "QC", "country": "CA", "postalCode": "J7R2P5", "twitter": "None", "instagram": "None", "facebook": "None", "youtube": "None", "website": "None", "summary": "None", "logo": "None", "latitude": 45.559990361648076, "longitude": -73.89714247097366}, "119009314RR0001": {"name": "L'ATRE DE SEPT-ILES", "designationCode": "C", "categoryCode": "11", "address": "409 AV DEQUEN", "city": "SEPT-ILES", "province": "QC", "country": "CA", "postalCode": "G4R2R1", "twitter": "None", "instagram": "None", "facebook": "None", "youtube": "None", "website": "None", "summary": "None", "logo": "None", "latitude": 50.20753200000006, "longitude": -66.38329249999994}, "119009504RR0001": {"name": "L'AUBERGE DE L'AMITIE ROBERVAL INC.", "designationCode": "C", "categoryCode": "09", "address": "C.P. 306", "city": "ROBERVAL", "province": "QC", "country": "CA", "postalCode": "G8H2N7", "twitter": "None", "instagram": "None", "facebook": "None", "youtube": "None", "website": "None", "summary": "None", "logo": "None", "latitude": 48.47222734124843, "longitude": -72.32547415234791}, "132523762RR0001": {"name": "L'AUBERGE STE-THERESE INC.", "designationCode": "C", "categoryCode": "01", "address": "31 RUE DE L'ARENA", "city": "CAP-PELE", "province": "NB", "country": "CA", "postalCode": "E4N1H3", "twitter": "None", "instagram": "None", "facebook": "None", "youtube": "None", "website": "None", "summary": "None", "logo": "None", "latitude": 46.21608971004898, "longitude": -64.26972526081617}, "122924145RR0001": {"name": "L'AUBERGINE DE LA MACEDOINE DU QUEBEC INC", "designationCode": "C", "categoryCode": "22", "address": "801 4E RUE                    BUREAU 112", "city": "QUEBEC", "province": "QC", "country": "CA", "postalCode": "G1J2T7", "twitter": "None", "instagram": "None", "facebook": "None", "youtube": "None", "website": "None", "summary": "None", "logo": "None", "latitude": 46.824609152114824, "longitude": -71.22112579643937}, "120509773RR0001": {"name": "L'AUGUSTE TH\u00c9\u00c2TRE", "designationCode": "C", "categoryCode": "22", "address": "4355 DE LANAUDIERE #11", "city": "MONTR\u00c9AL", "province": "QC", "country": "CA", "postalCode": "H2J3P3", "twitter": "None", "instagram": "None", "facebook": "None", "youtube": "None", "website": "None", "summary": "None", "logo": "None", "latitude": 45.529405155433054, "longitude": -73.57510036788048}, "102997855RR0001": {"name": "L'AUTONHOMMIE, CENTRE DE RESSOURCES SUR LA CONDITION MASCULINE (QU\u00c9BEC) INC.", "designationCode": "C", "categoryCode": "09", "address": "1575 3E AVENUE", "city": "QUEBEC", "province": "QC", "country": "CA", "postalCode": "G1L2Y4", "twitter": "None", "instagram": "None", "facebook": "None", "youtube": "None", "website": "None", "summary": "None", "logo": "None", "latitude": 46.830070017196675, "longitude": -71.23317675370745}, "119018091RR0001": {"name": "L'AUTRE AVENUE , ORGANISME DE JUSTICE ALTERNATIVE", "designationCode": "C", "categoryCode": "59", "address": "6780 1ERE AVE                 SUITE 310", "city": "QUEBEC", "province": "QC", "country": "CA", "postalCode": "G1H2W8", "twitter": "None", "instagram": "None", "facebook": "None", "youtube": "None", "website": "None", "summary": "None", "logo": "None", "latitude": 46.85511344160062, "longitude": -71.2613872221423}, "141123760RR0001": {"name": "L'AUTRE CHEZ SOI INC", "designationCode": "C", "categoryCode": "09", "address": "16 RUE PINE", "city": "GATINEAU", "province": "QC", "country": "CA", "postalCode": "J9H3Y6", "twitter": "None", "instagram": "None", "facebook": "None", "youtube": "None", "website": "None", "summary": "None", "logo": "None", "latitude": 45.38252949347912, "longitude": -75.83610184774095}, "808634943RR0001": {"name": "L'AUTRE ESCALE, CENTRE D'INTERVENTION POUR LES ENFANTS EXP OSES A LA VIOLENCE CONJUGALE", "designationCode": "C", "categoryCode": "09", "address": "CP 51023 COMPTOIR DOMAINE", "city": "MONTREAL", "province": "QC", "country": "CA", "postalCode": "H1N3T8", "twitter": "None", "instagram": "None", "facebook": "None", "youtube": "None", "website": "None", "summary": "None", "logo": "None", "latitude": 45.57543900000006, "longitude": -73.52860849999993}, "102997897RR0001": {"name": "L'AUTRE RIVE", "designationCode": "C", "categoryCode": "09", "address": "925 RUE CONSEIL", "city": "SHERBROOKE", "province": "QC", "country": "CA", "postalCode": "J1G1L6", "twitter": "None", "instagram": "None", "facebook": "None", "youtube": "None", "website": "None", "summary": "None", "logo": "None", "latitude": 45.40376048211084, "longitude": -71.86868464071786}, "137419370RR0001": {"name": "L'AUTRE THEATRE/THE OTHER THEATRE", "designationCode": "C", "categoryCode": "22", "address": "5826 AVE DU PARC 9", "city": "MONTREAL", "province": "QC", "country": "CA", "postalCode": "H2V4H3", "twitter": "None", "instagram": "None", "facebook": "None", "youtube": "None", "website": "None", "summary": "None", "logo": "None", "latitude": 45.52386973853094, "longitude": -73.60606310035189}, "133064576RR0001": {"name": "L'AUTRE-TOIT DU KRTB", "designationCode": "C", "categoryCode": "09", "address": "C.P. 5057", "city": "T\u00c9MISCOUATA-SUR-LE-LAC", "province": "QC", "country": "CA", "postalCode": "G0L1E0", "twitter": "None", "instagram": "None", "facebook": "None", "youtube": "None", "website": "None", "summary": "None", "logo": "None", "latitude": 47.68556100000005, "longitude": -68.88771349999993}, "892875766RR0001": {"name": "L'AUXILIAIRE DU CENTRE DE SANTE COMMUNAUTAIRE SACRE-COEUR/S ACRED HEART COMMUNITY HEALTH CENTER AUXILIARY", "designationCode": "C", "categoryCode": "15", "address": "CP 834", "city": "CHETICAMP", "province": "NS", "country": "CA", "postalCode": "B0E1H0", "twitter": "None", "instagram": "None", "facebook": "None", "youtube": "None", "website": "None", "summary": "None", "logo": "None", "latitude": 46.60314389004717, "longitude": -61.0550018560452}}