{"119234177RR0001": {"name": "THE FRIENDS OF THE FEDERATION OF CALGARY COMMUNITIES SOCIETY", "designationCode": "C", "categoryCode": "59", "address": "110 - 720 28 ST NE", "city": "CALGARY", "province": "AB", "country": "CA", "postalCode": "T2A6R3", "twitter": "None", "instagram": "None", "facebook": "None", "youtube": "None", "website": "None", "summary": "None", "logo": "None", "latitude": 51.05892527699231, "longitude": -113.99323875699702}, "823213079RR0001": {"name": "THE FRIENDS OF THE GLEN MORRIS PUBLIC LIBRARY", "designationCode": "C", "categoryCode": "55", "address": "474 EAST RIVER RD", "city": "GLEN MORRIS", "province": "ON", "country": "CA", "postalCode": "N0B1W0", "twitter": "None", "instagram": "None", "facebook": "None", "youtube": "None", "website": "None", "summary": "None", "logo": "None", "latitude": 43.27589742019169, "longitude": -80.34363871313994}, "868259169RR0001": {"name": "THE FRIENDS OF THE JAKE THOMAS LEARNING CENTRE", "designationCode": "C", "categoryCode": "21", "address": "7575 INDIAN LINE, SITE 1", "city": "WILSONVILLE", "province": "ON", "country": "CA", "postalCode": "N0E1Z0", "twitter": "None", "instagram": "None", "facebook": "None", "youtube": "None", "website": "None", "summary": "None", "logo": "None", "latitude": 43.015035720331895, "longitude": -80.19562554526253}, "853542330RR0001": {"name": "THE FRIENDS OF THE KILLALOE AND DISTRICT PUBLIC LIBRARY", "designationCode": "A", "categoryCode": "55", "address": "1 JOHN STREET                 PO BOX 100", "city": "KILLALOE", "province": "ON", "country": "CA", "postalCode": "K0J2A0", "twitter": "None", "instagram": "None", "facebook": "None", "youtube": "None", "website": "None", "summary": "None", "logo": "None", "latitude": 45.55630549135692, "longitude": -77.41782059131829}, "861937431RR0001": {"name": "THE FRIENDS OF THE KIMBERLEY PUBLIC LIBRARY", "designationCode": "A", "categoryCode": "53", "address": "115 SPOKANE ST", "city": "KIMBERLEY", "province": "BC", "country": "CA", "postalCode": "V1A2E6", "twitter": "None", "instagram": "None", "facebook": "None", "youtube": "None", "website": "None", "summary": "None", "logo": "None", "latitude": 49.686272582938, "longitude": -115.98486968934789}, "132230186RR0001": {"name": "THE FRIENDS OF THE MISSISSAUGA LIBRARY SYSTEM", "designationCode": "C", "categoryCode": "55", "address": "P.O. BOX 43070 RPO PARKWAY    WEST", "city": "MISSISSAUGA", "province": "ON", "country": "CA", "postalCode": "L5B4A7", "twitter": "None", "instagram": "None", "facebook": "None", "youtube": "None", "website": "None", "summary": "None", "logo": "None", "latitude": 43.58690700000005, "longitude": -79.64535049999994}, "890862923RR0001": {"name": "THE FRIENDS OF THE NORTH WEST RIVER VOLUNTEER LIBRARY", "designationCode": "C", "categoryCode": "50", "address": "PO BOX 410", "city": "NORTH WEST RIVER", "province": "NL", "country": "CA", "postalCode": "A0P1M0", "twitter": "None", "instagram": "None", "facebook": "None", "youtube": "None", "website": "None", "summary": "None", "logo": "None", "latitude": 53.47562636528523, "longitude": -60.26854020534523}, "857793236RR0001": {"name": "THE FRIENDS OF THE NORTHERN ALBERTA INTERNATIONAL CHILDREN'S FESTIVAL SOCIETY", "designationCode": "A", "categoryCode": "03", "address": "119 - 11615 ELLERSLIE RD SW", "city": "EDMONTON", "province": "AB", "country": "CA", "postalCode": "T6W0J3", "twitter": "None", "instagram": "None", "facebook": "None", "youtube": "None", "website": "None", "summary": "None", "logo": "None", "latitude": 53.424854307413945, "longitude": -113.63339719722042}, "891271546RR0001": {"name": "THE FRIENDS OF THE OJIBWAY PRAIRIE / LES AMIS D'OJIBWAY PRAIRIE", "designationCode": "C", "categoryCode": "52", "address": "5200 MATCHETTE ROAD", "city": "WINDSOR", "province": "ON", "country": "CA", "postalCode": "N9C4E8", "twitter": "None", "instagram": "None", "facebook": "None", "youtube": "None", "website": "None", "summary": "None", "logo": "None", "latitude": 42.26485009207572, "longitude": -83.07412810594572}, "873687271RR0001": {"name": "THE FRIENDS OF THE OLD BAY HOUSE SOCIETY", "designationCode": "C", "categoryCode": "52", "address": "PO BOX 1061", "city": "FORT VERMILION", "province": "AB", "country": "CA", "postalCode": "T0H1N0", "twitter": "None", "instagram": "None", "facebook": "None", "youtube": "None", "website": "None", "summary": "None", "logo": "None", "latitude": 58.387350000000026, "longitude": -116.01808999999997}, "119234185RR0001": {"name": "THE FRIENDS OF THE OLD HASTINGS MILL STORE MUSEUM", "designationCode": "C", "categoryCode": "50", "address": "1575 ALMA ROAD", "city": "VANCOUVER", "province": "BC", "country": "CA", "postalCode": "V6R3P3", "twitter": "None", "instagram": "None", "facebook": "None", "youtube": "None", "website": "None", "summary": "None", "logo": "None", "latitude": 49.27273911379765, "longitude": -123.18559251064622}, "869165571RR0001": {"name": "THE FRIENDS OF THE OLD SEED HOUSE GARDEN", "designationCode": "C", "categoryCode": "50", "address": "23 DOMINION GARDENS DR", "city": "GEORGETOWN", "province": "ON", "country": "CA", "postalCode": "L7G6A9", "twitter": "None", "instagram": "None", "facebook": "None", "youtube": "None", "website": "None", "summary": "None", "logo": "None", "latitude": 43.652718355271446, "longitude": -79.91211372257499}, "878520964RR0001": {"name": "THE FRIENDS OF THE PENTITENTIARY MUSEUM AT KINGSTON INC./LESAMIS DU MUSEE PENITENTIAIRE A KINGSTON INC.", "designationCode": "C", "categoryCode": "50", "address": "P.O. BOX 1174", "city": "KINGSTON", "province": "ON", "country": "CA", "postalCode": "K7L4Y8", "twitter": "None", "instagram": "None", "facebook": "None", "youtube": "None", "website": "None", "summary": "None", "logo": "None", "latitude": 44.23153200000006, "longitude": -76.47933049999993}, "870036696RR0001": {"name": "THE FRIENDS OF THE PICTON LIBRARY", "designationCode": "A", "categoryCode": "55", "address": "11844 LOYALIST PKY            RR 4", "city": "PICTON", "province": "ON", "country": "CA", "postalCode": "K0K2T0", "twitter": "None", "instagram": "None", "facebook": "None", "youtube": "None", "website": "None", "summary": "None", "logo": "None", "latitude": 44.04262643176059, "longitude": -77.0968052231519}, "891626442RR0001": {"name": "THE FRIENDS OF THE PUBLIC GARDENS", "designationCode": "C", "categoryCode": "52", "address": "PO BOX 36013                  5665 SPRING GARDEN ROAD", "city": "HALIFAX", "province": "NS", "country": "CA", "postalCode": "B3J3S9", "twitter": "None", "instagram": "None", "facebook": "None", "youtube": "None", "website": "None", "summary": "None", "logo": "None", "latitude": 44.64254396087478, "longitude": -63.57889749653755}, "859376071RR0001": {"name": "THE FRIENDS OF THE QUESNEL AND DISTRICT MUSEUM AND ARCHIVES SOCIETY", "designationCode": "C", "categoryCode": "50", "address": "705 CARSON AVENUE", "city": "QUESNEL", "province": "BC", "country": "CA", "postalCode": "V2J2B6", "twitter": "None", "instagram": "None", "facebook": "None", "youtube": "None", "website": "None", "summary": "None", "logo": "None", "latitude": 52.976119392058145, "longitude": -122.49116379990222}, "886373992RR0001": {"name": "THE FRIENDS OF THE RICHMOND ARCHIVES", "designationCode": "C", "categoryCode": "50", "address": "7700 MINURU GATE", "city": "RICHMOND", "province": "BC", "country": "CA", "postalCode": "V6Y1R9", "twitter": "None", "instagram": "None", "facebook": "None", "youtube": "None", "website": "None", "summary": "None", "logo": "None", "latitude": 49.16285257439792, "longitude": -123.14297202308795}, "896829215RR0001": {"name": "THE FRIENDS OF THE RIVER JOHN LIBRARY SOCIETY", "designationCode": "C", "categoryCode": "50", "address": "PO BOX 104", "city": "RIVER JOHN", "province": "NS", "country": "CA", "postalCode": "B0K1N0", "twitter": "None", "instagram": "None", "facebook": "None", "youtube": "None", "website": "None", "summary": "None", "logo": "None", "latitude": 45.71633084188482, "longitude": -62.89386615532279}, "119258291RR0001": {"name": "THE FRIENDS OF THE ROTARY REGIONAL LIBRARY INC.", "designationCode": "C", "categoryCode": "50", "address": "57 CENTRAL ST", "city": "SUMMERSIDE", "province": "PE", "country": "CA", "postalCode": "C1N3K9", "twitter": "None", "instagram": "None", "facebook": "None", "youtube": "None", "website": "None", "summary": "None", "logo": "None", "latitude": 46.3936512783773, "longitude": -63.792055301113905}, "891008641RR0001": {"name": "THE FRIENDS OF THE SANCTUARY/LES AMIS DU SANCTUAIRE", "designationCode": "C", "categoryCode": "52", "address": "5591 COUNTY RD #2 BOX 156", "city": "INGLESIDE", "province": "ON", "country": "CA", "postalCode": "K0C1M0", "twitter": "None", "instagram": "None", "facebook": "None", "youtube": "None", "website": "None", "summary": "None", "logo": "None", "latitude": 44.992039904500366, "longitude": -74.99772079797705}, "119234227RR0001": {"name": "THE FRIENDS OF THE STIKINE SOCIETY", "designationCode": "C", "categoryCode": "52", "address": "1281 DENMAN ST", "city": "VICTORIA", "province": "BC", "country": "CA", "postalCode": "V8T1L7", "twitter": "None", "instagram": "None", "facebook": "None", "youtube": "None", "website": "None", "summary": "None", "logo": "None", "latitude": 48.43286455395597, "longitude": -123.34571238787578}, "890544117RR0001": {"name": "THE FRIENDS OF THE TRAIL PUBLIC LIBRARY", "designationCode": "C", "categoryCode": "53", "address": "1051 VICTORIA ST.", "city": "TRAIL", "province": "BC", "country": "CA", "postalCode": "V1R3T3", "twitter": "None", "instagram": "None", "facebook": "None", "youtube": "None", "website": "None", "summary": "None", "logo": "None", "latitude": 49.09787847375465, "longitude": -117.70921414302452}, "889893772RR0001": {"name": "THE FRIENDS OF THE UNIVERSITY OF ALBERTA", "designationCode": "C", "categoryCode": "21", "address": "230 - 5010 RICHARD RD SW", "city": "CALGARY", "province": "AB", "country": "CA", "postalCode": "T3E6L1", "twitter": "None", "instagram": "None", "facebook": "None", "youtube": "None", "website": "None", "summary": "None", "logo": "None", "latitude": 51.00970532167614, "longitude": -114.12911489107859}, "875783250RR0001": {"name": "THE FRIENDS OF THE VANCOUVER CITY ARCHIVES", "designationCode": "A", "categoryCode": "23", "address": "1150 CHESTNUT STREET", "city": "VANCOUVER", "province": "BC", "country": "CA", "postalCode": "V6J3J9", "twitter": "None", "instagram": "None", "facebook": "None", "youtube": "None", "website": "None", "summary": "None", "logo": "None", "latitude": 49.27561566270083, "longitude": -123.14615160884622}, "119234235RR0001": {"name": "THE FRIENDS OF UNIVERSITY HOSPITALS", "designationCode": "C", "categoryCode": "19", "address": "8440 112 ST NW", "city": "EDMONTON", "province": "AB", "country": "CA", "postalCode": "T6G2B7", "twitter": "None", "instagram": "None", "facebook": "None", "youtube": "None", "website": "None", "summary": "None", "logo": "None", "latitude": 53.52044477343915, "longitude": -113.52090546919865}, "891258592RR0001": {"name": "THE FRIENDS OF WINDMILL POINT/LES AMIS DU POINT AU MOULIN A VENT", "designationCode": "C", "categoryCode": "52", "address": "FORT WELLINGTON               BOX 479", "city": "PRESCOTT", "province": "ON", "country": "CA", "postalCode": "K0E1T0", "twitter": "None", "instagram": "None", "facebook": "None", "youtube": "None", "website": "None", "summary": "None", "logo": "None", "latitude": 44.71240000000006, "longitude": -75.51061999999996}, "127875870RR0001": {"name": "THE FRIENDS OF YOHO SOCIETY", "designationCode": "C", "categoryCode": "52", "address": "P.O. BOX 100", "city": "FIELD", "province": "BC", "country": "CA", "postalCode": "V0A1G0", "twitter": "None", "instagram": "None", "facebook": "None", "youtube": "None", "website": "None", "summary": "None", "logo": "None", "latitude": 51.38917995140029, "longitude": -116.4925305}, "119086213RR0001": {"name": "THE FRIENDS...SUPPORTING THOSE WITH LONG TERM HEALTH CARE NEEDS", "designationCode": "C", "categoryCode": "01", "address": "27 FOREST ST", "city": "PARRY SOUND", "province": "ON", "country": "CA", "postalCode": "P2A2R2", "twitter": "None", "instagram": "None", "facebook": "None", "youtube": "None", "website": "None", "summary": "None", "logo": "None", "latitude": 45.34100461229711, "longitude": -80.02422130720115}, "874921901RR0001": {"name": "THE FRIENDSHIP LINK FOR YOUTH IN / FROM CARE.", "designationCode": "C", "categoryCode": "01", "address": "855 - 420 MAIN ST E", "city": "MILTON", "province": "ON", "country": "CA", "postalCode": "L9T5G3", "twitter": "None", "instagram": "None", "facebook": "None", "youtube": "None", "website": "None", "summary": "None", "logo": "None", "latitude": 43.51784021896831, "longitude": -79.87805026377768}, "127162840RR0001": {"name": "THE FRINGE OF TORONTO THEATRE FESTIVAL", "designationCode": "C", "categoryCode": "22", "address": "204 - 688 RICHMOND ST W", "city": "TORONTO", "province": "ON", "country": "CA", "postalCode": "M6J1C5", "twitter": "None", "instagram": "None", "facebook": "None", "youtube": "None", "website": "None", "summary": "None", "logo": "None", "latitude": 43.64558904069499, "longitude": -79.40791988388742}, "867912560RR0001": {"name": "THE FROBISHER COMMUNITY CO-OPERATIVE MEMORIAL RINKS LIMITED", "designationCode": "C", "categoryCode": "50", "address": "BOX 116", "city": "FROBISHER", "province": "SK", "country": "CA", "postalCode": "S0C0Y0", "twitter": "None", "instagram": "None", "facebook": "None", "youtube": "None", "website": "None", "summary": "None", "logo": "None", "latitude": 49.20005000000003, "longitude": -102.43419999999998}, "824223127RR0001": {"name": "THE FROBISHER UNION CHURCH", "designationCode": "C", "categoryCode": "39", "address": "P.O. BOX 86                   508 - 5TH ST", "city": "FROBISHER", "province": "SK", "country": "CA", "postalCode": "S0C0Y0", "twitter": "None", "instagram": "None", "facebook": "None", "youtube": "None", "website": "None", "summary": "None", "logo": "None", "latitude": 49.2097691330962, "longitude": -102.42550151355324}, "108082645RR0001": {"name": "THE FROEBEL FOUNDATION", "designationCode": "C", "categoryCode": "20", "address": "15 - 2145 DUNWIN DR", "city": "MISSISSAUGA", "province": "ON", "country": "CA", "postalCode": "L5L4L9", "twitter": "None", "instagram": "None", "facebook": "None", "youtube": "None", "website": "None", "summary": "None", "logo": "None", "latitude": 43.53411823010547, "longitude": -79.67178650302976}, "895489748RR0001": {"name": "THE FRONTIER CENTRE FOR PUBLIC POLICY INC.", "designationCode": "C", "categoryCode": "21", "address": "203-2727 PORTAGE AVENUE", "city": "WINNIPEG", "province": "MB", "country": "CA", "postalCode": "R3J0R2", "twitter": "None", "instagram": "None", "facebook": "None", "youtube": "None", "website": "None", "summary": "None", "logo": "None", "latitude": 49.87818612577153, "longitude": -97.2730834176815}, "107409161RR0001": {"name": "THE FULL GOSPEL ASSEMBLY", "designationCode": "C", "categoryCode": "36", "address": "199 BLAKNEY ROAD", "city": "KILLAMS MILLS", "province": "NB", "country": "CA", "postalCode": "E4Z2V1", "twitter": "None", "instagram": "None", "facebook": "None", "youtube": "None", "website": "None", "summary": "None", "logo": "None", "latitude": 46.01651313640554, "longitude": -65.22268559653432}, "119234300RR0001": {"name": "THE FULL GOSPEL CHURCH OF CALGARY", "designationCode": "C", "categoryCode": "39", "address": "917 14 AVE SW", "city": "CALGARY", "province": "AB", "country": "CA", "postalCode": "T2R0N8", "twitter": "None", "instagram": "None", "facebook": "None", "youtube": "None", "website": "None", "summary": "None", "logo": "None", "latitude": 51.040015513994035, "longitude": -114.08258516625308}, "133354340RR0001": {"name": "THE FULL GOSPEL CHURCH OF GRASSLAND", "designationCode": "C", "categoryCode": "39", "address": "BOX 38", "city": "GRASSLAND", "province": "AB", "country": "CA", "postalCode": "T0A1V0", "twitter": "None", "instagram": "None", "facebook": "None", "youtube": "None", "website": "None", "summary": "None", "logo": "None", "latitude": 54.82033000000007, "longitude": -112.68602999999996}, "860143072RR0001": {"name": "THE FULL GOSPEL CHURCH OF NIAGARA", "designationCode": "C", "categoryCode": "36", "address": "376 CARLTON STREET", "city": "ST CATHARINES", "province": "ON", "country": "CA", "postalCode": "L2M4W6", "twitter": "None", "instagram": "None", "facebook": "None", "youtube": "None", "website": "None", "summary": "None", "logo": "None", "latitude": 43.17942939604144, "longitude": -79.22853442241338}, "107409575RR0001": {"name": "THE FULL GOSPEL PENTECOSTAL ASSEMBLY OF ANTIGONISH", "designationCode": "C", "categoryCode": "36", "address": "2758 HIGHWAY 4 RR1", "city": "ANTIGONISH", "province": "NS", "country": "CA", "postalCode": "B2G2K8", "twitter": "None", "instagram": "None", "facebook": "None", "youtube": "None", "website": "None", "summary": "None", "logo": "None", "latitude": 45.601245703588184, "longitude": -62.02764603760555}, "132157561RR0001": {"name": "THE FUNDY REGION TRANSITION HOUSE INC", "designationCode": "C", "categoryCode": "59", "address": "P.O. BOX 73", "city": "ST. STEPHEN", "province": "NB", "country": "CA", "postalCode": "E3L2W9", "twitter": "None", "instagram": "None", "facebook": "None", "youtube": "None", "website": "None", "summary": "None", "logo": "None", "latitude": 45.19456800000006, "longitude": -67.27532299999993}, "870445392RR0001": {"name": "THE FURTHER EDUCATION SOCIETY OF ALBERTA", "designationCode": "C", "categoryCode": "21", "address": "100, 5421 11 STREET NE", "city": "CALGARY", "province": "AB", "country": "CA", "postalCode": "T2E6M4", "twitter": "None", "instagram": "None", "facebook": "None", "youtube": "None", "website": "None", "summary": "None", "logo": "None", "latitude": 51.10029640711708, "longitude": -114.03654186763472}, "885573535RR0001": {"name": "THE G & E CHARITABLE FOUNDATION", "designationCode": "B", "categoryCode": "03", "address": "#600 - 5920 MACLEOD TRAIL S.", "city": "CALGARY", "province": "AB", "country": "CA", "postalCode": "T2H0K2", "twitter": "None", "instagram": "None", "facebook": "None", "youtube": "None", "website": "None", "summary": "None", "logo": "None", "latitude": 50.98923298743748, "longitude": -114.07168631722637}, "893126011RR0001": {"name": "THE G & S FLINT FOUNDATION", "designationCode": "B", "categoryCode": "05", "address": "10 TIMBER RUN COURT           RR#2", "city": "CAMPBELLVILLE", "province": "ON", "country": "CA", "postalCode": "L0P1B0", "twitter": "None", "instagram": "None", "facebook": "None", "youtube": "None", "website": "None", "summary": "None", "logo": "None", "latitude": 43.530693000000056, "longitude": -80.04475699999993}, "883367872RR0001": {"name": "THE G SCOTT PATERSON FOUNDATION", "designationCode": "B", "categoryCode": "03", "address": "38 PRINCE ARTHUR AVENUE", "city": "TORONTO", "province": "ON", "country": "CA", "postalCode": "M5R1A9", "twitter": "None", "instagram": "None", "facebook": "None", "youtube": "None", "website": "None", "summary": "None", "logo": "None", "latitude": 43.66934217236993, "longitude": -79.39748571080266}, "893689612RR0001": {"name": "THE G. ZIMMERMANN FOUNDATION", "designationCode": "B", "categoryCode": "03", "address": "1007 FORT STREET              THIRD FLOOR", "city": "VICTORIA", "province": "BC", "country": "CA", "postalCode": "V8V3K5", "twitter": "None", "instagram": "None", "facebook": "None", "youtube": "None", "website": "None", "summary": "None", "logo": "None", "latitude": 48.423649590599716, "longitude": -123.35650464516125}, "881155923RR0001": {"name": "THE GABRIEL DUMONT SCHOLARSHIP FOUNDATION II", "designationCode": "C", "categoryCode": "21", "address": "917-22ND STREET WEST", "city": "SASKATOON", "province": "SK", "country": "CA", "postalCode": "S7M0R9", "twitter": "None", "instagram": "None", "facebook": "None", "youtube": "None", "website": "None", "summary": "None", "logo": "None", "latitude": 52.129157481245464, "longitude": -106.6840335}, "867976193RR0001": {"name": "THE GAIL ASPER FAMILY FOUNDATION INC", "designationCode": "B", "categoryCode": "03", "address": "1504-201 PORTAGE AVE", "city": "WINNIPEG", "province": "MB", "country": "CA", "postalCode": "R3B3K6", "twitter": "None", "instagram": "None", "facebook": "None", "youtube": "None", "website": "None", "summary": "None", "logo": "None", "latitude": 49.895359615067065, "longitude": -97.13919299627776}, "119234433RR0002": {"name": "THE GAIRDNER FOUNDATION", "designationCode": "C", "categoryCode": "21", "address": "335 - 101 COLLEGE ST", "city": "TORONTO", "province": "ON", "country": "CA", "postalCode": "M5G1L7", "twitter": "None", "instagram": "None", "facebook": "None", "youtube": "None", "website": "None", "summary": "None", "logo": "None", "latitude": 43.66017488533698, "longitude": -79.38889641727748}, "132823824RR0001": {"name": "THE GALAHAD CEMETERY IMPROVEMENT SOCIETY", "designationCode": "C", "categoryCode": "59", "address": "PO BOX 165", "city": "GALAHAD", "province": "AB", "country": "CA", "postalCode": "T0B1R0", "twitter": "None", "instagram": "None", "facebook": "None", "youtube": "None", "website": "None", "summary": "None", "logo": "None", "latitude": 52.51282000000003, "longitude": -111.92827999999997}, "120542485RR0001": {"name": "THE GALIANO CLUB", "designationCode": "C", "categoryCode": "56", "address": "BOX 219", "city": "GALIANO ISLAND", "province": "BC", "country": "CA", "postalCode": "V0N1P0", "twitter": "None", "instagram": "None", "facebook": "None", "youtube": "None", "website": "None", "summary": "None", "logo": "None", "latitude": 48.90217438271622, "longitude": -123.36977755047218}, "831453964RR0001": {"name": "THE GALIANO FOUNDATION", "designationCode": "B", "categoryCode": "03", "address": "518 BEACH DR", "city": "VICTORIA", "province": "BC", "country": "CA", "postalCode": "V8S2M5", "twitter": "None", "instagram": "None", "facebook": "None", "youtube": "None", "website": "None", "summary": "None", "logo": "None", "latitude": 48.41259606884407, "longitude": -123.30815983980644}, "845025725RR0001": {"name": "THE GALILEE CHARITABLE FOUNDATION", "designationCode": "C", "categoryCode": "39", "address": "1501-144 PARK ST", "city": "WATERLOO", "province": "ON", "country": "CA", "postalCode": "N2L0B6", "twitter": "None", "instagram": "None", "facebook": "None", "youtube": "None", "website": "None", "summary": "None", "logo": "None", "latitude": 43.45876526221422, "longitude": -80.52037095574924}, "897299921RR0001": {"name": "THE GALILEO EDUCATIONAL NETWORK ASSOCIATION", "designationCode": "C", "categoryCode": "23", "address": "EDT 850, UNIVERSITY OF CALGARY2500 UNIVERSITY DRIVE NW", "city": "CALGARY", "province": "AB", "country": "CA", "postalCode": "T2N1N4", "twitter": "None", "instagram": "None", "facebook": "None", "youtube": "None", "website": "None", "summary": "None", "logo": "None", "latitude": 51.07491998831462, "longitude": -114.12851991949915}, "885820019RR0001": {"name": "THE GALLERY PLAYERS OF NIAGARA", "designationCode": "C", "categoryCode": "22", "address": "PO BOX 1", "city": "VIRGIL", "province": "ON", "country": "CA", "postalCode": "L0S1T0", "twitter": "None", "instagram": "None", "facebook": "None", "youtube": "None", "website": "None", "summary": "None", "logo": "None", "latitude": 43.21981000000005, "longitude": -79.12214999999998}, "119234458RR0001": {"name": "THE GANANOQUE CEMETERY FOUNDATION", "designationCode": "A", "categoryCode": "59", "address": "PO BOX 426                    221 COUNTY ROAD 32", "city": "GANANOQUE", "province": "ON", "country": "CA", "postalCode": "K7G2V3", "twitter": "None", "instagram": "None", "facebook": "None", "youtube": "None", "website": "None", "summary": "None", "logo": "None", "latitude": 44.331091834421755, "longitude": -76.16430295359166}, "896016755RR0001": {"name": "THE GANDER BAY COMMUNITY ACTION PROGRAM FOR CHILDREN INC.", "designationCode": "C", "categoryCode": "01", "address": "GENERAL DELIVERY", "city": "WINGS POINT", "province": "NL", "country": "CA", "postalCode": "A0G4T0", "twitter": "None", "instagram": "None", "facebook": "None", "youtube": "None", "website": "None", "summary": "None", "logo": "None", "latitude": 49.32958060008328, "longitude": -54.476696866555606}, "119234466RR0001": {"name": "THE GANDER KIWANIS MUSIC FESTIVAL COMMITTEE", "designationCode": "C", "categoryCode": "22", "address": "PO BOX 95", "city": "GANDER", "province": "NL", "country": "CA", "postalCode": "A1V1W5", "twitter": "None", "instagram": "None", "facebook": "None", "youtube": "None", "website": "None", "summary": "None", "logo": "None", "latitude": 48.95684700000005, "longitude": -54.60917299999993}, "881151674RR0001": {"name": "THE GANZ FAMILY CHARITABLE FOUNDATION", "designationCode": "B", "categoryCode": "03", "address": "1 PEARCE RD", "city": "WOODBRIDGE", "province": "ON", "country": "CA", "postalCode": "L4L3T2", "twitter": "None", "instagram": "None", "facebook": "None", "youtube": "None", "website": "None", "summary": "None", "logo": "None", "latitude": 43.77068787206409, "longitude": -79.5500177846966}, "891211344RR0001": {"name": "THE GARDEN CITY KIWANIS MUSIC FESTIVAL", "designationCode": "C", "categoryCode": "22", "address": "12-111 FOURTH AVENUE,         SUITE 102", "city": "ST. CATHARINES", "province": "ON", "country": "CA", "postalCode": "L2S3P5", "twitter": "None", "instagram": "None", "facebook": "None", "youtube": "None", "website": "None", "summary": "None", "logo": "None", "latitude": 43.15709070235222, "longitude": -79.26002970794204}, "119234508RR0001": {"name": "THE GARDEN CLUB OF TORONTO", "designationCode": "C", "categoryCode": "56", "address": "777 LAWRENCE AVENUE EAST", "city": "TORONTO", "province": "ON", "country": "CA", "postalCode": "M3C1P2", "twitter": "None", "instagram": "None", "facebook": "None", "youtube": "None", "website": "None", "summary": "None", "logo": "None", "latitude": 43.734691542847486, "longitude": -79.35854313503371}, "889335394RR0001": {"name": "THE GARDEN FOUNDATION", "designationCode": "C", "categoryCode": "59", "address": "50 AUGUSTA ST", "city": "MORRISBURG", "province": "ON", "country": "CA", "postalCode": "K0C1K0", "twitter": "None", "instagram": "None", "facebook": "None", "youtube": "None", "website": "None", "summary": "None", "logo": "None", "latitude": 44.89605905245543, "longitude": -75.18758874063705}, "137076659RR0001": {"name": "THE GARDEN KOREAN PRESBYTERIAN CHURCH", "designationCode": "C", "categoryCode": "39", "address": "260 YORKLAND BLVD.", "city": "NORTH YORK", "province": "ON", "country": "CA", "postalCode": "M2J1R7", "twitter": "None", "instagram": "None", "facebook": "None", "youtube": "None", "website": "None", "summary": "None", "logo": "None", "latitude": 43.77332282589932, "longitude": -79.33411411391229}, "108082751RR0001": {"name": "THE GARDEN OF THE GULF MUSEUM", "designationCode": "C", "categoryCode": "50", "address": "P.O. BOX 1237", "city": "MONTAGUE", "province": "PE", "country": "CA", "postalCode": "C0A1R0", "twitter": "None", "instagram": "None", "facebook": "None", "youtube": "None", "website": "None", "summary": "None", "logo": "None", "latitude": 46.14343222329997, "longitude": -62.75594020244682}, "118935253RR0001": {"name": "THE GARDEN VALLEY SCHOOL DIVISION", "designationCode": "C", "categoryCode": "20", "address": "BOX 1330                      750 TRIPLE E BLVD.", "city": "WINKLER", "province": "MB", "country": "CA", "postalCode": "R6W4B3", "twitter": "None", "instagram": "None", "facebook": "None", "youtube": "None", "website": "None", "summary": "None", "logo": "None", "latitude": 49.19059492823571, "longitude": -97.93406808047577}, "892702382RR0001": {"name": "THE GARNEAU COMMUNITY LEAGUE OF EDMONTON", "designationCode": "C", "categoryCode": "56", "address": "10918-81 AVE", "city": "EDMONTON", "province": "AB", "country": "CA", "postalCode": "T6G0S2", "twitter": "None", "instagram": "None", "facebook": "None", "youtube": "None", "website": "None", "summary": "None", "logo": "None", "latitude": 53.51712150043268, "longitude": -113.5127925}, "888543196RR0001": {"name": "THE GARNET SPENCER SCHOLARSHIP FUND", "designationCode": "C", "categoryCode": "21", "address": "BOX 2", "city": "MCLEAN", "province": "SK", "country": "CA", "postalCode": "S0G3E0", "twitter": "None", "instagram": "None", "facebook": "None", "youtube": "None", "website": "None", "summary": "None", "logo": "None", "latitude": 50.51618968368675, "longitude": -104.06411157507573}, "107419509RR0001": {"name": "THE GARNETT SETTLEMENT CHRISTIAN CHURCH INC.", "designationCode": "C", "categoryCode": "39", "address": "661 ROUTE 825", "city": "GARNETT SETTLEMENT", "province": "NB", "country": "CA", "postalCode": "E2S1T9", "twitter": "None", "instagram": "None", "facebook": "None", "youtube": "None", "website": "None", "summary": "None", "logo": "None", "latitude": 45.30856612251984, "longitude": -65.84991114527331}, "894269422RR0001": {"name": "THE GARTH HOMER FOUNDATION", "designationCode": "A", "categoryCode": "03", "address": "PO BOX 24022 RPO ROYAL OAK", "city": "VICTORIA", "province": "BC", "country": "CA", "postalCode": "V8Z7E7", "twitter": "None", "instagram": "None", "facebook": "None", "youtube": "None", "website": "None", "summary": "None", "logo": "None", "latitude": 48.49921941711694, "longitude": -123.39011139042589}, "107419830RR0001": {"name": "THE GARTH HOMER SOCIETY", "designationCode": "C", "categoryCode": "11", "address": "813 DARWIN AVE", "city": "VICTORIA", "province": "BC", "country": "CA", "postalCode": "V8X2X7", "twitter": "None", "instagram": "None", "facebook": "None", "youtube": "None", "website": "None", "summary": "None", "logo": "None", "latitude": 48.45898161085481, "longitude": -123.3735938884527}, "119234565RR0001": {"name": "THE GARY JOHNSON EVANGELISTIC ASSOCIATION", "designationCode": "C", "categoryCode": "47", "address": "PO BOX 764", "city": "LAKEFIELD", "province": "ON", "country": "CA", "postalCode": "K0L2H0", "twitter": "None", "instagram": "None", "facebook": "None", "youtube": "None", "website": "None", "summary": "None", "logo": "None", "latitude": 44.42679000000004, "longitude": -78.26996999999994}, "868009119RR0001": {"name": "THE GATE CHRISTIAN FELLOWSHIP LETHBRIDGE", "designationCode": "C", "categoryCode": "39", "address": "522 3RD AVENUE SOUTH", "city": "LETHBRIDGE", "province": "AB", "country": "CA", "postalCode": "T1J0H3", "twitter": "None", "instagram": "None", "facebook": "None", "youtube": "None", "website": "None", "summary": "None", "logo": "None", "latitude": 49.6958075323159, "longitude": -112.83902177546311}, "869730648RR0001": {"name": "THE GATEHOUSE CHILD ABUSE INVESTIGATION & SUPPORT SITE", "designationCode": "C", "categoryCode": "59", "address": "3101 LAKESHORE BLVD W", "city": "TORONTO", "province": "ON", "country": "CA", "postalCode": "M8V3W8", "twitter": "None", "instagram": "None", "facebook": "None", "youtube": "None", "website": "None", "summary": "None", "logo": "None", "latitude": 43.59900484927016, "longitude": -79.51313654495361}, "107420952RR0001": {"name": "THE GATEHOUSE MONTESSORI SCHOOL SOCIETY", "designationCode": "C", "categoryCode": "20", "address": "1305 TAYLOR WAY", "city": "WEST VANCOUVER", "province": "BC", "country": "CA", "postalCode": "V7T2Y7", "twitter": "None", "instagram": "None", "facebook": "None", "youtube": "None", "website": "None", "summary": "None", "logo": "None", "latitude": 49.337007192336564, "longitude": -123.13500138709638}, "119296184RR0001": {"name": "THE GATEWAY BAPTIST CHURCH OF SURREY, BRITISH COLUMBIA", "designationCode": "C", "categoryCode": "39", "address": "13175-107 AVENUE", "city": "SURREY", "province": "BC", "country": "CA", "postalCode": "V3T2G2", "twitter": "None", "instagram": "None", "facebook": "None", "youtube": "None", "website": "None", "summary": "None", "logo": "None", "latitude": 49.19704545657561, "longitude": -122.85718110935426}, "811039478RR0001": {"name": "THE GATHERING", "designationCode": "C", "categoryCode": "39", "address": "111 COLLONADE RD              SUITE 207", "city": "OTTAWA", "province": "ON", "country": "CA", "postalCode": "K2E7M3", "twitter": "None", "instagram": "None", "facebook": "None", "youtube": "None", "website": "None", "summary": "None", "logo": "None", "latitude": 45.34169257327369, "longitude": -75.72295089322552}, "849830765RR0001": {"name": "THE GATHERING", "designationCode": "C", "categoryCode": "39", "address": "BOX 411", "city": "STIRLING", "province": "ON", "country": "CA", "postalCode": "K0K3E0", "twitter": "None", "instagram": "None", "facebook": "None", "youtube": "None", "website": "None", "summary": "None", "logo": "None", "latitude": 44.29383000389519, "longitude": -77.55681006939226}, "853681088RR0001": {"name": "THE GATHERING (WOODSTOCK)", "designationCode": "C", "categoryCode": "39", "address": "7 BIGHAM CRESCENT", "city": "WOODSTOCK", "province": "ON", "country": "CA", "postalCode": "N4S8G5", "twitter": "None", "instagram": "None", "facebook": "None", "youtube": "None", "website": "None", "summary": "None", "logo": "None", "latitude": 43.12342228893755, "longitude": -80.73507629309248}, "877665026RR0001": {"name": "THE GATHERING - NEW APOSTOLIC REFORMATION CHURCH", "designationCode": "C", "categoryCode": "39", "address": "32 EDGEHILL DRIVE NW", "city": "CALGARY", "province": "AB", "country": "CA", "postalCode": "T3A2S1", "twitter": "None", "instagram": "None", "facebook": "None", "youtube": "None", "website": "None", "summary": "None", "logo": "None", "latitude": 51.1188021515379, "longitude": -114.16065206826714}, "782507297RR0001": {"name": "THE GATHERING CHURCH", "designationCode": "C", "categoryCode": "39", "address": "8 - 192 ACTIVA AVE", "city": "KITCHENER", "province": "ON", "country": "CA", "postalCode": "N2E4K5", "twitter": "None", "instagram": "None", "facebook": "None", "youtube": "None", "website": "None", "summary": "None", "logo": "None", "latitude": 43.40605738103781, "longitude": -80.5133305861563}, "726369895RR0001": {"name": "THE GATHERING PLACE", "designationCode": "C", "categoryCode": "09", "address": "178 CHURCH ST", "city": "BOWMANVILLE", "province": "ON", "country": "CA", "postalCode": "L1C1T9", "twitter": "None", "instagram": "None", "facebook": "None", "youtube": "None", "website": "None", "summary": "None", "logo": "None", "latitude": 43.91375407080594, "longitude": -78.69059686329285}, "855419404RR0001": {"name": "THE GATHERING PLACE CARONPORT INC.", "designationCode": "C", "categoryCode": "39", "address": "BOX 180", "city": "CARONPORT", "province": "SK", "country": "CA", "postalCode": "S0H0S0", "twitter": "None", "instagram": "None", "facebook": "None", "youtube": "None", "website": "None", "summary": "None", "logo": "None", "latitude": 50.45526000000007, "longitude": -105.81779999999998}, "823067301RR0001": {"name": "THE GATHERING PLACE CHRISTIAN FELLOWSHIP INC.", "designationCode": "C", "categoryCode": "39", "address": "756 MAXWELL STREET", "city": "SARNIA", "province": "ON", "country": "CA", "postalCode": "N7T5E8", "twitter": "None", "instagram": "None", "facebook": "None", "youtube": "None", "website": "None", "summary": "None", "logo": "None", "latitude": 42.98078492934753, "longitude": -82.38318295127516}, "890117393RR0001": {"name": "THE GATHERING PLACE INC", "designationCode": "C", "categoryCode": "49", "address": "BOX 544", "city": "PORTAGE LA PRAIRIE", "province": "MB", "country": "CA", "postalCode": "R1N3B9", "twitter": "None", "instagram": "None", "facebook": "None", "youtube": "None", "website": "None", "summary": "None", "logo": "None", "latitude": 49.97301900000005, "longitude": -98.29058299999993}, "140263005RR0001": {"name": "THE GATHERING PLACE INCORPORATED", "designationCode": "C", "categoryCode": "01", "address": "P.O. BOX 1761", "city": "ST. JOHN'S", "province": "NL", "country": "CA", "postalCode": "A1C5P5", "twitter": "None", "instagram": "None", "facebook": "None", "youtube": "None", "website": "None", "summary": "None", "logo": "None", "latitude": 47.56082100000006, "longitude": -52.71219349999993}, "881513816RR0001": {"name": "THE GATHERING PLACE OF AURORA", "designationCode": "C", "categoryCode": "39", "address": "14845-6 YONGE ST              STE 220", "city": "AURORA", "province": "ON", "country": "CA", "postalCode": "L4G6H8", "twitter": "None", "instagram": "None", "facebook": "None", "youtube": "None", "website": "None", "summary": "None", "logo": "None", "latitude": 44.02207800000001, "longitude": -79.47285525000001}, "887174613RR0001": {"name": "THE GATHERING PLACE SOCIETY OF SLAVE LAKE", "designationCode": "C", "categoryCode": "39", "address": "800 6TH AVE NW", "city": "SLAVE LAKE", "province": "AB", "country": "CA", "postalCode": "T0G2A1", "twitter": "None", "instagram": "None", "facebook": "None", "youtube": "None", "website": "None", "summary": "None", "logo": "None", "latitude": 55.28684348932419, "longitude": -114.78340349999999}, "889414504RR0001": {"name": "THE GATHERING PLACE, NORTH BAY'S COMMUNITY SOUP KITCHEN", "designationCode": "C", "categoryCode": "09", "address": "392 ALGONQUIN AVENUE", "city": "NORTH BAY", "province": "ON", "country": "CA", "postalCode": "P1B4W3", "twitter": "None", "instagram": "None", "facebook": "None", "youtube": "None", "website": "None", "summary": "None", "logo": "None", "latitude": 46.31577300000001, "longitude": -79.46603272534495}, "119234631RR0001": {"name": "THE GAULT INSTITUTE TRUST FUND", "designationCode": "C", "categoryCode": "25", "address": "156 RAPIN", "city": "VALLEYFIELD", "province": "QC", "country": "CA", "postalCode": "J6S5M5", "twitter": "None", "instagram": "None", "facebook": "None", "youtube": "None", "website": "None", "summary": "None", "logo": "None", "latitude": 45.27587778518663, "longitude": -74.09323535648352}, "118936558RR0001": {"name": "THE GAZETTE CHRISTMAS FUND/ FONDS DE NOEL DE LA GAZETTE", "designationCode": "A", "categoryCode": "05", "address": "1010, RUE STE-CATHERINE QUEST,BUREAU 200", "city": "MONTREAL", "province": "QC", "country": "CA", "postalCode": "H3B5L1", "twitter": "None", "instagram": "None", "facebook": "None", "youtube": "None", "website": "None", "summary": "None", "logo": "None"}, "892524760RR0001": {"name": "THE GAZETTE, A DIVISION OF POSTMEDIA NETWORK INC. EMPLOYEES' CHARITY TRUST", "designationCode": "B", "categoryCode": "75", "address": "1010 ST.CATHERINE ST.W.       SUITE 200", "city": "MONTREAL", "province": "QC", "country": "CA", "postalCode": "H3B5L1", "twitter": "None", "instagram": "None", "facebook": "None", "youtube": "None", "website": "None", "summary": "None", "logo": "None", "latitude": 45.50034272188251, "longitude": -73.57251951800474}, "119280535RR0001": {"name": "THE GENERAL ASSEMBLY OF THE CHURCH OF GOD IN EASTERN CANADA", "designationCode": "C", "categoryCode": "39", "address": "164 EIGHTH AVE", "city": "KITCHENER", "province": "ON", "country": "CA", "postalCode": "N2C1S4", "twitter": "None", "instagram": "None", "facebook": "None", "youtube": "None", "website": "None", "summary": "None", "logo": "None", "latitude": 43.42903643081665, "longitude": -80.45031537681353}, "131323040RR0001": {"name": "THE GENERAL PROTESTANT CEMETERY TRUSTEE BOARD INC.", "designationCode": "C", "categoryCode": "59", "address": "PO BOX 7251", "city": "ST JOHNS", "province": "NL", "country": "CA", "postalCode": "A1E3Y4", "twitter": "None", "instagram": "None", "facebook": "None", "youtube": "None", "website": "None", "summary": "None", "logo": "None", "latitude": 47.56082100000006, "longitude": -52.71219349999993}, "119234664RR0001": {"name": "THE GENERALATE OF THE SISTERS OF THE PRECIOUS BLOOD", "designationCode": "C", "categoryCode": "46", "address": "301 RAMSAY ROAD", "city": "LONDON", "province": "ON", "country": "CA", "postalCode": "N6G1N7", "twitter": "None", "instagram": "None", "facebook": "None", "youtube": "None", "website": "None", "summary": "None", "logo": "None", "latitude": 43.002591401453216, "longitude": -81.28520224422678}, "119234706RR0001": {"name": "THE GEOFFREY H WOOD FOUNDATION", "designationCode": "B", "categoryCode": "03", "address": "2 WIDDICOMBE HILL", "city": "TORONTO", "province": "ON", "country": "CA", "postalCode": "M9R1B3", "twitter": "None", "instagram": "None", "facebook": "None", "youtube": "None", "website": "None", "summary": "None", "logo": "None", "latitude": 43.68082019095158, "longitude": -79.5480210148594}, "119234714RR0001": {"name": "THE GEORGE A MORROW MEMORIAL FUND", "designationCode": "B", "categoryCode": "25", "address": "317 DUNDAS STREET WEST", "city": "TORONTO", "province": "ON", "country": "CA", "postalCode": "M5T1G4", "twitter": "None", "instagram": "None", "facebook": "None", "youtube": "None", "website": "None", "summary": "None", "logo": "None", "latitude": 43.65403286311997, "longitude": -79.39271665041272}, "119234722RR0001": {"name": "THE GEORGE AND AGNES HERCZEG FOUNDATION", "designationCode": "B", "categoryCode": "03", "address": "35 ALVIN AVENUE", "city": "TORONTO", "province": "ON", "country": "CA", "postalCode": "M4T2A7", "twitter": "None", "instagram": "None", "facebook": "None", "youtube": "None", "website": "None", "summary": "None", "logo": "None", "latitude": 43.68956953150784, "longitude": -79.3930903870104}, "894091867RR0001": {"name": "THE GEORGE AND GOLDA FINE FAMILY FOUNDATION", "designationCode": "B", "categoryCode": "13", "address": "1696 BAYVIEW AVENUE", "city": "TORONTO", "province": "ON", "country": "CA", "postalCode": "M4G3C4", "twitter": "None", "instagram": "None", "facebook": "None", "youtube": "None", "website": "None", "summary": "None", "logo": "None", "latitude": 43.70887068720067, "longitude": -79.37641380226775}, "119234730RR0001": {"name": "THE GEORGE AND HENRIETTA POLLOCK CHARITABLE FOUNDATION", "designationCode": "B", "categoryCode": "53", "address": "276 KENILWORTH AVENUE NORTH", "city": "HAMILTON", "province": "ON", "country": "CA", "postalCode": "L8H4S9", "twitter": "None", "instagram": "None", "facebook": "None", "youtube": "None", "website": "None", "summary": "None", "logo": "None", "latitude": 43.24880732500436, "longitude": -79.8062865412027}, "119234748RR0001": {"name": "THE GEORGE BROWN COLLEGE FOUNDATION", "designationCode": "C", "categoryCode": "21", "address": "210 KING ST E                 2ND FLOOR WEST", "city": "TORONTO", "province": "ON", "country": "CA", "postalCode": "M5A3W8", "twitter": "None", "instagram": "None", "facebook": "None", "youtube": "None", "website": "None", "summary": "None", "logo": "None", "latitude": 43.65116418347842, "longitude": -79.36881698058161}, "118937010RR0001": {"name": "THE GEORGE CEDRIC METCALF CHARITABLE FOUNDATION", "designationCode": "B", "categoryCode": "03", "address": "38 MADISON AVENUE", "city": "TORONTO", "province": "ON", "country": "CA", "postalCode": "M5R2S1", "twitter": "None", "instagram": "None", "facebook": "None", "youtube": "None", "website": "None", "summary": "None", "logo": "None", "latitude": 43.66899163474526, "longitude": -79.40354594728477}}