{"870715984RR0001": {"name": "CONSEIL DES ARTS DE CHETICAMP", "designationCode": "C", "categoryCode": "22", "address": "C.P. 100", "city": "CHETICAMP", "province": "NS", "country": "CA", "postalCode": "B0E1H0", "twitter": "None", "instagram": "None", "facebook": "None", "youtube": "None", "website": "None", "summary": "None", "logo": "None", "latitude": 46.592594191256524, "longitude": -61.02772548535925}, "888076643RR0001": {"name": "CONSEIL DES ARTS DE MONTREAL", "designationCode": "A", "categoryCode": "25", "address": "1210 RUE SHERBROOKE E", "city": "MONTREAL", "province": "QC", "country": "CA", "postalCode": "H2L1L9", "twitter": "None", "instagram": "None", "facebook": "None", "youtube": "None", "website": "None", "summary": "None", "logo": "None", "latitude": 45.5226015858965, "longitude": -73.56550230622113}, "118874452RR0001": {"name": "CONSEIL DES AVEUGLES DE MEMPHREMAGOG", "designationCode": "C", "categoryCode": "09", "address": "95 MERRY NORTH, LOCAL 32", "city": "MAGOG", "province": "QC", "country": "CA", "postalCode": "J1X2E7", "twitter": "None", "instagram": "None", "facebook": "None", "youtube": "None", "website": "None", "summary": "None", "logo": "None", "latitude": 45.26782226172889, "longitude": -72.15544128440722}, "122864614RR0001": {"name": "CONSEIL DES ECOLES PUBLIQUES DE L'EST DE L'ONTARIO", "designationCode": "C", "categoryCode": "20", "address": "2445 BOUL ST LAURENT", "city": "OTTAWA", "province": "ON", "country": "CA", "postalCode": "K1G6C3", "twitter": "None", "instagram": "None", "facebook": "None", "youtube": "None", "website": "None", "summary": "None", "logo": "None", "latitude": 45.38168751145521, "longitude": -75.62661254310727}, "888295433RR0001": {"name": "CONSEIL DES PERSONNES HANDICAPEES DE DIEPPE", "designationCode": "C", "categoryCode": "09", "address": "377 RUE LAVOIE", "city": "DIEPPE", "province": "NB", "country": "CA", "postalCode": "E1A6S9", "twitter": "None", "instagram": "None", "facebook": "None", "youtube": "None", "website": "None", "summary": "None", "logo": "None", "latitude": 46.08309656838269, "longitude": -64.72358827684809}, "118874627RR0001": {"name": "CONSEIL DES RELATIONS INTERNATIONALES DE MONTREAL (C.O.R.I.M.)", "designationCode": "C", "categoryCode": "22", "address": "1550, RUE METCALFE            BUREAU 1424", "city": "MONTREAL", "province": "QC", "country": "CA", "postalCode": "H3A3P1", "twitter": "None", "instagram": "None", "facebook": "None", "youtube": "None", "website": "None", "summary": "None", "logo": "None", "latitude": 45.50198999388317, "longitude": -73.57481434652885}, "889686978RR0001": {"name": "CONSEIL DOLLARD 2183 FIDEICOMMIS DE CHARITE", "designationCode": "A", "categoryCode": "65", "address": "393 WILLIAM STREET", "city": "HAWKESBURY", "province": "ON", "country": "CA", "postalCode": "K6A1X3", "twitter": "None", "instagram": "None", "facebook": "None", "youtube": "None", "website": "None", "summary": "None", "logo": "None", "latitude": 45.60774299899896, "longitude": -74.60487142960771}, "129569539RR0001": {"name": "CONSEIL DU LOISIR SCIENTIFIQUE DE L'ABITIBI-TEMISCAMINGUE", "designationCode": "C", "categoryCode": "21", "address": "111 7E RUE", "city": "ROUYN-NORANDA", "province": "QC", "country": "CA", "postalCode": "J9X1Z8", "twitter": "None", "instagram": "None", "facebook": "None", "youtube": "None", "website": "None", "summary": "None", "logo": "None", "latitude": 48.24727536303305, "longitude": -79.01642266489675}, "118874635RR0001": {"name": "CONSEIL DU LOISIR SCIENTIFIQUE DE L'ESTRIE", "designationCode": "C", "categoryCode": "21", "address": "195 RUE MARQUETTE", "city": "SHERBROOKE", "province": "QC", "country": "CA", "postalCode": "J1H1L6", "twitter": "None", "instagram": "None", "facebook": "None", "youtube": "None", "website": "None", "summary": "None", "logo": "None", "latitude": 45.40273998170681, "longitude": -71.89359966703155}, "101098275RR0001": {"name": "CONSEIL DU LOISIR SCIENTIFIQUE DE LA MAURICIE", "designationCode": "C", "categoryCode": "21", "address": "C.P. 500", "city": "TROIS RIVIERES", "province": "QC", "country": "CA", "postalCode": "G9A5H7", "twitter": "None", "instagram": "None", "facebook": "None", "youtube": "None", "website": "None", "summary": "None", "logo": "None", "latitude": 46.34016900000006, "longitude": -72.54503449999993}, "122901697RR0001": {"name": "CONSEIL DU LOISIR SCIENTIFIQUE DU SAGUENAY-LAC-ST-JEAN", "designationCode": "C", "categoryCode": "29", "address": "414 RUE COLLARD OUEST", "city": "ALMA", "province": "QC", "country": "CA", "postalCode": "G8B1N2", "twitter": "None", "instagram": "None", "facebook": "None", "youtube": "None", "website": "None", "summary": "None", "logo": "None", "latitude": 48.54800229641071, "longitude": -71.64896626715321}, "847164720RR0001": {"name": "CONSEIL DU PATRIMOINE CULTUREL DE CAP-SANT\u00c9", "designationCode": "C", "categoryCode": "52", "address": "30 PLACE DE L'EGLISE", "city": "CAP-SANTE", "province": "QC", "country": "CA", "postalCode": "G0A1L0", "twitter": "None", "instagram": "None", "facebook": "None", "youtube": "None", "website": "None", "summary": "None", "logo": "None", "latitude": 46.670704962808, "longitude": -71.78782898058161}, "864755640RR0001": {"name": "CONSEIL FATIMA NO. 1398 FIDEICOMMIS DE CHARITE", "designationCode": "A", "categoryCode": "63", "address": "C.P. 449", "city": "HAILEYBURY", "province": "ON", "country": "CA", "postalCode": "P0J1K0", "twitter": "None", "instagram": "None", "facebook": "None", "youtube": "None", "website": "None", "summary": "None", "logo": "None", "latitude": 45.26604362959575, "longitude": -75.7293640563186}, "869741199RR0001": {"name": "CONSEIL FRERE ANDRE #8841 FIDEICOMMIS DE CHARITE", "designationCode": "A", "categoryCode": "65", "address": "218 EAGLEGLEN WAY", "city": "HAMILTON", "province": "ON", "country": "CA", "postalCode": "L9B2R4", "twitter": "None", "instagram": "None", "facebook": "None", "youtube": "None", "website": "None", "summary": "None", "logo": "None", "latitude": 43.206726990305135, "longitude": -79.92534126340232}, "890877244RR0001": {"name": "CONSEIL JEUNESSE FRANCOPHONE DE LA COLOMBIE-BRITANNIQUE", "designationCode": "C", "categoryCode": "21", "address": "1555 7 AVE W                  229-B", "city": "VANCOUVER", "province": "BC", "country": "CA", "postalCode": "V6J1S1", "twitter": "None", "instagram": "None", "facebook": "None", "youtube": "None", "website": "None", "summary": "None", "logo": "None", "latitude": 49.26541244214887, "longitude": -123.14009174562872}, "106968985RR0001": {"name": "CONSEIL MONT\u00c9R\u00c9GIEN DE LA CULTURE ET DES COMMUNICATIONS", "designationCode": "C", "categoryCode": "22", "address": "130-80 RUE ST-LAURENT OUEST", "city": "LONGUEUIL", "province": "QC", "country": "CA", "postalCode": "J4H1L8", "twitter": "None", "instagram": "None", "facebook": "None", "youtube": "None", "website": "None", "summary": "None", "logo": "None", "latitude": 45.53462725847654, "longitude": -73.50911012813516}, "823437942RR0001": {"name": "CONSEIL PARTICULIER DE LA SOCI\u00c9T\u00c9 DE ST-VINCENT-DE-PAUL DE ST-JEAN-SUR-RICHELIEU", "designationCode": "C", "categoryCode": "09", "address": "150 RUE LAURIER", "city": "ST. JEAN-SUR-RICHELIEU", "province": "QC", "country": "CA", "postalCode": "J3B6K3", "twitter": "None", "instagram": "None", "facebook": "None", "youtube": "None", "website": "None", "summary": "None", "logo": "None", "latitude": 45.30395816382948, "longitude": -73.25621220237036}, "118874676RR0001": {"name": "CONSEIL PARTICULIER DE LA SOCI\u00c9T\u00c9 DE ST-VINCENT-DE-PAUL SECTEUR ALMA", "designationCode": "C", "categoryCode": "09", "address": "3 - 255 RUE COLLARD", "city": "ALMA", "province": "QC", "country": "CA", "postalCode": "G8B1M8", "twitter": "None", "instagram": "None", "facebook": "None", "youtube": "None", "website": "None", "summary": "None", "logo": "None", "latitude": 48.54670579130347, "longitude": -71.64650606422775}, "891418741RR0001": {"name": "CONSEIL PERE LAMARCHE 7724 FIDEL COMMIS DE CHARITE", "designationCode": "A", "categoryCode": "65", "address": "381 SHERBOURNE ST", "city": "TORONTO", "province": "ON", "country": "CA", "postalCode": "M4X1K4", "twitter": "None", "instagram": "None", "facebook": "None", "youtube": "None", "website": "None", "summary": "None", "logo": "None", "latitude": 43.66374984124873, "longitude": -79.37324959850555}, "128846060RR0001": {"name": "CONSEIL POUR LA PROTECTION DES MALADES (CPM)", "designationCode": "C", "categoryCode": "09", "address": "230 - 3565 RUE BERRI", "city": "MONTREAL", "province": "QC", "country": "CA", "postalCode": "H2L4G3", "twitter": "None", "instagram": "None", "facebook": "None", "youtube": "None", "website": "None", "summary": "None", "logo": "None", "latitude": 45.51871516654153, "longitude": -73.56810110822907}, "882357916RR0001": {"name": "CONSEIL QU\u00c9B\u00c9COIS DES ORGANISMES CHR\u00c9TIENS/ QU\u00c9BEC COUNCIL OF CHRISTIAN CHARITIES", "designationCode": "C", "categoryCode": "49", "address": "5425 BOULEVARD LAURIER OUEST  BUREAU 106", "city": "SAINT-HYACINTHE", "province": "QC", "country": "CA", "postalCode": "J2S3V6", "twitter": "None", "instagram": "None", "facebook": "None", "youtube": "None", "website": "None", "summary": "None", "logo": "None", "latitude": 45.60485870852365, "longitude": -72.97947886242747}, "118874718RR0001": {"name": "CONSEIL REGIONAL DE L'ENVIRONNEMENT DE LA GASPESIE ET DES ILES", "designationCode": "C", "categoryCode": "59", "address": "106A PORT ROYAL               SUITE 103", "city": "BONAVENTURE", "province": "QC", "country": "CA", "postalCode": "G0C1E0", "twitter": "None", "instagram": "None", "facebook": "None", "youtube": "None", "website": "None", "summary": "None", "logo": "None", "latitude": 48.046151607385234, "longitude": -65.49571779314748}, "124076464RR0001": {"name": "CONSEIL REGIONAL DE L'ENVIRONNEMENT DE LA MONTEREGIE", "designationCode": "C", "categoryCode": "59", "address": "1150 RUE SAINT-LAURENT O", "city": "LONGUEUIL", "province": "QC", "country": "CA", "postalCode": "J4K1E3", "twitter": "None", "instagram": "None", "facebook": "None", "youtube": "None", "website": "None", "summary": "None", "logo": "None", "latitude": 45.522153953372964, "longitude": -73.51328338147049}, "134653286RR0001": {"name": "CONSEIL REGIONAL DES PERSONNES AGEES ITALO-CANADIENNES DE MONTREAL", "designationCode": "C", "categoryCode": "09", "address": "6983 BOULEVARD ST-LAURENT", "city": "MONTREAL", "province": "QC", "country": "CA", "postalCode": "H2S3E1", "twitter": "None", "instagram": "None", "facebook": "None", "youtube": "None", "website": "None", "summary": "None", "logo": "None", "latitude": 45.533393108257734, "longitude": -73.61538774741773}, "873451876RR0001": {"name": "CONSEIL REGIONAL POUR L'EDUCATION FRANCAISE A LETHBRIDGE", "designationCode": "C", "categoryCode": "20", "address": "2104, 6E AVE S", "city": "LETHBRIDGE", "province": "AB", "country": "CA", "postalCode": "T1J1C3", "twitter": "None", "instagram": "None", "facebook": "None", "youtube": "None", "website": "None", "summary": "None", "logo": "None", "latitude": 49.69151198552713, "longitude": -112.8112839368412}, "891127482RR0001": {"name": "CONSEIL REV PERE J H BRUNEAU NO 11255 FIDEICOMMIS DE CHARITE", "designationCode": "A", "categoryCode": "65", "address": "CP 1015", "city": "CONISTON", "province": "ON", "country": "CA", "postalCode": "P0M1M0", "twitter": "None", "instagram": "None", "facebook": "None", "youtube": "None", "website": "None", "summary": "None", "logo": "None", "latitude": 46.49411986450795, "longitude": -80.8408261927492}, "890270598RR0001": {"name": "CONSEIL REV PERE LIONEL BROUSSEAU 10585 FIDEICOMMIS DE CHARITE", "designationCode": "A", "categoryCode": "65", "address": "72 LEGER RD, P.O. BOX 143", "city": "ALBAN", "province": "ON", "country": "CA", "postalCode": "P0M1A0", "twitter": "None", "instagram": "None", "facebook": "None", "youtube": "None", "website": "None", "summary": "None", "logo": "None", "latitude": 46.10415288531112, "longitude": -80.5834009896744}, "891240947RR0001": {"name": "CONSEIL SAINT-DOMINQUE 9619 FEDEICOMMIS DE CHARITE", "designationCode": "A", "categoryCode": "65", "address": "1241 DIANE STREET", "city": "SUDBURY", "province": "ON", "country": "CA", "postalCode": "P3A4H4", "twitter": "None", "instagram": "None", "facebook": "None", "youtube": "None", "website": "None", "summary": "None", "logo": "None", "latitude": 46.52451554088869, "longitude": -80.9199948720191}, "106970247RR0001": {"name": "CONSEIL SCOLAIRE ACADIEN PROVINCIAL", "designationCode": "C", "categoryCode": "20", "address": "CP 88", "city": "SAULNIERVILLE", "province": "NS", "country": "CA", "postalCode": "B0W2Z0", "twitter": "None", "instagram": "None", "facebook": "None", "youtube": "None", "website": "None", "summary": "None", "logo": "None", "latitude": 44.26137823393837, "longitude": -66.1309486546708}, "870515996RR0001": {"name": "CONSEIL SCOLAIRE DE DISTRICT CATHOLIQUE CENTRE-SUD", "designationCode": "C", "categoryCode": "20", "address": "110 DREWRY AVE", "city": "TORONTO", "province": "ON", "country": "CA", "postalCode": "M2M1C8", "twitter": "None", "instagram": "None", "facebook": "None", "youtube": "None", "website": "None", "summary": "None", "logo": "None", "latitude": 43.785847188527406, "longitude": -79.42323939733951}, "872990098RR0001": {"name": "CONSEIL SCOLAIRE DE DISTRICT CATHOLIQUE DE L'EST ONTARIEN", "designationCode": "C", "categoryCode": "20", "address": "875, CHEMIN DE COMTE 17", "city": "L'ORIGNAL", "province": "ON", "country": "CA", "postalCode": "K0B1K0", "twitter": "None", "instagram": "None", "facebook": "None", "youtube": "None", "website": "None", "summary": "None", "logo": "None", "latitude": 45.536964685353865, "longitude": -75.00082323540882}, "873819494RR0001": {"name": "CONSEIL SCOLAIRE DE DISTRICT CATHOLIQUE FRANCO-NORD", "designationCode": "C", "categoryCode": "20", "address": "681-C RUE CHIPPEWA OUEST", "city": "NORTH BAY", "province": "ON", "country": "CA", "postalCode": "P1B6G8", "twitter": "None", "instagram": "None", "facebook": "None", "youtube": "None", "website": "None", "summary": "None", "logo": "None", "latitude": 46.32431607069777, "longitude": -79.44960921217923}, "894229228RR0001": {"name": "CONSEIL SCOLAIRE DU DISTRICT DU GRAND NORD DE L'ONTARIO", "designationCode": "C", "categoryCode": "21", "address": "296 VAN HORNE", "city": "SUDBURY", "province": "ON", "country": "CA", "postalCode": "P3B1H9", "twitter": "None", "instagram": "None", "facebook": "None", "youtube": "None", "website": "None", "summary": "None", "logo": "None", "latitude": 46.48814998974332, "longitude": -80.98571676359134}, "873673867RR0001": {"name": "CONSEIL SCOLAIRE POLONAIS - POLISH SCHOOL COUNCIL - POLSKA RADA SZKOLNA", "designationCode": "C", "categoryCode": "20", "address": "280 HICKORY", "city": "POINTE-CLAIRE", "province": "QC", "country": "CA", "postalCode": "H9R5S2", "twitter": "None", "instagram": "None", "facebook": "None", "youtube": "None", "website": "None", "summary": "None", "logo": "None", "latitude": 45.44428978008473, "longitude": -73.82302407053606}, "106969595RR0001": {"name": "CONSEIL SOCIAL ET COMMUNAUTAIRE DE CHARLEVOIX INC.", "designationCode": "C", "categoryCode": "59", "address": "33 CH DE LA VALLEE", "city": "LA MALBAIE", "province": "QC", "country": "CA", "postalCode": "G5A1E6", "twitter": "None", "instagram": "None", "facebook": "None", "youtube": "None", "website": "None", "summary": "None", "logo": "None", "latitude": 47.660821795169966, "longitude": -70.15454654177961}, "890736143RR0001": {"name": "CONSEIL ST ANTOINE DANIEL 10340 FIDEICOMMIS DE CHARITE", "designationCode": "A", "categoryCode": "65", "address": "472 RUE LOCUST", "city": "BURLINGTON", "province": "ON", "country": "CA", "postalCode": "L7S1V1", "twitter": "None", "instagram": "None", "facebook": "None", "youtube": "None", "website": "None", "summary": "None", "logo": "None", "latitude": 43.32562058644476, "longitude": -79.79960100043269}, "888112547RR0001": {"name": "CONSEIL ST ETIENNE MARTYR 10801 FIDEICOMMIS DE CHARITE", "designationCode": "A", "categoryCode": "65", "address": "98 ANNE ST", "city": "DOWLING", "province": "ON", "country": "CA", "postalCode": "P0M1R0", "twitter": "None", "instagram": "None", "facebook": "None", "youtube": "None", "website": "None", "summary": "None", "logo": "None", "latitude": 46.59320276786223, "longitude": -81.3332589840734}, "888012531RR0001": {"name": "CONSEIL ST-FELIX DE VALOIS #9929", "designationCode": "A", "categoryCode": "65", "address": "620 BOULEVARD GLENGARRY", "city": "CORNWALL", "province": "ON", "country": "CA", "postalCode": "K6H6E7", "twitter": "None", "instagram": "None", "facebook": "None", "youtube": "None", "website": "None", "summary": "None", "logo": "None", "latitude": 45.02932693559935, "longitude": -74.70437243181978}, "892436353RR0001": {"name": "CONSEIL SUP\u00c9RIEUR SAINT-JOSEPH INC.", "designationCode": "A", "categoryCode": "46", "address": "626 ROUTE DU SANCTUAIRE", "city": "LAC-ETCHEMIN", "province": "QC", "country": "CA", "postalCode": "G0R1S0", "twitter": "None", "instagram": "None", "facebook": "None", "youtube": "None", "website": "None", "summary": "None", "logo": "None", "latitude": 46.38889625578277, "longitude": -70.50398658702751}, "893959056RR0001": {"name": "CONSEIL SUP\u00c9RIEUR SAINTE-MARIE INC.", "designationCode": "A", "categoryCode": "46", "address": "626 ROUTE DU SANCTUAIRE", "city": "LAC-ETCHEMIN", "province": "QC", "country": "CA", "postalCode": "G0R1S0", "twitter": "None", "instagram": "None", "facebook": "None", "youtube": "None", "website": "None", "summary": "None", "logo": "None", "latitude": 46.38889625578277, "longitude": -70.50398658702751}, "882382351RR0001": {"name": "CONSEIL 4435 ST DAVID FIDEICOMMIS DE CHARITE", "designationCode": "A", "categoryCode": "09", "address": "BOITE 226", "city": "NOELVILLE", "province": "ON", "country": "CA", "postalCode": "P0M2N0", "twitter": "None", "instagram": "None", "facebook": "None", "youtube": "None", "website": "None", "summary": "None", "logo": "None", "latitude": 46.13402000000008, "longitude": -80.43163999999996}, "888681145RR0001": {"name": "CONSEIL 9695 NATIVITE DE LA B V M FIDEICOMMIS DE CHARIETE", "designationCode": "A", "categoryCode": "65", "address": "410 - 1450 FIRST ST E", "city": "CORNWALL", "province": "ON", "country": "CA", "postalCode": "K6H6H2", "twitter": "None", "instagram": "None", "facebook": "None", "youtube": "None", "website": "None", "summary": "None", "logo": "None", "latitude": 45.02820243357921, "longitude": -74.69573383934414}, "132840687RR0001": {"name": "CONSERVATION CORPS NEWFOUNDLAND AND LABRADOR INC", "designationCode": "C", "categoryCode": "59", "address": "SUITE 103                     10 AUSTIN STREET", "city": "ST. JOHN'S", "province": "NL", "country": "CA", "postalCode": "A1B4C2", "twitter": "None", "instagram": "None", "facebook": "None", "youtube": "None", "website": "None", "summary": "None", "logo": "None", "latitude": 47.560592045761666, "longitude": -52.76901409489888}, "118874841RR0001": {"name": "CONSERVATION COUNCIL OF NEW BRUNSWICK INC.", "designationCode": "C", "categoryCode": "59", "address": "180 SAINT JOHN ST", "city": "FREDERICTON", "province": "NB", "country": "CA", "postalCode": "E3B4A9", "twitter": "None", "instagram": "None", "facebook": "None", "youtube": "None", "website": "None", "summary": "None", "logo": "None", "latitude": 45.95769018872989, "longitude": -66.63848785622372}, "118874858RR0001": {"name": "CONSERVATION COUNCIL OF ONTARIO", "designationCode": "C", "categoryCode": "52", "address": "465 YONGE STREET              POST OFFICE BOX 73021", "city": "TORONTO", "province": "ON", "country": "CA", "postalCode": "M4Y2W5", "twitter": "None", "instagram": "None", "facebook": "None", "youtube": "None", "website": "None", "summary": "None", "logo": "None", "latitude": 43.66177120344508, "longitude": -79.38322912112659}, "875404063RR0001": {"name": "CONSERVATION DE LA NATURE - QUEBEC", "designationCode": "C", "categoryCode": "59", "address": "55 AVENUE DU MONT-ROYAL OUEST BUREAU 1000", "city": "MONTREAL", "province": "QC", "country": "CA", "postalCode": "H2T2S6", "twitter": "None", "instagram": "None", "facebook": "None", "youtube": "None", "website": "None", "summary": "None", "logo": "None", "latitude": 45.519369756881446, "longitude": -73.5870339511799}, "899365662RR0001": {"name": "CONSERVATION KLONDIKE SOCIETY", "designationCode": "C", "categoryCode": "55", "address": "1067-2ND AVENUE BOX 365", "city": "DAWSON CITY", "province": "YT", "country": "CA", "postalCode": "Y0B1G0", "twitter": "None", "instagram": "None", "facebook": "None", "youtube": "None", "website": "None", "summary": "None", "logo": "None", "latitude": 64.06311861312734, "longitude": -139.4325538144114}, "118874882RR0001": {"name": "CONSERVATIVE MENNONITE FELLOWSHIP CHURCH", "designationCode": "C", "categoryCode": "34", "address": "BOX 59", "city": "NEWTON", "province": "ON", "country": "CA", "postalCode": "N0K1R0", "twitter": "None", "instagram": "None", "facebook": "None", "youtube": "None", "website": "None", "summary": "None", "logo": "None", "latitude": 43.59006000000005, "longitude": -80.87868999999995}, "889071460RR0001": {"name": "CONSERVATIVE MENNONITE FOREIGN MISSIONS", "designationCode": "C", "categoryCode": "47", "address": "122 ELSTAD RD                 RR 1", "city": "STRATTON", "province": "ON", "country": "CA", "postalCode": "P0W1N0", "twitter": "None", "instagram": "None", "facebook": "None", "youtube": "None", "website": "None", "summary": "None", "logo": "None", "latitude": 48.74066135753469, "longitude": -94.14025862618495}, "118874890RR0001": {"name": "CONSERVATIVE MENNONITE GOSPEL MISSION", "designationCode": "C", "categoryCode": "34", "address": "39280 LONGHURST LINE          RR 7", "city": "ST THOMAS", "province": "ON", "country": "CA", "postalCode": "N5P3T2", "twitter": "None", "instagram": "None", "facebook": "None", "youtube": "None", "website": "None", "summary": "None", "logo": "None", "latitude": 42.80948742239109, "longitude": -81.28696940079746}, "891687121RR0001": {"name": "CONSERVATORY CANADA", "designationCode": "C", "categoryCode": "22", "address": "101 - 201 QUEENS AVE", "city": "LONDON", "province": "ON", "country": "CA", "postalCode": "N6A1J1", "twitter": "None", "instagram": "None", "facebook": "None", "youtube": "None", "website": "None", "summary": "None", "logo": "None", "latitude": 42.98546019175965, "longitude": -81.24843284733691}, "889251674RR0001": {"name": "CONSISTOIRE LAURENTIEN", "designationCode": "C", "categoryCode": "44", "address": "110, RUE STE-CATHERINE EST", "city": "MONTREAL", "province": "QC", "country": "CA", "postalCode": "H2X1K7", "twitter": "None", "instagram": "None", "facebook": "None", "youtube": "None", "website": "None", "summary": "None", "logo": "None", "latitude": 45.511016951699524, "longitude": -73.56275053009419}, "106970387RR0001": {"name": "CONSOLATA MISSIONARIES CANADA", "designationCode": "C", "categoryCode": "47", "address": "2671 ISLINGTON AVENUE", "city": "TORONTO", "province": "ON", "country": "CA", "postalCode": "M9V2X6", "twitter": "None", "instagram": "None", "facebook": "None", "youtube": "None", "website": "None", "summary": "None", "logo": "None", "latitude": 43.73917497475325, "longitude": -79.56614862207887}, "816123749RR0001": {"name": "CONSOLIDATED CREDIT COUNSELING SERVICES OF CANADA", "designationCode": "C", "categoryCode": "59", "address": "505 CONSUMER ROAD             SUITE 400", "city": "TORONTO", "province": "ON", "country": "CA", "postalCode": "M2J4V8", "twitter": "None", "instagram": "None", "facebook": "None", "youtube": "None", "website": "None", "summary": "None", "logo": "None", "latitude": 43.77119832777432, "longitude": -79.32434668844142}, "888025574RR0001": {"name": "CONSOLIDATED ENDOWMENT FUND OF IOOF SENIORS HOMES TRUST", "designationCode": "A", "categoryCode": "01", "address": "130 KING STREET WEST, 20TH FLOBOX 430, STN FIRST CANADIAN PL", "city": "TORONTO", "province": "ON", "country": "CA", "postalCode": "M5X1K1", "twitter": "None", "instagram": "None", "facebook": "None", "youtube": "None", "website": "None", "summary": "None", "logo": "None", "latitude": 43.64868300000006, "longitude": -79.38544399999994}, "888198777RR0001": {"name": "CONSOLIDATED RESERVE FUND OF IOOF SENIORS HOMES TRUST", "designationCode": "A", "categoryCode": "05", "address": "130 KING ST WEST 20TH FLOOR   BOX 430, STN FIRST CANADIAN PL", "city": "TORONTO", "province": "ON", "country": "CA", "postalCode": "M5X1K1", "twitter": "None", "instagram": "None", "facebook": "None", "youtube": "None", "website": "None", "summary": "None", "logo": "None", "latitude": 43.64826932503962, "longitude": -79.38190945606182}, "811062470RR0001": {"name": "CONSORT BAROQUE D'OTTAWA/ OTTAWA BAROQUE CONSORT", "designationCode": "C", "categoryCode": "22", "address": "1704 FIELDSTONE CRES", "city": "ORLEANS", "province": "ON", "country": "CA", "postalCode": "K1C1R7", "twitter": "None", "instagram": "None", "facebook": "None", "youtube": "None", "website": "None", "summary": "None", "logo": "None", "latitude": 45.469390997778305, "longitude": -75.53837237344905}, "887382067RR0001": {"name": "CONSORT COMMUNITY CLUB", "designationCode": "C", "categoryCode": "59", "address": "BOX 309", "city": "CONSORT", "province": "AB", "country": "CA", "postalCode": "T0C1B0", "twitter": "None", "instagram": "None", "facebook": "None", "youtube": "None", "website": "None", "summary": "None", "logo": "None", "latitude": 51.97709700000001, "longitude": -110.57295375000001}, "810696351RR0001": {"name": "CONSORT HOSPITAL AUXILIARY SOCIETY", "designationCode": "C", "categoryCode": "19", "address": "PO BOX 276", "city": "CONSORT", "province": "AB", "country": "CA", "postalCode": "T0C1B0", "twitter": "None", "instagram": "None", "facebook": "None", "youtube": "None", "website": "None", "summary": "None", "logo": "None", "latitude": 51.97709700000001, "longitude": -110.57295375000001}, "889262192RR0001": {"name": "CONSORT HOSPITAL FOUNDATION", "designationCode": "A", "categoryCode": "15", "address": "PO BOX 310", "city": "CONSORT", "province": "AB", "country": "CA", "postalCode": "T0C1B0", "twitter": "None", "instagram": "None", "facebook": "None", "youtube": "None", "website": "None", "summary": "None", "logo": "None", "latitude": 51.97709700000001, "longitude": -110.57295375000001}, "890319445RR0001": {"name": "CONSORT PASTORAL CHARGE", "designationCode": "C", "categoryCode": "44", "address": "BOX 56", "city": "CONSORT", "province": "AB", "country": "CA", "postalCode": "T0C1B0", "twitter": "None", "instagram": "None", "facebook": "None", "youtube": "None", "website": "None", "summary": "None", "logo": "None", "latitude": 51.97709700000001, "longitude": -110.57295375000001}, "118796663RR0001": {"name": "CONSORTIUM AURORA BOREALIS", "designationCode": "C", "categoryCode": "22", "address": "P.O. BOX 21027                640 RIVER STREET", "city": "THUNDER BAY", "province": "ON", "country": "CA", "postalCode": "P7A8A7", "twitter": "None", "instagram": "None", "facebook": "None", "youtube": "None", "website": "None", "summary": "None", "logo": "None", "latitude": 48.44810204974279, "longitude": -89.23391486410091}, "118874999RR0001": {"name": "CONSTABLE PAUL SANGHERA MEMORIAL SCHOLARSHIP COMMITTEE", "designationCode": "C", "categoryCode": "21", "address": "5502-45TH AVENUE", "city": "DELTA", "province": "BC", "country": "CA", "postalCode": "V4K1L4", "twitter": "None", "instagram": "None", "facebook": "None", "youtube": "None", "website": "None", "summary": "None", "logo": "None", "latitude": 49.085370525102526, "longitude": -123.06914052844942}, "119288918RR1051": {"name": "CONSTANCIA CONGREGATION OF JEHOVAH'S WITNESSES, WINNIPEG, MANITOBA", "designationCode": "C", "categoryCode": "61", "address": "1060 WOLEVER AVENUE", "city": "WINNIPEG", "province": "MB", "country": "CA", "postalCode": "R3G3N6", "twitter": "None", "instagram": "None", "facebook": "None", "youtube": "None", "website": "None", "summary": "None", "logo": "None", "latitude": 49.88683655727421, "longitude": -97.17702180544174}, "863338265RR0001": {"name": "CONSTANTINOPLE", "designationCode": "C", "categoryCode": "22", "address": "5043 RUE SAINT-DOMINIQUE", "city": "MONTREAL", "province": "QC", "country": "CA", "postalCode": "H2T1V1", "twitter": "None", "instagram": "None", "facebook": "None", "youtube": "None", "website": "None", "summary": "None", "logo": "None", "latitude": 45.523304129897824, "longitude": -73.5916818934157}, "871997995RR0001": {"name": "CONSTRUCTION VOLUNTEERS CANADA/BENEVOLES CANADIENS DU BATIMENT", "designationCode": "C", "categoryCode": "02", "address": "1919-411 DUPLEX AVENUE", "city": "TORONTO", "province": "ON", "country": "CA", "postalCode": "M4R1V2", "twitter": "None", "instagram": "None", "facebook": "None", "youtube": "None", "website": "None", "summary": "None", "logo": "None", "latitude": 43.70726328005075, "longitude": -79.40058970826384}, "106924103RR0001": {"name": "CONSUL CHURCH OF GOD INC.", "designationCode": "C", "categoryCode": "39", "address": "BOX 119", "city": "CONSUL", "province": "SK", "country": "CA", "postalCode": "S0N0P0", "twitter": "None", "instagram": "None", "facebook": "None", "youtube": "None", "website": "None", "summary": "None", "logo": "None", "latitude": 49.30003000000005, "longitude": -109.51817999999997}, "118875053RR0001": {"name": "CONSUL COMMUNITY HALL CO-OPERATIVE, LIMITED", "designationCode": "C", "categoryCode": "56", "address": "PO BOX 43", "city": "CONSUL", "province": "SK", "country": "CA", "postalCode": "S0N0P0", "twitter": "None", "instagram": "None", "facebook": "None", "youtube": "None", "website": "None", "summary": "None", "logo": "None", "latitude": 49.30003000000005, "longitude": -109.51817999999997}, "849502760RR0001": {"name": "CONSUL R C CHURCH", "designationCode": "C", "categoryCode": "38", "address": "BOX 33", "city": "CONSUL", "province": "SK", "country": "CA", "postalCode": "S0N0P0", "twitter": "None", "instagram": "None", "facebook": "None", "youtube": "None", "website": "None", "summary": "None", "logo": "None", "latitude": 49.30003000000005, "longitude": -109.51817999999997}, "106971476RR0001": {"name": "CONSUMER HEALTH ORGANIZATION OF CANADA", "designationCode": "C", "categoryCode": "11", "address": "355 ST CLAIR AVENUE WEST      SUITE 1901", "city": "TORONTO", "province": "ON", "country": "CA", "postalCode": "M5P1N5", "twitter": "None", "instagram": "None", "facebook": "None", "youtube": "None", "website": "None", "summary": "None", "logo": "None", "latitude": 43.683937590399026, "longitude": -79.41350493973398}, "867231383RR0001": {"name": "CONTACT BRANT FOR CHILDREN'S AND DEVELOPMENT SERVICES", "designationCode": "C", "categoryCode": "09", "address": "643 PARK RD N", "city": "BRANTFORD", "province": "ON", "country": "CA", "postalCode": "N3T5L8", "twitter": "None", "instagram": "None", "facebook": "None", "youtube": "None", "website": "None", "summary": "None", "logo": "None", "latitude": 43.187382795458404, "longitude": -80.25201861665452}, "891689861RR0001": {"name": "CONTACT COMMUNITY ASSISTANCE SOCIETY", "designationCode": "C", "categoryCode": "09", "address": "PO BOX 572", "city": "SOOKE", "province": "BC", "country": "CA", "postalCode": "V9Z1H5", "twitter": "None", "instagram": "None", "facebook": "None", "youtube": "None", "website": "None", "summary": "None", "logo": "None", "latitude": 48.381873000000056, "longitude": -123.73120249999994}, "854701141RR0001": {"name": "CONTACT CONTEMPORARY MUSIC", "designationCode": "C", "categoryCode": "22", "address": "708 - 8 WELLESLEY ST E", "city": "TORONTO", "province": "ON", "country": "CA", "postalCode": "M4Y3B2", "twitter": "None", "instagram": "None", "facebook": "None", "youtube": "None", "website": "None", "summary": "None", "logo": "None", "latitude": 43.66503011408613, "longitude": -79.38416859714924}, "138625652RR0001": {"name": "CONTACT EMPLOI INC.", "designationCode": "C", "categoryCode": "09", "address": "195-A AVENUE PORT-ROYALE O.", "city": "BONAVENTURE", "province": "QC", "country": "CA", "postalCode": "G0C1E0", "twitter": "None", "instagram": "None", "facebook": "None", "youtube": "None", "website": "None", "summary": "None", "logo": "None", "latitude": 48.05642065573621, "longitude": -65.51254576532727}, "887990042RR0001": {"name": "CONTACT HOUSE", "designationCode": "C", "categoryCode": "09", "address": "6479 EGREMONT ROAD", "city": "WARWICK TOWNSHIP", "province": "ON", "country": "CA", "postalCode": "N0N1J4", "twitter": "None", "instagram": "None", "facebook": "None", "youtube": "None", "website": "None", "summary": "None", "logo": "None", "latitude": 43.00414564892537, "longitude": -81.97311753289698}, "129987160RR0001": {"name": "CONTACT RICHELIEU - YAMASKA (CRY)", "designationCode": "C", "categoryCode": "11", "address": "420 RUE DE LA CONCORDE NORD", "city": "SAINT-HYACINTHE", "province": "QC", "country": "CA", "postalCode": "J2S4N9", "twitter": "None", "instagram": "None", "facebook": "None", "youtube": "None", "website": "None", "summary": "None", "logo": "None", "latitude": 45.62572933694958, "longitude": -72.94268579626646}, "118875152RR0001": {"name": "CONTACT WOMEN'S GROUP SOCIETY", "designationCode": "C", "categoryCode": "59", "address": "51 4TH AVENUE S.", "city": "WILLIAMS LAKE", "province": "BC", "country": "CA", "postalCode": "V2G1J6", "twitter": "None", "instagram": "None", "facebook": "None", "youtube": "None", "website": "None", "summary": "None", "logo": "None", "latitude": 52.127539470165594, "longitude": -122.1405414182871}, "898752068RR0001": {"name": "CONTACTS FEMMES-ENFANTS", "designationCode": "C", "categoryCode": "09", "address": "8, RUE LARAMEE                C.P. 127", "city": "LAC-SAINTE-MARIE", "province": "QC", "country": "CA", "postalCode": "J0X1Z0", "twitter": "None", "instagram": "None", "facebook": "None", "youtube": "None", "website": "None", "summary": "None", "logo": "None", "latitude": 45.952521463788976, "longitude": -75.94636080391251}, "882473804RR0001": {"name": "CONTEMPORARY DANCE TRAINING SOCIETY OF VANCOUVER", "designationCode": "C", "categoryCode": "22", "address": "7FL-677 DAVIE ST", "city": "VANCOUVER", "province": "BC", "country": "CA", "postalCode": "V6B2G6", "twitter": "None", "instagram": "None", "facebook": "None", "youtube": "None", "website": "None", "summary": "None", "logo": "None", "latitude": 49.27699514960467, "longitude": -123.12586593698433}, "118875160RR0001": {"name": "CONTEMPORARY DANCERS INC.", "designationCode": "C", "categoryCode": "22", "address": "204-211 BANNATYNE AVE", "city": "WINNIPEG", "province": "MB", "country": "CA", "postalCode": "R3B3P2", "twitter": "None", "instagram": "None", "facebook": "None", "youtube": "None", "website": "None", "summary": "None", "logo": "None", "latitude": 49.89792147157924, "longitude": -97.13992811212421}, "840154470RR0001": {"name": "CONTEMPORARY SENIORS HEALTH MANAGEMENT INC.", "designationCode": "C", "categoryCode": "09", "address": "2201 - 133 TORRESDALE AVE", "city": "NORTH YORK", "province": "ON", "country": "CA", "postalCode": "M2R3T2", "twitter": "None", "instagram": "None", "facebook": "None", "youtube": "None", "website": "None", "summary": "None", "logo": "None", "latitude": 43.7790605483874, "longitude": -79.45275760537314}, "127644490RR0001": {"name": "CONTEMPORARY VERSE 2 INC.", "designationCode": "C", "categoryCode": "22", "address": "502-100 ARTHUR STREET", "city": "WINNIPEG", "province": "MB", "country": "CA", "postalCode": "R3B1H3", "twitter": "None", "instagram": "None", "facebook": "None", "youtube": "None", "website": "None", "summary": "None", "logo": "None", "latitude": 49.897593000000015, "longitude": -97.1406225}, "872074497RR0001": {"name": "CONTIGO INTERNATIONAL INC", "designationCode": "C", "categoryCode": "20", "address": "8003 FLYING DUST RESERVE", "city": "MEADOW LAKE", "province": "SK", "country": "CA", "postalCode": "S9X1T8", "twitter": "None", "instagram": "None", "facebook": "None", "youtube": "None", "website": "None", "summary": "None", "logo": "None", "latitude": 54.12551100000006, "longitude": -108.43401499999993}, "133444174RR0001": {"name": "CONTINUING ON IN EDUCATION QUINTE INC", "designationCode": "C", "categoryCode": "20", "address": "249 WILLIAM STREET", "city": "BELLEVILLE", "province": "ON", "country": "CA", "postalCode": "K8N1C4", "twitter": "None", "instagram": "None", "facebook": "None", "youtube": "None", "website": "None", "summary": "None", "logo": "None"}, "118875210RR0001": {"name": "CONTINUITE FAMILLE AUPRES DES DETENUES CFAD", "designationCode": "C", "categoryCode": "09", "address": "5128 RUE NOTRE-DAME O", "city": "MONTREAL", "province": "QC", "country": "CA", "postalCode": "H4C1T3", "twitter": "None", "instagram": "None", "facebook": "None", "youtube": "None", "website": "None", "summary": "None", "logo": "None"}, "894894831RR0001": {"name": "CONTINUITY CARE INC.", "designationCode": "C", "categoryCode": "09", "address": "2 120 MARYLAND ST.", "city": "WINNIPEG", "province": "MB", "country": "CA", "postalCode": "R3G1L1", "twitter": "None", "instagram": "None", "facebook": "None", "youtube": "None", "website": "None", "summary": "None", "logo": "None", "latitude": 49.88229750000001, "longitude": -97.16093325}, "118875228RR0001": {"name": "CONTINUUM CONTEMPORARY MUSIC ENSEMBLE", "designationCode": "C", "categoryCode": "22", "address": "300 BLOOR STREET WEST", "city": "TORONTO", "province": "ON", "country": "CA", "postalCode": "M5S1W3", "twitter": "None", "instagram": "None", "facebook": "None", "youtube": "None", "website": "None", "summary": "None", "logo": "None", "latitude": 43.667105194586945, "longitude": -79.40184838954923}, "886110303RR0001": {"name": "CONTRIBUTING TO OUR YOUTH INC.", "designationCode": "C", "categoryCode": "11", "address": "499 WILSON ROAD               R. R. #4", "city": "STIRLING", "province": "ON", "country": "CA", "postalCode": "K0K3E0", "twitter": "None", "instagram": "None", "facebook": "None", "youtube": "None", "website": "None", "summary": "None", "logo": "None", "latitude": 44.33436150564831, "longitude": -77.44631725623208}, "886887793RR0001": {"name": "CONTROLLED ENVIRONMENTS LTD EMPLOYEES CHARITY FUND", "designationCode": "B", "categoryCode": "75", "address": "590 BERRY ST                  WAYNE BETKER", "city": "WINNIPEG", "province": "MB", "country": "CA", "postalCode": "R3H0R9", "twitter": "None", "instagram": "None", "facebook": "None", "youtube": "None", "website": "None", "summary": "None", "logo": "None", "latitude": 49.89262373189449, "longitude": -97.21018529874705}, "118875251RR0001": {"name": "CONVENTION OF BAPTIST CHURCHES OF BRITISH COLUMBIA", "designationCode": "C", "categoryCode": "31", "address": "#6, 32925 GEORGE FERGUSON WAY", "city": "ABBOTSFORD", "province": "BC", "country": "CA", "postalCode": "V2S6Z9", "twitter": "None", "instagram": "None", "facebook": "None", "youtube": "None", "website": "None", "summary": "None", "logo": "None", "latitude": 49.0548332392279, "longitude": -122.31188032570823}, "118875285RR0001": {"name": "CONVENTUAL FRANCISCAN FRIARS (THE COMPANION OF ST. FRANCIS AND ST. ANTHONY MAGAZ", "designationCode": "C", "categoryCode": "46", "address": "1320 LESLIE STREET            SUITE 200", "city": "TORONTO", "province": "ON", "country": "CA", "postalCode": "M3C2K9", "twitter": "None", "instagram": "None", "facebook": "None", "youtube": "None", "website": "None", "summary": "None", "logo": "None", "latitude": 43.73232031615045, "longitude": -79.35551402691739}, "805643111RR0001": {"name": "CONVERGE CHURCH", "designationCode": "C", "categoryCode": "39", "address": "522 BIRCH ST S", "city": "CAMPBELL RIVER", "province": "BC", "country": "CA", "postalCode": "V9W6A8", "twitter": "None", "instagram": "None", "facebook": "None", "youtube": "None", "website": "None", "summary": "None", "logo": "None", "latitude": 49.99780917511122, "longitude": -125.24082635351107}, "847213147RR0001": {"name": "CONVOY CUP FOUNDATION", "designationCode": "C", "categoryCode": "59", "address": "11 MORRIS DRIVE, SUITE 206", "city": "DARTMOUTH", "province": "NS", "country": "CA", "postalCode": "B3M1M2", "twitter": "None", "instagram": "None", "facebook": "None", "youtube": "None", "website": "None", "summary": "None", "logo": "None", "latitude": 44.70640692861714, "longitude": -63.61287841468042}, "898145040RR0001": {"name": "CONWAY OPPORTUNITY FUND", "designationCode": "A", "categoryCode": "03", "address": "71 SANFORD AVENUE NORTH", "city": "HAMILTON", "province": "ON", "country": "CA", "postalCode": "L8L8G6", "twitter": "None", "instagram": "None", "facebook": "None", "youtube": "None", "website": "None", "summary": "None", "logo": "None", "latitude": 43.25282221510184, "longitude": -79.84598291439195}, "122422488RR0001": {"name": "CONWAY OPPORTUNITY HOMES INC", "designationCode": "C", "categoryCode": "01", "address": "71 SANFORD AVENUE N", "city": "HAMILTON", "province": "ON", "country": "CA", "postalCode": "L8L8G6", "twitter": "None", "instagram": "None", "facebook": "None", "youtube": "None", "website": "None", "summary": "None", "logo": "None", "latitude": 43.25282221510184, "longitude": -79.84598291439195}, "118875319RR0001": {"name": "CONWAY UNITED CHURCH", "designationCode": "C", "categoryCode": "44", "address": "218 RICHMOND ST.              RR1", "city": "BATH", "province": "ON", "country": "CA", "postalCode": "K0H1G0", "twitter": "None", "instagram": "None", "facebook": "None", "youtube": "None", "website": "None", "summary": "None", "logo": "None", "latitude": 44.126817025795035, "longitude": -76.88363245201663}, "106972219RR0001": {"name": "CONWAY WORKSHOP ASSOCIATION", "designationCode": "C", "categoryCode": "11", "address": "PO BOX 568", "city": "DIGBY", "province": "NS", "country": "CA", "postalCode": "B0V1A0", "twitter": "None", "instagram": "None", "facebook": "None", "youtube": "None", "website": "None", "summary": "None", "logo": "None", "latitude": 44.39616000000005, "longitude": -66.20374249999993}, "118875400RR0001": {"name": "COOK STREET PENTECOSTAL TABERNACLE", "designationCode": "C", "categoryCode": "36", "address": "102 COOK STREET", "city": "MEAFORD", "province": "ON", "country": "CA", "postalCode": "N4L1G3", "twitter": "None", "instagram": "None", "facebook": "None", "youtube": "None", "website": "None", "summary": "None", "logo": "None", "latitude": 44.606892493335444, "longitude": -80.59421110016993}, "107371445RR0001": {"name": "COOK STREET VILLAGE ACTIVITY CENTRE SOCIETY (NEW HORIZONS)", "designationCode": "C", "categoryCode": "56", "address": "1-380 COOK ST.", "city": "VICTORIA", "province": "BC", "country": "CA", "postalCode": "V8V3X7", "twitter": "None", "instagram": "None", "facebook": "None", "youtube": "None", "website": "None", "summary": "None", "logo": "None", "latitude": 48.4160062625656, "longitude": -123.35590943080923}, "886394592RR0001": {"name": "COOK'S CREEK COMMUNITY CENTRE INC.", "designationCode": "C", "categoryCode": "56", "address": "BOX 89  GRP 23  RR #2", "city": "DUGALD", "province": "MB", "country": "CA", "postalCode": "R0E0K0", "twitter": "None", "instagram": "None", "facebook": "None", "youtube": "None", "website": "None", "summary": "None", "logo": "None", "latitude": 49.88499864004564, "longitude": -96.36123557915003}}