{"118780162RR0001": {"name": "ALBATROS 08 (ABITIBI-TEMISCAMINGUE) INC.", "designationCode": "C", "categoryCode": "11", "address": "1009 6IEME RUE                PORTE 104", "city": "VAL D'OR", "province": "QC", "country": "CA", "postalCode": "J9P3W4", "twitter": "None", "instagram": "None", "facebook": "None", "youtube": "None", "website": "None", "summary": "None", "logo": "None", "latitude": 48.10130279101501, "longitude": -77.79198847587841}, "887008704RR0001": {"name": "ALBERNI ATHLETIC ASSOCIATION", "designationCode": "C", "categoryCode": "56", "address": "BOX 1041", "city": "PORT ALBERNI", "province": "BC", "country": "CA", "postalCode": "V9Y7L9", "twitter": "None", "instagram": "None", "facebook": "None", "youtube": "None", "website": "None", "summary": "None", "logo": "None", "latitude": 49.23443400000005, "longitude": -124.80757099999994}, "107852584RR0001": {"name": "ALBERNI COMMUNITY AND WOMEN'S SERVICES SOCIETY", "designationCode": "C", "categoryCode": "09", "address": "3082 3RD AVE", "city": "PORT ALBERNI", "province": "BC", "country": "CA", "postalCode": "V9Y2A5", "twitter": "None", "instagram": "None", "facebook": "None", "youtube": "None", "website": "None", "summary": "None", "logo": "None", "latitude": 49.23444375368281, "longitude": -124.80763358245085}, "118780170RR0001": {"name": "ALBERNI DISTRICT HISTORICAL SOCIETY", "designationCode": "C", "categoryCode": "50", "address": "4255 WALLACE ST", "city": "PORT ALBERNI", "province": "BC", "country": "CA", "postalCode": "V9Y3Y6", "twitter": "None", "instagram": "None", "facebook": "None", "youtube": "None", "website": "None", "summary": "None", "logo": "None", "latitude": 49.25065546277843, "longitude": -124.79670182806277}, "890888175RR0001": {"name": "ALBERNI PULP AND PAPER DIVISION, EMPLOYEES' CHARITY TRUST", "designationCode": "B", "categoryCode": "75", "address": "2ND FLOOR, 3600 LYSANDER LANE", "city": "RICHMOND", "province": "BC", "country": "CA", "postalCode": "V7B1C3", "twitter": "None", "instagram": "None", "facebook": "None", "youtube": "None", "website": "None", "summary": "None", "logo": "None", "latitude": 49.190094568930974, "longitude": -123.14082657666299}, "106692452RR0001": {"name": "ALBERNI VALLEY CHILDCARE SOCIETY", "designationCode": "C", "categoryCode": "20", "address": "4325 NEILL ST", "city": "PORT ALBERNI", "province": "BC", "country": "CA", "postalCode": "V9Y1E5", "twitter": "None", "instagram": "None", "facebook": "None", "youtube": "None", "website": "None", "summary": "None", "logo": "None", "latitude": 49.2242864616246, "longitude": -124.79821335651216}, "107385676RR0001": {"name": "ALBERNI VALLEY CHRISTIAN REFORMED CHURCH", "designationCode": "C", "categoryCode": "39", "address": "401 - 4505 VICTORIA QUAY", "city": "PORT ALBERNI", "province": "BC", "country": "CA", "postalCode": "V9Y6G2", "twitter": "None", "instagram": "None", "facebook": "None", "youtube": "None", "website": "None", "summary": "None", "logo": "None", "latitude": 49.256400678910154, "longitude": -124.8125168365955}, "118780212RR0001": {"name": "ALBERNI VALLEY CITIZEN ADVOCACY SOCIETY", "designationCode": "C", "categoryCode": "09", "address": "5100 TEBO ST", "city": "PORT ALBERNI", "province": "BC", "country": "CA", "postalCode": "V9Y3Y6", "twitter": "None", "instagram": "None", "facebook": "None", "youtube": "None", "website": "None", "summary": "None", "logo": "None", "latitude": 49.26736936309687, "longitude": -124.79439181144019}, "119096352RR0001": {"name": "ALBERNI VALLEY DRUG & ALCOHOL PREVENTION SERVICE", "designationCode": "C", "categoryCode": "11", "address": "4260A 10TH AVE", "city": "PORT ALBERNI", "province": "BC", "country": "CA", "postalCode": "V9Y4X3", "twitter": "None", "instagram": "None", "facebook": "None", "youtube": "None", "website": "None", "summary": "None", "logo": "None", "latitude": 49.25343887086641, "longitude": -124.79802145853857}, "118780238RR0001": {"name": "ALBERNI VALLEY GURDAWARA SOCIETY", "designationCode": "C", "categoryCode": "62", "address": "PO BOX 104                    4741 MONTROSE ST", "city": "PORT ALBERNI", "province": "BC", "country": "CA", "postalCode": "V9Y7M6", "twitter": "None", "instagram": "None", "facebook": "None", "youtube": "None", "website": "None", "summary": "None", "logo": "None", "latitude": 49.23049746047074, "longitude": -124.80453055536961}, "816680870RR0001": {"name": "ALBERNI VALLEY NEIGHBOURLINK SOCIETY", "designationCode": "C", "categoryCode": "49", "address": "PO BOX 1346, STATION MAIN", "city": "PORT ALBERNI", "province": "BC", "country": "CA", "postalCode": "V9Y7M2", "twitter": "None", "instagram": "None", "facebook": "None", "youtube": "None", "website": "None", "summary": "None", "logo": "None", "latitude": 49.23443400000005, "longitude": -124.80757099999994}, "130745334RR0001": {"name": "ALBERNI VALLEY RESCUE SQUAD", "designationCode": "C", "categoryCode": "59", "address": "P.O. BOX 1137", "city": "PORT ALBERNI", "province": "BC", "country": "CA", "postalCode": "V9Y7L9", "twitter": "None", "instagram": "None", "facebook": "None", "youtube": "None", "website": "None", "summary": "None", "logo": "None", "latitude": 49.23443400000005, "longitude": -124.80757099999994}, "100110626RR0001": {"name": "ALBERNI VALLEY SENIOR CITIZENS HOMES", "designationCode": "C", "categoryCode": "01", "address": "3245 THIRD AVENUE", "city": "PORT ALBERNI", "province": "BC", "country": "CA", "postalCode": "V9Y4C9", "twitter": "None", "instagram": "None", "facebook": "None", "youtube": "None", "website": "None", "summary": "None", "logo": "None", "latitude": 49.236544623033026, "longitude": -124.8074652142125}, "108006511RR0001": {"name": "ALBERNI VALLEY UNITED CHURCH", "designationCode": "C", "categoryCode": "44", "address": "3747 CHURCH STREET", "city": "PORT ALBERNI", "province": "BC", "country": "CA", "postalCode": "V9Y1T5", "twitter": "None", "instagram": "None", "facebook": "None", "youtube": "None", "website": "None", "summary": "None", "logo": "None", "latitude": 49.23323650822297, "longitude": -124.78997178267647}, "131273393RR0001": {"name": "ALBERNI-CLAYOQUOT CONTINUING CARE SOCIETY", "designationCode": "C", "categoryCode": "01", "address": "4200 10TH AVENUE", "city": "PORT ALBERNI", "province": "BC", "country": "CA", "postalCode": "V9Y4X3", "twitter": "None", "instagram": "None", "facebook": "None", "youtube": "None", "website": "None", "summary": "None", "logo": "None", "latitude": 49.252381904788145, "longitude": -124.79801728563557}, "891606063RR0001": {"name": "ALBERT AND TEMMY LATNER FAMILY FOUNDATION", "designationCode": "B", "categoryCode": "03", "address": "1700-20 EGLINTON AVE W", "city": "TORONTO", "province": "ON", "country": "CA", "postalCode": "M4R2H1", "twitter": "None", "instagram": "None", "facebook": "None", "youtube": "None", "website": "None", "summary": "None", "logo": "None", "latitude": 43.70661117236991, "longitude": -79.39906987844073}, "887303998RR0001": {"name": "ALBERT BRIDGE COMMUNITY VOLUNTEER FIRE DEPARTMENT", "designationCode": "C", "categoryCode": "59", "address": "4330 LOUISBOURG HIGHWAY", "city": "ALBERT BRIDGE", "province": "NS", "country": "CA", "postalCode": "B1K2P4", "twitter": "None", "instagram": "None", "facebook": "None", "youtube": "None", "website": "None", "summary": "None", "logo": "None", "latitude": 46.014968326184984, "longitude": -60.060174324705095}, "106694839RR0001": {"name": "ALBERT CHILDCARE CO-OPERATIVE", "designationCode": "C", "categoryCode": "01", "address": "610 CLARENCE AVE. SO.", "city": "SASKATOON", "province": "SK", "country": "CA", "postalCode": "S7H2E2", "twitter": "None", "instagram": "None", "facebook": "None", "youtube": "None", "website": "None", "summary": "None", "logo": "None", "latitude": 52.119306136274474, "longitude": -106.6464372666059}, "106694888RR0001": {"name": "ALBERT COLLEGE", "designationCode": "C", "categoryCode": "20", "address": "160 DUNDAS ST W", "city": "BELLEVILLE", "province": "ON", "country": "CA", "postalCode": "K8P1A6", "twitter": "None", "instagram": "None", "facebook": "None", "youtube": "None", "website": "None", "summary": "None", "logo": "None", "latitude": 44.15450805412886, "longitude": -77.39347341147776}, "893969667RR0001": {"name": "ALBERT COMMUNITY ORGANIZATION IRMA", "designationCode": "C", "categoryCode": "56", "address": "RR 1", "city": "IRMA", "province": "AB", "country": "CA", "postalCode": "T0B2H0", "twitter": "None", "instagram": "None", "facebook": "None", "youtube": "None", "website": "None", "summary": "None", "logo": "None", "latitude": 52.91172000000006, "longitude": -111.23200999999995}, "118781319RR0001": {"name": "ALBERT COUNTY ACTION COMMITTEE INC.", "designationCode": "C", "categoryCode": "59", "address": "30 HONOUR HOUSE COURT", "city": "RIVERVIEW", "province": "NB", "country": "CA", "postalCode": "E1B3Y9", "twitter": "None", "instagram": "None", "facebook": "None", "youtube": "None", "website": "None", "summary": "None", "logo": "None", "latitude": 46.06133557900028, "longitude": -64.80456210935425}, "106694904RR0001": {"name": "ALBERT COUNTY HISTORICAL SOCIETY INCORPORATED", "designationCode": "C", "categoryCode": "50", "address": "3940 ROUTE 114", "city": "HOPEWELL CAPE", "province": "NB", "country": "CA", "postalCode": "E4H3J8", "twitter": "None", "instagram": "None", "facebook": "None", "youtube": "None", "website": "None", "summary": "None", "logo": "None", "latitude": 45.848532721611285, "longitude": -64.57670572334835}, "892269168RR0001": {"name": "ALBERT JAMES MENNIE FOUNDATION INC", "designationCode": "B", "categoryCode": "53", "address": "BOX 242", "city": "KELVINGTON", "province": "SK", "country": "CA", "postalCode": "S0A1W0", "twitter": "None", "instagram": "None", "facebook": "None", "youtube": "None", "website": "None", "summary": "None", "logo": "None", "latitude": 50.942659313471935, "longitude": -102.0486202158667}, "118781350RR0001": {"name": "ALBERT MINES UNITED BAPTIST CHURCH", "designationCode": "C", "categoryCode": "31", "address": "BOX 3620", "city": "HILLSBOROUGH", "province": "NB", "country": "CA", "postalCode": "E4H4W5", "twitter": "None", "instagram": "None", "facebook": "None", "youtube": "None", "website": "None", "summary": "None", "logo": "None", "latitude": 45.92715900000006, "longitude": -64.64866399999994}, "118781426RR0001": {"name": "ALBERT STREET GOSPEL HALL", "designationCode": "C", "categoryCode": "39", "address": "4 CEDAR POINTE DRIVE, SUITE R", "city": "BARRIE", "province": "ON", "country": "CA", "postalCode": "L4N5R7", "twitter": "None", "instagram": "None", "facebook": "None", "youtube": "None", "website": "None", "summary": "None", "logo": "None", "latitude": 44.37900296985677, "longitude": -79.71389244684802}, "892265646RR0001": {"name": "ALBERTA & NORTHWEST CONFERENCE STUDENT BURSARY FUND SOCIETY", "designationCode": "C", "categoryCode": "21", "address": "1642 3 AVE", "city": "WAINWRIGHT", "province": "AB", "country": "CA", "postalCode": "T9W1J3", "twitter": "None", "instagram": "None", "facebook": "None", "youtube": "None", "website": "None", "summary": "None", "logo": "None", "latitude": 52.83193618318996, "longitude": -110.84422092148975}, "118780279RR0001": {"name": "ALBERTA & NWT DISTRICT OF THE PENTECOSTAL ASSEMBLIES OF CANADA", "designationCode": "C", "categoryCode": "36", "address": "12140 103 STREET NW", "city": "EDMONTON", "province": "AB", "country": "CA", "postalCode": "T5G2J9", "twitter": "None", "instagram": "None", "facebook": "None", "youtube": "None", "website": "None", "summary": "None", "logo": "None", "latitude": 53.575749, "longitude": -113.49743926319982}, "848903944RR0001": {"name": "ALBERTA ADAPTABILITIES ASSOCIATION", "designationCode": "C", "categoryCode": "09", "address": "10130 82 AVE NW", "city": "EDMONTON", "province": "AB", "country": "CA", "postalCode": "T6E1Z4", "twitter": "None", "instagram": "None", "facebook": "None", "youtube": "None", "website": "None", "summary": "None", "logo": "None", "latitude": 53.51812947879261, "longitude": -113.49250102553522}, "871442661RR0001": {"name": "ALBERTA AMPUTEE SPORTS AND RECREATION ASSOCIATION", "designationCode": "C", "categoryCode": "56", "address": "PO BOX 86093 RPO MARDA LOOP", "city": "CALGARY", "province": "AB", "country": "CA", "postalCode": "T2T6B7", "twitter": "None", "instagram": "None", "facebook": "None", "youtube": "None", "website": "None", "summary": "None", "logo": "None", "latitude": 51.02152998179576, "longitude": -114.11198527182971}, "118780261RR0001": {"name": "ALBERTA AND NORTHWEST CONFERENCE OF THE UNITED CHURCH OF CANADA", "designationCode": "C", "categoryCode": "49", "address": "9911 - 48 AVE", "city": "EDMONTON", "province": "AB", "country": "CA", "postalCode": "T6E5V6", "twitter": "None", "instagram": "None", "facebook": "None", "youtube": "None", "website": "None", "summary": "None", "logo": "None", "latitude": 53.485940541693644, "longitude": -113.48698410935425}, "130486111RR0001": {"name": "ALBERTA ARBITRATION AND MEDIATION SOCIETY", "designationCode": "C", "categoryCode": "59", "address": "203 - 11525 23 AVE NW", "city": "EDMONTON", "province": "AB", "country": "CA", "postalCode": "T6J4T3", "twitter": "None", "instagram": "None", "facebook": "None", "youtube": "None", "website": "None", "summary": "None", "logo": "None", "latitude": 53.455266596281625, "longitude": -113.54838865963569}, "860325323RR0001": {"name": "ALBERTA ASSOCIATION FOR BETTER COMMUNITIES", "designationCode": "C", "categoryCode": "57", "address": "75 ST MORITZ TERR SW", "city": "CALGARY", "province": "AB", "country": "CA", "postalCode": "T3H5Y1", "twitter": "None", "instagram": "None", "facebook": "None", "youtube": "None", "website": "None", "summary": "None", "logo": "None", "latitude": 51.03714022675859, "longitude": -114.2130664946043}, "106692585RR0001": {"name": "ALBERTA ASSOCIATION FOR THE DEPENDENT HANDICAPPED", "designationCode": "C", "categoryCode": "09", "address": "7712-152C AVENUE", "city": "EDMONTON", "province": "AB", "country": "CA", "postalCode": "T5C3L6", "twitter": "None", "instagram": "None", "facebook": "None", "youtube": "None", "website": "None", "summary": "None", "logo": "None", "latitude": 53.61532551875457, "longitude": -113.46245147155058}, "131373318RR0001": {"name": "ALBERTA ASSOCIATION OF THE DEAF", "designationCode": "C", "categoryCode": "09", "address": "204, 11404 142 STREET NW", "city": "EDMONTON", "province": "AB", "country": "CA", "postalCode": "T5M1V1", "twitter": "None", "instagram": "None", "facebook": "None", "youtube": "None", "website": "None", "summary": "None", "logo": "None", "latitude": 53.56405348969226, "longitude": -113.565861}, "891561342RR0003": {"name": "ALBERTA ASSOCIATION ON GERONTOLOGY", "designationCode": "C", "categoryCode": "11", "address": "8403-142 STREET", "city": "EDMONTON", "province": "AB", "country": "CA", "postalCode": "T5R4L3", "twitter": "None", "instagram": "None", "facebook": "None", "youtube": "None", "website": "None", "summary": "None", "logo": "None", "latitude": 53.51646574854291, "longitude": -113.56563581730099}, "106692692RR0001": {"name": "ALBERTA AVENUE COMMUNITY LEAGUE", "designationCode": "C", "categoryCode": "56", "address": "9210 118 AVENUE NW", "city": "EDMONTON", "province": "AB", "country": "CA", "postalCode": "T5G0N2", "twitter": "None", "instagram": "None", "facebook": "None", "youtube": "None", "website": "None", "summary": "None", "logo": "None", "latitude": 53.57041248715982, "longitude": -113.48352352553522}, "118780360RR0001": {"name": "ALBERTA AVIATION MUSEUM ASSOCIATION", "designationCode": "C", "categoryCode": "50", "address": "11410 KINGSWAY NW", "city": "EDMONTON", "province": "AB", "country": "CA", "postalCode": "T5G0X4", "twitter": "None", "instagram": "None", "facebook": "None", "youtube": "None", "website": "None", "summary": "None", "logo": "None", "latitude": 53.565409817634944, "longitude": -113.51819930094248}, "118780378RR0001": {"name": "ALBERTA BALLET COMPANY", "designationCode": "C", "categoryCode": "56", "address": "141 18 AVE SW", "city": "CALGARY", "province": "AB", "country": "CA", "postalCode": "T2S0B8", "twitter": "None", "instagram": "None", "facebook": "None", "youtube": "None", "website": "None", "summary": "None", "logo": "None", "latitude": 51.036995557851114, "longitude": -114.06525269608748}, "887549194RR0001": {"name": "ALBERTA BALLET FOUNDATION", "designationCode": "A", "categoryCode": "23", "address": "141 18 AVE S W", "city": "CALGARY", "province": "AB", "country": "CA", "postalCode": "T2S0B8", "twitter": "None", "instagram": "None", "facebook": "None", "youtube": "None", "website": "None", "summary": "None", "logo": "None", "latitude": 51.036995557851114, "longitude": -114.06525269608748}, "106692718RR0001": {"name": "ALBERTA BAND ASSOCIATION", "designationCode": "C", "categoryCode": "22", "address": "5708 72 ST NW", "city": "EDMONTON", "province": "AB", "country": "CA", "postalCode": "T6B3J4", "twitter": "None", "instagram": "None", "facebook": "None", "youtube": "None", "website": "None", "summary": "None", "logo": "None", "latitude": 53.49287968091962, "longitude": -113.43835771583412}, "897431680RR0001": {"name": "ALBERTA BEACH & DISTRICT MEALS ON WHEELS SOCIETY", "designationCode": "C", "categoryCode": "11", "address": "P.O. BOX 38", "city": "ALBERTA BEACH", "province": "AB", "country": "CA", "postalCode": "T0E0A0", "twitter": "None", "instagram": "None", "facebook": "None", "youtube": "None", "website": "None", "summary": "None", "logo": "None", "latitude": 53.67729000000003, "longitude": -114.35111999999998}, "897312732RR0001": {"name": "ALBERTA BEACH AND DISTRICT MUSEUM AND ARCHIVES SOCIETY", "designationCode": "C", "categoryCode": "50", "address": "BOX 68", "city": "ALBERTA BEACH", "province": "AB", "country": "CA", "postalCode": "T0E0A0", "twitter": "None", "instagram": "None", "facebook": "None", "youtube": "None", "website": "None", "summary": "None", "logo": "None", "latitude": 53.67729000000003, "longitude": -114.35111999999998}, "130523293RR0001": {"name": "ALBERTA BEACH AND DISTRICT SENIOR CITIZENS CLUB", "designationCode": "C", "categoryCode": "56", "address": "BOX 263", "city": "ALBERTA BEACH", "province": "AB", "country": "CA", "postalCode": "T0E0A0", "twitter": "None", "instagram": "None", "facebook": "None", "youtube": "None", "website": "None", "summary": "None", "logo": "None", "latitude": 53.67729000000003, "longitude": -114.35111999999998}, "888439536RR0001": {"name": "ALBERTA BEACH MUNICIPAL LIBRARY", "designationCode": "C", "categoryCode": "50", "address": "4811-50 AVENUE                PO BOX 186", "city": "ALBERTA BEACH", "province": "AB", "country": "CA", "postalCode": "T0E0A0", "twitter": "None", "instagram": "None", "facebook": "None", "youtube": "None", "website": "None", "summary": "None", "logo": "None", "latitude": 53.67731820590684, "longitude": -114.35301795529118}, "892834581RR0001": {"name": "ALBERTA BENEVOLENT CANTOR ASSOCIATION", "designationCode": "C", "categoryCode": "49", "address": "11837 66 ST NW", "city": "EDMONTON", "province": "AB", "country": "CA", "postalCode": "T5B1J2", "twitter": "None", "instagram": "None", "facebook": "None", "youtube": "None", "website": "None", "summary": "None", "logo": "None", "latitude": 53.571383999999995, "longitude": -113.44296726680744}, "106692783RR0001": {"name": "ALBERTA BIBLE COLLEGE", "designationCode": "C", "categoryCode": "20", "address": "635 NORTHMOUNT DR NW", "city": "CALGARY", "province": "AB", "country": "CA", "postalCode": "T2K3J6", "twitter": "None", "instagram": "None", "facebook": "None", "youtube": "None", "website": "None", "summary": "None", "logo": "None", "latitude": 51.08604839523339, "longitude": -114.08894014989312}, "896535895RR0001": {"name": "ALBERTA BIRDS OF PREY FOUNDATION", "designationCode": "C", "categoryCode": "54", "address": "PO BOX 1030", "city": "COALDALE", "province": "AB", "country": "CA", "postalCode": "T1M1M8", "twitter": "None", "instagram": "None", "facebook": "None", "youtube": "None", "website": "None", "summary": "None", "logo": "None", "latitude": 49.73194500000005, "longitude": -112.60066399999994}, "140783929RR0001": {"name": "ALBERTA BLOCK PARENT ASSOCIATION", "designationCode": "C", "categoryCode": "59", "address": "220 DOVERVIEW CRES. SE", "city": "CALGARY", "province": "AB", "country": "CA", "postalCode": "T2B1Y6", "twitter": "None", "instagram": "None", "facebook": "None", "youtube": "None", "website": "None", "summary": "None", "logo": "None", "latitude": 51.01951544936224, "longitude": -113.983145475994}, "808969745RR0001": {"name": "ALBERTA BLUE CROSS HEARTS OF BLUE", "designationCode": "C", "categoryCode": "75", "address": "10009-108 STREET", "city": "EDMONTON", "province": "AB", "country": "CA", "postalCode": "T5J3C5", "twitter": "None", "instagram": "None", "facebook": "None", "youtube": "None", "website": "None", "summary": "None", "logo": "None", "latitude": 53.53911036663973, "longitude": -113.50655529291959}, "132314154RR0001": {"name": "ALBERTA BONE & JOINT HEALTH INSTITUTE", "designationCode": "A", "categoryCode": "23", "address": "400-3280 HOSPITAL DR NW", "city": "CALGARY", "province": "AB", "country": "CA", "postalCode": "T2N4N1", "twitter": "None", "instagram": "None", "facebook": "None", "youtube": "None", "website": "None", "summary": "None", "logo": "None", "latitude": 51.06651384955862, "longitude": -114.13665597498438}, "131293631RR0001": {"name": "ALBERTA BOOK FAIR SOCIETY", "designationCode": "C", "categoryCode": "21", "address": "200 - 10113 104 ST NW", "city": "EDMONTON", "province": "AB", "country": "CA", "postalCode": "T5J1A1", "twitter": "None", "instagram": "None", "facebook": "None", "youtube": "None", "website": "None", "summary": "None", "logo": "None", "latitude": 53.54132467055226, "longitude": -113.49920525685279}, "898286273RR0001": {"name": "ALBERTA BRAIN INJURY CAREGIVER SOCIETY", "designationCode": "C", "categoryCode": "09", "address": "103 NOBLE AVE", "city": "RED DEER", "province": "AB", "country": "CA", "postalCode": "T4P2H4", "twitter": "None", "instagram": "None", "facebook": "None", "youtube": "None", "website": "None", "summary": "None", "logo": "None", "latitude": 52.302149245628726, "longitude": -113.82292861570224}, "893043646RR0001": {"name": "ALBERTA BUDDHIST VIHARA ASSOCIATION", "designationCode": "C", "categoryCode": "35", "address": "3454 37 ST NW", "city": "EDMONTON", "province": "AB", "country": "CA", "postalCode": "T6L4Y9", "twitter": "None", "instagram": "None", "facebook": "None", "youtube": "None", "website": "None", "summary": "None", "logo": "None", "latitude": 53.46565967026379, "longitude": -113.39975251321464}, "118780469RR0001": {"name": "ALBERTA CAMP CHERITH", "designationCode": "C", "categoryCode": "56", "address": "PO BOX 2001", "city": "CARSTAIRS", "province": "AB", "country": "CA", "postalCode": "T0M0N0", "twitter": "None", "instagram": "None", "facebook": "None", "youtube": "None", "website": "None", "summary": "None", "logo": "None", "latitude": 51.562880000000064, "longitude": -114.09537999999998}, "118780477RR0001": {"name": "ALBERTA CANCER FOUNDATION", "designationCode": "A", "categoryCode": "11", "address": "710 SUN LIFE PLAZA            10123-99 STREET", "city": "EDMONTON", "province": "AB", "country": "CA", "postalCode": "T5J3H1", "twitter": "None", "instagram": "None", "facebook": "None", "youtube": "None", "website": "None", "summary": "None", "logo": "None", "latitude": 53.54197556203473, "longitude": -113.48865557807756}, "865902217RR0001": {"name": "ALBERTA CAREGIVERS ASSOCIATION", "designationCode": "C", "categoryCode": "11", "address": "10310 56 ST                   FULTON PLACE SCHOOL", "city": "EDMONTON", "province": "AB", "country": "CA", "postalCode": "T6A2J2", "twitter": "None", "instagram": "None", "facebook": "None", "youtube": "None", "website": "None", "summary": "None", "logo": "None", "latitude": 53.54509000000007, "longitude": -113.42311999999998}, "127344240RR0001": {"name": "ALBERTA CENTRAL RAILWAY MUSEUM SOCIETY", "designationCode": "C", "categoryCode": "50", "address": "RR 2", "city": "WETASKIWIN", "province": "AB", "country": "CA", "postalCode": "T9A1W9", "twitter": "None", "instagram": "None", "facebook": "None", "youtube": "None", "website": "None", "summary": "None", "logo": "None", "latitude": 52.96987500000006, "longitude": -113.37725149999994}, "857183487RR0001": {"name": "ALBERTA CHAMPIONS SOCIETY IN RECOGNITION OF COMMUNITY ENRICHMENT", "designationCode": "C", "categoryCode": "59", "address": "#600, 5920 MACLEOD TRAIL S.W.", "city": "CALGARY", "province": "AB", "country": "CA", "postalCode": "T2H0K2", "twitter": "None", "instagram": "None", "facebook": "None", "youtube": "None", "website": "None", "summary": "None", "logo": "None", "latitude": 51.000507, "longitude": -114.0714373168683}, "118780519RR0001": {"name": "ALBERTA CHAPTER CANADIAN FOUNDATION FOR POLIOMYELITIS AND REHABILITATION", "designationCode": "C", "categoryCode": "11", "address": "2020 15 STREET NW", "city": "CALGARY", "province": "AB", "country": "CA", "postalCode": "T2M3N8", "twitter": "None", "instagram": "None", "facebook": "None", "youtube": "None", "website": "None", "summary": "None", "logo": "None", "latitude": 51.07036541909517, "longitude": -114.09715673867515}, "891240079RR0001": {"name": "ALBERTA CHARITABLE SOCIETY OF ST PIUS X", "designationCode": "C", "categoryCode": "39", "address": "4718 WORCESTER DRIVE S.W.", "city": "CALGARY", "province": "AB", "country": "CA", "postalCode": "T3C3L6", "twitter": "None", "instagram": "None", "facebook": "None", "youtube": "None", "website": "None", "summary": "None", "logo": "None", "latitude": 51.049584942552926, "longitude": -114.15471382278265}, "130373244RR0001": {"name": "ALBERTA CHILDREN'S HOSPITAL FOUNDATION", "designationCode": "A", "categoryCode": "13", "address": "2888 SHAGANAPPI TRAIL NW", "city": "CALGARY", "province": "AB", "country": "CA", "postalCode": "T3B6A8", "twitter": "None", "instagram": "None", "facebook": "None", "youtube": "None", "website": "None", "summary": "None", "logo": "None", "latitude": 51.073344134082475, "longitude": -114.15108362000574}, "118780550RR0001": {"name": "ALBERTA CHORAL FEDERATION (ASSOCIATION)", "designationCode": "C", "categoryCode": "22", "address": "5708 72 ST NW", "city": "EDMONTON", "province": "AB", "country": "CA", "postalCode": "T6B3J4", "twitter": "None", "instagram": "None", "facebook": "None", "youtube": "None", "website": "None", "summary": "None", "logo": "None", "latitude": 53.49287968091962, "longitude": -113.43835771583412}, "884484965RR0001": {"name": "ALBERTA CHUNG WAH SCHOOL SOCIETY", "designationCode": "C", "categoryCode": "20", "address": "UNIT 270                      328 CENTRE ST SE", "city": "CALGARY", "province": "AB", "country": "CA", "postalCode": "T2G4X6", "twitter": "None", "instagram": "None", "facebook": "None", "youtube": "None", "website": "None", "summary": "None", "logo": "None", "latitude": 51.04012257612735, "longitude": -114.06341845884805}, "119288918RR0899": {"name": "ALBERTA CIRCUIT #5-A OF JEHOVAH'S WITNESSES", "designationCode": "C", "categoryCode": "61", "address": "10118B 91 AVE", "city": "PEACE RIVER", "province": "AB", "country": "CA", "postalCode": "T8S1H2", "twitter": "None", "instagram": "None", "facebook": "None", "youtube": "None", "website": "None", "summary": "None", "logo": "None", "latitude": 56.24237544471358, "longitude": -117.2883153726112}, "119288918RR0903": {"name": "ALBERTA CIRCUIT #6A OF JEHOVAH'S WITNESSES", "designationCode": "C", "categoryCode": "61", "address": "10815-128 STREET", "city": "EDMONTON", "province": "AB", "country": "CA", "postalCode": "T5M0W3", "twitter": "None", "instagram": "None", "facebook": "None", "youtube": "None", "website": "None", "summary": "None", "logo": "None", "latitude": 53.553123, "longitude": -113.54281629291958}, "119288918RR1294": {"name": "ALBERTA CIRCUIT NO 2-C OF JEHOVAH'S WITNESSES", "designationCode": "C", "categoryCode": "61", "address": "415 SILVERTHORN WAY NW", "city": "CALGARY", "province": "AB", "country": "CA", "postalCode": "T3B4E8", "twitter": "None", "instagram": "None", "facebook": "None", "youtube": "None", "website": "None", "summary": "None", "logo": "None", "latitude": 51.11226670552253, "longitude": -114.20188728005074}, "119288918RR1319": {"name": "ALBERTA CIRCUIT NO. 8C OF JEHOVAH'S WITNESSES", "designationCode": "C", "categoryCode": "61", "address": "303, 220-12 AVE SE", "city": "CALGARY", "province": "AB", "country": "CA", "postalCode": "T2G0R5", "twitter": "None", "instagram": "None", "facebook": "None", "youtube": "None", "website": "None", "summary": "None", "logo": "None", "latitude": 51.041336467684104, "longitude": -114.05970013627446}, "119288918RR1004": {"name": "ALBERTA CIRCUIT 1-A OF JEHOVAH'S WITNESSES", "designationCode": "C", "categoryCode": "61", "address": "109 SIENNA PASS", "city": "CHESTERMERE", "province": "AB", "country": "CA", "postalCode": "T1X0B6", "twitter": "None", "instagram": "None", "facebook": "None", "youtube": "None", "website": "None", "summary": "None", "logo": "None", "latitude": 51.03018149956732, "longitude": -113.8342725}, "119288918RR1041": {"name": "ALBERTA CIRCUIT 1-B OF JEHOVAH'S WITNESSES", "designationCode": "C", "categoryCode": "61", "address": "455 - 37543 ENGLAND WAY", "city": "RED DEER COUNTY", "province": "AB", "country": "CA", "postalCode": "T4S2C3", "twitter": "None", "instagram": "None", "facebook": "None", "youtube": "None", "website": "None", "summary": "None", "logo": "None", "latitude": 52.226326037740236, "longitude": -113.82212513947711}, "119288918RR1009": {"name": "ALBERTA CIRCUIT 1-C OF JEHOVAH'S WITNESSES", "designationCode": "C", "categoryCode": "61", "address": "424 RUNDLEVILLE PL NE", "city": "CALGARY", "province": "AB", "country": "CA", "postalCode": "T1Y2T4", "twitter": "None", "instagram": "None", "facebook": "None", "youtube": "None", "website": "None", "summary": "None", "logo": "None", "latitude": 51.073689532315896, "longitude": -113.97129320742712}, "119288918RR1024": {"name": "ALBERTA CIRCUIT 2-A OF JEHOVAH'S WITNESSES", "designationCode": "C", "categoryCode": "61", "address": "405-26 AVENUE N.E.", "city": "CALGARY", "province": "AB", "country": "CA", "postalCode": "T2E1Z4", "twitter": "None", "instagram": "None", "facebook": "None", "youtube": "None", "website": "None", "summary": "None", "logo": "None", "latitude": 51.07603851067582, "longitude": -114.0554025}, "119288918RR1019": {"name": "ALBERTA CIRCUIT 2-B OF JEHOVAH'S WITNESSES", "designationCode": "C", "categoryCode": "61", "address": "98 RIDGE VIEW PL", "city": "COCHRANE", "province": "AB", "country": "CA", "postalCode": "T4C0P6", "twitter": "None", "instagram": "None", "facebook": "None", "youtube": "None", "website": "None", "summary": "None", "logo": "None", "latitude": 51.169428566189666, "longitude": -114.45168441825844}, "119288918RR0943": {"name": "ALBERTA CIRCUIT 3A OF JEHOVAH'S WITNESSES", "designationCode": "C", "categoryCode": "61", "address": "11164-37 AVE", "city": "EDMONTON", "province": "AB", "country": "CA", "postalCode": "T6J0H2", "twitter": "None", "instagram": "None", "facebook": "None", "youtube": "None", "website": "None", "summary": "None", "logo": "None", "latitude": 53.47183341661365, "longitude": -113.52047430850016}, "119288918RR0940": {"name": "ALBERTA CIRCUIT 3B OF JEHOVAH' S WITNESSES", "designationCode": "C", "categoryCode": "61", "address": "36 IRON WOLF RIDGE", "city": "LACOMBE", "province": "AB", "country": "CA", "postalCode": "T4L2K2", "twitter": "None", "instagram": "None", "facebook": "None", "youtube": "None", "website": "None", "summary": "None", "logo": "None", "latitude": 52.45630620286816, "longitude": -113.73354170096357}, "119288918RR1428": {"name": "ALBERTA CIRCUIT 3C OF JEHOVAH'S WITNESSES", "designationCode": "C", "categoryCode": "61", "address": "BOX 2597", "city": "STONY PLAIN", "province": "AB", "country": "CA", "postalCode": "T7Z1X9", "twitter": "None", "instagram": "None", "facebook": "None", "youtube": "None", "website": "None", "summary": "None", "logo": "None", "latitude": 53.52878400000006, "longitude": -114.00552349999992}, "119288918RR0958": {"name": "ALBERTA CIRCUIT 4A OF JEHOVAH'S WITNESSES", "designationCode": "C", "categoryCode": "61", "address": "17807-92 ST.", "city": "EDMONTON", "province": "AB", "country": "CA", "postalCode": "T5Z2L8", "twitter": "None", "instagram": "None", "facebook": "None", "youtube": "None", "website": "None", "summary": "None", "logo": "None", "latitude": 53.64105555785112, "longitude": -113.48142171758333}, "119288918RR0961": {"name": "ALBERTA CIRCUIT 4B OF JEHOVAH'S WITNESSES", "designationCode": "C", "categoryCode": "61", "address": "1403 11610-100 AVENUE", "city": "EDMONTON", "province": "AB", "country": "CA", "postalCode": "T5K0K1", "twitter": "None", "instagram": "None", "facebook": "None", "youtube": "None", "website": "None", "summary": "None", "logo": "None", "latitude": 53.538867511541184, "longitude": -113.52186386081135}, "119288918RR1427": {"name": "ALBERTA CIRCUIT 4C OF JEHOVAH'S WITNESSES", "designationCode": "C", "categoryCode": "61", "address": "11111 103 ST", "city": "WESTLOCK", "province": "AB", "country": "CA", "postalCode": "T7P1G6", "twitter": "None", "instagram": "None", "facebook": "None", "youtube": "None", "website": "None", "summary": "None", "logo": "None", "latitude": 54.15456748338544, "longitude": -113.83098708363684}, "119288918RR1259": {"name": "ALBERTA CIRCUIT 5B OF JEHOVAH'S WITNESSES", "designationCode": "C", "categoryCode": "61", "address": "BOX 2458 STN. MAIN", "city": "YELLOWKNIFE", "province": "NT", "country": "CA", "postalCode": "X1A2P8", "twitter": "None", "instagram": "None", "facebook": "None", "youtube": "None", "website": "None", "summary": "None", "logo": "None", "latitude": 62.45446200000005, "longitude": -114.37092349999993}, "119288918RR0931": {"name": "ALBERTA CIRCUIT 5C OF JEHOVAH'S WITNESSES", "designationCode": "C", "categoryCode": "61", "address": "1045 93 AVE", "city": "DAWSON CREEK", "province": "BC", "country": "CA", "postalCode": "V1G1E3", "twitter": "None", "instagram": "None", "facebook": "None", "youtube": "None", "website": "None", "summary": "None", "logo": "None", "latitude": 55.76971052842076, "longitude": -120.233583}, "119288918RR0986": {"name": "ALBERTA CIRCUIT 6B OF JEHOVAH'S WITNESSES", "designationCode": "C", "categoryCode": "61", "address": "1504 GRANT WAY NW", "city": "EDMONTON", "province": "AB", "country": "CA", "postalCode": "T5T6M9", "twitter": "None", "instagram": "None", "facebook": "None", "youtube": "None", "website": "None", "summary": "None", "logo": "None", "latitude": 53.50641770523407, "longitude": -113.67596712326137}, "119288918RR1429": {"name": "ALBERTA CIRCUIT 6C OF JEHOVAH'S WITNESSES", "designationCode": "C", "categoryCode": "61", "address": "14 APACHE CRES", "city": "LEDUC", "province": "AB", "country": "CA", "postalCode": "T9E4H9", "twitter": "None", "instagram": "None", "facebook": "None", "youtube": "None", "website": "None", "summary": "None", "logo": "None", "latitude": 53.24683588954923, "longitude": -113.54350314386319}, "119288918RR0870": {"name": "ALBERTA CIRCUIT 7-A OF JEHOVAH'S WITNESSES", "designationCode": "C", "categoryCode": "61", "address": "6212 82 AVE NW", "city": "EDMONTON", "province": "AB", "country": "CA", "postalCode": "T6B0E7", "twitter": "None", "instagram": "None", "facebook": "None", "youtube": "None", "website": "None", "summary": "None", "logo": "None", "latitude": 53.5180635337582, "longitude": -113.42830049999999}, "119288918RR0874": {"name": "ALBERTA CIRCUIT 7-B OF JEHOVAH'S WITNESSES", "designationCode": "C", "categoryCode": "61", "address": "9913-83A STREET", "city": "FORT SASKATCHEWAN", "province": "AB", "country": "CA", "postalCode": "T8L3C3", "twitter": "None", "instagram": "None", "facebook": "None", "youtube": "None", "website": "None", "summary": "None", "logo": "None", "latitude": 53.69574162949378, "longitude": -113.24612980472058}, "119288918RR1426": {"name": "ALBERTA CIRCUIT 7C OF JEHOVAH'S WITNESSES", "designationCode": "C", "categoryCode": "61", "address": "12131-53 STREET", "city": "EDMONTON", "province": "AB", "country": "CA", "postalCode": "T5W3L8", "twitter": "None", "instagram": "None", "facebook": "None", "youtube": "None", "website": "None", "summary": "None", "logo": "None", "latitude": 53.576135748542896, "longitude": -113.42299570520542}, "119288918RR1048": {"name": "ALBERTA CIRCUIT 8-A OF JEHOVAH'S WITNESSES", "designationCode": "C", "categoryCode": "61", "address": "108 QUEENSLAND PL SE", "city": "CALGARY", "province": "AB", "country": "CA", "postalCode": "T2J4G8", "twitter": "None", "instagram": "None", "facebook": "None", "youtube": "None", "website": "None", "summary": "None", "logo": "None", "latitude": 50.937459140429404, "longitude": -114.02565134525945}, "119288918RR0990": {"name": "ALBERTA CIRCUIT 8-B OF JEHOVAH'S WITNESSES", "designationCode": "C", "categoryCode": "61", "address": "9110 FAIRMOUNT DR S E", "city": "CALGARY", "province": "AB", "country": "CA", "postalCode": "T2J4X5", "twitter": "None", "instagram": "None", "facebook": "None", "youtube": "None", "website": "None", "summary": "None", "logo": "None", "latitude": 50.97204757507646, "longitude": -114.05916042073994}, "118780568RR0001": {"name": "ALBERTA CIVIL LIBERTIES RESEARCH CENTRE", "designationCode": "C", "categoryCode": "50", "address": "2500 UNIVERSITY DRIVE NW", "city": "CALGARY", "province": "AB", "country": "CA", "postalCode": "T2N1N4", "twitter": "None", "instagram": "None", "facebook": "None", "youtube": "None", "website": "None", "summary": "None", "logo": "None", "latitude": 51.074918604189705, "longitude": -114.1284997045416}, "106692981RR0001": {"name": "ALBERTA COLLEGE OF ART AND DESIGN", "designationCode": "C", "categoryCode": "20", "address": "1407 14TH AVE NW", "city": "CALGARY", "province": "AB", "country": "CA", "postalCode": "T2N4R3", "twitter": "None", "instagram": "None", "facebook": "None", "youtube": "None", "website": "None", "summary": "None", "logo": "None", "latitude": 51.06431502969423, "longitude": -114.0922154099951}, "119255131RR0001": {"name": "ALBERTA COLLEGE OF SPEECH-LANGUAGE PATHOLOGISTS AND AUDIOLOGISTS", "designationCode": "C", "categoryCode": "19", "address": "209 3132 PARSONS ROAD", "city": "EDMONTON", "province": "AB", "country": "CA", "postalCode": "T6N1L6", "twitter": "None", "instagram": "None", "facebook": "None", "youtube": "None", "website": "None", "summary": "None", "logo": "None", "latitude": 53.46344797446477, "longitude": -113.48617014547837}, "898420948RR0001": {"name": "ALBERTA COMMUNITY ART CLUBS ASSOCIATION", "designationCode": "C", "categoryCode": "22", "address": "BOX 42", "city": "DUCHESS", "province": "AB", "country": "CA", "postalCode": "T0J0Z0", "twitter": "None", "instagram": "None", "facebook": "None", "youtube": "None", "website": "None", "summary": "None", "logo": "None", "latitude": 50.732850051647404, "longitude": -111.90565995946109}, "894781764RR0001": {"name": "ALBERTA COMPUTERS FOR SCHOOLS ASSOCIATION", "designationCode": "C", "categoryCode": "21", "address": "12360, 142 STREET", "city": "EDMONTON", "province": "AB", "country": "CA", "postalCode": "T5L4X9", "twitter": "None", "instagram": "None", "facebook": "None", "youtube": "None", "website": "None", "summary": "None", "logo": "None", "latitude": 53.57836076889714, "longitude": -113.56583870410226}, "108070822RR0001": {"name": "ALBERTA CONFERENCE OF MENNONITE BRETHREN CHURCHES", "designationCode": "C", "categoryCode": "34", "address": "209 - 240 MIDPARK WAY SE", "city": "CALGARY", "province": "AB", "country": "CA", "postalCode": "T2X1N4", "twitter": "None", "instagram": "None", "facebook": "None", "youtube": "None", "website": "None", "summary": "None", "logo": "None", "latitude": 50.91295333279463, "longitude": -114.06324578449413}, "106693047RR0001": {"name": "ALBERTA CONFERENCE OF THE SEVENTH-DAY ADVENTIST CHURCH", "designationCode": "C", "categoryCode": "41", "address": "5816 HIGHWAY, 2A", "city": "LACOMBE", "province": "AB", "country": "CA", "postalCode": "T4L2G5", "twitter": "None", "instagram": "None", "facebook": "None", "youtube": "None", "website": "None", "summary": "None", "logo": "None", "latitude": 52.474063600197404, "longitude": -113.71692568401835}, "889946141RR0001": {"name": "ALBERTA CONSERVATION ASSOCIATION", "designationCode": "C", "categoryCode": "52", "address": "101 - 9 CHIPPEWA ROAD", "city": "SHERWOOD PARK", "province": "AB", "country": "CA", "postalCode": "T8A6J7", "twitter": "None", "instagram": "None", "facebook": "None", "youtube": "None", "website": "None", "summary": "None", "logo": "None", "latitude": 53.53506016763808, "longitude": -113.32448628902445}, "830435079RR0001": {"name": "ALBERTA COUNCIL FOR ENVIRONMENTAL EDUCATION", "designationCode": "C", "categoryCode": "21", "address": "911 LARCH PLACE", "city": "CANMORE", "province": "AB", "country": "CA", "postalCode": "T1W1S5", "twitter": "None", "instagram": "None", "facebook": "None", "youtube": "None", "website": "None", "summary": "None", "logo": "None", "latitude": 51.10340295198798, "longitude": -115.37778653208476}, "118780634RR0001": {"name": "ALBERTA COUNCIL OF WOMEN'S SHELTERS", "designationCode": "C", "categoryCode": "09", "address": "600 - 10310 JASPER AVE NW", "city": "EDMONTON", "province": "AB", "country": "CA", "postalCode": "T5J2W4", "twitter": "None", "instagram": "None", "facebook": "None", "youtube": "None", "website": "None", "summary": "None", "logo": "None", "latitude": 53.54095650764605, "longitude": -113.4977715}, "129947065RR0001": {"name": "ALBERTA COUNCIL ON AGING", "designationCode": "C", "categoryCode": "09", "address": "PO BOX 62099", "city": "EDMONTON", "province": "AB", "country": "CA", "postalCode": "T5M4B5", "twitter": "None", "instagram": "None", "facebook": "None", "youtube": "None", "website": "None", "summary": "None", "logo": "None", "latitude": 53.55989700000005, "longitude": -113.57346499999994}, "891596041RR0001": {"name": "ALBERTA COUNTRY GOSPEL OPRYS", "designationCode": "C", "categoryCode": "47", "address": "#62 6205-54 TH STREET", "city": "PONOKA", "province": "AB", "country": "CA", "postalCode": "T4J1M5", "twitter": "None", "instagram": "None", "facebook": "None", "youtube": "None", "website": "None", "summary": "None", "logo": "None", "latitude": 52.687764091529196, "longitude": -113.58349413869777}, "106693088RR0001": {"name": "ALBERTA CRAFT COUNCIL", "designationCode": "C", "categoryCode": "22", "address": "10186-106TH ST", "city": "EDMONTON", "province": "AB", "country": "CA", "postalCode": "T5J1H4", "twitter": "None", "instagram": "None", "facebook": "None", "youtube": "None", "website": "None", "summary": "None", "logo": "None", "latitude": 53.542444956142916, "longitude": -113.50292972208405}}