{"897763421RR0001": {"name": "KAREN SCHUESSLER SINGERS", "designationCode": "C", "categoryCode": "22", "address": "PO BOX 43033", "city": "LONDON", "province": "ON", "country": "CA", "postalCode": "N6J0A7", "twitter": "None", "instagram": "None", "facebook": "None", "youtube": "None", "website": "None", "summary": "None", "logo": "None", "latitude": 42.98689500000006, "longitude": -81.24624349999993}, "844695940RR0001": {"name": "KAREN'S PLACE", "designationCode": "C", "categoryCode": "01", "address": "PO BOX 501", "city": "STEPHENVILLE", "province": "NL", "country": "CA", "postalCode": "A2N3B4", "twitter": "None", "instagram": "None", "facebook": "None", "youtube": "None", "website": "None", "summary": "None", "logo": "None", "latitude": 48.549003000000056, "longitude": -58.57539199999994}, "887957066RR0001": {"name": "KARIM FAMILY CHARITABLE TRUST FUND", "designationCode": "B", "categoryCode": "05", "address": "141 RAYMERVILLE DRIVE", "city": "MARKHAM", "province": "ON", "country": "CA", "postalCode": "L3P4M8", "twitter": "None", "instagram": "None", "facebook": "None", "youtube": "None", "website": "None", "summary": "None", "logo": "None", "latitude": 43.87869272548919, "longitude": -79.27345545974958}, "118977834RR0001": {"name": "KARING KITCHEN - CUISINE A COEUR INC.", "designationCode": "C", "categoryCode": "09", "address": "75 ALMA STREET", "city": "MONCTON", "province": "NB", "country": "CA", "postalCode": "E1C4Y3", "twitter": "None", "instagram": "None", "facebook": "None", "youtube": "None", "website": "None", "summary": "None", "logo": "None", "latitude": 46.0907733244561, "longitude": -64.7777780585436}, "863972816RR0001": {"name": "KARIS TRUST", "designationCode": "B", "categoryCode": "25", "address": "970 SCUGOG LINE 8             R R #1", "city": "PORT PERRY", "province": "ON", "country": "CA", "postalCode": "L9L1B2", "twitter": "None", "instagram": "None", "facebook": "None", "youtube": "None", "website": "None", "summary": "None", "logo": "None", "latitude": 44.112194867015106, "longitude": -79.0119353151366}, "886837996RR0001": {"name": "KARLIN-STULIN CHARITABLE ORGANIZATION", "designationCode": "B", "categoryCode": "20", "address": "32 BROOKVIEW DRIVE", "city": "TORONTO", "province": "ON", "country": "CA", "postalCode": "M6A2K2", "twitter": "None", "instagram": "None", "facebook": "None", "youtube": "None", "website": "None", "summary": "None", "logo": "None", "latitude": 43.719924269490505, "longitude": -79.43668020220431}, "701726895RR0001": {"name": "KARMA FOUNDATION", "designationCode": "B", "categoryCode": "03", "address": "35 GREENWOOD FOREST ROAD      R.R. #1", "city": "ORO-MEDONTE", "province": "ON", "country": "CA", "postalCode": "L0L2E0", "twitter": "None", "instagram": "None", "facebook": "None", "youtube": "None", "website": "None", "summary": "None", "logo": "None", "latitude": 44.428087629419444, "longitude": -79.53745919948464}, "118977859RR0001": {"name": "KARMA KARGYU BUDDHIST MEDITATION CENTRE OF NIAGARA", "designationCode": "C", "categoryCode": "35", "address": "4225 FLY ROAD", "city": "CAMPDEN", "province": "ON", "country": "CA", "postalCode": "L0R1G0", "twitter": "None", "instagram": "None", "facebook": "None", "youtube": "None", "website": "None", "summary": "None", "logo": "None", "latitude": 43.13515451543635, "longitude": -79.43432336081135}, "118977875RR0001": {"name": "KARMA KARGYU SOCIETY", "designationCode": "C", "categoryCode": "35", "address": "186 LYNDHURST DRIVE", "city": "THORNHILL", "province": "ON", "country": "CA", "postalCode": "L3T6T6", "twitter": "None", "instagram": "None", "facebook": "None", "youtube": "None", "website": "None", "summary": "None", "logo": "None", "latitude": 43.82653579655494, "longitude": -79.36898641883536}, "118977867RR0001": {"name": "KARMA SONAM DARGYE LING, THE CANADIAN SEAT OF HIS HOLINESS THE 17TH GYALWA KARMAPA, UGYEN TRINLEY DORJE", "designationCode": "C", "categoryCode": "49", "address": "12 MAYNARD AVE", "city": "TORONTO", "province": "ON", "country": "CA", "postalCode": "M6K2Z9", "twitter": "None", "instagram": "None", "facebook": "None", "youtube": "None", "website": "None", "summary": "None", "logo": "None", "latitude": 43.637296107680825, "longitude": -79.43739277771347}, "887371862RR0001": {"name": "KARMA TASHI LING KAGYU TIBETAN BUDDHIST MEDITATION SOCIETY", "designationCode": "C", "categoryCode": "35", "address": "10502 70 AVE NW", "city": "EDMONTON", "province": "AB", "country": "CA", "postalCode": "T6H2E9", "twitter": "None", "instagram": "None", "facebook": "None", "youtube": "None", "website": "None", "summary": "None", "logo": "None", "latitude": 53.50639350043268, "longitude": -113.5007325}, "856455332RR0001": {"name": "KARMA TEKCHEN ZABSAL LING", "designationCode": "C", "categoryCode": "35", "address": "13900 LESLIE STREET", "city": "AURORA", "province": "ON", "country": "CA", "postalCode": "L4G7C8", "twitter": "None", "instagram": "None", "facebook": "None", "youtube": "None", "website": "None", "summary": "None", "logo": "None", "latitude": 43.976954442668486, "longitude": -79.41141930157433}, "866776339RR0001": {"name": "KARMA YESHE CHODZONG JAMGON KONGTRUL FOUNDATION", "designationCode": "C", "categoryCode": "35", "address": "PO BOX 97143                  RICHMOND MAIN POST OFFICE", "city": "RICHMOND", "province": "BC", "country": "CA", "postalCode": "V6X8H3", "twitter": "None", "instagram": "None", "facebook": "None", "youtube": "None", "website": "None", "summary": "None", "logo": "None", "latitude": 49.163343000000054, "longitude": -123.13664449999993}, "863254132RR0001": {"name": "KARNAK TEMPLE SHRINE HOSPITAL PATIENT TRANSPORTATION FUND", "designationCode": "C", "categoryCode": "65", "address": "3350 DES SOURCES BOULEVARD", "city": "DOLLARD DES ORMEAUX", "province": "QC", "country": "CA", "postalCode": "H9B1Z9", "twitter": "None", "instagram": "None", "facebook": "None", "youtube": "None", "website": "None", "summary": "None", "logo": "None"}, "877819581RR0001": {"name": "KARTARPUR CHARITABLE FUND", "designationCode": "C", "categoryCode": "09", "address": "58 AMETHYST CIRCLE", "city": "BRAMPTON", "province": "ON", "country": "CA", "postalCode": "L6P0Z3", "twitter": "None", "instagram": "None", "facebook": "None", "youtube": "None", "website": "None", "summary": "None", "logo": "None", "latitude": 43.78077273576097, "longitude": -79.67356937956589}, "890541741RR0001": {"name": "KARYN AND JOSEPH GOLD FOUNDATION", "designationCode": "B", "categoryCode": "05", "address": "107-1432 WEST 10TH AVENUE", "city": "VANCOUVER", "province": "BC", "country": "CA", "postalCode": "V6H1J9", "twitter": "None", "instagram": "None", "facebook": "None", "youtube": "None", "website": "None", "summary": "None", "logo": "None", "latitude": 49.26260049567217, "longitude": -123.1370219701656}, "863251526RR0001": {"name": "KASHRUTH COUNCIL OF CANADA/LE CONSEIL CACHEROUT DU CANADA", "designationCode": "C", "categoryCode": "49", "address": "308-3200 DUFFERIN STREET", "city": "TORONTO", "province": "ON", "country": "CA", "postalCode": "M6A3B2", "twitter": "None", "instagram": "None", "facebook": "None", "youtube": "None", "website": "None", "summary": "None", "logo": "None", "latitude": 43.71839373466443, "longitude": -79.45566924314721}, "118977925RR0001": {"name": "KASLO AND DISTRICT PUBLIC LIBRARY ASSOCIATION", "designationCode": "C", "categoryCode": "50", "address": "BOX 760", "city": "KASLO", "province": "BC", "country": "CA", "postalCode": "V0G1M0", "twitter": "None", "instagram": "None", "facebook": "None", "youtube": "None", "website": "None", "summary": "None", "logo": "None", "latitude": 49.91053000000005, "longitude": -116.90458999999998}, "118977933RR0001": {"name": "KASLO AND DISTRICT SENIOR CITIZENS SHELTER SOCIETY", "designationCode": "C", "categoryCode": "09", "address": "BOX 1005", "city": "KASLO", "province": "BC", "country": "CA", "postalCode": "V0G1M0", "twitter": "None", "instagram": "None", "facebook": "None", "youtube": "None", "website": "None", "summary": "None", "logo": "None", "latitude": 49.91053000000005, "longitude": -116.90458999999998}, "107558249RR0001": {"name": "KASLO COMMUNITY CHURCH", "designationCode": "C", "categoryCode": "39", "address": "BOX 591", "city": "KASLO", "province": "BC", "country": "CA", "postalCode": "V0G1M0", "twitter": "None", "instagram": "None", "facebook": "None", "youtube": "None", "website": "None", "summary": "None", "logo": "None", "latitude": 49.91053000000005, "longitude": -116.90458999999998}, "118977966RR0001": {"name": "KASLO CONCERT SOCIETY", "designationCode": "C", "categoryCode": "22", "address": "PO BOX 1198", "city": "KASLO", "province": "BC", "country": "CA", "postalCode": "V0G1M0", "twitter": "None", "instagram": "None", "facebook": "None", "youtube": "None", "website": "None", "summary": "None", "logo": "None", "latitude": 49.91053000000005, "longitude": -116.90458999999998}, "866655889RR0001": {"name": "KASLO HOUSING SOCIETY", "designationCode": "C", "categoryCode": "09", "address": "BOX 925", "city": "KASLO", "province": "BC", "country": "CA", "postalCode": "V0G1M0", "twitter": "None", "instagram": "None", "facebook": "None", "youtube": "None", "website": "None", "summary": "None", "logo": "None", "latitude": 49.91053000000005, "longitude": -116.90458999999998}, "108094392RR0018": {"name": "KASLO MISSIONS", "designationCode": "C", "categoryCode": "38", "address": "BOX 333", "city": "KASLO", "province": "BC", "country": "CA", "postalCode": "V0G1M0", "twitter": "None", "instagram": "None", "facebook": "None", "youtube": "None", "website": "None", "summary": "None", "logo": "None", "latitude": 49.91053000000005, "longitude": -116.90458999999998}, "118978014RR0001": {"name": "KATARI TAIKO DRUM GROUP ASSOCIATION", "designationCode": "C", "categoryCode": "22", "address": "410-111 HASTINGS ST W", "city": "VANCOUVER", "province": "BC", "country": "CA", "postalCode": "V6B1H4", "twitter": "None", "instagram": "None", "facebook": "None", "youtube": "None", "website": "None", "summary": "None", "logo": "None", "latitude": 49.282138914441255, "longitude": -123.10753795129177}, "892382169RR0001": {"name": "KATEDRA FOUNDATION/FONDATION KATEDRA", "designationCode": "A", "categoryCode": "23", "address": "1 - 125 TRADERS BLVD E", "city": "MISSISSAUGA", "province": "ON", "country": "CA", "postalCode": "L4Z2H3", "twitter": "None", "instagram": "None", "facebook": "None", "youtube": "None", "website": "None", "summary": "None", "logo": "None", "latitude": 43.6252611771018, "longitude": -79.67175202224566}, "851391763RR0001": {"name": "KATELYN BEDARD BONE MARROW ASSOCIATION", "designationCode": "C", "categoryCode": "11", "address": "3064 FAIRLANE CRESCENT", "city": "WINDSOR", "province": "ON", "country": "CA", "postalCode": "N8W4Y6", "twitter": "None", "instagram": "None", "facebook": "None", "youtube": "None", "website": "None", "summary": "None", "logo": "None"}, "118978022RR0001": {"name": "KATEPWA BAPTIST KAMP INC.", "designationCode": "C", "categoryCode": "56", "address": "2241 VICTORIA AVE", "city": "REGINA", "province": "SK", "country": "CA", "postalCode": "S4P0S4", "twitter": "None", "instagram": "None", "facebook": "None", "youtube": "None", "website": "None", "summary": "None", "logo": "None", "latitude": 50.447076539529256, "longitude": -104.61337102553523}, "892558685RR0001": {"name": "KATERI MEMORIAL FOUNDATION/FONDATION KATERI MEMORIAL", "designationCode": "C", "categoryCode": "19", "address": "PO BOX 2034", "city": "KAHNAWAKE", "province": "QC", "country": "CA", "postalCode": "J0L1B0", "twitter": "None", "instagram": "None", "facebook": "None", "youtube": "None", "website": "None", "summary": "None", "logo": "None", "latitude": 45.40894000000003, "longitude": -73.67382999999995}, "895949915RR0001": {"name": "KATERI NATIVE MINISTRY OF OTTAWA", "designationCode": "C", "categoryCode": "38", "address": "310-211 BRONSON AVE", "city": "OTTAWA", "province": "ON", "country": "CA", "postalCode": "K1R6H5", "twitter": "None", "instagram": "None", "facebook": "None", "youtube": "None", "website": "None", "summary": "None", "logo": "None", "latitude": 45.41349725618897, "longitude": -75.7068905103587}, "107558439RR0001": {"name": "KATERI TEKAKWITHA PARISH", "designationCode": "C", "categoryCode": "38", "address": "548 HOME STREET", "city": "WINNIPEG", "province": "MB", "country": "CA", "postalCode": "R3G1X7", "twitter": "None", "instagram": "None", "facebook": "None", "youtube": "None", "website": "None", "summary": "None", "logo": "None", "latitude": 49.892906713572614, "longitude": -97.167623289226}, "118978048RR0001": {"name": "KATERI'S COMPANIONS IN MINISTRY INC.", "designationCode": "C", "categoryCode": "47", "address": "PO BOX 22072                  RPO CORNERSTONE", "city": "PRINCE ALBERT", "province": "SK", "country": "CA", "postalCode": "S6V8E3", "twitter": "None", "instagram": "None", "facebook": "None", "youtube": "None", "website": "None", "summary": "None", "logo": "None", "latitude": 53.19971700000005, "longitude": -105.73189999999994}, "833573165RR0001": {"name": "KATHERINE MONTGOMERY COMMUNITY TRUST", "designationCode": "B", "categoryCode": "03", "address": "P.O. BOX 1360", "city": "TISDALE", "province": "SK", "country": "CA", "postalCode": "S0E1T0", "twitter": "None", "instagram": "None", "facebook": "None", "youtube": "None", "website": "None", "summary": "None", "logo": "None", "latitude": 52.84785000000005, "longitude": -104.04749999999996}, "888854395RR0001": {"name": "KATHOK GONPA THEKCHEN CHO LING SOCIETY", "designationCode": "C", "categoryCode": "39", "address": "2800 GRAFTON AVE", "city": "QUALICUM BEACH", "province": "BC", "country": "CA", "postalCode": "V9K1W8", "twitter": "None", "instagram": "None", "facebook": "None", "youtube": "None", "website": "None", "summary": "None", "logo": "None", "latitude": 49.28853666065999, "longitude": -124.45751636767868}, "885757526RR0001": {"name": "KATHY'S CHRISTMAS WISH FOUNDATION", "designationCode": "C", "categoryCode": "59", "address": "66 COOKS BAY DRIVE", "city": "KESWICK", "province": "ON", "country": "CA", "postalCode": "L4P1L8", "twitter": "None", "instagram": "None", "facebook": "None", "youtube": "None", "website": "None", "summary": "None", "logo": "None", "latitude": 44.23826475535183, "longitude": -79.47299433064246}, "862506037RR0001": {"name": "KATIE'S PLACE DOMESTIC ANIMAL RESOURCE AND EDUCATION SOCIETY", "designationCode": "C", "categoryCode": "54", "address": "21922 HIGHVIEW PL", "city": "MAPLE RIDGE", "province": "BC", "country": "CA", "postalCode": "V2X0V3", "twitter": "None", "instagram": "None", "facebook": "None", "youtube": "None", "website": "None", "summary": "None", "logo": "None", "latitude": 49.22948245268048, "longitude": -122.61335978111859}, "107559429RR0001": {"name": "KATIMAVIK CO-OPERATIVE NURSERY SCHOOL INC.", "designationCode": "C", "categoryCode": "20", "address": "300 EAGLESON ROAD PO BOX 24123", "city": "KANATA", "province": "ON", "country": "CA", "postalCode": "K2M2C3", "twitter": "None", "instagram": "None", "facebook": "None", "youtube": "None", "website": "None", "summary": "None", "logo": "None", "latitude": 45.302509542847474, "longitude": -75.87602375102347}, "864534896RR0001": {"name": "KATIMAVIK YOUTH SERVICES KATIMAVIK SERVICES JEUNESSE", "designationCode": "C", "categoryCode": "29", "address": "A313 - 1001 RUE LENOIR", "city": "MONTREAL", "province": "QC", "country": "CA", "postalCode": "H4C2Z6", "twitter": "None", "instagram": "None", "facebook": "None", "youtube": "None", "website": "None", "summary": "None", "logo": "None", "latitude": 45.47701380630713, "longitude": -73.59315707337436}, "118978105RR0001": {"name": "KATRINE UNITED CHURCH", "designationCode": "C", "categoryCode": "44", "address": "350 DOE LAKE RD", "city": "KATRINE", "province": "ON", "country": "CA", "postalCode": "P0A1L0", "twitter": "None", "instagram": "None", "facebook": "None", "youtube": "None", "website": "None", "summary": "None", "logo": "None", "latitude": 45.567360542356546, "longitude": -79.3711821354664}, "864773403RR0001": {"name": "KATZIE CULTURAL EDUCATION SOCIETY", "designationCode": "C", "categoryCode": "20", "address": "10946 KATZIE RD", "city": "PITT MEADOWS", "province": "BC", "country": "CA", "postalCode": "V3Y2G6", "twitter": "None", "instagram": "None", "facebook": "None", "youtube": "None", "website": "None", "summary": "None", "logo": "None", "latitude": 49.20154478058901, "longitude": -122.67727620735585}, "817735541RR0001": {"name": "KAV SHOLOM EMREI NOAM CONGREGATION", "designationCode": "C", "categoryCode": "39", "address": "970 LAWRENCE AVENUE WEST      SUITE 209", "city": "TORONTO", "province": "ON", "country": "CA", "postalCode": "M6A3B6", "twitter": "None", "instagram": "None", "facebook": "None", "youtube": "None", "website": "None", "summary": "None", "logo": "None", "latitude": 43.713688525679444, "longitude": -79.4586771542792}, "866916810RR0001": {"name": "KAWARTHA ANCESTRAL RESEARCH ASSOCIATION INC.", "designationCode": "C", "categoryCode": "50", "address": "730 THE KINGSWAY UNIT 3", "city": "PETERBOROUGH", "province": "ON", "country": "CA", "postalCode": "K9J6W6", "twitter": "None", "instagram": "None", "facebook": "None", "youtube": "None", "website": "None", "summary": "None", "logo": "None", "latitude": 44.278983622514396, "longitude": -78.3389299497324}, "107559643RR0001": {"name": "KAWARTHA CHILD CARE SERVICES", "designationCode": "C", "categoryCode": "01", "address": "550 BRAIDWOOD AVE", "city": "PETERBOROUGH", "province": "ON", "country": "CA", "postalCode": "K9J1W1", "twitter": "None", "instagram": "None", "facebook": "None", "youtube": "None", "website": "None", "summary": "None", "logo": "None", "latitude": 44.283705482274094, "longitude": -78.32491464922245}, "135633501RR0001": {"name": "KAWARTHA CHRISTIAN MINISTRIES", "designationCode": "C", "categoryCode": "39", "address": "2882 LAKEFIELD ROAD", "city": "SELWYN", "province": "ON", "country": "CA", "postalCode": "K9J6X5", "twitter": "None", "instagram": "None", "facebook": "None", "youtube": "None", "website": "None", "summary": "None", "logo": "None", "latitude": 44.39019253440609, "longitude": -78.28788359419222}, "872568514RR0001": {"name": "KAWARTHA COMMUNITY CHURCH", "designationCode": "C", "categoryCode": "36", "address": "444 HOWDEN ST", "city": "PETERBOROUGH", "province": "ON", "country": "CA", "postalCode": "K9J4B3", "twitter": "None", "instagram": "None", "facebook": "None", "youtube": "None", "website": "None", "summary": "None", "logo": "None", "latitude": 44.28024205580231, "longitude": -78.3205267677015}, "107559635RR0001": {"name": "KAWARTHA FAMILY COURT ASSESSMENT SERVICE", "designationCode": "C", "categoryCode": "59", "address": "349A GEORGE ST N UNIT 205", "city": "PETERBOROUGH", "province": "ON", "country": "CA", "postalCode": "K9H3P9", "twitter": "None", "instagram": "None", "facebook": "None", "youtube": "None", "website": "None", "summary": "None", "logo": "None", "latitude": 44.30430249937708, "longitude": -78.31999915931439}, "880637624RR0001": {"name": "KAWARTHA FOOD SHARE", "designationCode": "C", "categoryCode": "99", "address": "665 NEAL DR", "city": "PETERBOROUGH", "province": "ON", "country": "CA", "postalCode": "K9J6X7", "twitter": "None", "instagram": "None", "facebook": "None", "youtube": "None", "website": "None", "summary": "None", "logo": "None", "latitude": 44.277515207282896, "longitude": -78.29725053280683}, "841522212RR0001": {"name": "KAWARTHA LAKES & HALIBURTON MENTAL HEALTH SERVICES INC.", "designationCode": "C", "categoryCode": "09", "address": "19-2 HAMILTON STREET", "city": "LINDSAY", "province": "ON", "country": "CA", "postalCode": "K9V3E2", "twitter": "None", "instagram": "None", "facebook": "None", "youtube": "None", "website": "None", "summary": "None", "logo": "None", "latitude": 44.34914376389252, "longitude": -78.7392245289007}, "118978154RR0001": {"name": "KAWARTHA LAKES BIBLE COLLEGE", "designationCode": "C", "categoryCode": "20", "address": "BOX 1101", "city": "PETERBOROUGH", "province": "ON", "country": "CA", "postalCode": "K9J7H4", "twitter": "None", "instagram": "None", "facebook": "None", "youtube": "None", "website": "None", "summary": "None", "logo": "None", "latitude": 44.30591700000005, "longitude": -78.31950199999993}, "118978147RR0001": {"name": "KAWARTHA LAKES BIBLE CONFERENCE", "designationCode": "C", "categoryCode": "49", "address": "BOX 203", "city": "BOBCAYGEON", "province": "ON", "country": "CA", "postalCode": "K0M1A0", "twitter": "None", "instagram": "None", "facebook": "None", "youtube": "None", "website": "None", "summary": "None", "logo": "None", "latitude": 44.77947037273382, "longitude": -78.64831406506559}, "862545712RR0001": {"name": "KAWARTHA LAKES FOOD SOURCE", "designationCode": "C", "categoryCode": "09", "address": "P.O. BOX 123", "city": "LINDSAY", "province": "ON", "country": "CA", "postalCode": "K9V4R8", "twitter": "None", "instagram": "None", "facebook": "None", "youtube": "None", "website": "None", "summary": "None", "logo": "None", "latitude": 44.35437300000005, "longitude": -78.73967149999993}, "846910941RR0001": {"name": "KAWARTHA LAKES HEALTH CARE INITIATIVE", "designationCode": "C", "categoryCode": "19", "address": "10 ANGELINE ST., N.", "city": "LINDSAY", "province": "ON", "country": "CA", "postalCode": "K9V4M8", "twitter": "None", "instagram": "None", "facebook": "None", "youtube": "None", "website": "None", "summary": "None", "logo": "None", "latitude": 44.35229352034866, "longitude": -78.7515457949539}, "128893500RR0001": {"name": "KAWARTHA MONTESSORI SCHOOL", "designationCode": "C", "categoryCode": "20", "address": "2247 BURNHAM LINE", "city": "OTONABEE", "province": "ON", "country": "CA", "postalCode": "K9J6X7", "twitter": "None", "instagram": "None", "facebook": "None", "youtube": "None", "website": "None", "summary": "None", "logo": "None", "latitude": 44.29980797366078, "longitude": -78.26476298339753}, "888731866RR0001": {"name": "KAWARTHA MUSLIM ASSOCIATION", "designationCode": "C", "categoryCode": "60", "address": "784 PARKHILL ROAD WEST", "city": "PETERBOROUGH", "province": "ON", "country": "CA", "postalCode": "K9J6N4", "twitter": "None", "instagram": "None", "facebook": "None", "youtube": "None", "website": "None", "summary": "None", "logo": "None", "latitude": 44.309055161838344, "longitude": -78.34862683126542}, "118978170RR0001": {"name": "KAWARTHA PARK CHAPEL", "designationCode": "C", "categoryCode": "39", "address": "223 AYLMER STREET NORTH       UNIT A WEST", "city": "PETERBOROUGH", "province": "ON", "country": "CA", "postalCode": "K9J3K3", "twitter": "None", "instagram": "None", "facebook": "None", "youtube": "None", "website": "None", "summary": "None", "logo": "None"}, "130014616RR0001": {"name": "KAWARTHA PARTICIPATION PROJECTS", "designationCode": "C", "categoryCode": "09", "address": "77 TOWERHILL RD", "city": "PETERBOROUGH", "province": "ON", "country": "CA", "postalCode": "K9H7N3", "twitter": "None", "instagram": "None", "facebook": "None", "youtube": "None", "website": "None", "summary": "None", "logo": "None", "latitude": 44.33374107712526, "longitude": -78.32994720396468}, "856651013RR0001": {"name": "KAWARTHA PARTICIPATION PROJECTS FOUNDATION (K.P.P. FOUNDATION)", "designationCode": "A", "categoryCode": "03", "address": "77 TOWERHILL RD", "city": "PETERBOROUGH", "province": "ON", "country": "CA", "postalCode": "K9H7N3", "twitter": "None", "instagram": "None", "facebook": "None", "youtube": "None", "website": "None", "summary": "None", "logo": "None", "latitude": 44.33374107712526, "longitude": -78.32994720396468}, "131583874RR0001": {"name": "KAWARTHA REGION ARTS & HERITAGE SOCIETY", "designationCode": "C", "categoryCode": "50", "address": "P.O.BOX 755", "city": "BOBCAYGEON", "province": "ON", "country": "CA", "postalCode": "K0M1A0", "twitter": "None", "instagram": "None", "facebook": "None", "youtube": "None", "website": "None", "summary": "None", "logo": "None", "latitude": 44.77947037273382, "longitude": -78.64831406506559}, "107559726RR0001": {"name": "KAWARTHA REGION CONSERVATION AUTHORITY", "designationCode": "C", "categoryCode": "52", "address": "RR#1", "city": "LINDSAY", "province": "ON", "country": "CA", "postalCode": "K9V4R1", "twitter": "None", "instagram": "None", "facebook": "None", "youtube": "None", "website": "None", "summary": "None", "logo": "None", "latitude": 44.405412000000055, "longitude": -78.75899449999993}, "107837528RR0001": {"name": "KAWARTHA SEXUAL ASSAULT CENTRE", "designationCode": "C", "categoryCode": "09", "address": "411 WATER ST UNIT 102", "city": "PETERBOROUGH", "province": "ON", "country": "CA", "postalCode": "K9H3L9", "twitter": "None", "instagram": "None", "facebook": "None", "youtube": "None", "website": "None", "summary": "None", "logo": "None", "latitude": 44.30637720843674, "longitude": -78.31900872595052}, "857524409RR0001": {"name": "KAWARTHA TURTLE TRAUMA CENTRE", "designationCode": "C", "categoryCode": "54", "address": "4 -1434 CHEMONG RD", "city": "SELWYN", "province": "ON", "country": "CA", "postalCode": "K9J6X2", "twitter": "None", "instagram": "None", "facebook": "None", "youtube": "None", "website": "None", "summary": "None", "logo": "None", "latitude": 44.33643879935355, "longitude": -78.34866097567688}, "140416884RR0001": {"name": "KAWARTHA WORLD ISSUES CENTRE", "designationCode": "C", "categoryCode": "29", "address": "PO BOX 895", "city": "PETERBOROUGH", "province": "ON", "country": "CA", "postalCode": "K9J7A2", "twitter": "None", "instagram": "None", "facebook": "None", "youtube": "None", "website": "None", "summary": "None", "logo": "None", "latitude": 44.30591700000005, "longitude": -78.31950199999993}, "891682700RR0001": {"name": "KAWARTHA YOUTH ORCHESTRA", "designationCode": "C", "categoryCode": "22", "address": "P.O. BOX 53                   150 KING STREET", "city": "PETERBOROUGH", "province": "ON", "country": "CA", "postalCode": "K9J6Y5", "twitter": "None", "instagram": "None", "facebook": "None", "youtube": "None", "website": "None", "summary": "None", "logo": "None", "latitude": 44.3020455148594, "longitude": -78.32012411518264}, "118978139RR0002": {"name": "KAWARTHA-HALIBURTON CHILDREN'S FOUNDATION", "designationCode": "C", "categoryCode": "01", "address": "1100 CHEMONG RD", "city": "PETERBOROUGH", "province": "ON", "country": "CA", "postalCode": "K9H7S2", "twitter": "None", "instagram": "None", "facebook": "None", "youtube": "None", "website": "None", "summary": "None", "logo": "None", "latitude": 44.326477775728485, "longitude": -78.33859513909228}, "886768795RR0001": {"name": "KAWARTHA/HALIBURTON VICTIM SERVICES", "designationCode": "C", "categoryCode": "59", "address": "3028 HIGHWAY 35", "city": "LINDSAY", "province": "ON", "country": "CA", "postalCode": "K9V4R1", "twitter": "None", "instagram": "None", "facebook": "None", "youtube": "None", "website": "None", "summary": "None", "logo": "None", "latitude": 44.35165647280797, "longitude": -78.76912480523107}, "805886413RR0001": {"name": "KAWKAWA CAMP SOCIETY", "designationCode": "C", "categoryCode": "56", "address": "66706 KAWKAWA LAKE RD RR 3", "city": "HOPE", "province": "BC", "country": "CA", "postalCode": "V0X1L1", "twitter": "None", "instagram": "None", "facebook": "None", "youtube": "None", "website": "None", "summary": "None", "logo": "None", "latitude": 49.38898800556858, "longitude": -121.39232471068802}, "130831902RR0001": {"name": "KAY REYNOLDS CENTRE LTD", "designationCode": "C", "categoryCode": "09", "address": "47 KENSINGTON ROAD", "city": "CHARLOTTETOWN", "province": "PE", "country": "CA", "postalCode": "C1A5H6", "twitter": "None", "instagram": "None", "facebook": "None", "youtube": "None", "website": "None", "summary": "None", "logo": "None", "latitude": 46.24563750874256, "longitude": -63.118118571614005}, "107574394RR0001": {"name": "KAYE NICKERSON ADULT SERVICE CENTRE ASSOCIATION", "designationCode": "C", "categoryCode": "11", "address": "64 WAVERLY STREET             P.O. BOX 3", "city": "YARMOUTH", "province": "NS", "country": "CA", "postalCode": "B5A4B1", "twitter": "None", "instagram": "None", "facebook": "None", "youtube": "None", "website": "None", "summary": "None", "logo": "None", "latitude": 43.8352774565756, "longitude": -66.10776216180967}, "118978220RR0001": {"name": "KAYVILLE CO-OPERATIVE COMMUNITY CENTRE", "designationCode": "C", "categoryCode": "56", "address": "BOX 14", "city": "KAYVILLE", "province": "SK", "country": "CA", "postalCode": "S0H2C0", "twitter": "None", "instagram": "None", "facebook": "None", "youtube": "None", "website": "None", "summary": "None", "logo": "None", "latitude": 49.72654000000006, "longitude": -105.14597999999995}, "118978246RR0001": {"name": "KAYVILLE CO-OPERATIVE COMMUNITY HOSPITALITY CENTRE", "designationCode": "C", "categoryCode": "56", "address": "BOX 1", "city": "KAYVILLE", "province": "SK", "country": "CA", "postalCode": "S0H2C0", "twitter": "None", "instagram": "None", "facebook": "None", "youtube": "None", "website": "None", "summary": "None", "logo": "None", "latitude": 49.72626911399061, "longitude": -105.14662675795107}, "769784893RR0001": {"name": "KBF FOUNDATION CANADA / FONDATION KBF CANADA", "designationCode": "C", "categoryCode": "09", "address": "2500 - 1 PLACE VILLE-MARIE", "city": "MONTREAL", "province": "QC", "country": "CA", "postalCode": "H3B1R1", "twitter": "None", "instagram": "None", "facebook": "None", "youtube": "None", "website": "None", "summary": "None", "logo": "None", "latitude": 45.50188724476333, "longitude": -73.56787382018557}, "862995115RR0001": {"name": "KC RESCUE CORP.", "designationCode": "C", "categoryCode": "54", "address": "PO BOX 1581", "city": "UNITY", "province": "SK", "country": "CA", "postalCode": "S0K4L0", "twitter": "None", "instagram": "None", "facebook": "None", "youtube": "None", "website": "None", "summary": "None", "logo": "None", "latitude": 52.437110000000075, "longitude": -109.14557999999994}, "803073311RR0001": {"name": "KC's Cancer Cushion Fund Trust", "designationCode": "C", "categoryCode": "01", "address": "283 PRIMROSE LANE", "city": "NEWMARKET", "province": "ON", "country": "CA", "postalCode": "L3Y5Z1", "twitter": "None", "instagram": "None", "facebook": "None", "youtube": "None", "website": "None", "summary": "None", "logo": "None", "latitude": 44.06548203442203, "longitude": -79.47852703632661}, "102876059RR0001": {"name": "KCWA Family and Social Services", "designationCode": "C", "categoryCode": "09", "address": "27 MADISON AVE", "city": "TORONTO", "province": "ON", "country": "CA", "postalCode": "M5R2S2", "twitter": "None", "instagram": "None", "facebook": "None", "youtube": "None", "website": "None", "summary": "None", "logo": "None", "latitude": 43.66829439078997, "longitude": -79.40321904882009}, "838476380RR0001": {"name": "KDM Helping Hands", "designationCode": "C", "categoryCode": "09", "address": "103-205 CARNEGIE DRIVE", "city": "ST ALBERT", "province": "AB", "country": "CA", "postalCode": "T8N5B2", "twitter": "None", "instagram": "None", "facebook": "None", "youtube": "None", "website": "None", "summary": "None", "logo": "None", "latitude": 53.63663366472389, "longitude": -113.5747693203298}, "132743766RR0001": {"name": "KEAN & COMPANY INC", "designationCode": "C", "categoryCode": "49", "address": "5170A TIMBERLEA BLVD.", "city": "MISSISSAUGA", "province": "ON", "country": "CA", "postalCode": "L4W2S5", "twitter": "None", "instagram": "None", "facebook": "None", "youtube": "None", "website": "None", "summary": "None", "logo": "None", "latitude": 43.62676218310796, "longitude": -79.6392782336342}, "118804830RR0001": {"name": "KEATS CAMPS", "designationCode": "C", "categoryCode": "56", "address": "3 - 5707 SIDLEY ST", "city": "BURNABY", "province": "BC", "country": "CA", "postalCode": "V5J5E6", "twitter": "None", "instagram": "None", "facebook": "None", "youtube": "None", "website": "None", "summary": "None", "logo": "None", "latitude": 49.217172420508795, "longitude": -122.98071902830519}, "107560336RR0001": {"name": "KEDLESTON GOSPEL CAMP", "designationCode": "C", "categoryCode": "56", "address": "808 ASSINIBOINE AVE E", "city": "REGINA", "province": "SK", "country": "CA", "postalCode": "S4V0K6", "twitter": "None", "instagram": "None", "facebook": "None", "youtube": "None", "website": "None", "summary": "None", "logo": "None", "latitude": 50.42606050548167, "longitude": -104.57097380682671}, "134996222RR0001": {"name": "KEDRON PASTORAL CHARGE,", "designationCode": "C", "categoryCode": "44", "address": "45 CORVINELLI DRIVE", "city": "BROOKLIN", "province": "ON", "country": "CA", "postalCode": "L1M0G8", "twitter": "None", "instagram": "None", "facebook": "None", "youtube": "None", "website": "None", "summary": "None", "logo": "None", "latitude": 43.96099601664842, "longitude": -78.95449292702968}, "118978352RR0001": {"name": "KEE - MO - KEE CAMPSITE OF THE UNITED CHURCH OF CANADA", "designationCode": "C", "categoryCode": "49", "address": "1005 - 315 SOUTHDALE RD W", "city": "LONDON", "province": "ON", "country": "CA", "postalCode": "N6J0B1", "twitter": "None", "instagram": "None", "facebook": "None", "youtube": "None", "website": "None", "summary": "None", "logo": "None", "latitude": 42.9398599378717, "longitude": -81.26970936216999}, "107560450RR0001": {"name": "KEELE STREET CHURCH OF CHRIST", "designationCode": "C", "categoryCode": "39", "address": "97 ANNETTE ST", "city": "TORONTO", "province": "ON", "country": "CA", "postalCode": "M6P1N7", "twitter": "None", "instagram": "None", "facebook": "None", "youtube": "None", "website": "None", "summary": "None", "logo": "None", "latitude": 43.663477820416716, "longitude": -79.46314618526743}, "118978360RR0001": {"name": "KEENE PASTORAL CHARGE", "designationCode": "C", "categoryCode": "44", "address": "P.O. BOX 17", "city": "KEENE", "province": "ON", "country": "CA", "postalCode": "K0L2G0", "twitter": "None", "instagram": "None", "facebook": "None", "youtube": "None", "website": "None", "summary": "None", "logo": "None", "latitude": 44.24727677333229, "longitude": -78.16825131123774}, "137164364RR0001": {"name": "KEEP OUR HOMES SAFE", "designationCode": "C", "categoryCode": "09", "address": "PO BOX 4294", "city": "WOODSTOCK", "province": "NB", "country": "CA", "postalCode": "E7M6B7", "twitter": "None", "instagram": "None", "facebook": "None", "youtube": "None", "website": "None", "summary": "None", "logo": "None", "latitude": 46.15026900000005, "longitude": -67.57396099999993}, "859746976RR0001": {"name": "KEEPER OF THE LIGHT FOODBANK", "designationCode": "C", "categoryCode": "09", "address": "205 MAIN STREET", "city": "PLASTER ROCK", "province": "NB", "country": "CA", "postalCode": "E7G2G8", "twitter": "None", "instagram": "None", "facebook": "None", "youtube": "None", "website": "None", "summary": "None", "logo": "None", "latitude": 46.90396845045876, "longitude": -67.39632215436517}, "876796327RR0001": {"name": "KEEPERS OF THE BEACONS SOCIETY", "designationCode": "C", "categoryCode": "50", "address": "5396 SANDPOINT                RR#1", "city": "MULGRAVE", "province": "NS", "country": "CA", "postalCode": "B0E2G0", "twitter": "None", "instagram": "None", "facebook": "None", "youtube": "None", "website": "None", "summary": "None", "logo": "None", "latitude": 45.51969530584891, "longitude": -61.253080807588624}, "852929744RR0001": {"name": "KEEPING KIDS WARM", "designationCode": "C", "categoryCode": "01", "address": "201-1461 HURON STREET", "city": "LONDON", "province": "ON", "country": "CA", "postalCode": "N5V2E6", "twitter": "None", "instagram": "None", "facebook": "None", "youtube": "None", "website": "None", "summary": "None", "logo": "None", "latitude": 43.02287713289891, "longitude": -81.20517499275797}, "108006248RR0001": {"name": "KEEWATIN PASTORAL CHARGE", "designationCode": "C", "categoryCode": "44", "address": "BOX 608", "city": "KEEWATIN", "province": "ON", "country": "CA", "postalCode": "P0X1C0", "twitter": "None", "instagram": "None", "facebook": "None", "youtube": "None", "website": "None", "summary": "None", "logo": "None", "latitude": 49.75863000000005, "longitude": -94.54708249999993}, "870880358RR0001": {"name": "KEEWATIN-PATRICIA DISTRICT SCHOOL BOARD", "designationCode": "C", "categoryCode": "20", "address": "240 VETERANS DR", "city": "KENORA", "province": "ON", "country": "CA", "postalCode": "P9N3Y5", "twitter": "None", "instagram": "None", "facebook": "None", "youtube": "None", "website": "None", "summary": "None", "logo": "None", "latitude": 49.77070536193653, "longitude": -94.48934804330882}, "894267178RR0001": {"name": "KEEWATIN/INKSTER NEIGHBOURHOOD RESOURCE COUNCIL INC.", "designationCode": "C", "categoryCode": "09", "address": "1625 LOGAN AVE", "city": "WINNIPEG", "province": "MB", "country": "CA", "postalCode": "R3E1S8", "twitter": "None", "instagram": "None", "facebook": "None", "youtube": "None", "website": "None", "summary": "None", "logo": "None", "latitude": 49.92086499751851, "longitude": -97.19280215416363}, "138620836RR0001": {"name": "KEEWATINOWI AWASISAK OPI-KI-WAK INC", "designationCode": "C", "categoryCode": "01", "address": "BOX 1210", "city": "THOMPSON", "province": "MB", "country": "CA", "postalCode": "R8N1P1", "twitter": "None", "instagram": "None", "facebook": "None", "youtube": "None", "website": "None", "summary": "None", "logo": "None"}, "851722736RR0001": {"name": "KEEWAYDIN CAMPS CORPORATION CANADA", "designationCode": "C", "categoryCode": "56", "address": "222 MCINTYRE STREET WEST      SUITE 200", "city": "NORTH BAY", "province": "ON", "country": "CA", "postalCode": "P1B2Y8", "twitter": "None", "instagram": "None", "facebook": "None", "youtube": "None", "website": "None", "summary": "None", "logo": "None", "latitude": 46.31291483348712, "longitude": -79.46466976071926}, "870164340RR0001": {"name": "KEGS FOUNDATION", "designationCode": "C", "categoryCode": "21", "address": "1 - 416 MERTON ST", "city": "TORONTO", "province": "ON", "country": "CA", "postalCode": "M4S1B3", "twitter": "None", "instagram": "None", "facebook": "None", "youtube": "None", "website": "None", "summary": "None", "logo": "None"}, "866283153RR0001": {"name": "KEHILAT ARIYEH YEHUDAH OF MONTREAL, QUEBEC", "designationCode": "C", "categoryCode": "39", "address": "6902 COTE DES NEIGES", "city": "MONTREAL", "province": "QC", "country": "CA", "postalCode": "H9R2K9", "twitter": "None", "instagram": "None", "facebook": "None", "youtube": "None", "website": "None", "summary": "None", "logo": "None", "latitude": 45.50366569135562, "longitude": -73.63896492160532}, "118978402RR0001": {"name": "KEHILLA RESIDENTIAL PROGRAMME", "designationCode": "C", "categoryCode": "09", "address": "262 RIDLEY BOULEVARD", "city": "TORONTO", "province": "ON", "country": "CA", "postalCode": "M5M4N6", "twitter": "None", "instagram": "None", "facebook": "None", "youtube": "None", "website": "None", "summary": "None", "logo": "None", "latitude": 43.739825394685106, "longitude": -79.42423950219305}, "131797995RR0001": {"name": "KEHILLAT SHAAREI TORAH OF TORONTO", "designationCode": "C", "categoryCode": "42", "address": "2640 BAYVIEW AVE", "city": "WILLOWDALE", "province": "ON", "country": "CA", "postalCode": "M2L1B7", "twitter": "None", "instagram": "None", "facebook": "None", "youtube": "None", "website": "None", "summary": "None", "logo": "None", "latitude": 43.75444059977497, "longitude": -79.38548676536422}, "891229544RR0001": {"name": "KEHO LAKE CHARITABLE TRUST", "designationCode": "B", "categoryCode": "39", "address": "3425 2 AVENUE SOUTH", "city": "LETHBRIDGE", "province": "AB", "country": "CA", "postalCode": "T1J4V1", "twitter": "None", "instagram": "None", "facebook": "None", "youtube": "None", "website": "None", "summary": "None", "logo": "None", "latitude": 49.696839530439966, "longitude": -112.78914308381903}, "889093571RR0001": {"name": "KEITH & BETTY BEEDIE FOUNDATION", "designationCode": "B", "categoryCode": "03", "address": "3030 GILMORE DIVERSION", "city": "BURNABY", "province": "BC", "country": "CA", "postalCode": "V5G3B4", "twitter": "None", "instagram": "None", "facebook": "None", "youtube": "None", "website": "None", "summary": "None", "logo": "None", "latitude": 49.25695862085931, "longitude": -123.01195621441457}, "892355447RR0001": {"name": "KEITH FLAVELLE MEMORIAL HUT SOCIETY", "designationCode": "B", "categoryCode": "56", "address": "8330 CHESTER STREET", "city": "VANCOUVER", "province": "BC", "country": "CA", "postalCode": "V5X3Y7", "twitter": "None", "instagram": "None", "facebook": "None", "youtube": "None", "website": "None", "summary": "None", "logo": "None", "latitude": 49.20915281432853, "longitude": -123.08931105329307}, "129499042RR0001": {"name": "KEKINAN CENTRE INC.", "designationCode": "C", "categoryCode": "09", "address": "100 ROBINSON STREET", "city": "WINNIPEG", "province": "MB", "country": "CA", "postalCode": "R2W5M8", "twitter": "None", "instagram": "None", "facebook": "None", "youtube": "None", "website": "None", "summary": "None", "logo": "None", "latitude": 49.91137101361867, "longitude": -97.13902144330271}, "126175264RR0001": {"name": "KEKINOW NATIVE HOUSING SOCIETY", "designationCode": "C", "categoryCode": "09", "address": "1014-7445 132ND ST", "city": "SURREY", "province": "BC", "country": "CA", "postalCode": "V3W1J8", "twitter": "None", "instagram": "None", "facebook": "None", "youtube": "None", "website": "None", "summary": "None", "logo": "None", "latitude": 49.13878200000005, "longitude": -122.85680299999993}, "869352237RR0001": {"name": "KELCHRIS INC.", "designationCode": "C", "categoryCode": "01", "address": "BOX 2590", "city": "VIRDEN", "province": "MB", "country": "CA", "postalCode": "R0M2C0", "twitter": "None", "instagram": "None", "facebook": "None", "youtube": "None", "website": "None", "summary": "None", "logo": "None", "latitude": 49.85688000000005, "longitude": -100.92262999999997}}