{"108203357RR0001": {"name": "WEST PT GREY PRESBYTERIAN CHURCH", "designationCode": "C", "categoryCode": "37", "address": "4397 W 12TH AVE", "city": "VANCOUVER", "province": "BC", "country": "CA", "postalCode": "V6R2P9", "twitter": "None", "instagram": "None", "facebook": "None", "youtube": "None", "website": "None", "summary": "None", "logo": "None", "latitude": 49.26197151875454, "longitude": -123.20595038773155}, "870682002RR0001": {"name": "WEST QUEENS MEDICAL FIRST RESPONDERS SOCIETY", "designationCode": "C", "categoryCode": "59", "address": "RR 1", "city": "PORT MOUTON", "province": "NS", "country": "CA", "postalCode": "B0T1T0", "twitter": "None", "instagram": "None", "facebook": "None", "youtube": "None", "website": "None", "summary": "None", "logo": "None", "latitude": 43.89373259620005, "longitude": -64.80201134258175}, "140209677RR0001": {"name": "WEST QUEENS RECREATION ASSOCIATION", "designationCode": "C", "categoryCode": "56", "address": "RR #1", "city": "PORT MOUTON", "province": "NS", "country": "CA", "postalCode": "B0T1T0", "twitter": "None", "instagram": "None", "facebook": "None", "youtube": "None", "website": "None", "summary": "None", "logo": "None", "latitude": 44.0363520951217, "longitude": -64.72037703170723}, "140768144RR0001": {"name": "WEST RALEY CHARITABLE TRUST", "designationCode": "B", "categoryCode": "39", "address": "3425 2ND AVENUE SOUTH", "city": "LETHBRIDGE", "province": "AB", "country": "CA", "postalCode": "T1J4V1", "twitter": "None", "instagram": "None", "facebook": "None", "youtube": "None", "website": "None", "summary": "None", "logo": "None", "latitude": 49.696839530439966, "longitude": -112.78914308381903}, "108203548RR0001": {"name": "WEST REGION CHILD AND FAMILY SERVICES COMMITTEE INCORPORATED", "designationCode": "C", "categoryCode": "09", "address": "PO BOX 280", "city": "ERICKSON", "province": "MB", "country": "CA", "postalCode": "R0J0P0", "twitter": "None", "instagram": "None", "facebook": "None", "youtube": "None", "website": "None", "summary": "None", "logo": "None", "latitude": 50.49852000000004, "longitude": -99.90785999999997}, "882532708RR0001": {"name": "WEST RICHMOND GOSPEL HALL", "designationCode": "C", "categoryCode": "39", "address": "8340 RYAN ROAD", "city": "RICHMOND", "province": "BC", "country": "CA", "postalCode": "V7A2E6", "twitter": "None", "instagram": "None", "facebook": "None", "youtube": "None", "website": "None", "summary": "None", "logo": "None", "latitude": 49.138058689204556, "longitude": -123.13205368920454}, "134125319RR0001": {"name": "WEST RIVER FIRE DEPARTMENT", "designationCode": "C", "categoryCode": "59", "address": "RR 2", "city": "PICTOU", "province": "NS", "country": "CA", "postalCode": "B0K1H0", "twitter": "None", "instagram": "None", "facebook": "None", "youtube": "None", "website": "None", "summary": "None", "logo": "None", "latitude": 45.67583400000005, "longitude": -62.70865099999993}, "132207515RR0001": {"name": "WEST RIVER PRESBYTERIAN CHURCH", "designationCode": "C", "categoryCode": "37", "address": "202 GLEN FOREST DR            RR 2", "city": "PICTOU", "province": "NS", "country": "CA", "postalCode": "B0K1H0", "twitter": "None", "instagram": "None", "facebook": "None", "youtube": "None", "website": "None", "summary": "None", "logo": "None", "latitude": 45.63343929672781, "longitude": -62.79752696753988}, "893161166RR0001": {"name": "WEST RIVERVIEW HOME AND SCHOOL ASSOCIATION", "designationCode": "C", "categoryCode": "21", "address": "684 COVERDALE RD", "city": "RIVERVIEW", "province": "NB", "country": "CA", "postalCode": "E1B3K6", "twitter": "None", "instagram": "None", "facebook": "None", "youtube": "None", "website": "None", "summary": "None", "logo": "None", "latitude": 46.06228581262643, "longitude": -64.81137616873458}, "119295574RR0001": {"name": "WEST SCARBOROUGH NEIGHBOURHOOD COMMUNITY CENTRE", "designationCode": "C", "categoryCode": "09", "address": "313 PHARMACY AVE", "city": "SCARBOROUGH", "province": "ON", "country": "CA", "postalCode": "M1L3E7", "twitter": "None", "instagram": "None", "facebook": "None", "youtube": "None", "website": "None", "summary": "None", "logo": "None", "latitude": 43.70090109385966, "longitude": -79.28702835198372}, "118975879RR0001": {"name": "WEST SHORE CHRISTMAS HAMPER FUND SOCIETY", "designationCode": "C", "categoryCode": "09", "address": "761 STATION ROAD", "city": "VICTORIA", "province": "BC", "country": "CA", "postalCode": "V9B2S1", "twitter": "None", "instagram": "None", "facebook": "None", "youtube": "None", "website": "None", "summary": "None", "logo": "None", "latitude": 48.446312732702545, "longitude": -123.49982738314392}, "891297343RR0001": {"name": "WEST SHORE POPPY FUND COMMITTEE", "designationCode": "C", "categoryCode": "09", "address": "761 STATION AVENUE", "city": "VICTORIA", "province": "BC", "country": "CA", "postalCode": "V9B2S1", "twitter": "None", "instagram": "None", "facebook": "None", "youtube": "None", "website": "None", "summary": "None", "logo": "None", "latitude": 48.446312732702545, "longitude": -123.49982738314392}, "119295699RR0001": {"name": "WEST SIDE CO-OPERATIVE PRESCHOOL", "designationCode": "C", "categoryCode": "20", "address": "50 DEXTER DRIVE", "city": "SAINT JOHN", "province": "NB", "country": "CA", "postalCode": "E2M4M4", "twitter": "None", "instagram": "None", "facebook": "None", "youtube": "None", "website": "None", "summary": "None", "logo": "None", "latitude": 45.25350726230579, "longitude": -66.10583964954735}, "108203704RR0001": {"name": "WEST SIDE COMMUNITY CENTRE", "designationCode": "C", "categoryCode": "56", "address": "PO BOX 411", "city": "NEW GLASGOW", "province": "NS", "country": "CA", "postalCode": "B2H5E5", "twitter": "None", "instagram": "None", "facebook": "None", "youtube": "None", "website": "None", "summary": "None", "logo": "None", "latitude": 45.591837000000055, "longitude": -62.643414499999935}, "106987365RR0001": {"name": "WEST SIDE EARLY LEARNING AND CARE CO-OPERATIVE LTD.", "designationCode": "C", "categoryCode": "01", "address": "3555 JOHN A MACDONALD RD", "city": "SASKATOON", "province": "SK", "country": "CA", "postalCode": "S7L4R9", "twitter": "None", "instagram": "None", "facebook": "None", "youtube": "None", "website": "None", "summary": "None", "logo": "None", "latitude": 52.1421204912001, "longitude": -106.73695358381903}, "130631781RR0001": {"name": "WEST SIDE FAMILY PLACE SOCIETY", "designationCode": "C", "categoryCode": "01", "address": "2819 WEST 11TH AVENUE", "city": "VANCOUVER", "province": "BC", "country": "CA", "postalCode": "V6K2M2", "twitter": "None", "instagram": "None", "facebook": "None", "youtube": "None", "website": "None", "summary": "None", "logo": "None", "latitude": 49.26231953318128, "longitude": -123.16877991618097}, "119295723RR0001": {"name": "WEST SIDE FOOD BANK INC", "designationCode": "C", "categoryCode": "09", "address": "120 MARKET PLACE", "city": "SAINT JOHN", "province": "NB", "country": "CA", "postalCode": "E2M1B5", "twitter": "None", "instagram": "None", "facebook": "None", "youtube": "None", "website": "None", "summary": "None", "logo": "None", "latitude": 45.260912031652055, "longitude": -66.0737713211092}, "896995289RR0001": {"name": "WEST SOURIS RIVER CONSERVATION DISTRICT", "designationCode": "C", "categoryCode": "52", "address": "BOX 339", "city": "RESTON", "province": "MB", "country": "CA", "postalCode": "R0M1X0", "twitter": "None", "instagram": "None", "facebook": "None", "youtube": "None", "website": "None", "summary": "None", "logo": "None", "latitude": 49.18753799999999, "longitude": -100.49400221363014}, "107406316RR0045": {"name": "WEST SPRINGS FREE METHODIST CHURCH", "designationCode": "C", "categoryCode": "39", "address": "742 85TH STREET S.W.", "city": "CALGARY", "province": "AB", "country": "CA", "postalCode": "T3H4C7", "twitter": "None", "instagram": "None", "facebook": "None", "youtube": "None", "website": "None", "summary": "None", "logo": "None", "latitude": 51.06534931614622, "longitude": -114.21084679306381}, "120668686RR0001": {"name": "WEST ST PAUL NURSERY SCHOOL CO-OP INC", "designationCode": "C", "categoryCode": "20", "address": "48 HOLLAND ROAD", "city": "WEST ST. PAUL", "province": "MB", "country": "CA", "postalCode": "R4A5A4", "twitter": "None", "instagram": "None", "facebook": "None", "youtube": "None", "website": "None", "summary": "None", "logo": "None", "latitude": 49.97848344085174, "longitude": -97.08283309344102}, "108203928RR0001": {"name": "WEST ST. ANDREW'S PRESBYTERIAN CHURCH", "designationCode": "C", "categoryCode": "37", "address": "139 ELIZABETH ST", "city": "WELLAND", "province": "ON", "country": "CA", "postalCode": "L3C4M3", "twitter": "None", "instagram": "None", "facebook": "None", "youtube": "None", "website": "None", "summary": "None", "logo": "None", "latitude": 42.99743780868127, "longitude": -79.2537635451293}, "866908312RR0001": {"name": "WEST STURGEON PEOPLE AGING IN PLACE FOUNDATION", "designationCode": "C", "categoryCode": "09", "address": "26504 SH633", "city": "STURGEON COUNTY", "province": "AB", "country": "CA", "postalCode": "T8T1R9", "twitter": "None", "instagram": "None", "facebook": "None", "youtube": "None", "website": "None", "summary": "None", "logo": "None", "latitude": 53.658069000000054, "longitude": -113.81322949999993}, "890199995RR0002": {"name": "WEST THUNDER BAY PARISH COUNCIL", "designationCode": "C", "categoryCode": "30", "address": "5 ST. MARK'S STREET", "city": "ROSSLYN", "province": "ON", "country": "CA", "postalCode": "P7K0N7", "twitter": "None", "instagram": "None", "facebook": "None", "youtube": "None", "website": "None", "summary": "None", "logo": "None", "latitude": 48.365038298355785, "longitude": -89.44062294080467}, "108204009RR0001": {"name": "WEST TORONTO BAPTIST CHURCH", "designationCode": "C", "categoryCode": "31", "address": "3049 DUNDAS STREET WEST", "city": "TORONTO", "province": "ON", "country": "CA", "postalCode": "M6P1Z5", "twitter": "None", "instagram": "None", "facebook": "None", "youtube": "None", "website": "None", "summary": "None", "logo": "None", "latitude": 43.6654544995673, "longitude": -79.47115102553522}, "738530492RR0001": {"name": "WEST TORONTO CHRISTIAN COMMUNITY CHURCH", "designationCode": "C", "categoryCode": "39", "address": "78-1177 CENTRAL PARKWAY WEST", "city": "MISSISSAUGA", "province": "ON", "country": "CA", "postalCode": "L5C4P3", "twitter": "None", "instagram": "None", "facebook": "None", "youtube": "None", "website": "None", "summary": "None", "logo": "None", "latitude": 43.56673007585493, "longitude": -79.65993450481878}, "892377466RR0001": {"name": "WEST TORONTO CHURCH OF GOD", "designationCode": "C", "categoryCode": "39", "address": "1655 WILSON AVE.", "city": "NORTH YORK", "province": "ON", "country": "CA", "postalCode": "M3L1A5", "twitter": "None", "instagram": "None", "facebook": "None", "youtube": "None", "website": "None", "summary": "None", "logo": "None", "latitude": 43.71978580483617, "longitude": -79.51377440908318}, "108204025RR0001": {"name": "WEST TORONTO JUNCTION HISTORICAL SOCIETY", "designationCode": "C", "categoryCode": "50", "address": "145 ANNETTE ST", "city": "TORONTO", "province": "ON", "country": "CA", "postalCode": "M6P1P3", "twitter": "None", "instagram": "None", "facebook": "None", "youtube": "None", "website": "None", "summary": "None", "logo": "None", "latitude": 43.66345586037867, "longitude": -79.46646370246411}, "108204066RR0001": {"name": "WEST TORONTO SUPPORT SERVICES FOR SENIOR CITIZENS AND THE DISABLED INC.", "designationCode": "C", "categoryCode": "09", "address": "1709 BLOOR STREET WEST        2ND FLOOR", "city": "TORONTO", "province": "ON", "country": "CA", "postalCode": "M6P4E5", "twitter": "None", "instagram": "None", "facebook": "None", "youtube": "None", "website": "None", "summary": "None", "logo": "None", "latitude": 43.65488676155598, "longitude": -79.4590059457269}, "108204074RR0001": {"name": "WEST TORONTO UNITED PENTECOSTAL CHURCH", "designationCode": "C", "categoryCode": "39", "address": "63 CRYSTALVIEW", "city": "BRAMPTON", "province": "ON", "country": "CA", "postalCode": "L6P2S3", "twitter": "None", "instagram": "None", "facebook": "None", "youtube": "None", "website": "None", "summary": "None", "logo": "None", "latitude": 43.768722530122865, "longitude": -79.66557289312725}, "119296010RR0001": {"name": "WEST VANCOUVER ARTS CENTRE TRUST", "designationCode": "C", "categoryCode": "22", "address": "KAY MEEK CENTRE               1700 MATHERS AVE", "city": "WEST VANCOUVER", "province": "BC", "country": "CA", "postalCode": "V7V2G7", "twitter": "None", "instagram": "None", "facebook": "None", "youtube": "None", "website": "None", "summary": "None", "logo": "None", "latitude": 49.33818000000008, "longitude": -123.16089999999997}, "132024464RR0001": {"name": "WEST VANCOUVER BAPTIST CHURCH,", "designationCode": "C", "categoryCode": "31", "address": "450 MATHERS AVE", "city": "WEST VANCOUVER", "province": "BC", "country": "CA", "postalCode": "V7S1H3", "twitter": "None", "instagram": "None", "facebook": "None", "youtube": "None", "website": "None", "summary": "None", "logo": "None", "latitude": 49.3379074773503, "longitude": -123.12788319317329}, "108204157RR0001": {"name": "WEST VANCOUVER CHILD DEVELOPMENT CENTRE ASSOCIATION", "designationCode": "C", "categoryCode": "01", "address": "2478 HAYWOOD AVE", "city": "WEST VANCOUVER", "province": "BC", "country": "CA", "postalCode": "V7V1Y1", "twitter": "None", "instagram": "None", "facebook": "None", "youtube": "None", "website": "None", "summary": "None", "logo": "None", "latitude": 49.33562981652158, "longitude": -123.18130039246341}, "892886367RR0001": {"name": "WEST VANCOUVER CHRISTIAN OUTREACH", "designationCode": "C", "categoryCode": "39", "address": "103 29TH STREET", "city": "WEST VANCOUVER", "province": "BC", "country": "CA", "postalCode": "V7V4M4", "twitter": "None", "instagram": "None", "facebook": "None", "youtube": "None", "website": "None", "summary": "None", "logo": "None", "latitude": 49.33618423120198, "longitude": -123.19533010271782}, "132171679RR0001": {"name": "WEST VANCOUVER COMMUNITY FOUNDATION", "designationCode": "A", "categoryCode": "03", "address": "775 15TH ST", "city": "WEST VANCOUVER", "province": "BC", "country": "CA", "postalCode": "V7T2S9", "twitter": "None", "instagram": "None", "facebook": "None", "youtube": "None", "website": "None", "summary": "None", "logo": "None", "latitude": 49.331187, "longitude": -123.1570926288013}, "893190173RR0001": {"name": "WEST VANCOUVER FIRE SERVICE MUSEUM AND ARCHIVES SOCIETY", "designationCode": "C", "categoryCode": "50", "address": "604 EAST 21ST", "city": "NORTH VANCOUVER", "province": "BC", "country": "CA", "postalCode": "V7L4V8", "twitter": "None", "instagram": "None", "facebook": "None", "youtube": "None", "website": "None", "summary": "None", "logo": "None", "latitude": 49.32820050764604, "longitude": -123.05714005536962}, "119295970RR0001": {"name": "WEST VANCOUVER HISTORICAL SOCIETY", "designationCode": "C", "categoryCode": "50", "address": "680 17TH ST", "city": "WEST VANCOUVER", "province": "BC", "country": "CA", "postalCode": "V7V3T2", "twitter": "None", "instagram": "None", "facebook": "None", "youtube": "None", "website": "None", "summary": "None", "logo": "None", "latitude": 49.33038770774425, "longitude": -123.16018900551127}, "887768661RR0001": {"name": "WEST VANCOUVER MEMORIAL LIBRARY FOUNDATION", "designationCode": "A", "categoryCode": "53", "address": "1950 MARINE DRIVE", "city": "WEST VANCOUVER", "province": "BC", "country": "CA", "postalCode": "V7V1J8", "twitter": "None", "instagram": "None", "facebook": "None", "youtube": "None", "website": "None", "summary": "None", "logo": "None", "latitude": 49.329121035230074, "longitude": -123.16572931308778}, "108204199RR0001": {"name": "WEST VANCOUVER PRESBYTERIAN CHURCH", "designationCode": "C", "categoryCode": "37", "address": "2893 MARINE DR", "city": "WEST VANCOUVER", "province": "BC", "country": "CA", "postalCode": "V7V1M1", "twitter": "None", "instagram": "None", "facebook": "None", "youtube": "None", "website": "None", "summary": "None", "logo": "None", "latitude": 49.33782421479849, "longitude": -123.1939719058918}, "107961476RR0002": {"name": "WEST VANCOUVER SECONDARY SCHOOL", "designationCode": "C", "categoryCode": "21", "address": "1750 MATHERS AVE", "city": "WEST VANCOUVER", "province": "BC", "country": "CA", "postalCode": "V7V2G7", "twitter": "None", "instagram": "None", "facebook": "None", "youtube": "None", "website": "None", "summary": "None", "logo": "None", "latitude": 49.338119335837966, "longitude": -123.16197386835647}, "130554876RR0001": {"name": "WEST VANCOUVER UNITED CHURCH,", "designationCode": "C", "categoryCode": "44", "address": "2062 ESQUIMALT AVENUE", "city": "WEST VANCOUVER", "province": "BC", "country": "CA", "postalCode": "V7V1S4", "twitter": "None", "instagram": "None", "facebook": "None", "youtube": "None", "website": "None", "summary": "None", "logo": "None", "latitude": 49.330638525102536, "longitude": -123.16723136081134}, "119295921RR0001": {"name": "WEST VANCOUVER YOUTH BAND SOCIETY", "designationCode": "C", "categoryCode": "22", "address": "P.O. BOX 91292", "city": "WEST VANCOUVER", "province": "BC", "country": "CA", "postalCode": "V7V3N3", "twitter": "None", "instagram": "None", "facebook": "None", "youtube": "None", "website": "None", "summary": "None", "logo": "None", "latitude": 49.331148000000056, "longitude": -123.16023349999993}, "108204678RR0001": {"name": "WEST ZION MENNONITE CHURCH", "designationCode": "C", "categoryCode": "34", "address": "BOX 626", "city": "CARSTAIRS", "province": "AB", "country": "CA", "postalCode": "T0M0N0", "twitter": "None", "instagram": "None", "facebook": "None", "youtube": "None", "website": "None", "summary": "None", "logo": "None", "latitude": 51.562880000000064, "longitude": -114.09537999999998}, "118860766RR0001": {"name": "WEST-END CHURCH OF GOD OF PROPHECY WORSHIP CENTRE", "designationCode": "C", "categoryCode": "39", "address": "1344 MARTIN GROVE RD", "city": "ETOBICOKE", "province": "ON", "country": "CA", "postalCode": "M9W4X3", "twitter": "None", "instagram": "None", "facebook": "None", "youtube": "None", "website": "None", "summary": "None", "logo": "None", "latitude": 43.71257160476664, "longitude": -79.58051342801062}, "105632319RR0001": {"name": "WEST-END DAY CARE CENTRE INC.", "designationCode": "C", "categoryCode": "20", "address": "1825 SASKATCHEWAN AVENUE WEST", "city": "PORTAGE LA PRAIRIE", "province": "MB", "country": "CA", "postalCode": "R1N0R6", "twitter": "None", "instagram": "None", "facebook": "None", "youtube": "None", "website": "None", "summary": "None", "logo": "None", "latitude": 49.971685956701855, "longitude": -98.31365025520202}, "886409598RR0001": {"name": "WEST-END SWIMMING POOL SOCIETY", "designationCode": "C", "categoryCode": "56", "address": "BOX 448", "city": "BRETON", "province": "AB", "country": "CA", "postalCode": "T0C0P0", "twitter": "None", "instagram": "None", "facebook": "None", "youtube": "None", "website": "None", "summary": "None", "logo": "None", "latitude": 53.11236000000008, "longitude": -114.46609999999998}, "119787323RR0001": {"name": "WEST-LINCOLN CO-OPERATIVE NURSERY SCHOOL INC", "designationCode": "C", "categoryCode": "01", "address": "PO BOX 574", "city": "SMITHVILLE", "province": "ON", "country": "CA", "postalCode": "L0R2A0", "twitter": "None", "instagram": "None", "facebook": "None", "youtube": "None", "website": "None", "summary": "None", "logo": "None", "latitude": 43.09114347619214, "longitude": -79.56149144437846}, "108201864RR0001": {"name": "WEST-MAN OPPORTUNITIES INCORPORATED", "designationCode": "C", "categoryCode": "09", "address": "1544-10TH STREET", "city": "BRANDON", "province": "MB", "country": "CA", "postalCode": "R7A4H7", "twitter": "None", "instagram": "None", "facebook": "None", "youtube": "None", "website": "None", "summary": "None", "logo": "None", "latitude": 49.82575432944776, "longitude": -99.95143309564868}, "119292001RR0001": {"name": "WESTBANK BIBLE CHAPEL", "designationCode": "C", "categoryCode": "39", "address": "2412 APOLLO RD", "city": "WEST KELOWNA", "province": "BC", "country": "CA", "postalCode": "V4T1P6", "twitter": "None", "instagram": "None", "facebook": "None", "youtube": "None", "website": "None", "summary": "None", "logo": "None", "latitude": 49.83140046047075, "longitude": -119.62593297016561}, "119292027RR0001": {"name": "WESTBANK LIONS COMMUNITY DEVELOPMENT SOCIETY", "designationCode": "C", "categoryCode": "56", "address": "2-2466 MAIN STREET", "city": "WESTBANK", "province": "BC", "country": "CA", "postalCode": "V4T1Z1", "twitter": "None", "instagram": "None", "facebook": "None", "youtube": "None", "website": "None", "summary": "None", "logo": "None", "latitude": 49.82974080838546, "longitude": -119.62536792681131}, "119292043RR0001": {"name": "WESTBANK MUSEUM AND ARTS AND CRAFTS SOCIETY", "designationCode": "C", "categoryCode": "50", "address": "2376 DOBBIN RD", "city": "WEST KELOWNA", "province": "BC", "country": "CA", "postalCode": "V4T2H9", "twitter": "None", "instagram": "None", "facebook": "None", "youtube": "None", "website": "None", "summary": "None", "logo": "None", "latitude": 49.82878699392361, "longitude": -119.6247268737743}, "118818491RR0033": {"name": "WESTBANK SEVENTH-DAY ADVENTIST CHURCH", "designationCode": "C", "categoryCode": "41", "address": "PO 1000", "city": "ABBOTSFORD", "province": "BC", "country": "CA", "postalCode": "V2S4P5", "twitter": "None", "instagram": "None", "facebook": "None", "youtube": "None", "website": "None", "summary": "None", "logo": "None", "latitude": 49.03851300000005, "longitude": -122.29441549999993}, "108197906RR0001": {"name": "WESTBANK UNITED CHURCH", "designationCode": "C", "categoryCode": "44", "address": "3672 BROWN RD", "city": "WESTBANK", "province": "BC", "country": "CA", "postalCode": "V4T1P7", "twitter": "None", "instagram": "None", "facebook": "None", "youtube": "None", "website": "None", "summary": "None", "logo": "None", "latitude": 49.83034583819031, "longitude": -119.62826610618026}, "867691743RR0001": {"name": "WESTBEN ARTS FESTIVAL THEATRE INC", "designationCode": "C", "categoryCode": "22", "address": "P.O. BOX 1413                 36 FRONT STREET SOUTH", "city": "CAMPBELLFORD", "province": "ON", "country": "CA", "postalCode": "K0L1L0", "twitter": "None", "instagram": "None", "facebook": "None", "youtube": "None", "website": "None", "summary": "None", "logo": "None", "latitude": 44.30713371862964, "longitude": -77.79822171421583}, "140881558RR0001": {"name": "WESTBORO ACADEMIC SOCIETY/LA SOCIETE ACADEMIQUE DE WESTBORO", "designationCode": "C", "categoryCode": "20", "address": "200 BREWER WAY", "city": "OTTAWA", "province": "ON", "country": "CA", "postalCode": "K1S5R2", "twitter": "None", "instagram": "None", "facebook": "None", "youtube": "None", "website": "None", "summary": "None", "logo": "None", "latitude": 45.38736810122317, "longitude": -75.69052792510193}, "886763994RR0001": {"name": "WESTBORO PARENTS GROUP", "designationCode": "C", "categoryCode": "21", "address": "1078 STRATHCONA DRIVE", "city": "SHERWOOD PARK", "province": "AB", "country": "CA", "postalCode": "T8A0Z9", "twitter": "None", "instagram": "None", "facebook": "None", "youtube": "None", "website": "None", "summary": "None", "logo": "None", "latitude": 53.52517150375092, "longitude": -113.32190999105588}, "119292126RR0001": {"name": "WESTBOURNE BAPTIST CHURCH", "designationCode": "C", "categoryCode": "44", "address": "823-64 AVENUE N.W.", "city": "CALGARY", "province": "AB", "country": "CA", "postalCode": "T2K0M6", "twitter": "None", "instagram": "None", "facebook": "None", "youtube": "None", "website": "None", "summary": "None", "logo": "None", "latitude": 51.11150274381104, "longitude": -114.07629537731555}, "105626873RR0001": {"name": "WESTBOURNE-LONGBURN COMMUNITY CLUB INC.", "designationCode": "C", "categoryCode": "56", "address": "PO BOX 43", "city": "WESTBOURNE", "province": "MB", "country": "CA", "postalCode": "R0H1P0", "twitter": "None", "instagram": "None", "facebook": "None", "youtube": "None", "website": "None", "summary": "None", "logo": "None", "latitude": 50.13037000000003, "longitude": -98.58095999999995}, "860760172RR0001": {"name": "WESTBRIDGE COUNCIL NO. 7922 CHARITABLE WELFARE TRUST", "designationCode": "A", "categoryCode": "03", "address": "2889 ISLINGTON AVENUE", "city": "TORONTO", "province": "ON", "country": "CA", "postalCode": "M9L2T3", "twitter": "None", "instagram": "None", "facebook": "None", "youtube": "None", "website": "None", "summary": "None", "logo": "None", "latitude": 43.753705522072785, "longitude": -79.56858593816776}, "134631548RR0001": {"name": "WESTBROOK EDUCATION FUND", "designationCode": "C", "categoryCode": "22", "address": "2106 WEST 33RD AVENUE", "city": "VANCOUVER", "province": "BC", "country": "CA", "postalCode": "V6M1B9", "twitter": "None", "instagram": "None", "facebook": "None", "youtube": "None", "website": "None", "summary": "None", "logo": "None", "latitude": 49.24208949567217, "longitude": -123.15385395045877}, "119292225RR0001": {"name": "WESTBURNE ALLIANCE CHURCH", "designationCode": "C", "categoryCode": "39", "address": "237 RYKERT ST", "city": "ST CATHARINES", "province": "ON", "country": "CA", "postalCode": "L2S3T8", "twitter": "None", "instagram": "None", "facebook": "None", "youtube": "None", "website": "None", "summary": "None", "logo": "None", "latitude": 43.135869420422814, "longitude": -79.27089319201944}, "119292324RR0001": {"name": "WESTCHESTER UNITED BAPTIST CHURCH,", "designationCode": "C", "categoryCode": "31", "address": "", "city": "WESTCHESTER STA CUMB CO", "province": "NS", "country": "CA", "postalCode": "B0M2A0", "twitter": "None", "instagram": "None", "facebook": "None", "youtube": "None", "website": "None", "summary": "None", "logo": "None", "latitude": 45.557746625362356, "longitude": -63.718677738383164}, "863941316RR0001": {"name": "WESTCHESTER VOLUNTEER FIRE DEPARTMENT ASSOCIATION", "designationCode": "C", "categoryCode": "59", "address": "123 VALLEY ROAD", "city": "WESTCHESTER", "province": "NS", "country": "CA", "postalCode": "B0M2A0", "twitter": "None", "instagram": "None", "facebook": "None", "youtube": "None", "website": "None", "summary": "None", "logo": "None", "latitude": 45.61937951543633, "longitude": -63.65240155536961}, "824289029RR0001": {"name": "WESTCOAST BAPTIST ASSOCIATION", "designationCode": "C", "categoryCode": "31", "address": "131 EAST KINGS ROAD", "city": "NORTH VANCOUVER", "province": "BC", "country": "CA", "postalCode": "V7N1H4", "twitter": "None", "instagram": "None", "facebook": "None", "youtube": "None", "website": "None", "summary": "None", "logo": "None", "latitude": 49.33741749567216, "longitude": -123.0707205}, "121931091RR0001": {"name": "WESTCOAST CHILD CARE RESOURCE CENTRE", "designationCode": "C", "categoryCode": "59", "address": "2772 BROADWAY E", "city": "VANCOUVER", "province": "BC", "country": "CA", "postalCode": "V5M1Y8", "twitter": "None", "instagram": "None", "facebook": "None", "youtube": "None", "website": "None", "summary": "None", "logo": "None", "latitude": 49.26191254184838, "longitude": -123.04772743593139}, "847753365RR0001": {"name": "WESTCOAST CHRISTIAN CHURCH", "designationCode": "C", "categoryCode": "39", "address": "17790 HIGHWAY 10              BOX 34024", "city": "SURREY", "province": "BC", "country": "CA", "postalCode": "V3S8C4", "twitter": "None", "instagram": "None", "facebook": "None", "youtube": "None", "website": "None", "summary": "None", "logo": "None", "latitude": 49.10405674887256, "longitude": -122.72953324887257}, "890654445RR0001": {"name": "WESTCOAST COMMUNITY RESOURCES SOCIETY", "designationCode": "C", "categoryCode": "09", "address": "500 MATTERSON DRIVE P.O.BOX868", "city": "UCLUELET", "province": "BC", "country": "CA", "postalCode": "V0R3A0", "twitter": "None", "instagram": "None", "facebook": "None", "youtube": "None", "website": "None", "summary": "None", "logo": "None", "latitude": 48.93832940867002, "longitude": -125.54847065182481}, "891854432RR0001": {"name": "WESTCOAST DHARMA SOCIETY", "designationCode": "C", "categoryCode": "39", "address": "310-2655 CRANBERRY DR", "city": "VANCOUVER", "province": "BC", "country": "CA", "postalCode": "V6K4V5", "twitter": "None", "instagram": "None", "facebook": "None", "youtube": "None", "website": "None", "summary": "None", "logo": "None", "latitude": 49.262207626146896, "longitude": -123.15377600170211}, "131454555RR0001": {"name": "WESTCOAST FAMILY CENTRES SOCIETY", "designationCode": "C", "categoryCode": "09", "address": "101 - 2780 BROADWAY E", "city": "VANCOUVER", "province": "BC", "country": "CA", "postalCode": "V5M1Y8", "twitter": "None", "instagram": "None", "facebook": "None", "youtube": "None", "website": "None", "summary": "None", "logo": "None", "latitude": 49.261982548907014, "longitude": -123.04775071870851}, "865869630RR0001": {"name": "WESTCOAST GENESIS SOCIETY", "designationCode": "C", "categoryCode": "09", "address": "305 CARNARVON ST", "city": "NEW WESTMINSTER", "province": "BC", "country": "CA", "postalCode": "V3L1B9", "twitter": "None", "instagram": "None", "facebook": "None", "youtube": "None", "website": "None", "summary": "None", "logo": "None", "latitude": 49.20619798447675, "longitude": -122.90490731629042}, "892988320RR0001": {"name": "WESTCOAST INLAND SEARCH AND RESCUE SOCIETY", "designationCode": "C", "categoryCode": "59", "address": "PO BOX 978", "city": "TOFINO", "province": "BC", "country": "CA", "postalCode": "V0R2Z0", "twitter": "None", "instagram": "None", "facebook": "None", "youtube": "None", "website": "None", "summary": "None", "logo": "None", "latitude": 49.15262000000007, "longitude": -125.90403999999995}, "891061921RR0001": {"name": "WESTCOAST SACRED ARTS SOCIETY", "designationCode": "C", "categoryCode": "22", "address": "SUITE 503 5838 BERTON AVENUE", "city": "VANCOUVER", "province": "BC", "country": "CA", "postalCode": "V6S0A5", "twitter": "None", "instagram": "None", "facebook": "None", "youtube": "None", "website": "None", "summary": "None", "logo": "None", "latitude": 49.255358272138594, "longitude": -123.23437167976262}, "119292522RR0001": {"name": "WESTCOCK CEMETERY FUND", "designationCode": "C", "categoryCode": "59", "address": "130 BRITISH SETTLEMENT ROAD", "city": "BRITISH SETTLEMENT", "province": "NB", "country": "CA", "postalCode": "E4L2G3", "twitter": "None", "instagram": "None", "facebook": "None", "youtube": "None", "website": "None", "summary": "None", "logo": "None", "latitude": 45.86724786260613, "longitude": -64.39137174606843}, "886831528RR0001": {"name": "WESTDALE CHILDREN'S SCHOOL", "designationCode": "C", "categoryCode": "01", "address": "2 BOND ST N", "city": "HAMILTON", "province": "ON", "country": "CA", "postalCode": "L8S3W1", "twitter": "None", "instagram": "None", "facebook": "None", "youtube": "None", "website": "None", "summary": "None", "logo": "None", "latitude": 43.26345157201804, "longitude": -79.90155035287684}, "119292639RR0001": {"name": "WESTDALE CO-OPERATIVE PRESCHOOL INC", "designationCode": "C", "categoryCode": "20", "address": "PO BOX 89074 RPO WESTDALE", "city": "HAMILTON", "province": "ON", "country": "CA", "postalCode": "L8S4R5", "twitter": "None", "instagram": "None", "facebook": "None", "youtube": "None", "website": "None", "summary": "None", "logo": "None", "latitude": 43.258530000000064, "longitude": -79.90213999999997}, "863990602RR0001": {"name": "WESTDALE REFORMED CHURCH", "designationCode": "C", "categoryCode": "39", "address": "201 PARADISE ROAD NORTH", "city": "HAMILTON", "province": "ON", "country": "CA", "postalCode": "L8S3T3", "twitter": "None", "instagram": "None", "facebook": "None", "youtube": "None", "website": "None", "summary": "None", "logo": "None", "latitude": 43.26983828143573, "longitude": -79.8955843235038}, "130295330RR0001": {"name": "WESTDALE UNITED CHURCH", "designationCode": "C", "categoryCode": "44", "address": "99 NORTH OVAL", "city": "HAMILTON", "province": "ON", "country": "CA", "postalCode": "L8S3Z2", "twitter": "None", "instagram": "None", "facebook": "None", "youtube": "None", "website": "None", "summary": "None", "logo": "None", "latitude": 43.262216424635085, "longitude": -79.90710452065913}, "131293946RR0001": {"name": "WESTDALE UNITED CHURCH", "designationCode": "C", "categoryCode": "44", "address": "PO BOX 1449", "city": "PETERBOROUGH", "province": "ON", "country": "CA", "postalCode": "K9J7H6", "twitter": "None", "instagram": "None", "facebook": "None", "youtube": "None", "website": "None", "summary": "None", "logo": "None", "latitude": 44.30591700000005, "longitude": -78.31950199999993}, "871282844RR0001": {"name": "WESTEND ABUNDANT LIFE FELLOWSHIP ASSEMBLIES (PENTECOSTAL)", "designationCode": "C", "categoryCode": "39", "address": "995 WILSON AVE, UNIT 7", "city": "TORONTO", "province": "ON", "country": "CA", "postalCode": "M3K1G1", "twitter": "None", "instagram": "None", "facebook": "None", "youtube": "None", "website": "None", "summary": "None", "logo": "None", "latitude": 43.72844586570637, "longitude": -79.4762177952884}, "107283178RR0001": {"name": "WESTEND SENIORS ACTIVITY CENTRE", "designationCode": "C", "categoryCode": "56", "address": "9629 176 ST", "city": "EDMONTON", "province": "AB", "country": "CA", "postalCode": "T5T6B3", "twitter": "None", "instagram": "None", "facebook": "None", "youtube": "None", "website": "None", "summary": "None", "logo": "None", "latitude": 53.533178658289906, "longitude": -113.6262311084602}, "846571875RR0001": {"name": "WESTERKIRK FOUNDATION", "designationCode": "B", "categoryCode": "03", "address": "747 FORT ST                   SUITE 1100", "city": "VICTORIA", "province": "BC", "country": "CA", "postalCode": "V8W3E9", "twitter": "None", "instagram": "None", "facebook": "None", "youtube": "None", "website": "None", "summary": "None", "logo": "None", "latitude": 48.42443559781307, "longitude": -123.36394314516126}, "891974842RR0001": {"name": "WESTERN CANADA AVIATION MUSEUM FOUNDATION", "designationCode": "A", "categoryCode": "55", "address": "958 FERRY ROAD, HANGER T2", "city": "WINNIPEG", "province": "MB", "country": "CA", "postalCode": "R3H0T8", "twitter": "None", "instagram": "None", "facebook": "None", "youtube": "None", "website": "None", "summary": "None", "logo": "None", "latitude": 49.89559162505039, "longitude": -97.21743558638464}, "879516615RR0001": {"name": "WESTERN CANADA CHRISTIAN MANDARIN CONFERENCE MINISTRY (WCCMC)", "designationCode": "C", "categoryCode": "49", "address": "14504 96 ST NW", "city": "EDMONTON", "province": "AB", "country": "CA", "postalCode": "T5E4B7", "twitter": "None", "instagram": "None", "facebook": "None", "youtube": "None", "website": "None", "summary": "None", "logo": "None", "latitude": 53.607809263113865, "longitude": -113.49045596381762}, "132563867RR0001": {"name": "WESTERN CANADA CONFERENCE OF THE PENTECOSTAL HOLINESS CHURCH OF CANADA", "designationCode": "C", "categoryCode": "36", "address": "16293 104TH AVENUE", "city": "SURREY", "province": "BC", "country": "CA", "postalCode": "V4N1Z7", "twitter": "None", "instagram": "None", "facebook": "None", "youtube": "None", "website": "None", "summary": "None", "logo": "None", "latitude": 49.19159902347501, "longitude": -122.77007446438485}, "119292985RR0001": {"name": "WESTERN CANADA THEATRE COMPANY SOCIETY", "designationCode": "C", "categoryCode": "22", "address": "PO BOX 329 STN MAIN", "city": "KAMLOOPS", "province": "BC", "country": "CA", "postalCode": "V2C5K9", "twitter": "None", "instagram": "None", "facebook": "None", "youtube": "None", "website": "None", "summary": "None", "logo": "None", "latitude": 50.675883000000056, "longitude": -120.33898099999993}, "119293009RR0001": {"name": "WESTERN CANADA WILDERNESS COMMITTEE", "designationCode": "C", "categoryCode": "21", "address": "46 E 6TH AVENUE", "city": "VANCOUVER", "province": "BC", "country": "CA", "postalCode": "V5T1J4", "twitter": "None", "instagram": "None", "facebook": "None", "youtube": "None", "website": "None", "summary": "None", "logo": "None", "latitude": 49.265531488458805, "longitude": -123.10356463780367}, "119293041RR0001": {"name": "WESTERN CANADIAN UNIVERSITIES MARINE SCIENCES SOCIETY", "designationCode": "C", "categoryCode": "21", "address": "P.O. BOX 100                  BAMFIELD MARINE SCIENCES", "city": "BAMFIELD", "province": "BC", "country": "CA", "postalCode": "V0R1B0", "twitter": "None", "instagram": "None", "facebook": "None", "youtube": "None", "website": "None", "summary": "None", "logo": "None", "latitude": 48.81641080852422, "longitude": -125.133641999157}, "129811311RR0002": {"name": "WESTERN CHRISTIAN COLLEGE", "designationCode": "C", "categoryCode": "20", "address": "PO BOX 19565                  RPO SOUTH CRANSTON", "city": "CALGARY", "province": "AB", "country": "CA", "postalCode": "T3M0V4", "twitter": "None", "instagram": "None", "facebook": "None", "youtube": "None", "website": "None", "summary": "None", "logo": "None", "latitude": 50.8912875, "longitude": -113.987925}, "119293108RR0001": {"name": "WESTERN COMMUNITIES MONTESSORI SOCIETY, THE", "designationCode": "C", "categoryCode": "20", "address": "4075 METCHOSIN ROAD", "city": "VICTORIA", "province": "BC", "country": "CA", "postalCode": "V9C4A4", "twitter": "None", "instagram": "None", "facebook": "None", "youtube": "None", "website": "None", "summary": "None", "logo": "None", "latitude": 48.39055675320967, "longitude": -123.52469505567583}, "119293157RR0001": {"name": "WESTERN COMMUNITY SENIORS LOW COST HOUSING SOCIETY", "designationCode": "C", "categoryCode": "09", "address": "753 STATION AVE", "city": "VICTORIA", "province": "BC", "country": "CA", "postalCode": "V9B2S1", "twitter": "None", "instagram": "None", "facebook": "None", "youtube": "None", "website": "None", "summary": "None", "logo": "None", "latitude": 48.446406695481905, "longitude": -123.49929588646215}, "119293124RR0001": {"name": "WESTERN COMMUNITY-CENTRED COLLEGE FOR THE RETIRED SOCIETY", "designationCode": "C", "categoryCode": "20", "address": "6650 SOUTHOAKS CRES           ALLAN EMMOTT CENTRE", "city": "BURNABY", "province": "BC", "country": "CA", "postalCode": "V5E4M7", "twitter": "None", "instagram": "None", "facebook": "None", "youtube": "None", "website": "None", "summary": "None", "logo": "None", "latitude": 49.21771861613492, "longitude": -122.96634467069647}, "831334677RR0001": {"name": "WESTERN CONFERENCE OF CATHOLIC RELIGIOUS EDUCATORS", "designationCode": "C", "categoryCode": "47", "address": "300 - 2375 BURRARD AVENUE     P.O. BOX 1489", "city": "VANDERHOOF", "province": "BC", "country": "CA", "postalCode": "V0J3A0", "twitter": "None", "instagram": "None", "facebook": "None", "youtube": "None", "website": "None", "summary": "None", "logo": "None", "latitude": 54.015515696087476, "longitude": -124.0092692655371}, "108199746RR0001": {"name": "WESTERN COUNTIES REGIONAL LIBRARY BOARD", "designationCode": "C", "categoryCode": "50", "address": "405 MAIN STREET", "city": "YARMOUTH", "province": "NS", "country": "CA", "postalCode": "B5A1G3", "twitter": "None", "instagram": "None", "facebook": "None", "youtube": "None", "website": "None", "summary": "None", "logo": "None", "latitude": 43.8387177321543, "longitude": -66.1194940720763}, "119293181RR0001": {"name": "WESTERN COUNTIES REGIONAL LIBRARY CHARITABLE ASSOCIATION", "designationCode": "A", "categoryCode": "50", "address": "405 MAIN STREET", "city": "YARMOUTH", "province": "NS", "country": "CA", "postalCode": "B5A1G3", "twitter": "None", "instagram": "None", "facebook": "None", "youtube": "None", "website": "None", "summary": "None", "logo": "None", "latitude": 43.8387177321543, "longitude": -66.1194940720763}, "119293215RR0001": {"name": "WESTERN DEVELOPMENT MUSEUM,", "designationCode": "C", "categoryCode": "50", "address": "2935 LORNE AVE", "city": "SASKATOON", "province": "SK", "country": "CA", "postalCode": "S7J0S5", "twitter": "None", "instagram": "None", "facebook": "None", "youtube": "None", "website": "None", "summary": "None", "logo": "None", "latitude": 52.091117999999994, "longitude": -106.67025927050103}, "872811807RR0001": {"name": "WESTERN ENVIRONMENT CENTRE INC.", "designationCode": "C", "categoryCode": "59", "address": "50 MAIN ST", "city": "CORNER BROOK", "province": "NL", "country": "CA", "postalCode": "A2H1C4", "twitter": "None", "instagram": "None", "facebook": "None", "youtube": "None", "website": "None", "summary": "None", "logo": "None", "latitude": 48.95486217456298, "longitude": -57.94398356936365}, "859530115RR0001": {"name": "WESTERN FRONT FOUNDATION", "designationCode": "A", "categoryCode": "03", "address": "303 EAST 8TH AVENUE", "city": "VANCOUVER", "province": "BC", "country": "CA", "postalCode": "V5T1S1", "twitter": "None", "instagram": "None", "facebook": "None", "youtube": "None", "website": "None", "summary": "None", "logo": "None", "latitude": 49.263700493219325, "longitude": -123.09869182944774}, "891285934RR0001": {"name": "WESTERN GOLD THEATRE SOCIETY", "designationCode": "C", "categoryCode": "22", "address": "203 - 2664 BIRCH ST", "city": "VANCOUVER", "province": "BC", "country": "CA", "postalCode": "V6H2T5", "twitter": "None", "instagram": "None", "facebook": "None", "youtube": "None", "website": "None", "summary": "None", "logo": "None", "latitude": 49.26186715598129, "longitude": -123.13373899887482}, "105637268RR0001": {"name": "WESTERN GRAINS RESEARCH FOUNDATION", "designationCode": "A", "categoryCode": "23", "address": "306 - 111 RESEARCH DR", "city": "SASKATOON", "province": "SK", "country": "CA", "postalCode": "S7N3R2", "twitter": "None", "instagram": "None", "facebook": "None", "youtube": "None", "website": "None", "summary": "None", "logo": "None", "latitude": 52.142157226749895, "longitude": -106.62861205841126}, "889465308RR0001": {"name": "WESTERN HMONG MENNONITE CHURCH", "designationCode": "C", "categoryCode": "39", "address": "11391 DARTFORD STREET", "city": "MAPLE RIDGE", "province": "BC", "country": "CA", "postalCode": "V2X1V6", "twitter": "None", "instagram": "None", "facebook": "None", "youtube": "None", "website": "None", "summary": "None", "logo": "None", "latitude": 49.20930899999999, "longitude": -122.64962557441264}, "138529615RR0001": {"name": "WESTERN HOSPITAL FOUNDATION INC", "designationCode": "C", "categoryCode": "19", "address": "PO BOX 499", "city": "ALBERTON", "province": "PE", "country": "CA", "postalCode": "C0B1B0", "twitter": "None", "instagram": "None", "facebook": "None", "youtube": "None", "website": "None", "summary": "None", "logo": "None", "latitude": 46.813510000000065, "longitude": -64.06533999999994}}