{"119014488RR0001": {"name": "Mission chr\u00e9tienne parole de vie / Word of Life Christian Mission", "designationCode": "C", "categoryCode": "39", "address": "848 CHESTER PLACE", "city": "PRINCE ALBERT", "province": "SK", "country": "CA", "postalCode": "S6V6Y8", "twitter": "None", "instagram": "None", "facebook": "None", "youtube": "None", "website": "None", "summary": "None", "logo": "None", "latitude": 53.181298540106184, "longitude": -105.72747584690423}, "850282559RR0001": {"name": "Mission d'\u00e9vang\u00e9lisation mondiale pour la moisson (MEMM)", "designationCode": "C", "categoryCode": "39", "address": "243 WATSON AVENUE             UNIT 3", "city": "WINDSOR", "province": "ON", "country": "CA", "postalCode": "N8S3R8", "twitter": "None", "instagram": "None", "facebook": "None", "youtube": "None", "website": "None", "summary": "None", "logo": "None", "latitude": 42.34042215443447, "longitude": -82.94467185393704}, "794632497RR0001": {"name": "Mission du Dr Marsolais", "designationCode": "C", "categoryCode": "09", "address": "31 RUE CHARBONNEAU", "city": "BLAINVILLE", "province": "QC", "country": "CA", "postalCode": "J7B2A8", "twitter": "None", "instagram": "None", "facebook": "None", "youtube": "None", "website": "None", "summary": "None", "logo": "None", "latitude": 45.658208953113146, "longitude": -73.81035358531958}, "827107434RR0001": {"name": "Mission du Plein \u00e9vangile Canada / Full Gospel Mission Canada", "designationCode": "C", "categoryCode": "39", "address": "1806 PLACE BEAUCHESNE", "city": "MONTR\u00c9AL", "province": "QC", "country": "CA", "postalCode": "H1L3G9", "twitter": "None", "instagram": "None", "facebook": "None", "youtube": "None", "website": "None", "summary": "None", "logo": "None", "latitude": 45.59148788980902, "longitude": -73.51382857900025}, "802104133RR0001": {"name": "Mission for Wellness Society", "designationCode": "C", "categoryCode": "09", "address": "1250-1500 GEORGIA STREET WEST POST OFFICE BOX 62", "city": "VANCOUVER", "province": "BC", "country": "CA", "postalCode": "V6G2Z6", "twitter": "None", "instagram": "None", "facebook": "None", "youtube": "None", "website": "None", "summary": "None", "logo": "None", "latitude": 49.29013479542975, "longitude": -123.1300069287031}, "143004349RR0001": {"name": "Mission le Phare de Paix/Peace Lighthouse Mission", "designationCode": "C", "categoryCode": "47", "address": "65 RUE SAINTE-ANNE", "city": "L'EPIPHANIE", "province": "QC", "country": "CA", "postalCode": "J5X3Z9", "twitter": "None", "instagram": "None", "facebook": "None", "youtube": "None", "website": "None", "summary": "None", "logo": "None", "latitude": 45.84782251705245, "longitude": -73.4912013906744}, "801184359RR0001": {"name": "Mission of the Redeemer Ministries", "designationCode": "C", "categoryCode": "47", "address": "2419 IRIS ST", "city": "OTTAWA", "province": "ON", "country": "CA", "postalCode": "K2C1C7", "twitter": "None", "instagram": "None", "facebook": "None", "youtube": "None", "website": "None", "summary": "None", "logo": "None", "latitude": 45.35357455427311, "longitude": -75.77389586637993}, "827724261RR0001": {"name": "Mission to Millions Christian Ministries Inc.", "designationCode": "C", "categoryCode": "39", "address": "375 INDIAN MOUNTAIN ROAD", "city": "STILESVILLE", "province": "NB", "country": "CA", "postalCode": "E1G3S4", "twitter": "None", "instagram": "None", "facebook": "None", "youtube": "None", "website": "None", "summary": "None", "logo": "None", "latitude": 46.178039223814544, "longitude": -64.89336647971325}, "836551911RR0001": {"name": "Mission Aid Brazil Society", "designationCode": "C", "categoryCode": "47", "address": "17790 HWY 10                  P O BOX 34228", "city": "SURREY", "province": "BC", "country": "CA", "postalCode": "V3S8C4", "twitter": "None", "instagram": "None", "facebook": "None", "youtube": "None", "website": "None", "summary": "None", "logo": "None", "latitude": 49.10405674887256, "longitude": -122.72953324887257}, "801846551RR0001": {"name": "Mission Amour Fraternelle", "designationCode": "C", "categoryCode": "39", "address": "11659 DES VIOLETTES AVENUE", "city": "MONTR\u00c9AL-NORD", "province": "QC", "country": "CA", "postalCode": "H1G4N1", "twitter": "None", "instagram": "None", "facebook": "None", "youtube": "None", "website": "None", "summary": "None", "logo": "None", "latitude": 45.60951882820701, "longitude": -73.6242010316234}, "833903438RR0001": {"name": "Mission Baptist Church", "designationCode": "C", "categoryCode": "31", "address": "660 51ST AVE E", "city": "VANCOUVER", "province": "BC", "country": "CA", "postalCode": "V5X1C9", "twitter": "None", "instagram": "None", "facebook": "None", "youtube": "None", "website": "None", "summary": "None", "logo": "None", "latitude": 49.223595470136935, "longitude": -123.09167105398464}, "138153473RR0002": {"name": "Mission Board of the Aldergrove Canadian Reformed Church", "designationCode": "C", "categoryCode": "39", "address": "31462 JEAN COURT", "city": "ABBOTSFORD", "province": "BC", "country": "CA", "postalCode": "V2T5N9", "twitter": "None", "instagram": "None", "facebook": "None", "youtube": "None", "website": "None", "summary": "None", "logo": "None", "latitude": 49.05918908491555, "longitude": -122.35294588507716}, "829997683RR0001": {"name": "Mission Chr\u00e9tienne J\u00e9sus Restaure", "designationCode": "C", "categoryCode": "39", "address": "125 RUE CONRAD GOSSELIN/SUITE7", "city": "SAINT-JEAN-SUR-RICHELIEU", "province": "QC", "country": "CA", "postalCode": "J2X0A1", "twitter": "None", "instagram": "None", "facebook": "None", "youtube": "None", "website": "None", "summary": "None", "logo": "None", "latitude": 45.32475771322685, "longitude": -73.2436888548674}, "107718868RR0001": {"name": "Mission Communautaire de Montr\u00e9al / Montreal City Mission", "designationCode": "C", "categoryCode": "09", "address": "1435, RUE CITY COUNCILLORS", "city": "MONTREAL", "province": "QC", "country": "CA", "postalCode": "H3A2E4", "twitter": "None", "instagram": "None", "facebook": "None", "youtube": "None", "website": "None", "summary": "None", "logo": "None", "latitude": 45.505068987794985, "longitude": -73.56891775561203}, "119042810RR0001": {"name": "Mission Community Foundation", "designationCode": "C", "categoryCode": "59", "address": "PO BOX 3427", "city": "MISSION", "province": "BC", "country": "CA", "postalCode": "V2V4J5", "twitter": "None", "instagram": "None", "facebook": "None", "youtube": "None", "website": "None", "summary": "None", "logo": "None", "latitude": 49.13294100000006, "longitude": -122.32108249999993}, "804326981RR0001": {"name": "Mission Esperanza de Sor Maude", "designationCode": "C", "categoryCode": "09", "address": "PO BOX 668", "city": "HEARST", "province": "ON", "country": "CA", "postalCode": "P0L1N0", "twitter": "None", "instagram": "None", "facebook": "None", "youtube": "None", "website": "None", "summary": "None", "logo": "None", "latitude": 49.68503700000005, "longitude": -83.65433749999994}, "889977575RR0001": {"name": "Mission Eurasia, Inc.", "designationCode": "C", "categoryCode": "47", "address": "P.O. BOX 901                  5795 E. VERNON RD.", "city": "VERNON", "province": "BC", "country": "CA", "postalCode": "V1B3K1", "twitter": "None", "instagram": "None", "facebook": "None", "youtube": "None", "website": "None", "summary": "None", "logo": "None", "latitude": 50.290516000588376, "longitude": -119.22295060433281}, "809793052RR0001": {"name": "Mission Exeko", "designationCode": "C", "categoryCode": "59", "address": "5445, AV. DE GASPE, PORTE 405", "city": "MONTREAL", "province": "QC", "country": "CA", "postalCode": "H2T3B2", "twitter": "None", "instagram": "None", "facebook": "None", "youtube": "None", "website": "None", "summary": "None", "logo": "None", "latitude": 45.52683526146908, "longitude": -73.59551934136431}, "813503794RR0001": {"name": "Mission For Souls", "designationCode": "C", "categoryCode": "39", "address": "111 SMALES DRIVE,", "city": "AJAX", "province": "ON", "country": "CA", "postalCode": "L1Z1G8", "twitter": "None", "instagram": "None", "facebook": "None", "youtube": "None", "website": "None", "summary": "None", "logo": "None", "latitude": 43.877860396618345, "longitude": -79.03253018662376}, "790780126RR0001": {"name": "Mission Grosse Caye Ha\u00efti", "designationCode": "C", "categoryCode": "09", "address": "2029 RUE DE PALERME", "city": "LAVAL", "province": "QC", "country": "CA", "postalCode": "H7M5J2", "twitter": "None", "instagram": "None", "facebook": "None", "youtube": "None", "website": "None", "summary": "None", "logo": "None", "latitude": 45.61260831141435, "longitude": -73.72395559587981}, "803759729RR0001": {"name": "Mission House International Church, Life Centre Inc.", "designationCode": "C", "categoryCode": "39", "address": "115C - 298 BELIVEAU ROAD", "city": "WINNIPEG", "province": "MB", "country": "CA", "postalCode": "R2M1T4", "twitter": "None", "instagram": "None", "facebook": "None", "youtube": "None", "website": "None", "summary": "None", "logo": "None", "latitude": 49.83912138559902, "longitude": -97.09963334621446}, "827231820RR0001": {"name": "Mission International Evangelica Pentecostes Manantial De Vida Inc.", "designationCode": "C", "categoryCode": "39", "address": "227 PETRONELLA PLACE", "city": "KINGSTON", "province": "ON", "country": "CA", "postalCode": "K7M9B7", "twitter": "None", "instagram": "None", "facebook": "None", "youtube": "None", "website": "None", "summary": "None", "logo": "None", "latitude": 44.24267852120739, "longitude": -76.54235083083272}, "822848289RR0001": {"name": "Mission Jeunesse Qu\u00e9bec (MJQ) / Qu\u00e9bec Youth Mission (QYM)", "designationCode": "C", "categoryCode": "22", "address": "13665 BOUL DU CURE-LABELLE    UNITE 217", "city": "MIRABEL", "province": "QC", "country": "CA", "postalCode": "J7J1L2", "twitter": "None", "instagram": "None", "facebook": "None", "youtube": "None", "website": "None", "summary": "None", "logo": "None", "latitude": 45.702978996970245, "longitude": -73.92579351592727}, "804105849RR0001": {"name": "Mission Ministries Canada", "designationCode": "C", "categoryCode": "39", "address": "1250-1500 GEORGIA W ST        PO BOX 62", "city": "VANCOUVER", "province": "BC", "country": "CA", "postalCode": "V6G2Z6", "twitter": "None", "instagram": "None", "facebook": "None", "youtube": "None", "website": "None", "summary": "None", "logo": "None"}, "837690494RR0001": {"name": "Mission Montr\u00e9al", "designationCode": "C", "categoryCode": "39", "address": "544 MAURICIEN", "city": "TROIS-RIVIERES", "province": "QC", "country": "CA", "postalCode": "G9B1S1", "twitter": "None", "instagram": "None", "facebook": "None", "youtube": "None", "website": "None", "summary": "None", "logo": "None", "latitude": 46.311084051358904, "longitude": -72.5916656802471}, "725557094RR0001": {"name": "Mission Notre-Dame-de-Joie Inc./Our Lady of Joy Mission Inc.", "designationCode": "C", "categoryCode": "39", "address": "1974 ROUTE 134", "city": "LAKEVILLE-WESTMORLAND", "province": "NB", "country": "CA", "postalCode": "E1H1A7", "twitter": "None", "instagram": "None", "facebook": "None", "youtube": "None", "website": "None", "summary": "None", "logo": "None", "latitude": 46.14486631061544, "longitude": -64.67857455976424}, "840944458RR0001": {"name": "Mission Nouvelle G\u00e9n\u00e9ration / New Generation Mission", "designationCode": "C", "categoryCode": "09", "address": "1423 BOUL PROVENCHER", "city": "BROSSARD", "province": "QC", "country": "CA", "postalCode": "J4W1Z3", "twitter": "None", "instagram": "None", "facebook": "None", "youtube": "None", "website": "None", "summary": "None", "logo": "None", "latitude": 45.473177557851116, "longitude": -73.47704305689884}, "786820696RR0001": {"name": "Mission Pentec\u00f4tiste Source d'Eau Vive INc. Mission Pentecostal Fuente de Agua Viva Inc.", "designationCode": "C", "categoryCode": "39", "address": "4425 RUE DES LIERRES", "city": "QUEBEC", "province": "QC", "country": "CA", "postalCode": "G1G1S2", "twitter": "None", "instagram": "None", "facebook": "None", "youtube": "None", "website": "None", "summary": "None", "logo": "None", "latitude": 46.88221516654155, "longitude": -71.28152622704705}, "820335586RR0001": {"name": "Mission Saint-Ir\u00e9n\u00e9e de Lyon", "designationCode": "C", "categoryCode": "38", "address": "3030 RUE DELISLE", "city": "MONTREAL", "province": "QC", "country": "CA", "postalCode": "H4C1M9", "twitter": "None", "instagram": "None", "facebook": "None", "youtube": "None", "website": "None", "summary": "None", "logo": "None", "latitude": 45.48208762057832, "longitude": -73.57928741199737}, "825846124RR0001": {"name": "Mission Seniors Centre Association", "designationCode": "C", "categoryCode": "56", "address": "33100 10TH AVE", "city": "MISSION", "province": "BC", "country": "CA", "postalCode": "V2V2K4", "twitter": "None", "instagram": "None", "facebook": "None", "youtube": "None", "website": "None", "summary": "None", "logo": "None", "latitude": 49.14265251788916, "longitude": -122.30643077699233}, "841582513RR0001": {"name": "Mission Services of Hamilton Foundation", "designationCode": "A", "categoryCode": "03", "address": "POST OFFICE BOX 368", "city": "HAMILTON", "province": "ON", "country": "CA", "postalCode": "L8L7W2", "twitter": "None", "instagram": "None", "facebook": "None", "youtube": "None", "website": "None", "summary": "None", "logo": "None", "latitude": 43.261962000000054, "longitude": -79.88800399999994}, "834333445RR0001": {"name": "Mission Thando Inc.", "designationCode": "C", "categoryCode": "01", "address": "PO BOX 997", "city": "WEYBURN", "province": "SK", "country": "CA", "postalCode": "S4H2L2", "twitter": "None", "instagram": "None", "facebook": "None", "youtube": "None", "website": "None", "summary": "None", "logo": "None", "latitude": 49.66802700000005, "longitude": -103.85818999999994}, "806657953RR0001": {"name": "Mission Together Inc.", "designationCode": "C", "categoryCode": "09", "address": "17 MAGGS STREET", "city": "AJAX", "province": "ON", "country": "CA", "postalCode": "L1T4C5", "twitter": "None", "instagram": "None", "facebook": "None", "youtube": "None", "website": "None", "summary": "None", "logo": "None", "latitude": 43.86170980930821, "longitude": -79.06222576366211}, "821436052RR0001": {"name": "Mission Tournesol", "designationCode": "C", "categoryCode": "09", "address": "42, DES OBLATS NORD", "city": "VILLE-MARIE", "province": "QC", "country": "CA", "postalCode": "J9V1J5", "twitter": "None", "instagram": "None", "facebook": "None", "youtube": "None", "website": "None", "summary": "None", "logo": "None", "latitude": 47.336111580904856, "longitude": -79.43698244096637}, "734974520RR0001": {"name": "Mission Triomphante De J\u00e9sus-Christ Nouvelle Renaissance / Mision Triunfantes de Jesucristo Nuevo Renacer", "designationCode": "C", "categoryCode": "39", "address": "353 RUE JOSEPH-HUET", "city": "BOUCHERVILLE", "province": "QC", "country": "CA", "postalCode": "J4B2C5", "twitter": "None", "instagram": "None", "facebook": "None", "youtube": "None", "website": "None", "summary": "None", "logo": "None", "latitude": 45.58834633389116, "longitude": -73.43536766734961}, "849082052RR0001": {"name": "Mission Vieille Catholique Sainte-Croix / Old Catholic Mission of The Holy Cross", "designationCode": "C", "categoryCode": "39", "address": "320, BOUL. DE LA MAGDELEINE", "city": "LA PRAIRIE", "province": "QC", "country": "CA", "postalCode": "J5R3Z8", "twitter": "None", "instagram": "None", "facebook": "None", "youtube": "None", "website": "None", "summary": "None", "logo": "None", "latitude": 45.415025778809984, "longitude": -73.47304927214488}, "758354526RR0001": {"name": "Mission 28 Inc.", "designationCode": "C", "categoryCode": "39", "address": "222 12 AVE NE", "city": "CALGARY", "province": "AB", "country": "CA", "postalCode": "T2E1A2", "twitter": "None", "instagram": "None", "facebook": "None", "youtube": "None", "website": "None", "summary": "None", "logo": "None", "latitude": 51.06339088170456, "longitude": -114.05865652403075}, "862347374RR0001": {"name": "Mission-Partage / Share and Care Mission", "designationCode": "C", "categoryCode": "09", "address": "19, RUE PIERRE-RICARD", "city": "ND DE L'\u00ceLE-PERROT", "province": "QC", "country": "CA", "postalCode": "J7V8M7", "twitter": "None", "instagram": "None", "facebook": "None", "youtube": "None", "website": "None", "summary": "None", "logo": "None", "latitude": 45.38422062447346, "longitude": -73.94049955756266}, "844368001RR0001": {"name": "Mission: 180 Ministries", "designationCode": "C", "categoryCode": "01", "address": "160 DELARONDE RD", "city": "SASKATOON", "province": "SK", "country": "CA", "postalCode": "S7J3Y4", "twitter": "None", "instagram": "None", "facebook": "None", "youtube": "None", "website": "None", "summary": "None", "logo": "None", "latitude": 52.09472047403209, "longitude": -106.60266963918865}, "807766589RR0001": {"name": "Missional International Church Network - Canada", "designationCode": "C", "categoryCode": "39", "address": "1000 - 888 3 ST SW", "city": "CALGARY", "province": "AB", "country": "CA", "postalCode": "T2P5C5", "twitter": "None", "instagram": "None", "facebook": "None", "youtube": "None", "website": "None", "summary": "None", "logo": "None", "latitude": 51.04810324127135, "longitude": -114.07018760690465}, "844157628RR0001": {"name": "Missional Training Network Inc.", "designationCode": "C", "categoryCode": "47", "address": "12642-100TH AVENUE", "city": "SURREY", "province": "BC", "country": "CA", "postalCode": "V3V2X7", "twitter": "None", "instagram": "None", "facebook": "None", "youtube": "None", "website": "None", "summary": "None", "logo": "None", "latitude": 49.18446760536997, "longitude": -122.87169202898721}, "890571466RR0001": {"name": "Missionaries of the Poor (Canada) Inc.", "designationCode": "C", "categoryCode": "09", "address": "PO BOX 20070 RPO SOUTHBROOK", "city": "MAPLE", "province": "ON", "country": "CA", "postalCode": "L6A4M4", "twitter": "None", "instagram": "None", "facebook": "None", "youtube": "None", "website": "None", "summary": "None", "logo": "None", "latitude": 49.433250000000044, "longitude": -56.08152999999999}, "827729229RR0001": {"name": "Missionary Apostles of Christ in the Eucharist (M.A.C.E)", "designationCode": "C", "categoryCode": "47", "address": "247 FIFTH STREET", "city": "BRANDON", "province": "MB", "country": "CA", "postalCode": "R7A3K6", "twitter": "None", "instagram": "None", "facebook": "None", "youtube": "None", "website": "None", "summary": "None", "logo": "None", "latitude": 49.845779612268444, "longitude": -99.94457741156467}, "823050919RR0001": {"name": "Missionary Archdeaconry of Canada Inc.", "designationCode": "C", "categoryCode": "30", "address": "5000 8TH AVENUE", "city": "REGINA", "province": "SK", "country": "CA", "postalCode": "S4T0W3", "twitter": "None", "instagram": "None", "facebook": "None", "youtube": "None", "website": "None", "summary": "None", "logo": "None", "latitude": 50.4568764676841, "longitude": -104.65285402553522}, "834307019RR0001": {"name": "Missionary Sisters of Christ the King for Polonia", "designationCode": "C", "categoryCode": "46", "address": "3232 FIELDGATE DRIVE", "city": "MISSISSAUGA", "province": "ON", "country": "CA", "postalCode": "L4X2H7", "twitter": "None", "instagram": "None", "facebook": "None", "youtube": "None", "website": "None", "summary": "None", "logo": "None", "latitude": 43.61991599748984, "longitude": -79.58407458898358}, "889405064RR0001": {"name": "Missionary Sisters of St. Peter Claver (Canada)", "designationCode": "C", "categoryCode": "46", "address": "14 CONNAUGHT CIRCLE", "city": "TORONTO", "province": "ON", "country": "CA", "postalCode": "M6C2S7", "twitter": "None", "instagram": "None", "facebook": "None", "youtube": "None", "website": "None", "summary": "None", "logo": "None", "latitude": 43.6895276441803, "longitude": -79.42538356177491}, "807151378RR0001": {"name": "Missionary Society of St. Paul Inc.", "designationCode": "C", "categoryCode": "39", "address": "1942 98TH ST", "city": "NORTH BATTLEFORD", "province": "SK", "country": "CA", "postalCode": "S9A0N4", "twitter": "None", "instagram": "None", "facebook": "None", "youtube": "None", "website": "None", "summary": "None", "logo": "None", "latitude": 52.78588174854292, "longitude": -108.30192761278805}, "849471438RR0001": {"name": "Missionnaires De la Consolata (Canada) et sa version Consolata Missionaries (Canada)", "designationCode": "C", "categoryCode": "47", "address": "2505, BOULEVARD GOUIN OUEST", "city": "MONTREAL", "province": "QC", "country": "CA", "postalCode": "H3M1B5", "twitter": "None", "instagram": "None", "facebook": "None", "youtube": "None", "website": "None", "summary": "None", "logo": "None", "latitude": 45.5419488279472, "longitude": -73.70593686444668}, "831499009RR0001": {"name": "Missions for Life", "designationCode": "C", "categoryCode": "47", "address": "224 BLACKTHORN CRES", "city": "CORUNNA", "province": "ON", "country": "CA", "postalCode": "N0N1G0", "twitter": "None", "instagram": "None", "facebook": "None", "youtube": "None", "website": "None", "summary": "None", "logo": "None", "latitude": 42.88113538386507, "longitude": -82.43913431279931}, "888527025RR0001": {"name": "Missions la Bible Parle (M.B.P.)", "designationCode": "C", "categoryCode": "09", "address": "790 18E AV", "city": "LAVAL", "province": "QC", "country": "CA", "postalCode": "H7R4P3", "twitter": "None", "instagram": "None", "facebook": "None", "youtube": "None", "website": "None", "summary": "None", "logo": "None", "latitude": 45.55888039771488, "longitude": -73.8516348475098}, "829828490RR0001": {"name": "Missions on the Move", "designationCode": "B", "categoryCode": "47", "address": "7118 SUMAS PRAIRIE RD", "city": "CHILLIWACK", "province": "BC", "country": "CA", "postalCode": "V2R4K1", "twitter": "None", "instagram": "None", "facebook": "None", "youtube": "None", "website": "None", "summary": "None", "logo": "None", "latitude": 49.131134664723874, "longitude": -122.04545153494162}, "793248899RR0001": {"name": "Missions Education Fund", "designationCode": "C", "categoryCode": "09", "address": "14 ST ANDREWS RD", "city": "SCARBOROUGH", "province": "ON", "country": "CA", "postalCode": "M1P4C4", "twitter": "None", "instagram": "None", "facebook": "None", "youtube": "None", "website": "None", "summary": "None", "logo": "None", "latitude": 43.762009387760216, "longitude": -79.25754038467313}, "843491101RR0001": {"name": "Missions Esqui-Mo Inc.", "designationCode": "B", "categoryCode": "45", "address": "1 PLACE VILLE-MARIE           5E \u00c9TAGE SUD", "city": "MONTR\u00c9AL", "province": "QC", "country": "CA", "postalCode": "H3B2B2", "twitter": "None", "instagram": "None", "facebook": "None", "youtube": "None", "website": "None", "summary": "None", "logo": "None", "latitude": 45.50188724476333, "longitude": -73.56787382018557}, "119104891RR0001": {"name": "Missions J\u00e9suites", "designationCode": "C", "categoryCode": "47", "address": "25, RUE JARRY OUEST", "city": "MONTREAL", "province": "QC", "country": "CA", "postalCode": "H2P1S6", "twitter": "None", "instagram": "None", "facebook": "None", "youtube": "None", "website": "None", "summary": "None", "logo": "None", "latitude": 45.53849931447277, "longitude": -73.63160199685467}, "131135808RR0001": {"name": "Missions Sainte-Croix", "designationCode": "C", "categoryCode": "47", "address": "4901 RUE PIEDMONT", "city": "MONTREAL", "province": "QC", "country": "CA", "postalCode": "H3V1E3", "twitter": "None", "instagram": "None", "facebook": "None", "youtube": "None", "website": "None", "summary": "None", "logo": "None", "latitude": 45.49437641078528, "longitude": -73.61616300470321}, "119042471RR0001": {"name": "MissionPREP Inc.", "designationCode": "C", "categoryCode": "47", "address": "PO BOX 92204                  2900 WARDEN AVE", "city": "TORONTO", "province": "ON", "country": "CA", "postalCode": "M1W3Y9", "twitter": "None", "instagram": "None", "facebook": "None", "youtube": "None", "website": "None", "summary": "None", "logo": "None", "latitude": 43.79846671998633, "longitude": -79.31660975219654}, "107685786RR0001": {"name": "Mississauga Christian Academy & Daycare", "designationCode": "C", "categoryCode": "20", "address": "2720 GANANOQUE DR", "city": "MISSISSAUGA", "province": "ON", "country": "CA", "postalCode": "L5N2R2", "twitter": "None", "instagram": "None", "facebook": "None", "youtube": "None", "website": "None", "summary": "None", "logo": "None", "latitude": 43.59183487647883, "longitude": -79.76267294543844}, "812043693RR0001": {"name": "Mississauga Church of Christ", "designationCode": "C", "categoryCode": "39", "address": "9 RAPALLO MEWS", "city": "MISSISSAUGA", "province": "ON", "country": "CA", "postalCode": "L5N1K8", "twitter": "None", "instagram": "None", "facebook": "None", "youtube": "None", "website": "None", "summary": "None", "logo": "None", "latitude": 43.600252409400305, "longitude": -79.72630135053956}, "821703543RR0001": {"name": "Mississauga Grace Missionary Baptist Church", "designationCode": "C", "categoryCode": "39", "address": "7-3600B LAIRD RD", "city": "MISSISSAUGA", "province": "ON", "country": "CA", "postalCode": "L5L6A7", "twitter": "None", "instagram": "None", "facebook": "None", "youtube": "None", "website": "None", "summary": "None", "logo": "None", "latitude": 43.520577388024215, "longitude": -79.70506535868753}, "815016043RR0001": {"name": "Mississauga Lakeshore Rotary Club Foundation", "designationCode": "A", "categoryCode": "03", "address": "2000 THE COLLEGEWAY           UNIT 13", "city": "MISSISSAUGA", "province": "ON", "country": "CA", "postalCode": "L5L5Y9", "twitter": "None", "instagram": "None", "facebook": "None", "youtube": "None", "website": "None", "summary": "None", "logo": "None", "latitude": 43.54579955126913, "longitude": -79.67254851708971}, "863170320RR0001": {"name": "Mississauga Mandarin Association", "designationCode": "C", "categoryCode": "09", "address": "1 - 4020A SLADEVIEW CRES", "city": "MISSISSAUGA", "province": "ON", "country": "CA", "postalCode": "L5L6B1", "twitter": "None", "instagram": "None", "facebook": "None", "youtube": "None", "website": "None", "summary": "None", "logo": "None", "latitude": 43.52581389609009, "longitude": -79.71559297132356}, "850134305RR0001": {"name": "Mississauga Multicultural Christian Outreach", "designationCode": "B", "categoryCode": "47", "address": "1512 - 2170 SHEROBEE ROAD", "city": "MISSISSAUGA", "province": "ON", "country": "CA", "postalCode": "L5A3P8", "twitter": "None", "instagram": "None", "facebook": "None", "youtube": "None", "website": "None", "summary": "None", "logo": "None", "latitude": 43.57281705239811, "longitude": -79.6021592058683}, "878591007RR0001": {"name": "Mississippi Madawaska Land Trust", "designationCode": "C", "categoryCode": "52", "address": "10970 HIGHWAY 7", "city": "CARLETON PLACE", "province": "ON", "country": "CA", "postalCode": "K7C3P1", "twitter": "None", "instagram": "None", "facebook": "None", "youtube": "None", "website": "None", "summary": "None", "logo": "None", "latitude": 45.124730765623326, "longitude": -76.15185500433114}, "810447037RR0001": {"name": "Mistawasis Memorial Presbyterian Church", "designationCode": "C", "categoryCode": "37", "address": "POST OFFICE BOX 431           24 MAIN STREET", "city": "LEASK", "province": "SK", "country": "CA", "postalCode": "S0J1M0", "twitter": "None", "instagram": "None", "facebook": "None", "youtube": "None", "website": "None", "summary": "None", "logo": "None", "latitude": 53.52550051423891, "longitude": -106.88021990137936}, "818663114RR0001": {"name": "Mistera Foundation", "designationCode": "B", "categoryCode": "03", "address": "PO BOX 42071                  RPO CONESTOGA MALL", "city": "WATERLOO", "province": "ON", "country": "CA", "postalCode": "N2L6K5", "twitter": "None", "instagram": "None", "facebook": "None", "youtube": "None", "website": "None", "summary": "None", "logo": "None", "latitude": 43.49840000000006, "longitude": -80.52512999999999}, "765475892RR0001": {"name": "Mitchell Christian Assembly", "designationCode": "C", "categoryCode": "39", "address": "267 52 HWY", "city": "MITCHELL", "province": "MB", "country": "CA", "postalCode": "R5G1J1", "twitter": "None", "instagram": "None", "facebook": "None", "youtube": "None", "website": "None", "summary": "None", "logo": "None", "latitude": 49.53207962072403, "longitude": -96.77457000598407}, "819861139RR0001": {"name": "Mitchell Legacy Foundation", "designationCode": "A", "categoryCode": "03", "address": "520 3RD AVENUE SOUTHWEST      SUITE 1900", "city": "CALGARY", "province": "AB", "country": "CA", "postalCode": "T2P0R3", "twitter": "None", "instagram": "None", "facebook": "None", "youtube": "None", "website": "None", "summary": "None", "logo": "None", "latitude": 51.05066125846953, "longitude": -114.07192277332256}, "812586667RR0001": {"name": "MitoCanada Foundation", "designationCode": "C", "categoryCode": "11", "address": "300-3310 SOUTH SERVICE RD", "city": "BURLINGTON", "province": "ON", "country": "CA", "postalCode": "L7N3M6", "twitter": "None", "instagram": "None", "facebook": "None", "youtube": "None", "website": "None", "summary": "None", "logo": "None", "latitude": 43.36004398525617, "longitude": -79.79444022947122}, "817522956RR0001": {"name": "Miziwe Biik Foundation", "designationCode": "A", "categoryCode": "23", "address": "167 GERRARD STREET EAST", "city": "TORONTO", "province": "ON", "country": "CA", "postalCode": "M5A2E4", "twitter": "None", "instagram": "None", "facebook": "None", "youtube": "None", "website": "None", "summary": "None", "logo": "None", "latitude": 43.66081983484345, "longitude": -79.37394403774024}, "790254122RR0001": {"name": "Mizo Mission", "designationCode": "C", "categoryCode": "09", "address": "74 PORTAGE TRAIL", "city": "WHITBY", "province": "ON", "country": "CA", "postalCode": "L1N9N8", "twitter": "None", "instagram": "None", "facebook": "None", "youtube": "None", "website": "None", "summary": "None", "logo": "None", "latitude": 43.85305218347842, "longitude": -78.9526577035893}, "841898174RR0001": {"name": "Mizpah Prayer Centre Inc.", "designationCode": "C", "categoryCode": "39", "address": "3 ORANGE TREE GATE", "city": "BRAMPTON", "province": "ON", "country": "CA", "postalCode": "L7A2A7", "twitter": "None", "instagram": "None", "facebook": "None", "youtube": "None", "website": "None", "summary": "None", "logo": "None", "latitude": 43.68203468858566, "longitude": -79.8240652919673}, "849455662RR0001": {"name": "Mobile Giving Foundation Canada / Fondation des dons mobilesdu Canada", "designationCode": "A", "categoryCode": "99", "address": "80 ELGIN STREET,              SUITE 300", "city": "OTTAWA", "province": "ON", "country": "CA", "postalCode": "K1P6R2", "twitter": "None", "instagram": "None", "facebook": "None", "youtube": "None", "website": "None", "summary": "None", "logo": "None", "latitude": 45.422872062987025, "longitude": -75.6946388688901}, "859475386RR0001": {"name": "Mobilisation Espoir Jeunesse", "designationCode": "C", "categoryCode": "09", "address": "5-42 PRINCIPALE NORD", "city": "AMOS", "province": "QC", "country": "CA", "postalCode": "J9T2K6", "twitter": "None", "instagram": "None", "facebook": "None", "youtube": "None", "website": "None", "summary": "None", "logo": "None", "latitude": 48.57266658090484, "longitude": -78.1159485156388}, "819768987RR0001": {"name": "Mobilit\u00e9 Qu\u00e9bec Quebec Mobility", "designationCode": "B", "categoryCode": "09", "address": "103 - 1700 RUE ISABELLE-AUBERT", "city": "QUEBEC", "province": "QC", "country": "CA", "postalCode": "G1M3X9", "twitter": "None", "instagram": "None", "facebook": "None", "youtube": "None", "website": "None", "summary": "None", "logo": "None", "latitude": 46.81761280099835, "longitude": -71.24431041892227}, "849352984RR0001": {"name": "Moccasin Footprint Society", "designationCode": "C", "categoryCode": "22", "address": "3690 MOUNTAIN HOUSE RD", "city": "WILLIAMS LAKE", "province": "BC", "country": "CA", "postalCode": "V2G5L5", "twitter": "None", "instagram": "None", "facebook": "None", "youtube": "None", "website": "None", "summary": "None", "logo": "None", "latitude": 52.26873900000005, "longitude": -122.12390149999993}, "821134707RR0001": {"name": "Modern Chronic Diseases Conquest Lifestyle Centre", "designationCode": "C", "categoryCode": "11", "address": "25 CORKWOOD CRESCENT", "city": "VAUGHAN", "province": "ON", "country": "CA", "postalCode": "L6A3B9", "twitter": "None", "instagram": "None", "facebook": "None", "youtube": "None", "website": "None", "summary": "None", "logo": "None", "latitude": 43.86548089312724, "longitude": -79.51878329058232}, "818945065RR0001": {"name": "Modular Building Institute Canadian Foundation", "designationCode": "C", "categoryCode": "21", "address": "39 RIVER STREET", "city": "TORONTO", "province": "ON", "country": "CA", "postalCode": "M5A3P1", "twitter": "None", "instagram": "None", "facebook": "None", "youtube": "None", "website": "None", "summary": "None", "logo": "None", "latitude": 43.65859178296493, "longitude": -79.35701704022175}, "100302702RR0001": {"name": "Moelle \u00e9pini\u00e8re et motricit\u00e9 Qu\u00e9bec", "designationCode": "C", "categoryCode": "11", "address": "400-6020 RUE JEAN TALON", "city": "MONTREAL", "province": "QC", "country": "CA", "postalCode": "H1S3B1", "twitter": "None", "instagram": "None", "facebook": "None", "youtube": "None", "website": "None", "summary": "None", "logo": "None", "latitude": 45.58735333859434, "longitude": -73.57867655006083}, "756517322RR0001": {"name": "Moez & Marissa Kassam Foundation", "designationCode": "B", "categoryCode": "03", "address": "207 - 155 UNIVERSITY AVE", "city": "TORONTO", "province": "ON", "country": "CA", "postalCode": "M5H3B7", "twitter": "None", "instagram": "None", "facebook": "None", "youtube": "None", "website": "None", "summary": "None", "logo": "None", "latitude": 43.648413746061394, "longitude": -79.38525332731295}, "894945633RR0074": {"name": "Mohabat Church", "designationCode": "C", "categoryCode": "39", "address": "3250 FINCH AVE E", "city": "SCARBOROUGH", "province": "ON", "country": "CA", "postalCode": "M1W2Y1", "twitter": "None", "instagram": "None", "facebook": "None", "youtube": "None", "website": "None", "summary": "None", "logo": "None", "latitude": 43.79589603921119, "longitude": -79.31944031213548}, "844334979RR0001": {"name": "Mohammad H. Mohseni Charitable Foundation", "designationCode": "B", "categoryCode": "05", "address": "4857 BELMONT AVENUE", "city": "VANCOUVER", "province": "BC", "country": "CA", "postalCode": "V6T1A8", "twitter": "None", "instagram": "None", "facebook": "None", "youtube": "None", "website": "None", "summary": "None", "logo": "None", "latitude": 49.27524636727398, "longitude": -123.22252579796856}, "752614529RR0001": {"name": "Mohawk Village Memorial Park", "designationCode": "C", "categoryCode": "50", "address": "7091 TOWNLINE ROAD", "city": "SCOTLAND", "province": "ON", "country": "CA", "postalCode": "N0E1R0", "twitter": "None", "instagram": "None", "facebook": "None", "youtube": "None", "website": "None", "summary": "None", "logo": "None", "latitude": 43.04510700000006, "longitude": -80.33617699999994}, "816666556RR0001": {"name": "Mohra Sharif Islamic Centre", "designationCode": "B", "categoryCode": "60", "address": "D1 - 31 OPRINGTON DR", "city": "KITCHENER", "province": "ON", "country": "CA", "postalCode": "N2N3G3", "twitter": "None", "instagram": "None", "facebook": "None", "youtube": "None", "website": "None", "summary": "None", "logo": "None", "latitude": 43.43368503246012, "longitude": -80.53233876138123}, "797236726RR0001": {"name": "Moira & David Foundation", "designationCode": "B", "categoryCode": "03", "address": "2002-1495 RICHARDS ST", "city": "VANCOUVER", "province": "BC", "country": "CA", "postalCode": "V6Z3E3", "twitter": "None", "instagram": "None", "facebook": "None", "youtube": "None", "website": "None", "summary": "None", "logo": "None", "latitude": 49.273294507312926, "longitude": -123.12832129555235}, "843209784RR0001": {"name": "Moisson Haut-Saint-Fran\u00e7ois", "designationCode": "C", "categoryCode": "09", "address": "107 - 57 RUE CRAIG N", "city": "COOKSHIRE-EATON", "province": "QC", "country": "CA", "postalCode": "J0B1M0", "twitter": "None", "instagram": "None", "facebook": "None", "youtube": "None", "website": "None", "summary": "None", "logo": "None", "latitude": 45.42063789951404, "longitude": -71.63157558292836}, "844208017RR0001": {"name": "Mokmin Presbyterian Church", "designationCode": "C", "categoryCode": "37", "address": "159 FINCH AVENUE WEST", "city": "TORONTO", "province": "ON", "country": "CA", "postalCode": "M2N2J1", "twitter": "None", "instagram": "None", "facebook": "None", "youtube": "None", "website": "None", "summary": "None", "logo": "None", "latitude": 43.776707816521586, "longitude": -79.42921490285076}, "811256379RR0001": {"name": "Moksh Dwar Hindu Cremation Services", "designationCode": "C", "categoryCode": "50", "address": "1190 MID-WAY BLVD             UNIT 13", "city": "MISSISSAUGA", "province": "ON", "country": "CA", "postalCode": "L5T2B9", "twitter": "None", "instagram": "None", "facebook": "None", "youtube": "None", "website": "None", "summary": "None", "logo": "None", "latitude": 43.662875540544036, "longitude": -79.67084693478017}, "119044121RR0001": {"name": "Molson Coors Canada Donations Fund - Fonds de bienfaisance Molson Coors Canada", "designationCode": "B", "categoryCode": "03", "address": "33 CARLINGVIEW DRIVE", "city": "TORONTO", "province": "ON", "country": "CA", "postalCode": "M9W5E4", "twitter": "None", "instagram": "None", "facebook": "None", "youtube": "None", "website": "None", "summary": "None", "logo": "None", "latitude": 43.674352698337835, "longitude": -79.58988938274082}, "828881904RR0001": {"name": "Mom to Mom Child Poverty Initiative Society", "designationCode": "C", "categoryCode": "09", "address": "500 - 610 MAIN ST", "city": "VANCOUVER", "province": "BC", "country": "CA", "postalCode": "V6A2V3", "twitter": "None", "instagram": "None", "facebook": "None", "youtube": "None", "website": "None", "summary": "None", "logo": "None", "latitude": 49.279329707163114, "longitude": -123.09969365930993}, "807907514RR0001": {"name": "Momentum Choir", "designationCode": "C", "categoryCode": "22", "address": "3679 NINTH STREET", "city": "ST. CATHARINES", "province": "ON", "country": "CA", "postalCode": "L2R6P7", "twitter": "None", "instagram": "None", "facebook": "None", "youtube": "None", "website": "None", "summary": "None", "logo": "None", "latitude": 43.14434486955392, "longitude": -79.31719340132156}, "829336957RR0001": {"name": "Mon chez moi", "designationCode": "C", "categoryCode": "01", "address": "85, 17E AVENUE", "city": "DEUX-MONTAGNES", "province": "QC", "country": "CA", "postalCode": "J7R3Z3", "twitter": "None", "instagram": "None", "facebook": "None", "youtube": "None", "website": "None", "summary": "None", "logo": "None", "latitude": 45.53410933694958, "longitude": -73.89595229626646}, "850007832RR0001": {"name": "Mon shack... Mes choix... Mon avenir !", "designationCode": "C", "categoryCode": "09", "address": "3315, DE LA ROCAILLE", "city": "SHERBROOKE", "province": "QC", "country": "CA", "postalCode": "J1N4K7", "twitter": "None", "instagram": "None", "facebook": "None", "youtube": "None", "website": "None", "summary": "None", "logo": "None", "latitude": 45.35253249567217, "longitude": -71.95976391771018}, "851888412RR0001": {"name": "Mon Sac d'\u00e9cole / My School Bag", "designationCode": "C", "categoryCode": "09", "address": "4894 BOULEVARD DES SOURCES    C.P. 43516", "city": "DOLLARD DES ORMEAUX", "province": "QC", "country": "CA", "postalCode": "H8Y3P4", "twitter": "None", "instagram": "None", "facebook": "None", "youtube": "None", "website": "None", "summary": "None", "logo": "None", "latitude": 45.5045907218825, "longitude": -73.81796400753048}, "812004323RR0001": {"name": "Mona & Nav Aggarwal Foundation", "designationCode": "B", "categoryCode": "03", "address": "3 STAGHORN GREEN", "city": "OTTAWA", "province": "ON", "country": "CA", "postalCode": "K2R1A2", "twitter": "None", "instagram": "None", "facebook": "None", "youtube": "None", "website": "None", "summary": "None", "logo": "None", "latitude": 45.278574422701844, "longitude": -75.78937999241126}, "804341147RR0001": {"name": "Monarch Educare Solutions Inc.", "designationCode": "C", "categoryCode": "20", "address": "970 BONNIEVIEW AVE.", "city": "BURLINGTON", "province": "ON", "country": "CA", "postalCode": "L7T1T5", "twitter": "None", "instagram": "None", "facebook": "None", "youtube": "None", "website": "None", "summary": "None", "logo": "None", "latitude": 43.28983739327148, "longitude": -79.8720187460614}, "870598034RR0001": {"name": "Monarch Recovery Services", "designationCode": "C", "categoryCode": "57", "address": "405 RAMSEY RD", "city": "SUDBURY", "province": "ON", "country": "CA", "postalCode": "P3E2Z5", "twitter": "None", "instagram": "None", "facebook": "None", "youtube": "None", "website": "None", "summary": "None", "logo": "None", "latitude": 46.48391084656266, "longitude": -80.98829116409176}, "825430770RR0001": {"name": "Monast\u00e8re b\u00e9n\u00e9dictin Sainte-Famille", "designationCode": "C", "categoryCode": "46", "address": "522 AV DU COUVENT", "city": "SAINT-PATRICE-DE-BEAURIVAGE", "province": "QC", "country": "CA", "postalCode": "G0S1B0", "twitter": "None", "instagram": "None", "facebook": "None", "youtube": "None", "website": "None", "summary": "None", "logo": "None", "latitude": 46.40971338634659, "longitude": -71.23733457908716}, "118989276RR0010": {"name": "Monastere St-Alphonse", "designationCode": "C", "categoryCode": "46", "address": "805 RUE VILLERAY", "city": "MONTREAL", "province": "QC", "country": "CA", "postalCode": "H2R1J4", "twitter": "None", "instagram": "None", "facebook": "None", "youtube": "None", "website": "None", "summary": "None", "logo": "None", "latitude": 45.544567661953906, "longitude": -73.62075407106575}, "823536131RR0001": {"name": "Monastery of Saint Silouan the Athonite", "designationCode": "C", "categoryCode": "46", "address": "2801 NEWMAN RD,  RR5", "city": "SPENCERVILLE", "province": "ON", "country": "CA", "postalCode": "K0E1X0", "twitter": "None", "instagram": "None", "facebook": "None", "youtube": "None", "website": "None", "summary": "None", "logo": "None", "latitude": 44.7752095422419, "longitude": -75.49959782546662}, "815578562RR0001": {"name": "Moncton Chinese Alliance Church", "designationCode": "C", "categoryCode": "39", "address": "172 WEST LANE", "city": "MONCTON", "province": "NB", "country": "CA", "postalCode": "E1C6V2", "twitter": "None", "instagram": "None", "facebook": "None", "youtube": "None", "website": "None", "summary": "None", "logo": "None", "latitude": 46.104722874545594, "longitude": -64.80311399835522}}