{"131157984RR0001": {"name": "CENTRE CHR\u00c9TIEN M\u00c9TROPOLITAIN", "designationCode": "C", "categoryCode": "39", "address": "6956 ST-DENIS", "city": "MONTREAL", "province": "QC", "country": "CA", "postalCode": "H2S2S4", "twitter": "None", "instagram": "None", "facebook": "None", "youtube": "None", "website": "None", "summary": "None", "logo": "None", "latitude": 45.53723677127951, "longitude": -73.61223531906039}, "138187802RR0001": {"name": "CENTRE CHR\u00c9TIEN SOREL", "designationCode": "C", "categoryCode": "36", "address": "144 DAUPLAISE", "city": "SOREL-TRACY", "province": "QC", "country": "CA", "postalCode": "J3P8A8", "twitter": "None", "instagram": "None", "facebook": "None", "youtube": "None", "website": "None", "summary": "None", "logo": "None", "latitude": 46.027244728230485, "longitude": -73.09662938216297}, "862867520RR0001": {"name": "CENTRE CHR\u00c9TIEN SOURCE DE VIE", "designationCode": "C", "categoryCode": "39", "address": "445 RUE BLANCHARD", "city": "SAINT-JEROME", "province": "QC", "country": "CA", "postalCode": "J7Y3K8", "twitter": "None", "instagram": "None", "facebook": "None", "youtube": "None", "website": "None", "summary": "None", "logo": "None", "latitude": 45.76628865583707, "longitude": -74.01261988409621}, "889119293RR0001": {"name": "CENTRE CHR\u00c9TIEN TOUT \u00c0 TOUS INC.", "designationCode": "C", "categoryCode": "47", "address": "806 RUE DE LA VOLIERE APT#1", "city": "GRANBY", "province": "QC", "country": "CA", "postalCode": "J2J2K7", "twitter": "None", "instagram": "None", "facebook": "None", "youtube": "None", "website": "None", "summary": "None", "logo": "None", "latitude": 45.38534046768412, "longitude": -72.75318578143572}, "133593780RR0001": {"name": "CENTRE CHRETIEN D'AMQUI", "designationCode": "C", "categoryCode": "36", "address": "6 RANG SAINT-PAUL", "city": "AMQUI", "province": "QC", "country": "CA", "postalCode": "G5J3H9", "twitter": "None", "instagram": "None", "facebook": "None", "youtube": "None", "website": "None", "summary": "None", "logo": "None", "latitude": 48.45125939993658, "longitude": -67.4356350769228}, "118896125RR0002": {"name": "CENTRE CHRETIEN DE LA BEAUCE", "designationCode": "C", "categoryCode": "47", "address": "1426 RUE NOTRE-DAME N", "city": "SAINTE-MARIE", "province": "QC", "country": "CA", "postalCode": "G6E2M3", "twitter": "None", "instagram": "None", "facebook": "None", "youtube": "None", "website": "None", "summary": "None", "logo": "None", "latitude": 46.46032298364005, "longitude": -71.04906113566888}, "845134360RR0001": {"name": "CENTRE CHRETIEN DES BOIS-FRANCS", "designationCode": "C", "categoryCode": "39", "address": "889, RUE NOTRE-DAME OUEST", "city": "VICTORIAVILLE", "province": "QC", "country": "CA", "postalCode": "G6P7L1", "twitter": "None", "instagram": "None", "facebook": "None", "youtube": "None", "website": "None", "summary": "None", "logo": "None", "latitude": 46.0541046233483, "longitude": -71.98730935622372}, "118844331RR0001": {"name": "CENTRE CHRETIEN DES SEPT-ILES", "designationCode": "C", "categoryCode": "36", "address": "569 BROCHU", "city": "SEPT-ILES", "province": "QC", "country": "CA", "postalCode": "G4R2X4", "twitter": "None", "instagram": "None", "facebook": "None", "youtube": "None", "website": "None", "summary": "None", "logo": "None", "latitude": 50.208827407698195, "longitude": -66.38857026842264}, "129714192RR0001": {"name": "CENTRE CHRETIEN EVANGELIQUE", "designationCode": "C", "categoryCode": "36", "address": "978 RUE PRINCIPALE", "city": "BERESFORD", "province": "NB", "country": "CA", "postalCode": "E8K2H6", "twitter": "None", "instagram": "None", "facebook": "None", "youtube": "None", "website": "None", "summary": "None", "logo": "None", "latitude": 47.691113844927365, "longitude": -65.70034445724576}, "893378208RR0001": {"name": "CENTRE CHRETIEN EVANGELIQUE MINISTERE (LA PAROLE)", "designationCode": "C", "categoryCode": "39", "address": "C.P. 399", "city": "MATHESON", "province": "ON", "country": "CA", "postalCode": "P0K1N0", "twitter": "None", "instagram": "None", "facebook": "None", "youtube": "None", "website": "None", "summary": "None", "logo": "None", "latitude": 47.939021365267664, "longitude": -80.64671962909361}, "801731472RR0001": {"name": "CENTRE CHRETIEN L'HERITAGE / HERITAGE CHRISTIAN CENTRE", "designationCode": "C", "categoryCode": "47", "address": "2691 BOUL DU CURE-LABELLE", "city": "PREVOST", "province": "QC", "country": "CA", "postalCode": "J0R1T0", "twitter": "None", "instagram": "None", "facebook": "None", "youtube": "None", "website": "None", "summary": "None", "logo": "None", "latitude": 45.845116552339846, "longitude": -74.0624595277865}, "131545071RR0001": {"name": "CENTRE CHRETIEN LA SARRE", "designationCode": "C", "categoryCode": "36", "address": "16 7E AVENUE O", "city": "LA SARRE", "province": "QC", "country": "CA", "postalCode": "J9Z1M1", "twitter": "None", "instagram": "None", "facebook": "None", "youtube": "None", "website": "None", "summary": "None", "logo": "None", "latitude": 48.8032004787926, "longitude": -79.206201}, "106889975RR0001": {"name": "CENTRE CHRETIEN MANICOUAGAN", "designationCode": "C", "categoryCode": "36", "address": "49 AVENUE BABEL", "city": "BAIE-COMEAU", "province": "QC", "country": "CA", "postalCode": "G4Z1Z1", "twitter": "None", "instagram": "None", "facebook": "None", "youtube": "None", "website": "None", "summary": "None", "logo": "None", "latitude": 49.21225679713184, "longitude": -68.17214317972751}, "812011328RR0001": {"name": "CENTRE CHRIST EN ACTION OTTAWA", "designationCode": "C", "categoryCode": "39", "address": "12-380 MONTREAL ROAD", "city": "VANIER", "province": "ON", "country": "CA", "postalCode": "K1L6A9", "twitter": "None", "instagram": "None", "facebook": "None", "youtube": "None", "website": "None", "summary": "None", "logo": "None", "latitude": 45.43840816175236, "longitude": -75.65493232552394}, "891134470RR0001": {"name": "CENTRE COMMUNAUTAIRE \"BON COURAGE\" DE PLACE BENOIT", "designationCode": "C", "categoryCode": "09", "address": "2-155 PLACE BENOIT", "city": "SAINT-LAURENT", "province": "QC", "country": "CA", "postalCode": "H4N2H4", "twitter": "None", "instagram": "None", "facebook": "None", "youtube": "None", "website": "None", "summary": "None", "logo": "None", "latitude": 45.51613347661503, "longitude": -73.66240753151008}, "866849086RR0001": {"name": "CENTRE COMMUNAUTAIRE \"ENTRE-NOUS\"", "designationCode": "C", "categoryCode": "09", "address": "175 RUE FRONT", "city": "GATINEAU", "province": "QC", "country": "CA", "postalCode": "J9H5S9", "twitter": "None", "instagram": "None", "facebook": "None", "youtube": "None", "website": "None", "summary": "None", "logo": "None", "latitude": 45.40515619539499, "longitude": -75.85460118598857}, "892391855RR0001": {"name": "CENTRE COMMUNAUTAIRE \"L'ECLAIRCIE\"", "designationCode": "C", "categoryCode": "09", "address": "330 CH PRINCIPAL              BUREAU 401", "city": "CAP-AUX-MEULES", "province": "QC", "country": "CA", "postalCode": "G4T1C9", "twitter": "None", "instagram": "None", "facebook": "None", "youtube": "None", "website": "None", "summary": "None", "logo": "None", "latitude": 47.37806428195531, "longitude": -61.865380513676904}, "140778945RR0001": {"name": "CENTRE COMMUNAUTAIRE AHAVAS CHESED INC/AHAVAS CHESED COMMUNITY CENTER INC", "designationCode": "C", "categoryCode": "09", "address": "102-2195 EKERS AVE", "city": "MONTREAL", "province": "QC", "country": "CA", "postalCode": "H3S1C6", "twitter": "None", "instagram": "None", "facebook": "None", "youtube": "None", "website": "None", "summary": "None", "logo": "None", "latitude": 45.51559824314721, "longitude": -73.62750419138428}, "141071860RR0002": {"name": "CENTRE COMMUNAUTAIRE BENEVOLE MATAWINIE", "designationCode": "C", "categoryCode": "09", "address": "562 RUE DE L'\u00c9GLISE", "city": "CHERTSEY", "province": "QC", "country": "CA", "postalCode": "J0K3K0", "twitter": "None", "instagram": "None", "facebook": "None", "youtube": "None", "website": "None", "summary": "None", "logo": "None", "latitude": 46.06324558523002, "longitude": -73.13442052778723}, "861296705RR0001": {"name": "CENTRE COMMUNAUTAIRE CEFEDI", "designationCode": "C", "categoryCode": "09", "address": "102 - 6540 AV PAPINEAU", "city": "MONTREAL", "province": "QC", "country": "CA", "postalCode": "H2G2X2", "twitter": "None", "instagram": "None", "facebook": "None", "youtube": "None", "website": "None", "summary": "None", "logo": "None", "latitude": 45.54348884788518, "longitude": -73.59739554498226}, "865550800RR0001": {"name": "CENTRE COMMUNAUTAIRE CONGOLAIS DES A\u00ceN\u00c9S", "designationCode": "C", "categoryCode": "09", "address": "209 - 2030 BOUL PIE-IX", "city": "MONTREAL", "province": "QC", "country": "CA", "postalCode": "H1V2C8", "twitter": "None", "instagram": "None", "facebook": "None", "youtube": "None", "website": "None", "summary": "None", "logo": "None", "latitude": 45.55062515569284, "longitude": -73.54249161172018}, "862672789RR0001": {"name": "CENTRE COMMUNAUTAIRE CRI DU COEUR", "designationCode": "C", "categoryCode": "09", "address": "1280 RUE DION", "city": "VAL-DAVID", "province": "QC", "country": "CA", "postalCode": "J0T2N0", "twitter": "None", "instagram": "None", "facebook": "None", "youtube": "None", "website": "None", "summary": "None", "logo": "None", "latitude": 46.02757653596495, "longitude": -74.20772716906106}, "896444544RR0001": {"name": "CENTRE COMMUNAUTAIRE D'AIDE A LA JEUNESSE TANDEM LAC-SAINT- JEAN-EST", "designationCode": "C", "categoryCode": "09", "address": "275 BOUL. DEQUEN NORD", "city": "ALMA", "province": "QC", "country": "CA", "postalCode": "G8B5N8", "twitter": "None", "instagram": "None", "facebook": "None", "youtube": "None", "website": "None", "summary": "None", "logo": "None", "latitude": 48.55645500000006, "longitude": -71.64824749999994}, "100876481RR0001": {"name": "CENTRE COMMUNAUTAIRE D'ARTHABASKA", "designationCode": "C", "categoryCode": "56", "address": "735 BOUL DES BOIS-FRANCS SUD", "city": "VICTORIAVILLE", "province": "QC", "country": "CA", "postalCode": "G6P5W3", "twitter": "None", "instagram": "None", "facebook": "None", "youtube": "None", "website": "None", "summary": "None", "logo": "None", "latitude": 46.04352831224951, "longitude": -71.92466822379592}, "138295449RR0001": {"name": "CENTRE COMMUNAUTAIRE D'EDMONTON", "designationCode": "C", "categoryCode": "56", "address": "130, 8627 91 ST NW", "city": "EDMONTON", "province": "AB", "country": "CA", "postalCode": "T6C3N1", "twitter": "None", "instagram": "None", "facebook": "None", "youtube": "None", "website": "None", "summary": "None", "logo": "None", "latitude": 53.5223435029142, "longitude": -113.46738528455239}, "106890056RR0001": {"name": "CENTRE COMMUNAUTAIRE DAWSON/DAWSON COMMUNITY CENTRE", "designationCode": "C", "categoryCode": "09", "address": "666 RUE WOODLAND AVENUE", "city": "VERDUN", "province": "QC", "country": "CA", "postalCode": "H4H1V8", "twitter": "None", "instagram": "None", "facebook": "None", "youtube": "None", "website": "None", "summary": "None", "logo": "None", "latitude": 45.45254551399404, "longitude": -73.57391094754458}, "141915777RR0001": {"name": "CENTRE COMMUNAUTAIRE DE CHARLEVOIX", "designationCode": "C", "categoryCode": "55", "address": "367, RUE SAINT-ETIENNE", "city": "LA MALBAIE", "province": "QC", "country": "CA", "postalCode": "G5A1M3", "twitter": "None", "instagram": "None", "facebook": "None", "youtube": "None", "website": "None", "summary": "None", "logo": "None", "latitude": 47.65423718847008, "longitude": -70.14977797108924}, "100876499RR0001": {"name": "CENTRE COMMUNAUTAIRE DE CHATEAUGUAY INC.", "designationCode": "C", "categoryCode": "56", "address": "3 RUE PRINCIPALE", "city": "CHATEAUGUAY", "province": "QC", "country": "CA", "postalCode": "J6K1E7", "twitter": "None", "instagram": "None", "facebook": "None", "youtube": "None", "website": "None", "summary": "None", "logo": "None", "latitude": 45.36065655063775, "longitude": -73.7465918993883}, "899750038RR0001": {"name": "CENTRE COMMUNAUTAIRE DE FERME-NEUVE", "designationCode": "C", "categoryCode": "09", "address": "130 13E RUE", "city": "FERME-NEUVE", "province": "QC", "country": "CA", "postalCode": "J0W1C0", "twitter": "None", "instagram": "None", "facebook": "None", "youtube": "None", "website": "None", "summary": "None", "logo": "None", "latitude": 46.70254251875455, "longitude": -75.4524225}, "892655044RR0001": {"name": "CENTRE COMMUNAUTAIRE DE L'AVENUE GREENE INC./GREENE AVENUE COMMUNITY CENTER INC.", "designationCode": "C", "categoryCode": "56", "address": "1090 GREENE AVENUE", "city": "WESTMOUNT", "province": "QC", "country": "CA", "postalCode": "H3Z1Z9", "twitter": "None", "instagram": "None", "facebook": "None", "youtube": "None", "website": "None", "summary": "None", "logo": "None", "latitude": 45.48484427087549, "longitude": -73.58527793617627}, "118844430RR0001": {"name": "CENTRE COMMUNAUTAIRE DE LAVIGNE", "designationCode": "C", "categoryCode": "56", "address": "RR 1", "city": "LAVIGNE", "province": "ON", "country": "CA", "postalCode": "P0H1R0", "twitter": "None", "instagram": "None", "facebook": "None", "youtube": "None", "website": "None", "summary": "None", "logo": "None", "latitude": 46.250285901176454, "longitude": -79.26010571967217}, "119767895RR0001": {"name": "CENTRE COMMUNAUTAIRE DE LOISIR DE LA COTE DES NEIGES", "designationCode": "C", "categoryCode": "56", "address": "5347 COTE DES NEIGES", "city": "MONTREAL", "province": "QC", "country": "CA", "postalCode": "H3T1Y4", "twitter": "None", "instagram": "None", "facebook": "None", "youtube": "None", "website": "None", "summary": "None", "logo": "None", "latitude": 45.496386290899444, "longitude": -73.62230989575298}, "118844455RR0001": {"name": "CENTRE COMMUNAUTAIRE DE LOISIR SHERBROOKE INC.", "designationCode": "C", "categoryCode": "56", "address": "1010 RUE FAIRMOUNT", "city": "SHERBROOKE", "province": "QC", "country": "CA", "postalCode": "J1H3N3", "twitter": "None", "instagram": "None", "facebook": "None", "youtube": "None", "website": "None", "summary": "None", "logo": "None", "latitude": 45.3908787799065, "longitude": -71.90298391306523}, "138898036RR0001": {"name": "CENTRE COMMUNAUTAIRE DE LOISIRS SAINTE-CATHERINE D'ALEXANDRIE", "designationCode": "C", "categoryCode": "56", "address": "1700 RUE AMHERST", "city": "MONTREAL", "province": "QC", "country": "CA", "postalCode": "H2L3L5", "twitter": "None", "instagram": "None", "facebook": "None", "youtube": "None", "website": "None", "summary": "None", "logo": "None", "latitude": 45.51896782956331, "longitude": -73.56035312158794}, "130304355RR0001": {"name": "CENTRE COMMUNAUTAIRE DES AINES DE GATINEAU", "designationCode": "C", "categoryCode": "56", "address": "196 BOULEVARD NOTRE-DAME", "city": "GATINEAU", "province": "QC", "country": "CA", "postalCode": "J8P0E6", "twitter": "None", "instagram": "None", "facebook": "None", "youtube": "None", "website": "None", "summary": "None", "logo": "None", "latitude": 45.483352346904226, "longitude": -75.64859412992648}, "894309079RR0001": {"name": "CENTRE COMMUNAUTAIRE DES AINES ET AINEES DE LONGUEIL", "designationCode": "C", "categoryCode": "09", "address": "300 RUE LAMARRE SUITE 122", "city": "LONGUEUIL", "province": "QC", "country": "CA", "postalCode": "J4J0A1", "twitter": "None", "instagram": "None", "facebook": "None", "youtube": "None", "website": "None", "summary": "None", "logo": "None", "latitude": 45.53438152870923, "longitude": -73.48545941156468}, "100876689RR0001": {"name": "CENTRE COMMUNAUTAIRE DES FEMMES SUD-ASIATIQUE", "designationCode": "C", "categoryCode": "09", "address": "1035 RUE RACHEL EST, 3E ETAGE", "city": "MONTREAL", "province": "QC", "country": "CA", "postalCode": "H2J2J5", "twitter": "None", "instagram": "None", "facebook": "None", "youtube": "None", "website": "None", "summary": "None", "logo": "None", "latitude": 45.525438544001304, "longitude": -73.57486604068309}, "126076868RR0001": {"name": "CENTRE COMMUNAUTAIRE DRUMMONDVILLE-SUD INC", "designationCode": "C", "categoryCode": "56", "address": "1550 RUE ST-AIME", "city": "DRUMMONDVILLE", "province": "QC", "country": "CA", "postalCode": "J2B2S8", "twitter": "None", "instagram": "None", "facebook": "None", "youtube": "None", "website": "None", "summary": "None", "logo": "None", "latitude": 45.85838054397264, "longitude": -72.46689804804069}, "889510582RR0001": {"name": "CENTRE COMMUNAUTAIRE ET CULTUREL BOUDDHIQUE LAOTIEN", "designationCode": "C", "categoryCode": "49", "address": "3319 ROUTE 346", "city": "SAINTE JULIENNE", "province": "QC", "country": "CA", "postalCode": "J0K2T0", "twitter": "None", "instagram": "None", "facebook": "None", "youtube": "None", "website": "None", "summary": "None", "logo": "None", "latitude": 45.97088390026443, "longitude": -73.68583398071837}, "118844489RR0001": {"name": "CENTRE COMMUNAUTAIRE FRANCOPHONE DE CAMBRIDGE", "designationCode": "C", "categoryCode": "56", "address": "647 FRANKLIN BLVD", "city": "CAMBRIDGE", "province": "ON", "country": "CA", "postalCode": "N1R7Z1", "twitter": "None", "instagram": "None", "facebook": "None", "youtube": "None", "website": "None", "summary": "None", "logo": "None", "latitude": 43.37632110519932, "longitude": -80.29739871158206}, "889362695RR0001": {"name": "CENTRE COMMUNAUTAIRE HOCHELAGA", "designationCode": "C", "categoryCode": "56", "address": "1884, RUE SAINT-GERMAIN", "city": "MONTREAL", "province": "QC", "country": "CA", "postalCode": "H1W2T6", "twitter": "None", "instagram": "None", "facebook": "None", "youtube": "None", "website": "None", "summary": "None", "logo": "None", "latitude": 45.54137307187381, "longitude": -73.545960608806}, "131658437RR0001": {"name": "CENTRE COMMUNAUTAIRE JEUNESSE UNIE DE PARC EXTENSION", "designationCode": "C", "categoryCode": "09", "address": "7060 BLOOMFIELD", "city": "MONTREAL", "province": "QC", "country": "CA", "postalCode": "H3N2G8", "twitter": "None", "instagram": "None", "facebook": "None", "youtube": "None", "website": "None", "summary": "None", "logo": "None", "latitude": 45.527130053551964, "longitude": -73.6232683246003}, "868885997RR0001": {"name": "CENTRE COMMUNAUTAIRE JURIDIQUE DE MONTREAL", "designationCode": "C", "categoryCode": "59", "address": "600-425 BOUL DE MAISONNEUVE O", "city": "MONTR\u00c9AL", "province": "QC", "country": "CA", "postalCode": "H3A3K5", "twitter": "None", "instagram": "None", "facebook": "None", "youtube": "None", "website": "None", "summary": "None", "logo": "None", "latitude": 45.50285076742921, "longitude": -73.57279059303691}, "120592274RR0001": {"name": "CENTRE COMMUNAUTAIRE L'ENTRAIDE PLUS INC", "designationCode": "C", "categoryCode": "09", "address": "2437 AV BOURGOGNE", "city": "CHAMBLY", "province": "QC", "country": "CA", "postalCode": "J3L2A5", "twitter": "None", "instagram": "None", "facebook": "None", "youtube": "None", "website": "None", "summary": "None", "logo": "None", "latitude": 45.44388122482536, "longitude": -73.26380907548048}, "866553068RR0001": {"name": "CENTRE COMMUNAUTAIRE LA LUMIERE DU LENDEMAIN", "designationCode": "C", "categoryCode": "21", "address": "SUITE 4 - 8052 ST-MICHEL", "city": "MONTREAL", "province": "QC", "country": "CA", "postalCode": "H1Z3E1", "twitter": "None", "instagram": "None", "facebook": "None", "youtube": "None", "website": "None", "summary": "None", "logo": "None", "latitude": 45.563506734635794, "longitude": -73.60913216253083}, "888986775RR0001": {"name": "CENTRE COMMUNAUTAIRE LA PATIENCE", "designationCode": "C", "categoryCode": "21", "address": "C.P. 198, SUCC. MONTREAL", "city": "MONTREAL-NORD", "province": "QC", "country": "CA", "postalCode": "H1H5L2", "twitter": "None", "instagram": "None", "facebook": "None", "youtube": "None", "website": "None", "summary": "None", "logo": "None", "latitude": 45.59489700000006, "longitude": -73.63948399999994}, "118844513RR0001": {"name": "CENTRE COMMUNAUTAIRE LE RENDEZ-VOUS", "designationCode": "C", "categoryCode": "59", "address": "160 RUE FRERE-DOMINIQUE", "city": "NICOLET", "province": "QC", "country": "CA", "postalCode": "J3T1K6", "twitter": "None", "instagram": "None", "facebook": "None", "youtube": "None", "website": "None", "summary": "None", "logo": "None", "latitude": 46.234201014138264, "longitude": -72.60629711506706}, "130764061RR0001": {"name": "CENTRE COMMUNAUTAIRE LE RENDEZ-VOUS DES AINES(ES) (LAVAL) INC.", "designationCode": "C", "categoryCode": "56", "address": "10 RUE PROULX OUEST", "city": "LAVAL DES RAPIDES", "province": "QC", "country": "CA", "postalCode": "H7N1N3", "twitter": "None", "instagram": "None", "facebook": "None", "youtube": "None", "website": "None", "summary": "None", "logo": "None", "latitude": 45.568072456835395, "longitude": -73.69126738605812}, "118844521RR0001": {"name": "CENTRE COMMUNAUTAIRE MELKITE DE SAINT SAUVEUR MONTREAL", "designationCode": "C", "categoryCode": "56", "address": "10025 BOUL. DE L'ACADIE", "city": "MONTREAL", "province": "QC", "country": "CA", "postalCode": "H4N2S1", "twitter": "None", "instagram": "None", "facebook": "None", "youtube": "None", "website": "None", "summary": "None", "logo": "None", "latitude": 45.5347652023772, "longitude": -73.67196864920064}, "144428190RR0001": {"name": "CENTRE COMMUNAUTAIRE MOUNTAIN SIGHTS", "designationCode": "C", "categoryCode": "09", "address": "7802 MOUNTAIN SIGHTS", "city": "MONTREAL", "province": "QC", "country": "CA", "postalCode": "H4P2B2", "twitter": "None", "instagram": "None", "facebook": "None", "youtube": "None", "website": "None", "summary": "None", "logo": "None", "latitude": 45.497917959749586, "longitude": -73.65487914821968}, "874716392RR0001": {"name": "CENTRE COMMUNAUTAIRE MULTI-ETHNIQUE DE MONTREAL-NORD", "designationCode": "C", "categoryCode": "09", "address": "11121 AVE SALK                SUITE 103", "city": "MONTREAL-NORD", "province": "QC", "country": "CA", "postalCode": "H1G4Y3", "twitter": "None", "instagram": "None", "facebook": "None", "youtube": "None", "website": "None", "summary": "None", "logo": "None", "latitude": 45.601575955883106, "longitude": -73.6235903630044}, "119275402RR0001": {"name": "CENTRE COMMUNAUTAIRE MULTI-SERVICES UN COIN CHEZ-NOUS 1983", "designationCode": "C", "categoryCode": "59", "address": "628 RANG NOTRE-DAME PR", "city": "SAINT-CHRYSOSTOME", "province": "QC", "country": "CA", "postalCode": "J0S1R0", "twitter": "None", "instagram": "None", "facebook": "None", "youtube": "None", "website": "None", "summary": "None", "logo": "None", "latitude": 45.10595823674193, "longitude": -73.75610553912523}, "140815325RR0001": {"name": "CENTRE COMMUNAUTAIRE NORMANDIE INC.", "designationCode": "C", "categoryCode": "09", "address": "599 CH SAINT-L\u00c9ON             R.R. 2", "city": "MONTMAGNY", "province": "QC", "country": "CA", "postalCode": "G5V3R9", "twitter": "None", "instagram": "None", "facebook": "None", "youtube": "None", "website": "None", "summary": "None", "logo": "None", "latitude": 46.929239201252024, "longitude": -70.56321828758122}, "131034597RR0001": {"name": "CENTRE COMMUNAUTAIRE PARTAGE ST-FRANCOIS", "designationCode": "C", "categoryCode": "09", "address": "115 GALT O", "city": "SHERBROOKE", "province": "QC", "country": "CA", "postalCode": "J1H1X8", "twitter": "None", "instagram": "None", "facebook": "None", "youtube": "None", "website": "None", "summary": "None", "logo": "None", "latitude": 45.393895955080374, "longitude": -71.88684864803446}, "100892918RR0001": {"name": "CENTRE COMMUNAUTAIRE POUR AINES DE VERDUN", "designationCode": "C", "categoryCode": "09", "address": "4501 RUE BANNANTYNE           LOCAL 125", "city": "VERDUN", "province": "QC", "country": "CA", "postalCode": "H4G1E3", "twitter": "None", "instagram": "None", "facebook": "None", "youtube": "None", "website": "None", "summary": "None", "logo": "None", "latitude": 45.45933292645275, "longitude": -73.57611243761858}, "132645656RR0001": {"name": "CENTRE COMMUNAUTAIRE POUR LES AINES DE RAGUENEAU INC", "designationCode": "C", "categoryCode": "09", "address": "521 RTE 138                   PORTE 200", "city": "RAGUENEAU", "province": "QC", "country": "CA", "postalCode": "G0H1S0", "twitter": "None", "instagram": "None", "facebook": "None", "youtube": "None", "website": "None", "summary": "None", "logo": "None", "latitude": 49.07394466210742, "longitude": -68.46558922925618}, "100876630RR0001": {"name": "CENTRE COMMUNAUTAIRE PRO-SANTE INC.", "designationCode": "C", "categoryCode": "11", "address": "3 -1-CLARENCE GAGNON", "city": "BAIE ST PAUL", "province": "QC", "country": "CA", "postalCode": "G3Z1K5", "twitter": "None", "instagram": "None", "facebook": "None", "youtube": "None", "website": "None", "summary": "None", "logo": "None"}, "118848092RR0001": {"name": "CENTRE COMMUNAUTAIRE R\u00c9CR\u00c9ATIF SAINT-JEAN-BAPTISTE DE DRUMMONDVILLE INC.", "designationCode": "C", "categoryCode": "56", "address": "114, 18E AVENUE", "city": "DRUMMONDVILLE", "province": "QC", "country": "CA", "postalCode": "J2B3T3", "twitter": "None", "instagram": "None", "facebook": "None", "youtube": "None", "website": "None", "summary": "None", "logo": "None", "latitude": 45.8669114235099, "longitude": -72.49620453069977}, "895918464RR0001": {"name": "CENTRE COMMUNAUTAIRE RADISSON INC.", "designationCode": "C", "categoryCode": "09", "address": "105 - 3800 RUE RADISSON", "city": "MONTREAL", "province": "QC", "country": "CA", "postalCode": "H1M1X6", "twitter": "None", "instagram": "None", "facebook": "None", "youtube": "None", "website": "None", "summary": "None", "logo": "None", "latitude": 45.58904692198068, "longitude": -73.54060891369946}, "892866278RR0001": {"name": "CENTRE COMMUNAUTAIRE REGIONAL DE LONDON", "designationCode": "C", "categoryCode": "56", "address": "920, RUE HURON", "city": "LONDON", "province": "ON", "country": "CA", "postalCode": "N5Y4K4", "twitter": "None", "instagram": "None", "facebook": "None", "youtube": "None", "website": "None", "summary": "None", "logo": "None", "latitude": 43.01508477996384, "longitude": -81.23230275829508}, "131412389RR0001": {"name": "CENTRE COMMUNAUTAIRE SAINT-ANTOINE 50+ / SAINT-ANTOINE 50+ COMMUNITY CENTRE", "designationCode": "C", "categoryCode": "09", "address": "1-2338 ST ANTOINE O", "city": "MONTREAL", "province": "QC", "country": "CA", "postalCode": "H3J1A8", "twitter": "None", "instagram": "None", "facebook": "None", "youtube": "None", "website": "None", "summary": "None", "logo": "None", "latitude": 45.48908445016768, "longitude": -73.57659802479637}, "118869239RR0001": {"name": "CENTRE COMMUNAUTAIRE ST-PIERRE INC.", "designationCode": "C", "categoryCode": "56", "address": "575 RUE ST-ALFRED", "city": "DRUMMONDVILLE", "province": "QC", "country": "CA", "postalCode": "J2C4B1", "twitter": "None", "instagram": "None", "facebook": "None", "youtube": "None", "website": "None", "summary": "None", "logo": "None", "latitude": 45.8805885498297, "longitude": -72.50394247795587}, "108146754RR0002": {"name": "CENTRE COMMUNAUTAIRE TYNDALE ST-GEORGES", "designationCode": "C", "categoryCode": "49", "address": "870 RICHMOND SQUARE", "city": "MONTREAL", "province": "QC", "country": "CA", "postalCode": "H3J1V7", "twitter": "None", "instagram": "None", "facebook": "None", "youtube": "None", "website": "None", "summary": "None", "logo": "None", "latitude": 45.49138968935237, "longitude": -73.57321702890827}, "119288918RR0784": {"name": "CENTRE CONGREGATION OF JEHOVAH'S WITNESSES", "designationCode": "C", "categoryCode": "61", "address": "14 RUE PLUTON", "city": "MERCIER", "province": "QC", "country": "CA", "postalCode": "J6R2G6", "twitter": "None", "instagram": "None", "facebook": "None", "youtube": "None", "website": "None", "summary": "None", "logo": "None", "latitude": 45.34045986926546, "longitude": -73.73358293531089}, "119288918RR0826": {"name": "CENTRE CONGREGATION OF JEHOVAH'S WITNESSES, BROSSARD (QUEBEC)", "designationCode": "C", "categoryCode": "61", "address": "5250 GRAND ALLEE BOUL.", "city": "ST.HUBERT", "province": "QC", "country": "CA", "postalCode": "J3Y1A1", "twitter": "None", "instagram": "None", "facebook": "None", "youtube": "None", "website": "None", "summary": "None", "logo": "None", "latitude": 45.479843924259725, "longitude": -73.45062601203213}, "118844562RR0001": {"name": "CENTRE CONTACTIVITE INC.", "designationCode": "C", "categoryCode": "09", "address": "4695 BOULD DE MAISONNEUVE O", "city": "WESTMOUNT", "province": "QC", "country": "CA", "postalCode": "H3Z1L9", "twitter": "None", "instagram": "None", "facebook": "None", "youtube": "None", "website": "None", "summary": "None", "logo": "None", "latitude": 45.47970606523736, "longitude": -73.5978818272547}, "131166878RR0001": {"name": "CENTRE COOPERATIF DE LA PETITE ENFANCE LA MAISON DES AMIS REGION 17", "designationCode": "C", "categoryCode": "20", "address": "95 RUE DE L'ERMITAGE", "city": "VICTORIAVILLE", "province": "QC", "country": "CA", "postalCode": "G6P9V1", "twitter": "None", "instagram": "None", "facebook": "None", "youtube": "None", "website": "None", "summary": "None", "logo": "None", "latitude": 46.061392681949215, "longitude": -71.96393772465247}, "136360567RR0001": {"name": "CENTRE CORPS, \u00c2ME ET ESPRIT", "designationCode": "C", "categoryCode": "57", "address": "595 CH DU SANCTUAIRE          CP 793", "city": "SHERBROOKE", "province": "QC", "country": "CA", "postalCode": "J1H0E1", "twitter": "None", "instagram": "None", "facebook": "None", "youtube": "None", "website": "None", "summary": "None", "logo": "None", "latitude": 45.44484198588537, "longitude": -71.88612753413379}, "119676138RR0001": {"name": "CENTRE CREATIF L'ELAN INC", "designationCode": "C", "categoryCode": "56", "address": "551 PETIT-RANG", "city": "ST-VALENTIN", "province": "QC", "country": "CA", "postalCode": "J0J2E0", "twitter": "None", "instagram": "None", "facebook": "None", "youtube": "None", "website": "None", "summary": "None", "logo": "None", "latitude": 45.167825604608815, "longitude": -73.31484019913526}, "873206007RR0001": {"name": "CENTRE CULTUREL CHR\u00c9TIEN DE MONTR\u00c9AL", "designationCode": "C", "categoryCode": "49", "address": "2715 CHEMIN DE LA             COTE-SAINTE-CATHERINE", "city": "MONTREAL", "province": "QC", "country": "CA", "postalCode": "H3T1B6", "twitter": "None", "instagram": "None", "facebook": "None", "youtube": "None", "website": "None", "summary": "None", "logo": "None", "latitude": 45.50668659703366, "longitude": -73.62023772932606}, "869239806RR0001": {"name": "CENTRE CULTUREL DE RESSOURCES FRANCOPHONE POUR LES COMMUNAUTES ETHNIQUES", "designationCode": "C", "categoryCode": "09", "address": "400 - 2 COUNTY COURT BLVD", "city": "BRAMPTON", "province": "ON", "country": "CA", "postalCode": "L6W3W8", "twitter": "None", "instagram": "None", "facebook": "None", "youtube": "None", "website": "None", "summary": "None", "logo": "None", "latitude": 43.66232180244064, "longitude": -79.72680150369266}, "887870665RR0001": {"name": "CENTRE CULTUREL DE SAINT-QUENTIN INC", "designationCode": "C", "categoryCode": "56", "address": "69 RUE PELLETIER", "city": "SAINT-QUENTIN", "province": "NB", "country": "CA", "postalCode": "E8A1Y4", "twitter": "None", "instagram": "None", "facebook": "None", "youtube": "None", "website": "None", "summary": "None", "logo": "None", "latitude": 47.511949550060855, "longitude": -67.3827424730798}, "143560985RR0001": {"name": "CENTRE CULTUREL EMPRESS/EMPRESS CULTURAL CENTER", "designationCode": "C", "categoryCode": "22", "address": "2322 AV DE MELROSE", "city": "MONTREAL", "province": "QC", "country": "CA", "postalCode": "H4A2R8", "twitter": "None", "instagram": "None", "facebook": "None", "youtube": "None", "website": "None", "summary": "None", "logo": "None", "latitude": 45.46935874963942, "longitude": -73.61612219859764}, "100876887RR0001": {"name": "CENTRE CULTUREL ET COMMUNAUTAIRE DE WARWICK INC.", "designationCode": "C", "categoryCode": "56", "address": "2 BOUL OUELLET", "city": "WARWICK", "province": "QC", "country": "CA", "postalCode": "J0A1M0", "twitter": "None", "instagram": "None", "facebook": "None", "youtube": "None", "website": "None", "summary": "None", "logo": "None", "latitude": 45.94571200619928, "longitude": -71.9996126094382}, "106890312RR0001": {"name": "CENTRE CULTUREL FRANCAIS DE L'OKANAGAN", "designationCode": "C", "categoryCode": "56", "address": "702 AVENUE BERNARD", "city": "KELOWNA", "province": "BC", "country": "CA", "postalCode": "V1Y6P5", "twitter": "None", "instagram": "None", "facebook": "None", "youtube": "None", "website": "None", "summary": "None", "logo": "None", "latitude": 49.886316511541196, "longitude": -119.4882705}, "106890338RR0001": {"name": "CENTRE CULTUREL FRANCOPHONE DE VANCOUVER", "designationCode": "C", "categoryCode": "22", "address": "1551 WEST 7TH AVENUE", "city": "VANCOUVER", "province": "BC", "country": "CA", "postalCode": "V6J1S1", "twitter": "None", "instagram": "None", "facebook": "None", "youtube": "None", "website": "None", "summary": "None", "logo": "None", "latitude": 49.2654601389035, "longitude": -123.13995599951967}, "891159345RR0001": {"name": "CENTRE CULTUREL ISLAMIQUE DE LA MAURICIE", "designationCode": "C", "categoryCode": "60", "address": "3009 BOULEVARD DES FORGES", "city": "TROIS-RIVIERES", "province": "QC", "country": "CA", "postalCode": "G8Z1V3", "twitter": "None", "instagram": "None", "facebook": "None", "youtube": "None", "website": "None", "summary": "None", "logo": "None", "latitude": 46.34797920286816, "longitude": -72.56907276493153}, "890420540RR0001": {"name": "CENTRE CULTUREL ISLAMIQUE DE QU\u00c9BEC", "designationCode": "C", "categoryCode": "60", "address": "2877 CHEMIN SAINTE-FOY", "city": "QU\u00c9BEC", "province": "QC", "country": "CA", "postalCode": "G1Y1W3", "twitter": "None", "instagram": "None", "facebook": "None", "youtube": "None", "website": "None", "summary": "None", "logo": "None", "latitude": 46.77817362917667, "longitude": -71.3054006838538}, "106890346RR0001": {"name": "CENTRE CULTUREL JAPONAIS-CANADIEN DE MONTREAL INC.", "designationCode": "C", "categoryCode": "56", "address": "8155 ROUSSELOT AVE", "city": "MONTREAL", "province": "QC", "country": "CA", "postalCode": "H2E1Z7", "twitter": "None", "instagram": "None", "facebook": "None", "youtube": "None", "website": "None", "summary": "None", "logo": "None", "latitude": 45.551369156009955, "longitude": -73.62206902772827}, "809771470RR0001": {"name": "CENTRE CULTUREL KABIR", "designationCode": "C", "categoryCode": "22", "address": "460 RUE SAINTE-CATHERINE O    BUREAU 916", "city": "MONTREAL", "province": "QC", "country": "CA", "postalCode": "H3B1A7", "twitter": "None", "instagram": "None", "facebook": "None", "youtube": "None", "website": "None", "summary": "None", "logo": "None", "latitude": 45.50506326865377, "longitude": -73.56795990671725}, "889597829RR0001": {"name": "CENTRE CULTUREL L'OASIS DU VIEUX PALAIS DE L'ASSOMPTION INC", "designationCode": "C", "categoryCode": "22", "address": "255 RUE ST-ETIENNE", "city": "L'ASSOMPTION", "province": "QC", "country": "CA", "postalCode": "J5W1W7", "twitter": "None", "instagram": "None", "facebook": "None", "youtube": "None", "website": "None", "summary": "None", "logo": "None", "latitude": 45.826599393848404, "longitude": -73.41988521899697}, "106890353RR0001": {"name": "CENTRE CULTUREL LA RONDE INC.", "designationCode": "C", "categoryCode": "29", "address": "32 RUE MOUNTJOY", "city": "TIMMINS", "province": "ON", "country": "CA", "postalCode": "P4N4V6", "twitter": "None", "instagram": "None", "facebook": "None", "youtube": "None", "website": "None", "summary": "None", "logo": "None", "latitude": 48.47544078573489, "longitude": -81.33567112167485}, "133217497RR0001": {"name": "CENTRE CULTUREL MUSULMAN DE MONTREAL INC", "designationCode": "C", "categoryCode": "39", "address": "5750 RUE BORDEAUX", "city": "BROSSARD", "province": "QC", "country": "CA", "postalCode": "J4Z1Y2", "twitter": "None", "instagram": "None", "facebook": "None", "youtube": "None", "website": "None", "summary": "None", "logo": "None", "latitude": 45.474476406053434, "longitude": -73.44763462626248}, "878387828RR0001": {"name": "CENTRE CULTUREL UNI DE BURY BURY UNITED CULTURAL CENTER", "designationCode": "C", "categoryCode": "55", "address": "800 ROUTE 255 SOUTH", "city": "BISHOPTON", "province": "QC", "country": "CA", "postalCode": "J0B1G0", "twitter": "None", "instagram": "None", "facebook": "None", "youtube": "None", "website": "None", "summary": "None", "logo": "None", "latitude": 45.55152102426376, "longitude": -71.54167170385267}, "131766974RR0001": {"name": "CENTRE D.E.B.A.T. MONTREAL (DEVELOPPEMENT DE L'EDUCATION DE BASE AU TRAVAIL)", "designationCode": "C", "categoryCode": "21", "address": "9 - 1620 AV DE LA SALLE", "city": "MONTREAL", "province": "QC", "country": "CA", "postalCode": "H1V2J8", "twitter": "None", "instagram": "None", "facebook": "None", "youtube": "None", "website": "None", "summary": "None", "logo": "None", "latitude": 45.55072328668719, "longitude": -73.53686110020766}, "106682263RR0001": {"name": "CENTRE D'\u00c9COUTE T\u00c9L\u00c9PHONIQUE ET DE PR\u00c9VENTION DU SUICIDE BEAUCE-ETCHEMIN", "designationCode": "C", "categoryCode": "09", "address": "12220, 2E AVENUE", "city": "ST-GEORGES", "province": "QC", "country": "CA", "postalCode": "G5Y1X4", "twitter": "None", "instagram": "None", "facebook": "None", "youtube": "None", "website": "None", "summary": "None", "logo": "None", "latitude": 46.11958524785041, "longitude": -70.66908042423105}, "120406269RR0001": {"name": "CENTRE D'\u00c9DUCATION, DE RECHERCHE, D'INNOVATION ET D'ENTREPRENEURIAT COLLECTIF (CERIDEC)", "designationCode": "C", "categoryCode": "09", "address": "206 - 1431 RUE FULLUM", "city": "MONTREAL", "province": "QC", "country": "CA", "postalCode": "H2K0B5", "twitter": "None", "instagram": "None", "facebook": "None", "youtube": "None", "website": "None", "summary": "None", "logo": "None", "latitude": 45.52754518154519, "longitude": -73.54883886730356}, "868379421RR0001": {"name": "CENTRE D'ACCES COMMUNAUTAIRE CLAUDE-HENRI GRIGNON", "designationCode": "C", "categoryCode": "50", "address": "378 CH DU MONT LOUP GAROU", "city": "SAINTE-ADELE", "province": "QC", "country": "CA", "postalCode": "J8B3C8", "twitter": "None", "instagram": "None", "facebook": "None", "youtube": "None", "website": "None", "summary": "None", "logo": "None", "latitude": 45.964495342201026, "longitude": -74.172445430175}, "129151379RR0001": {"name": "CENTRE D'ACCUEIL LE PROGRAMME DE PORTAGE INC", "designationCode": "C", "categoryCode": "57", "address": "865 SQUARE RICHMOND", "city": "MONTREAL", "province": "QC", "country": "CA", "postalCode": "H3J1V8", "twitter": "None", "instagram": "None", "facebook": "None", "youtube": "None", "website": "None", "summary": "None", "logo": "None", "latitude": 45.49185603398467, "longitude": -73.57274994790104}, "118844992RR0001": {"name": "CENTRE D'ACCUEIL ROGER SEGUIN", "designationCode": "C", "categoryCode": "01", "address": "435, RUE LEMAY", "city": "CLARENCE CREEK", "province": "ON", "country": "CA", "postalCode": "K0A1N0", "twitter": "None", "instagram": "None", "facebook": "None", "youtube": "None", "website": "None", "summary": "None", "logo": "None", "latitude": 45.51016050240307, "longitude": -75.21654774844164}, "860959006RR0001": {"name": "CENTRE D'ACTION ARTISTIQUE INC.", "designationCode": "C", "categoryCode": "22", "address": "PO BOX 6375", "city": "SACKVILLE", "province": "NB", "country": "CA", "postalCode": "E4L1G6", "twitter": "None", "instagram": "None", "facebook": "None", "youtube": "None", "website": "None", "summary": "None", "logo": "None", "latitude": 45.89997900000006, "longitude": -64.37448349999994}, "119146199RR0001": {"name": "CENTRE D'ACTION B\u00c9N\u00c9VOLE - SERVICE D'ENTRAIDE, REGROUPEMENT,SOLIDARIT\u00c9", "designationCode": "C", "categoryCode": "09", "address": "10, RUE GIGUERE", "city": "LEVIS", "province": "QC", "country": "CA", "postalCode": "G6V1N6", "twitter": "None", "instagram": "None", "facebook": "None", "youtube": "None", "website": "None", "summary": "None", "logo": "None", "latitude": 46.82420115901107, "longitude": -71.1709182909577}, "118900604RR0001": {"name": "CENTRE D'ACTION B\u00c9N\u00c9VOLE \u00c9MILIE-GAMELIN", "designationCode": "C", "categoryCode": "01", "address": "80, WILFRID-RANGER", "city": "ST-CHARLES-BORROMEE", "province": "QC", "country": "CA", "postalCode": "J6E8M7", "twitter": "None", "instagram": "None", "facebook": "None", "youtube": "None", "website": "None", "summary": "None", "logo": "None", "latitude": 46.039214785475096, "longitude": -73.45049716183834}, "127389427RR0001": {"name": "CENTRE D'ACTION B\u00c9N\u00c9VOLE \"A C C E S\"", "designationCode": "C", "categoryCode": "59", "address": "67 RUE PRINCIPALE", "city": "GATINEAU", "province": "QC", "country": "CA", "postalCode": "J9H3L4", "twitter": "None", "instagram": "None", "facebook": "None", "youtube": "None", "website": "None", "summary": "None", "logo": "None", "latitude": 45.394756478792594, "longitude": -75.84775427852152}, "120494091RR0001": {"name": "CENTRE D'ACTION B\u00c9N\u00c9VOLE \"LA GRANDE CORV\u00c9E\"", "designationCode": "C", "categoryCode": "09", "address": "25 BOUL ST-FRANCOIS-XAVIER O  CP 309", "city": "GRANDE VALLEE", "province": "QC", "country": "CA", "postalCode": "G0E1K0", "twitter": "None", "instagram": "None", "facebook": "None", "youtube": "None", "website": "None", "summary": "None", "logo": "None", "latitude": 49.224465525102524, "longitude": -65.13111352553523}, "132889361RR0001": {"name": "CENTRE D'ACTION B\u00c9N\u00c9VOLE \"LES P'TITS BONHEURS\" DE ST-BRUNO", "designationCode": "C", "categoryCode": "09", "address": "1665 RUE MONTARVILLE", "city": "SAINT-BRUNO", "province": "QC", "country": "CA", "postalCode": "J3V3T8", "twitter": "None", "instagram": "None", "facebook": "None", "youtube": "None", "website": "None", "summary": "None", "logo": "None", "latitude": 45.525392225633425, "longitude": -73.33918688095088}, "119145860RR0001": {"name": "CENTRE D'ACTION B\u00c9N\u00c9VOLE AIDE 23", "designationCode": "C", "categoryCode": "09", "address": "5 DU TEMPLE", "city": "BEAUPORT", "province": "QC", "country": "CA", "postalCode": "G1E4Z8", "twitter": "None", "instagram": "None", "facebook": "None", "youtube": "None", "website": "None", "summary": "None", "logo": "None", "latitude": 46.85945422064176, "longitude": -71.18942280838458}, "136280351RR0001": {"name": "CENTRE D'ACTION B\u00c9N\u00c9VOLE ASCENSION ESCUMINAC", "designationCode": "C", "categoryCode": "09", "address": "3 RUE CARILLON", "city": "MATAPEDIA", "province": "QC", "country": "CA", "postalCode": "G0J1V0", "twitter": "None", "instagram": "None", "facebook": "None", "youtube": "None", "website": "None", "summary": "None", "logo": "None", "latitude": 47.974947579519856, "longitude": -66.9531108906744}, "118792605RR0001": {"name": "CENTRE D'ACTION B\u00c9N\u00c9VOLE BEAUCE-ETCHEMIN", "designationCode": "C", "categoryCode": "09", "address": "595N 9E AVE", "city": "BEAUCEVILLE", "province": "QC", "country": "CA", "postalCode": "G5X1J3", "twitter": "None", "instagram": "None", "facebook": "None", "youtube": "None", "website": "None", "summary": "None", "logo": "None", "latitude": 46.209139296730996, "longitude": -70.77324595080026}, "119447514RR0001": {"name": "CENTRE D'ACTION B\u00c9N\u00c9VOLE CONCERT'ACTION", "designationCode": "C", "categoryCode": "09", "address": "9 DE LA CHAPELLE", "city": "BEAULAC - GARTHBY", "province": "QC", "country": "CA", "postalCode": "G0Y1B0", "twitter": "None", "instagram": "None", "facebook": "None", "youtube": "None", "website": "None", "summary": "None", "logo": "None", "latitude": 45.834687859282134, "longitude": -71.38086741727749}}