{"135140978RR0001": {"name": "BRIDGES-A PROGRAM FOR ABUSIVE MEN", "designationCode": "C", "categoryCode": "09", "address": "46 INGLIS                     SUITE 4 P.O. BOX 1342", "city": "TRURO", "province": "NS", "country": "CA", "postalCode": "B2N5N2", "twitter": "None", "instagram": "None", "facebook": "None", "youtube": "None", "website": "None", "summary": "None", "logo": "None", "latitude": 45.36381019594326, "longitude": -63.27629636167673}, "891763989RR0001": {"name": "BRIDGES, THE HINTON HOUSING AND EMPLOYMENT SOCIETY", "designationCode": "C", "categoryCode": "09", "address": "PO BOX 6112", "city": "HINTON", "province": "AB", "country": "CA", "postalCode": "T7V1X5", "twitter": "None", "instagram": "None", "facebook": "None", "youtube": "None", "website": "None", "summary": "None", "logo": "None", "latitude": 53.40093900000005, "longitude": -117.57696199999994}, "891505547RR0001": {"name": "BRIDGETOWN AND AREA FOOD BANK ASSOCIATION", "designationCode": "C", "categoryCode": "09", "address": "PO BOX 238", "city": "BRIDGETOWN", "province": "NS", "country": "CA", "postalCode": "B0S1C0", "twitter": "None", "instagram": "None", "facebook": "None", "youtube": "None", "website": "None", "summary": "None", "logo": "None", "latitude": 44.85015000000004, "longitude": -65.29881999999998}, "106810674RR0001": {"name": "BRIDGETOWN AND AREA HISTORICAL SOCIETY", "designationCode": "C", "categoryCode": "50", "address": "12 QUEEN STREET               POST OFFICE BOX 645", "city": "BRIDGETOWN", "province": "NS", "country": "CA", "postalCode": "B0S1C0", "twitter": "None", "instagram": "None", "facebook": "None", "youtube": "None", "website": "None", "summary": "None", "logo": "None", "latitude": 44.84101365889549, "longitude": -65.29119129335227}, "887885663RR0001": {"name": "BRIDGETOWN BAND PARENTS ASSOCIATION", "designationCode": "C", "categoryCode": "22", "address": "BOX 528", "city": "BRIDGETOWN", "province": "NS", "country": "CA", "postalCode": "B0S1C0", "twitter": "None", "instagram": "None", "facebook": "None", "youtube": "None", "website": "None", "summary": "None", "logo": "None", "latitude": 44.81087000000008, "longitude": -65.38092999999998}, "118817774RR0001": {"name": "BRIDGETOWN BAPTIST CHURCH", "designationCode": "C", "categoryCode": "31", "address": "P.O. BOX 429", "city": "BRIDGETOWN", "province": "NS", "country": "CA", "postalCode": "B0S1C0", "twitter": "None", "instagram": "None", "facebook": "None", "youtube": "None", "website": "None", "summary": "None", "logo": "None", "latitude": 44.85015000000004, "longitude": -65.29881999999998}, "892320649RR0001": {"name": "BRIDGEVILLE CEMETERY ASSOCIATION", "designationCode": "C", "categoryCode": "59", "address": "RR 1", "city": "EUREKA", "province": "NS", "country": "CA", "postalCode": "B0K1B0", "twitter": "None", "instagram": "None", "facebook": "None", "youtube": "None", "website": "None", "summary": "None", "logo": "None", "latitude": 45.499347097368116, "longitude": -62.67984049563016}, "118817782RR0001": {"name": "BRIDGEVILLE UNITED CHURCH", "designationCode": "C", "categoryCode": "44", "address": "1141 RIVER RD", "city": "CHURCHVILLE", "province": "NS", "country": "CA", "postalCode": "B0K1B0", "twitter": "None", "instagram": "None", "facebook": "None", "youtube": "None", "website": "None", "summary": "None", "logo": "None", "latitude": 45.49755024730215, "longitude": -62.66266989664607}, "829532985RR0001": {"name": "BRIDGEWATER BAPTIST CHURCH", "designationCode": "C", "categoryCode": "31", "address": "564 GLEN ALLAN DR", "city": "BRIDGEWATER", "province": "NS", "country": "CA", "postalCode": "B4V0B3", "twitter": "None", "instagram": "None", "facebook": "None", "youtube": "None", "website": "None", "summary": "None", "logo": "None", "latitude": 44.37362745040155, "longitude": -64.50136733296753}, "119288918RR0407": {"name": "BRIDGEWATER CONGREGATION OF JEHOVAH'S WITNESSES, NOVA SCOTIA", "designationCode": "C", "categoryCode": "61", "address": "24 CHARLIE LANE", "city": "PINE GROVE", "province": "NS", "country": "CA", "postalCode": "B4V8B6", "twitter": "None", "instagram": "None", "facebook": "None", "youtube": "None", "website": "None", "summary": "None", "logo": "None", "latitude": 44.41454239465646, "longitude": -64.52242403110381}, "890925795RR0001": {"name": "BRIDGEWATER FIRE DEPARTMENT", "designationCode": "C", "categoryCode": "59", "address": "81 DOMINION STREET", "city": "BRIDGEWATER", "province": "NS", "country": "CA", "postalCode": "B4V2J9", "twitter": "None", "instagram": "None", "facebook": "None", "youtube": "None", "website": "None", "summary": "None", "logo": "None", "latitude": 44.37563457700971, "longitude": -64.52274716483944}, "886318625RR0001": {"name": "BRIDGEWATER FIRE DEPARTMENT BAND", "designationCode": "C", "categoryCode": "22", "address": "81 DOMINION ST.", "city": "BRIDGEWATER", "province": "NS", "country": "CA", "postalCode": "B4V2J9", "twitter": "None", "instagram": "None", "facebook": "None", "youtube": "None", "website": "None", "summary": "None", "logo": "None", "latitude": 44.37563457700971, "longitude": -64.52274716483944}, "118817808RR0001": {"name": "BRIDGEWATER INTER-CHURCH FOOD BANK", "designationCode": "C", "categoryCode": "09", "address": "150 CHURCHILL ST", "city": "BRIDGEWATER", "province": "NS", "country": "CA", "postalCode": "B4V1S2", "twitter": "None", "instagram": "None", "facebook": "None", "youtube": "None", "website": "None", "summary": "None", "logo": "None", "latitude": 44.37637904997393, "longitude": -64.52556757977966}, "106810807RR0001": {"name": "BRIDGEWATER OPEN BIBLE CHURCH", "designationCode": "C", "categoryCode": "39", "address": "310 JUBILEE RD", "city": "BRIDGEWATER", "province": "NS", "country": "CA", "postalCode": "B4V2A8", "twitter": "None", "instagram": "None", "facebook": "None", "youtube": "None", "website": "None", "summary": "None", "logo": "None", "latitude": 44.36418902501563, "longitude": -64.51811245354584}, "106810823RR0001": {"name": "BRIDGEWATER PASTORAL CHARGE", "designationCode": "C", "categoryCode": "44", "address": "87 HILLCREST STREET", "city": "BRIDGEWATER", "province": "NS", "country": "CA", "postalCode": "B4V1T2", "twitter": "None", "instagram": "None", "facebook": "None", "youtube": "None", "website": "None", "summary": "None", "logo": "None", "latitude": 44.37396182566817, "longitude": -64.5246327391365}, "888643665RR0001": {"name": "BRIDGEWATER SENIOR CITIZENS GROUP", "designationCode": "C", "categoryCode": "56", "address": "3013 HWY. 325", "city": "WILEVILLE", "province": "NS", "country": "CA", "postalCode": "B4V5H4", "twitter": "None", "instagram": "None", "facebook": "None", "youtube": "None", "website": "None", "summary": "None", "logo": "None", "latitude": 44.371934190976596, "longitude": -64.55454109730198}, "118817865RR0001": {"name": "BRIDGEWATER SEVENTH-DAY ADVENTIST CHURCH", "designationCode": "C", "categoryCode": "41", "address": "17 GREENWOOD ST", "city": "BRIDGEWATER", "province": "NS", "country": "CA", "postalCode": "B4V2M8", "twitter": "None", "instagram": "None", "facebook": "None", "youtube": "None", "website": "None", "summary": "None", "logo": "None", "latitude": 44.377012478475486, "longitude": -64.52859971022573}, "106810849RR0001": {"name": "BRIDGEWAY ACADEMY ASSOCIATION", "designationCode": "C", "categoryCode": "20", "address": "3 VALLEYFORD AVENUE", "city": "DARTMOUTH", "province": "NS", "country": "CA", "postalCode": "B2X1W8", "twitter": "None", "instagram": "None", "facebook": "None", "youtube": "None", "website": "None", "summary": "None", "logo": "None", "latitude": 44.68616526230579, "longitude": -63.54072108067369}, "824583819RR0001": {"name": "BRIDGEWAY CHURCH", "designationCode": "C", "categoryCode": "39", "address": "411 GORDON BAKER ROAD", "city": "NORTH YORK", "province": "ON", "country": "CA", "postalCode": "M2H2S6", "twitter": "None", "instagram": "None", "facebook": "None", "youtube": "None", "website": "None", "summary": "None", "logo": "None", "latitude": 43.807351637143796, "longitude": -79.34548295456331}, "106810856RR0001": {"name": "BRIDGEWAY COMMUNITY CHURCH MENNONITE BRETHREN", "designationCode": "C", "categoryCode": "34", "address": "510 13TH AVE NE", "city": "SWIFT CURRENT", "province": "SK", "country": "CA", "postalCode": "S9H4K1", "twitter": "None", "instagram": "None", "facebook": "None", "youtube": "None", "website": "None", "summary": "None", "logo": "None", "latitude": 50.289677099082475, "longitude": -107.78222426444059}, "119121366RR0001": {"name": "BRIDGEWAY FOUNDATION", "designationCode": "B", "categoryCode": "03", "address": "302 - 766 HESPELER RD", "city": "CAMBRIDGE", "province": "ON", "country": "CA", "postalCode": "N3H5L8", "twitter": "None", "instagram": "None", "facebook": "None", "youtube": "None", "website": "None", "summary": "None", "logo": "None", "latitude": 43.40990865216903, "longitude": -80.32859461942607}, "101072049RR0001": {"name": "BRIDGING THE GAP MINISTRY INC.", "designationCode": "C", "categoryCode": "59", "address": "PO BOX 14001 STN MAIN", "city": "WINNIPEG", "province": "MB", "country": "CA", "postalCode": "R3C3M3", "twitter": "None", "instagram": "None", "facebook": "None", "youtube": "None", "website": "None", "summary": "None", "logo": "None", "latitude": 49.886161958421624, "longitude": -97.13345310241456}, "898996715RR0002": {"name": "BRIDGING WATERS PASTORAL CHARGE", "designationCode": "C", "categoryCode": "44", "address": "BOX 3391", "city": "NIPAWIN", "province": "SK", "country": "CA", "postalCode": "S0E1E0", "twitter": "None", "instagram": "None", "facebook": "None", "youtube": "None", "website": "None", "summary": "None", "logo": "None", "latitude": 53.396118, "longitude": -104.00834700000001}, "815155973RR0001": {"name": "BRIDGWATER MENNONITE CARE INC.", "designationCode": "C", "categoryCode": "10", "address": "475 LINDENWOODS DRIVE EAST", "city": "WINNIPEG", "province": "MB", "country": "CA", "postalCode": "R3P0Y5", "twitter": "None", "instagram": "None", "facebook": "None", "youtube": "None", "website": "None", "summary": "None", "logo": "None", "latitude": 49.827080457729444, "longitude": -97.19913323855958}, "106810906RR0001": {"name": "BRIDLEGROVE BIBLE CHAPEL", "designationCode": "C", "categoryCode": "39", "address": "2575 PHARMACY AVE", "city": "AGINCOURT", "province": "ON", "country": "CA", "postalCode": "M1W2K2", "twitter": "None", "instagram": "None", "facebook": "None", "youtube": "None", "website": "None", "summary": "None", "logo": "None", "latitude": 43.793765013070406, "longitude": -79.32553603448028}, "118817923RR0001": {"name": "BRIDLETOWNE PARK CHURCH", "designationCode": "C", "categoryCode": "39", "address": "2300 BRIDLETOWNE CIRCLE", "city": "AGINCOURT", "province": "ON", "country": "CA", "postalCode": "M1W2L2", "twitter": "None", "instagram": "None", "facebook": "None", "youtube": "None", "website": "None", "summary": "None", "logo": "None", "latitude": 43.79962201552325, "longitude": -79.31444248961265}, "128023470RR0001": {"name": "BRIDLEWOOD BIBLE CHAPEL", "designationCode": "C", "categoryCode": "39", "address": "465 EAGLESON ROAD", "city": "KANATA", "province": "ON", "country": "CA", "postalCode": "K2M1H3", "twitter": "None", "instagram": "None", "facebook": "None", "youtube": "None", "website": "None", "summary": "None", "logo": "None", "latitude": 45.29314703416222, "longitude": -75.87066176885627}, "106810955RR0001": {"name": "BRIDLEWOOD BRETHREN IN CHRIST CHURCH", "designationCode": "C", "categoryCode": "39", "address": "480 HUNTINGWOOD DR", "city": "SCARBOROUGH", "province": "ON", "country": "CA", "postalCode": "M1W1G4", "twitter": "None", "instagram": "None", "facebook": "None", "youtube": "None", "website": "None", "summary": "None", "logo": "None", "latitude": 43.78457510023632, "longitude": -79.31499806947922}, "123448821RR0001": {"name": "BRIDLEWOOD COMMUNITY CHURCH OF THE NAZARENE", "designationCode": "C", "categoryCode": "39", "address": "2 STONEHAVEN DRIVE", "city": "KANATA", "province": "ON", "country": "CA", "postalCode": "K2M2P9", "twitter": "None", "instagram": "None", "facebook": "None", "youtube": "None", "website": "None", "summary": "None", "logo": "None", "latitude": 45.288115100236304, "longitude": -75.86685956399661}, "119288918RR0401": {"name": "BRIDLEWOOD CONGREGATION OF JEHOVAH'S WITNESSES", "designationCode": "C", "categoryCode": "61", "address": "40 BAY MILLS BLVD., APT. 1204", "city": "SCARBOROUGH", "province": "ON", "country": "CA", "postalCode": "M1T3P5", "twitter": "None", "instagram": "None", "facebook": "None", "youtube": "None", "website": "None", "summary": "None", "logo": "None", "latitude": 43.78083521120668, "longitude": -79.30498611826971}, "118817972RR0001": {"name": "BRIDLEWOOD PRESBYTERIAN CHURCH", "designationCode": "C", "categoryCode": "37", "address": "2501 WARDEN AVE", "city": "AGINCOURT", "province": "ON", "country": "CA", "postalCode": "M1W2L6", "twitter": "None", "instagram": "None", "facebook": "None", "youtube": "None", "website": "None", "summary": "None", "logo": "None", "latitude": 43.79023827145241, "longitude": -79.31300092930961}, "837119544RR0001": {"name": "BRIGADE QUEBECOISE D'ACTIONS HUMANITAIRES", "designationCode": "C", "categoryCode": "09", "address": "115 DE LA GAUCHETIERE OUEST   APP 804", "city": "MONTREAL", "province": "QC", "country": "CA", "postalCode": "H2Z1Y2", "twitter": "None", "instagram": "None", "facebook": "None", "youtube": "None", "website": "None", "summary": "None", "logo": "None", "latitude": 45.50676091479598, "longitude": -73.56105691938362}, "887767507RR0001": {"name": "BRIGADOON CHILDREN'S CAMP SOCIETY", "designationCode": "C", "categoryCode": "56", "address": "5523A YOUNG ST                THE HYDROSTONE MARKET", "city": "HALIFAX", "province": "NS", "country": "CA", "postalCode": "B3K1Z7", "twitter": "None", "instagram": "None", "facebook": "None", "youtube": "None", "website": "None", "summary": "None", "logo": "None", "latitude": 44.66215318737054, "longitude": -63.599141313186486}, "106811052RR0001": {"name": "BRIGANTINE INCORPORATED", "designationCode": "C", "categoryCode": "29", "address": "53 YONGE STREET", "city": "KINGSTON", "province": "ON", "country": "CA", "postalCode": "K7M6G4", "twitter": "None", "instagram": "None", "facebook": "None", "youtube": "None", "website": "None", "summary": "None", "logo": "None", "latitude": 44.21886772797069, "longitude": -76.51822502492965}, "118818038RR0001": {"name": "BRIGDEN & AREA SENIORS HOUSING CORPORATION", "designationCode": "C", "categoryCode": "09", "address": "2444 JANE ST", "city": "BRIGDEN", "province": "ON", "country": "CA", "postalCode": "N0N1B0", "twitter": "None", "instagram": "None", "facebook": "None", "youtube": "None", "website": "None", "summary": "None", "logo": "None", "latitude": 42.81370352654484, "longitude": -82.27888247155059}, "106831936RR0001": {"name": "BRIGDEN COMMUNITY BAPTIST CHURCH", "designationCode": "C", "categoryCode": "31", "address": "2389 COURTRIGHT LINE", "city": "BRIGDEN", "province": "ON", "country": "CA", "postalCode": "N0N1B0", "twitter": "None", "instagram": "None", "facebook": "None", "youtube": "None", "website": "None", "summary": "None", "logo": "None", "latitude": 42.811798528420766, "longitude": -82.28399344463038}, "108074089RR0001": {"name": "BRIGDEN UNITED CHURCH", "designationCode": "C", "categoryCode": "44", "address": "2420 JANE ST", "city": "BRIGDEN", "province": "ON", "country": "CA", "postalCode": "N0N1B0", "twitter": "None", "instagram": "None", "facebook": "None", "youtube": "None", "website": "None", "summary": "None", "logo": "None", "latitude": 42.813743446044036, "longitude": -82.2812005269202}, "131219578RR0001": {"name": "BRIGHOUSE UNITED CHURCH,", "designationCode": "C", "categoryCode": "44", "address": "8151 BENNETT RD", "city": "RICHMOND", "province": "BC", "country": "CA", "postalCode": "V6Y1N4", "twitter": "None", "instagram": "None", "facebook": "None", "youtube": "None", "website": "None", "summary": "None", "logo": "None", "latitude": 49.160936479369525, "longitude": -123.13386063918864}, "106708126RR0001": {"name": "BRIGHT BEGINNINGS CHILD CARE CENTRE", "designationCode": "C", "categoryCode": "01", "address": "25 PARK STREET", "city": "AMHERST", "province": "NS", "country": "CA", "postalCode": "B4H2R6", "twitter": "None", "instagram": "None", "facebook": "None", "youtube": "None", "website": "None", "summary": "None", "logo": "None", "latitude": 45.82350115347114, "longitude": -64.21034249780695}, "107274045RR0001": {"name": "BRIGHT BEGINNINGS EARLY CHILDHOOD CENTRE", "designationCode": "C", "categoryCode": "20", "address": "123 MONTEBELLO DRIVE", "city": "LONDON", "province": "ON", "country": "CA", "postalCode": "N5W1S1", "twitter": "None", "instagram": "None", "facebook": "None", "youtube": "None", "website": "None", "summary": "None", "logo": "None", "latitude": 42.97709229641071, "longitude": -81.17802338651947}, "107880940RR0001": {"name": "BRIGHT BEGINNINGS EARLY CHILDHOOD CENTRE CO-OPERATIVE", "designationCode": "C", "categoryCode": "01", "address": "3775 REGENCY CRES", "city": "REGINA", "province": "SK", "country": "CA", "postalCode": "S4R8K5", "twitter": "None", "instagram": "None", "facebook": "None", "youtube": "None", "website": "None", "summary": "None", "logo": "None", "latitude": 50.472822936777604, "longitude": -104.63500668392827}, "108145780RR0001": {"name": "BRIGHT BEGINNINGS OF TWEED AND DISTRICT", "designationCode": "C", "categoryCode": "20", "address": "PO BOX 63", "city": "TWEED", "province": "ON", "country": "CA", "postalCode": "K0K3J0", "twitter": "None", "instagram": "None", "facebook": "None", "youtube": "None", "website": "None", "summary": "None", "logo": "None", "latitude": 44.51884534534283, "longitude": -77.11593882304619}, "118791672RR0001": {"name": "BRIGHT HOPE FOR TOMORROW MISSION", "designationCode": "C", "categoryCode": "47", "address": "53 CULLEN WAY", "city": "WHITBY", "province": "ON", "country": "CA", "postalCode": "L1R2Y9", "twitter": "None", "instagram": "None", "facebook": "None", "youtube": "None", "website": "None", "summary": "None", "logo": "None", "latitude": 43.91071934416293, "longitude": -78.96152790824645}, "895109874RR0001": {"name": "BRIGHTER FUTURES COALITION OF ST. JOHN'S & DISTRICT INC.", "designationCode": "C", "categoryCode": "01", "address": "SUITE 200, NUPORT BUILDING    44 TORBAY ROAD", "city": "ST JOHN'S", "province": "NL", "country": "CA", "postalCode": "A1A2G4", "twitter": "None", "instagram": "None", "facebook": "None", "youtube": "None", "website": "None", "summary": "None", "logo": "None", "latitude": 47.5840411204341, "longitude": -52.706570886577715}, "896686581RR0001": {"name": "BRIGHTER FUTURES FAMILY RESOURCE SOCIETY", "designationCode": "C", "categoryCode": "09", "address": "PO BOX 6547 STN MAIN", "city": "DRAYTON VALLEY", "province": "AB", "country": "CA", "postalCode": "T7A1R9", "twitter": "None", "instagram": "None", "facebook": "None", "youtube": "None", "website": "None", "summary": "None", "logo": "None", "latitude": 53.22798600000006, "longitude": -114.98692399999993}, "899214902RR0001": {"name": "BRIGHTER HORIZONS MINISTRIES INC.", "designationCode": "C", "categoryCode": "47", "address": "BOX 181                       105 SERVICE STREET", "city": "ROSE VALLEY", "province": "SK", "country": "CA", "postalCode": "S0E1M0", "twitter": "None", "instagram": "None", "facebook": "None", "youtube": "None", "website": "None", "summary": "None", "logo": "None", "latitude": 52.292440667482225, "longitude": -103.81503460199615}, "806176350RR0001": {"name": "BRIGHTLINE FOUNDATION", "designationCode": "B", "categoryCode": "03", "address": "SUITE 1250 1500W. GEORGIA ST  BOX 62", "city": "VANCOUVER", "province": "BC", "country": "CA", "postalCode": "V6G2Z6", "twitter": "None", "instagram": "None", "facebook": "None", "youtube": "None", "website": "None", "summary": "None", "logo": "None", "latitude": 49.29026986621769, "longitude": -123.13028947376819}, "875145328RR0001": {"name": "BRIGHTON COMMUNITY POLICING COMMITTEE", "designationCode": "C", "categoryCode": "59", "address": "P O BOX 152", "city": "BRIGHTON", "province": "ON", "country": "CA", "postalCode": "K0K1H0", "twitter": "None", "instagram": "None", "facebook": "None", "youtube": "None", "website": "None", "summary": "None", "logo": "None", "latitude": 44.04197993003085, "longitude": -77.73788995224774}, "119288918RR0492": {"name": "BRIGHTON CONGREGATION OF JEHOVAH'S WITNESSES", "designationCode": "C", "categoryCode": "61", "address": "117 LISGAR ST.", "city": "BRIGHTON", "province": "ON", "country": "CA", "postalCode": "K0K1H0", "twitter": "None", "instagram": "None", "facebook": "None", "youtube": "None", "website": "None", "summary": "None", "logo": "None", "latitude": 44.059677397819236, "longitude": -77.68495600906675}, "871836755RR0001": {"name": "BRIGHTON DISTRICT FAMILY RESOURCE CENTRE INC.", "designationCode": "C", "categoryCode": "09", "address": "P.O. BOX 3047", "city": "BRIGHTON", "province": "ON", "country": "CA", "postalCode": "K0K1H0", "twitter": "None", "instagram": "None", "facebook": "None", "youtube": "None", "website": "None", "summary": "None", "logo": "None", "latitude": 44.04247000000004, "longitude": -77.73561999999998}, "871444295RR0001": {"name": "BRIGHTON FARE SHARE FOOD BANK", "designationCode": "C", "categoryCode": "09", "address": "P.O. BOX 1398", "city": "BRIGHTON", "province": "ON", "country": "CA", "postalCode": "K0K1H0", "twitter": "None", "instagram": "None", "facebook": "None", "youtube": "None", "website": "None", "summary": "None", "logo": "None", "latitude": 44.04247000000004, "longitude": -77.73561999999998}, "892796160RR0001": {"name": "BRIGHTON MASONIC TEMPLE CORPORATION CHARITABLE TRUST", "designationCode": "A", "categoryCode": "05", "address": "PO BOX 998", "city": "BRIGHTON", "province": "ON", "country": "CA", "postalCode": "K0K1H0", "twitter": "None", "instagram": "None", "facebook": "None", "youtube": "None", "website": "None", "summary": "None", "logo": "None", "latitude": 44.04197993003085, "longitude": -77.73788995224774}, "118818111RR0001": {"name": "BRIGHTON PUBLIC LIBRARY", "designationCode": "C", "categoryCode": "50", "address": "BOX 129", "city": "BRIGHTON", "province": "ON", "country": "CA", "postalCode": "K0K1H0", "twitter": "None", "instagram": "None", "facebook": "None", "youtube": "None", "website": "None", "summary": "None", "logo": "None", "latitude": 44.04197993003085, "longitude": -77.73788995224774}, "139139216RR0001": {"name": "BRIGHTSTONE CHARITABLE TRUST", "designationCode": "B", "categoryCode": "39", "address": "2500 - 201 PORTAGE AVE", "city": "WINNIPEG", "province": "MB", "country": "CA", "postalCode": "R3B3K6", "twitter": "None", "instagram": "None", "facebook": "None", "youtube": "None", "website": "None", "summary": "None", "logo": "None", "latitude": 49.895359615067065, "longitude": -97.13919299627776}, "861532083RR0001": {"name": "BRIGHTVIEW COMMUNITY BAPTIST SOCIETY", "designationCode": "C", "categoryCode": "31", "address": "RR 1", "city": "WETASKIWIN", "province": "AB", "country": "CA", "postalCode": "T9A1W8", "twitter": "None", "instagram": "None", "facebook": "None", "youtube": "None", "website": "None", "summary": "None", "logo": "None", "latitude": 52.96987500000006, "longitude": -113.37725149999994}, "118818160RR0001": {"name": "BRIGUS HISTORICAL AND CONSERVATION SOCIETY", "designationCode": "C", "categoryCode": "52", "address": "BOX 232", "city": "BRIGUS", "province": "NL", "country": "CA", "postalCode": "A0A1K0", "twitter": "None", "instagram": "None", "facebook": "None", "youtube": "None", "website": "None", "summary": "None", "logo": "None", "latitude": 47.11258447559277, "longitude": -52.892937929567815}, "118818194RR0001": {"name": "BRINSLEY UNITED CHURCH", "designationCode": "C", "categoryCode": "44", "address": "34709 BRINSLEY RD             R 2", "city": "AILSA CRAIG", "province": "ON", "country": "CA", "postalCode": "N0M1A0", "twitter": "None", "instagram": "None", "facebook": "None", "youtube": "None", "website": "None", "summary": "None", "logo": "None", "latitude": 43.20684903191186, "longitude": -81.52991701408001}, "834571366RR0001": {"name": "BRISER L'ISOLEMENT CHEZ LES AINES, CENTRE D'ECOUTE", "designationCode": "C", "categoryCode": "09", "address": "1702 BOURGOGNE", "city": "CHAMBLY", "province": "QC", "country": "CA", "postalCode": "J3L1Z2", "twitter": "None", "instagram": "None", "facebook": "None", "youtube": "None", "website": "None", "summary": "None", "logo": "None", "latitude": 45.44746561613492, "longitude": -73.2850177574297}, "890947377RR0001": {"name": "BRISTOL AEROSPACE LIMITED EMPLOYEES CHARITABLE FUND", "designationCode": "B", "categoryCode": "75", "address": "PO BOX 874 STN MAIN", "city": "WINNIPEG", "province": "MB", "country": "CA", "postalCode": "R3C2S4", "twitter": "None", "instagram": "None", "facebook": "None", "youtube": "None", "website": "None", "summary": "None", "logo": "None", "latitude": 49.886161958421624, "longitude": -97.13345310241456}, "138904727RR0001": {"name": "BRISTOL HOUSING INC", "designationCode": "C", "categoryCode": "01", "address": "9079 MAIN ST", "city": "FLORENCEVILLE-BRISTOL", "province": "NB", "country": "CA", "postalCode": "E7L2A5", "twitter": "None", "instagram": "None", "facebook": "None", "youtube": "None", "website": "None", "summary": "None", "logo": "None", "latitude": 46.46884437053487, "longitude": -67.58537718293016}, "118818228RR0001": {"name": "BRISTOL MEMORIAL PRESBYTERIAN CHURCH", "designationCode": "C", "categoryCode": "37", "address": "40 BRISTOL RD", "city": "BRISTOL", "province": "QC", "country": "CA", "postalCode": "J0X1G0", "twitter": "None", "instagram": "None", "facebook": "None", "youtube": "None", "website": "None", "summary": "None", "logo": "None", "latitude": 45.529687036643715, "longitude": -76.45920989205939}, "106811540RR0001": {"name": "BRISTOL PASTORAL CHARGE", "designationCode": "C", "categoryCode": "44", "address": "46 BRISTOL ROAD", "city": "BRISTOL", "province": "QC", "country": "CA", "postalCode": "J0X1G0", "twitter": "None", "instagram": "None", "facebook": "None", "youtube": "None", "website": "None", "summary": "None", "logo": "None", "latitude": 45.52233385694394, "longitude": -76.46569652717908}, "106811557RR0001": {"name": "BRISTOL RIDGE PENTECOSTAL ASSEMBLY", "designationCode": "C", "categoryCode": "36", "address": "53 EIGHTH LINE RD", "city": "BRISTOL", "province": "QC", "country": "CA", "postalCode": "J0X1G0", "twitter": "None", "instagram": "None", "facebook": "None", "youtube": "None", "website": "None", "summary": "None", "logo": "None", "latitude": 45.62082293640742, "longitude": -76.41299004137558}, "817932858RR0001": {"name": "BRITANNIA BAPTIST CHURCH", "designationCode": "C", "categoryCode": "31", "address": "48 BOYCE AVENUE", "city": "OTTAWA", "province": "ON", "country": "CA", "postalCode": "K2B6H9", "twitter": "None", "instagram": "None", "facebook": "None", "youtube": "None", "website": "None", "summary": "None", "logo": "None", "latitude": 45.3577557732414, "longitude": -75.8051235251312}, "119217156RR0001": {"name": "BRITANNIA COMMUNITY SERVICES CENTRE SOCIETY", "designationCode": "C", "categoryCode": "56", "address": "1661 NAPIER ST", "city": "VANCOUVER", "province": "BC", "country": "CA", "postalCode": "V5L4X4", "twitter": "None", "instagram": "None", "facebook": "None", "youtube": "None", "website": "None", "summary": "None", "logo": "None", "latitude": 49.27494355183992, "longitude": -123.06980341980079}, "854014842RR0001": {"name": "BRITANNIA COMMUNITY SERVICES FOUNDATION", "designationCode": "A", "categoryCode": "03", "address": "1661 NAPIER ST", "city": "VANCOUVER", "province": "BC", "country": "CA", "postalCode": "V5L4X4", "twitter": "None", "instagram": "None", "facebook": "None", "youtube": "None", "website": "None", "summary": "None", "logo": "None", "latitude": 49.27494355183992, "longitude": -123.06980341980079}, "119288918RR1066": {"name": "BRITANNIA CONGREGATION OF JEHOVAH'S WITNESSES, MISSISSAUGA", "designationCode": "C", "categoryCode": "61", "address": "10 - 5950 GLEN ERIN DR", "city": "MISSISSAUGA", "province": "ON", "country": "CA", "postalCode": "L5M6J1", "twitter": "None", "instagram": "None", "facebook": "None", "youtube": "None", "website": "None", "summary": "None", "logo": "None", "latitude": 43.57396828665853, "longitude": -79.73694724000188}, "892203779RR0001": {"name": "BRITANNIA HERITAGE SHIPYARD SOCIETY", "designationCode": "C", "categoryCode": "50", "address": "5180 WESTWATER DRIVE", "city": "RICHMOND", "province": "BC", "country": "CA", "postalCode": "V7E6P3", "twitter": "None", "instagram": "None", "facebook": "None", "youtube": "None", "website": "None", "summary": "None", "logo": "None", "latitude": 49.12066031375291, "longitude": -123.16599770536851}, "108153768RR0001": {"name": "BRITANNIA PASTORAL CHARGE", "designationCode": "C", "categoryCode": "44", "address": "PO BOX 7450", "city": "CLARENVILLE", "province": "NL", "country": "CA", "postalCode": "A5A3A1", "twitter": "None", "instagram": "None", "facebook": "None", "youtube": "None", "website": "None", "summary": "None", "logo": "None", "latitude": 48.17855400000006, "longitude": -54.05186149999993}, "889070462RR0001": {"name": "BRITANNIA SUPPORT SOCIETY", "designationCode": "C", "categoryCode": "21", "address": "1001 COTTON DR", "city": "VANCOUVER", "province": "BC", "country": "CA", "postalCode": "V5L3T4", "twitter": "None", "instagram": "None", "facebook": "None", "youtube": "None", "website": "None", "summary": "None", "logo": "None", "latitude": 49.276455203433585, "longitude": -123.07150224666961}, "106811656RR0001": {"name": "BRITANNIA UNITED CHURCH", "designationCode": "C", "categoryCode": "44", "address": "985 PINECREST ROAD", "city": "OTTAWA", "province": "ON", "country": "CA", "postalCode": "K2B6B4", "twitter": "None", "instagram": "None", "facebook": "None", "youtube": "None", "website": "None", "summary": "None", "logo": "None", "latitude": 45.354006617000316, "longitude": -75.79229238559675}, "890864069RR0001": {"name": "BRITANNIA UNITED SERVICES MEMORIAL HALL", "designationCode": "C", "categoryCode": "56", "address": "BOX 1844", "city": "LLOYDMINSTER", "province": "SK", "country": "CA", "postalCode": "S9V1N4", "twitter": "None", "instagram": "None", "facebook": "None", "youtube": "None", "website": "None", "summary": "None", "logo": "None", "latitude": 53.274840000000054, "longitude": -109.99074949999994}, "870137031RR0001": {"name": "BRITESTONE CHARITABLE TRUST", "designationCode": "B", "categoryCode": "39", "address": "3425 2 AVE S", "city": "LETHBRIDGE", "province": "AB", "country": "CA", "postalCode": "T1J4V1", "twitter": "None", "instagram": "None", "facebook": "None", "youtube": "None", "website": "None", "summary": "None", "logo": "None", "latitude": 49.696839530439966, "longitude": -112.78914308381903}, "851842831RR0001": {"name": "BRITISH COLUMBIA (BC) CHIHUAHUA RESCUE", "designationCode": "C", "categoryCode": "54", "address": "PO BOX 37046 RPO COUNTRY CLUB", "city": "NANAIMO", "province": "BC", "country": "CA", "postalCode": "V9T6N4", "twitter": "None", "instagram": "None", "facebook": "None", "youtube": "None", "website": "None", "summary": "None", "logo": "None", "latitude": 49.20762247483148, "longitude": -123.99359004156747}, "893638106RR0001": {"name": "BRITISH COLUMBIA ACHIEVEMENT FOUNDATION", "designationCode": "C", "categoryCode": "21", "address": "4276 MUSQUEAM DR", "city": "VANCOUVER", "province": "BC", "country": "CA", "postalCode": "V6N3R7", "twitter": "None", "instagram": "None", "facebook": "None", "youtube": "None", "website": "None", "summary": "None", "logo": "None", "latitude": 49.22945837771959, "longitude": -123.2021430034911}, "891720161RR0001": {"name": "BRITISH COLUMBIA AGRICULTURE IN THE CLASSROOM FOUNDATION", "designationCode": "C", "categoryCode": "20", "address": "1767 ANGUS CAMPBELL RD", "city": "ABBOTSFORD", "province": "BC", "country": "CA", "postalCode": "V3G2M3", "twitter": "None", "instagram": "None", "facebook": "None", "youtube": "None", "website": "None", "summary": "None", "logo": "None", "latitude": 49.034673, "longitude": -122.24566187517982}, "862262797RR0001": {"name": "BRITISH COLUMBIA AND YUKON ANGLICAN YOUTH MOVEMENT", "designationCode": "C", "categoryCode": "49", "address": "#201-380 LEATHEAD RD", "city": "KELOWNA", "province": "BC", "country": "CA", "postalCode": "V1X2H8", "twitter": "None", "instagram": "None", "facebook": "None", "youtube": "None", "website": "None", "summary": "None", "logo": "None", "latitude": 49.89537349711448, "longitude": -119.39283}, "870704442RR0001": {"name": "BRITISH COLUMBIA ASSOCIATION OF HEALTH-CARE AUXILIARIES TRIBUTE FUND", "designationCode": "C", "categoryCode": "21", "address": "200 1333 WEST BROADWAY", "city": "VANCOUVER", "province": "BC", "country": "CA", "postalCode": "V6H4C6", "twitter": "None", "instagram": "None", "facebook": "None", "youtube": "None", "website": "None", "summary": "None", "logo": "None", "latitude": 49.2636048443685, "longitude": -123.13446441433003}, "132023128RR0002": {"name": "BRITISH COLUMBIA ASSOCIATION OF HEALTHCARE AUXILIARIES", "designationCode": "C", "categoryCode": "19", "address": "200-1333 BROADWAY W", "city": "VANCOUVER", "province": "BC", "country": "CA", "postalCode": "V6H4C6", "twitter": "None", "instagram": "None", "facebook": "None", "youtube": "None", "website": "None", "summary": "None", "logo": "None", "latitude": 49.2636048443685, "longitude": -123.13446441433003}, "118818376RR0001": {"name": "BRITISH COLUMBIA ASSOCIATION OF SPEECH/LANGUAGE PATHOLOGISTS AND AUDIOLOGISTS", "designationCode": "C", "categoryCode": "11", "address": "1755 WEST BROADWAY            SUITE 402", "city": "VANCOUVER", "province": "BC", "country": "CA", "postalCode": "V6J4S5", "twitter": "None", "instagram": "None", "facebook": "None", "youtube": "None", "website": "None", "summary": "None", "logo": "None", "latitude": 49.26372550375091, "longitude": -123.1447227485429}, "865182737RR0001": {"name": "BRITISH COLUMBIA ASSOCIATION OF STUDENT ACTIVITY ADVISORS (B.C.A.S.A.A.)", "designationCode": "C", "categoryCode": "21", "address": "2550 BURIAN DRIVE", "city": "COQUITLAM", "province": "BC", "country": "CA", "postalCode": "V3K5W9", "twitter": "None", "instagram": "None", "facebook": "None", "youtube": "None", "website": "None", "summary": "None", "logo": "None", "latitude": 49.24807816097297, "longitude": -122.82276309605271}, "892778366RR0001": {"name": "BRITISH COLUMBIA AUTISM FOUNDATION", "designationCode": "C", "categoryCode": "11", "address": "3688 CESSNA DR", "city": "RICHMOND", "province": "BC", "country": "CA", "postalCode": "V7B1C7", "twitter": "None", "instagram": "None", "facebook": "None", "youtube": "None", "website": "None", "summary": "None", "logo": "None", "latitude": 49.18863071077123, "longitude": -123.14325526008224}, "890745789RR0001": {"name": "BRITISH COLUMBIA AVIATION COUNCIL", "designationCode": "C", "categoryCode": "59", "address": "P O BOX 31040                 RPO THUNDERBIRD", "city": "LANGLEY", "province": "BC", "country": "CA", "postalCode": "V1M0A9", "twitter": "None", "instagram": "None", "facebook": "None", "youtube": "None", "website": "None", "summary": "None", "logo": "None", "latitude": 49.133230000000026, "longitude": -122.54510999999997}, "131789398RR0001": {"name": "BRITISH COLUMBIA AVIATION MUSEUM", "designationCode": "C", "categoryCode": "50", "address": "1910 NORSEMAN ROAD", "city": "NORTH SAANICH", "province": "BC", "country": "CA", "postalCode": "V8L5V5", "twitter": "None", "instagram": "None", "facebook": "None", "youtube": "None", "website": "None", "summary": "None", "logo": "None", "latitude": 48.6402756497667, "longitude": -123.41993892082242}, "106811805RR0001": {"name": "BRITISH COLUMBIA BAPTIST CONFERENCE", "designationCode": "C", "categoryCode": "31", "address": "20581 36 AVENUE", "city": "LANGLEY", "province": "BC", "country": "CA", "postalCode": "V3A4Y3", "twitter": "None", "instagram": "None", "facebook": "None", "youtube": "None", "website": "None", "summary": "None", "logo": "None", "latitude": 49.06746247936954, "longitude": -122.65359202553523}, "133476333RR0001": {"name": "BRITISH COLUMBIA BEREAVEMENT HELPLINE", "designationCode": "C", "categoryCode": "59", "address": "PO BOX 20095 RPO FAIRVIEW", "city": "VANCOUVER", "province": "BC", "country": "CA", "postalCode": "V5Z0C1", "twitter": "None", "instagram": "None", "facebook": "None", "youtube": "None", "website": "None", "summary": "None", "logo": "None", "latitude": 49.26613000000003, "longitude": -123.13313}, "890119985RR0001": {"name": "BRITISH COLUMBIA BLIND SPORTS AND RECREATION ASSOCIATION", "designationCode": "C", "categoryCode": "56", "address": "170 - 5055 JOYCE ST", "city": "VANCOUVER", "province": "BC", "country": "CA", "postalCode": "V5R6B2", "twitter": "None", "instagram": "None", "facebook": "None", "youtube": "None", "website": "None", "summary": "None", "logo": "None", "latitude": 49.23880279545841, "longitude": -123.03138653208475}, "118818418RR0001": {"name": "BRITISH COLUMBIA BORSTAL ASSOCIATION", "designationCode": "C", "categoryCode": "59", "address": "554 21ST AVE W", "city": "VANCOUVER", "province": "BC", "country": "CA", "postalCode": "V5Z1Y6", "twitter": "None", "instagram": "None", "facebook": "None", "youtube": "None", "website": "None", "summary": "None", "logo": "None", "latitude": 49.25226744711188, "longitude": -123.11569429491014}, "133712851RR0001": {"name": "BRITISH COLUMBIA BOYS CHOIR", "designationCode": "C", "categoryCode": "22", "address": "PO BOX 321, STATION A", "city": "NANAIMO", "province": "BC", "country": "CA", "postalCode": "V9R5L3", "twitter": "None", "instagram": "None", "facebook": "None", "youtube": "None", "website": "None", "summary": "None", "logo": "None", "latitude": 49.164243000000056, "longitude": -123.93616399999993}, "872794102RR0001": {"name": "BRITISH COLUMBIA BUILDING ENVELOPE COUNCIL EDUCATION FOUNDATION", "designationCode": "A", "categoryCode": "23", "address": "1410 55 ST", "city": "DELTA", "province": "BC", "country": "CA", "postalCode": "V4M3K5", "twitter": "None", "instagram": "None", "facebook": "None", "youtube": "None", "website": "None", "summary": "None", "logo": "None", "latitude": 49.02854327699234, "longitude": -123.07212062597402}, "851840538RR0001": {"name": "BRITISH COLUMBIA CANCER AGENCY BRANCH", "designationCode": "C", "categoryCode": "10", "address": "260-1770 7TH AVE W", "city": "VANCOUVER", "province": "BC", "country": "CA", "postalCode": "V6J4Y6", "twitter": "None", "instagram": "None", "facebook": "None", "youtube": "None", "website": "None", "summary": "None", "logo": "None", "latitude": 49.26545048845881, "longitude": -123.1450229701656}, "132004169RR0001": {"name": "BRITISH COLUMBIA CENTRE FOR ABILITY ASSOCIATION", "designationCode": "C", "categoryCode": "11", "address": "2805 KINGSWAY", "city": "VANCOUVER", "province": "BC", "country": "CA", "postalCode": "V5R5H9", "twitter": "None", "instagram": "None", "facebook": "None", "youtube": "None", "website": "None", "summary": "None", "logo": "None", "latitude": 49.236952629493786, "longitude": -123.04723984719269}, "132659053RR0001": {"name": "BRITISH COLUMBIA CENTRE FOR ABILITY FOUNDATION", "designationCode": "A", "categoryCode": "13", "address": "2805 KINGSWAY", "city": "VANCOUVER", "province": "BC", "country": "CA", "postalCode": "V5R5H9", "twitter": "None", "instagram": "None", "facebook": "None", "youtube": "None", "website": "None", "summary": "None", "logo": "None", "latitude": 49.236952629493786, "longitude": -123.04723984719269}, "851838730RR0001": {"name": "BRITISH COLUMBIA CENTRE FOR DISEASE CONTROL AND PREVENTION SOCIETY BRANCH", "designationCode": "C", "categoryCode": "10", "address": "260-1770 7TH AVE W", "city": "VANCOUVER", "province": "BC", "country": "CA", "postalCode": "V6J4Y6", "twitter": "None", "instagram": "None", "facebook": "None", "youtube": "None", "website": "None", "summary": "None", "logo": "None", "latitude": 49.26545048845881, "longitude": -123.1450229701656}, "895308807RR0001": {"name": "BRITISH COLUMBIA CHILDHOOD CANCER PARENTS' ASSOCIATION", "designationCode": "C", "categoryCode": "11", "address": "304 - 2437 WELCHER AVE", "city": "PORT COQUITLAM", "province": "BC", "country": "CA", "postalCode": "V3C1X8", "twitter": "None", "instagram": "None", "facebook": "None", "youtube": "None", "website": "None", "summary": "None", "logo": "None", "latitude": 49.25812152986307, "longitude": -122.78616308381903}, "898567516RR0001": {"name": "BRITISH COLUMBIA CHRISTIAN ACADEMY FOUNDATION", "designationCode": "A", "categoryCode": "03", "address": "1019 FERNWOOD AVENUE", "city": "PORT COQUITLAM", "province": "BC", "country": "CA", "postalCode": "V3B5A8", "twitter": "None", "instagram": "None", "facebook": "None", "youtube": "None", "website": "None", "summary": "None", "logo": "None", "latitude": 49.2799295606658, "longitude": -122.74351011580035}, "898976287RR0001": {"name": "BRITISH COLUMBIA CHRISTIAN ACADEMY SOCIETY", "designationCode": "C", "categoryCode": "20", "address": "1019 FERNWOOD AVE", "city": "PORT COQUITLAM", "province": "BC", "country": "CA", "postalCode": "V3B5A8", "twitter": "None", "instagram": "None", "facebook": "None", "youtube": "None", "website": "None", "summary": "None", "logo": "None", "latitude": 49.2799295606658, "longitude": -122.74351011580035}, "119062099RR0001": {"name": "BRITISH COLUMBIA CHRISTIAN ASHRAM", "designationCode": "C", "categoryCode": "39", "address": "102 - 15168 19 AVE", "city": "SURREY", "province": "BC", "country": "CA", "postalCode": "V4A0A5", "twitter": "None", "instagram": "None", "facebook": "None", "youtube": "None", "website": "None", "summary": "None", "logo": "None", "latitude": 49.03653051067581, "longitude": -122.80234444463039}, "119288918RR1290": {"name": "BRITISH COLUMBIA CIRCUIT NO 10-A OF JEHOVAH'S WITNESSES", "designationCode": "C", "categoryCode": "61", "address": "6353 133B ST", "city": "SURREY", "province": "BC", "country": "CA", "postalCode": "V3X1L5", "twitter": "None", "instagram": "None", "facebook": "None", "youtube": "None", "website": "None", "summary": "None", "logo": "None", "latitude": 49.118266110739235, "longitude": -122.851795435628}, "119288918RR1072": {"name": "BRITISH COLUMBIA CIRCUIT NO 6-A OF JEHOVAH'S WITNESSES", "designationCode": "C", "categoryCode": "61", "address": "445 DUNCAN AVE EAST", "city": "PENTICTON", "province": "BC", "country": "CA", "postalCode": "V2A2W4", "twitter": "None", "instagram": "None", "facebook": "None", "youtube": "None", "website": "None", "summary": "None", "logo": "None", "latitude": 49.48442341993188, "longitude": -119.58118332001268}}