{"848038519RR0001": {"name": "Canadian Foundation for Health and Human Welfare", "designationCode": "A", "categoryCode": "03", "address": "2425 BLOOR STREET WEST, 412", "city": "TORONTO", "province": "ON", "country": "CA", "postalCode": "M6S4W4", "twitter": "None", "instagram": "None", "facebook": "None", "youtube": "None", "website": "None", "summary": "None", "logo": "None", "latitude": 43.64949487091024, "longitude": -79.48355719135562}, "734470123RR0001": {"name": "Canadian Foundation for Health and Prosperity", "designationCode": "C", "categoryCode": "09", "address": "285 MUTUAL STREET, SUITE 1705", "city": "TORONTO", "province": "ON", "country": "CA", "postalCode": "M4Y3C5", "twitter": "None", "instagram": "None", "facebook": "None", "youtube": "None", "website": "None", "summary": "None", "logo": "None", "latitude": 43.66344103358531, "longitude": -79.37811025659299}, "873620553RR0001": {"name": "Canadian Foundation for Spiritual Care / Fondation canadienne de soins spirituels", "designationCode": "A", "categoryCode": "03", "address": "1267 DORVAL DRIVE             UNIT 27", "city": "OAKVILLE", "province": "ON", "country": "CA", "postalCode": "L6M3Z4", "twitter": "None", "instagram": "None", "facebook": "None", "youtube": "None", "website": "None", "summary": "None", "logo": "None", "latitude": 43.44955665113387, "longitude": -79.71028923062508}, "747425528RR0001": {"name": "Canadian Foundation for Translational Immunology", "designationCode": "A", "categoryCode": "13", "address": "777 - 777 HORNBY ST", "city": "VANCOUVER", "province": "BC", "country": "CA", "postalCode": "V6Z1S4", "twitter": "None", "instagram": "None", "facebook": "None", "youtube": "None", "website": "None", "summary": "None", "logo": "None", "latitude": 49.28271993479128, "longitude": -123.12162022303635}, "834738841RR0001": {"name": "Canadian Freedom Institute", "designationCode": "C", "categoryCode": "21", "address": "501 - 27 QUEEN ST E", "city": "TORONTO", "province": "ON", "country": "CA", "postalCode": "M5C2M6", "twitter": "None", "instagram": "None", "facebook": "None", "youtube": "None", "website": "None", "summary": "None", "logo": "None", "latitude": 43.65305089173824, "longitude": -79.37625996120812}, "896131778RR0001": {"name": "Canadian Friends of the \u00c9cole Biblique / Les amis canadiens de l'\u00e9cole biblique", "designationCode": "A", "categoryCode": "23", "address": "22 BEVERLEY ST", "city": "WATERLOO", "province": "ON", "country": "CA", "postalCode": "N2L2H6", "twitter": "None", "instagram": "None", "facebook": "None", "youtube": "None", "website": "None", "summary": "None", "logo": "None", "latitude": 43.45999231363604, "longitude": -80.53198596736699}, "836804880RR0001": {"name": "Canadian Friends of the Israel Philharmonic Orchestra", "designationCode": "C", "categoryCode": "22", "address": "200 BAY STREET , SUITE 3800   ROYAL BANK PLAZA, SOUTH TOWER,", "city": "TORONTO", "province": "ON", "country": "CA", "postalCode": "M5J2Z4", "twitter": "None", "instagram": "None", "facebook": "None", "youtube": "None", "website": "None", "summary": "None", "logo": "None"}, "824327597RR0001": {"name": "Canadian Friends of the Rabbi Solomon Kluger School", "designationCode": "C", "categoryCode": "21", "address": "2050 RUE GOYER", "city": "MONTREAL", "province": "QC", "country": "CA", "postalCode": "H3S1G9", "twitter": "None", "instagram": "None", "facebook": "None", "youtube": "None", "website": "None", "summary": "None", "logo": "None", "latitude": 45.51474036358131, "longitude": -73.6257697868314}, "809838501RR0001": {"name": "Canadian Friends of Ahavas Chesed", "designationCode": "C", "categoryCode": "09", "address": "5303 JEANNE MANCE", "city": "MONTREAL", "province": "QC", "country": "CA", "postalCode": "H2V4K3", "twitter": "None", "instagram": "None", "facebook": "None", "youtube": "None", "website": "None", "summary": "None", "logo": "None", "latitude": 45.52169416654154, "longitude": -73.59880910822906}, "886732791RR0001": {"name": "Canadian Friends of Aiglon College Inc.", "designationCode": "C", "categoryCode": "21", "address": "1055 RUE DE MONT ST-DENIS", "city": "QUEBEC CITY", "province": "QC", "country": "CA", "postalCode": "G1S1A7", "twitter": "None", "instagram": "None", "facebook": "None", "youtube": "None", "website": "None", "summary": "None", "logo": "None"}, "892000902RR0001": {"name": "Canadian Friends of Alin Beit Noam Society", "designationCode": "C", "categoryCode": "20", "address": "7488 MAPLE STREET", "city": "VANCOUVER", "province": "BC", "country": "CA", "postalCode": "V6P5P7", "twitter": "None", "instagram": "None", "facebook": "None", "youtube": "None", "website": "None", "summary": "None", "logo": "None"}, "838624971RR0001": {"name": "Canadian Friends of Ariel University / Amis Canadiens de l'universit\u00e9 Ariel", "designationCode": "C", "categoryCode": "21", "address": "1501 MCGILL COLLEGE AVENUE    26TH FLOOR", "city": "MONTR\u00c9AL", "province": "QC", "country": "CA", "postalCode": "H3A3N9", "twitter": "None", "instagram": "None", "facebook": "None", "youtube": "None", "website": "None", "summary": "None", "logo": "None", "latitude": 45.50241910883465, "longitude": -73.57189910473797}, "814619896RR0001": {"name": "Canadian Friends of Bedford School", "designationCode": "C", "categoryCode": "25", "address": "14250 26TH AVENUE", "city": "WHITE ROCK", "province": "BC", "country": "CA", "postalCode": "V4P2G7", "twitter": "None", "instagram": "None", "facebook": "None", "youtube": "None", "website": "None", "summary": "None", "logo": "None", "latitude": 49.04982096419301, "longitude": -122.82720448141833}, "846559086RR0001": {"name": "Canadian Friends of Camp Mifgash Israel of Mifgash Mitzvah Tuition Fund", "designationCode": "C", "categoryCode": "56", "address": "108 PINEWOOD AVE", "city": "YORK", "province": "ON", "country": "CA", "postalCode": "M6C2V3", "twitter": "None", "instagram": "None", "facebook": "None", "youtube": "None", "website": "None", "summary": "None", "logo": "None", "latitude": 43.68617179655494, "longitude": -79.42607341883536}, "816442172RR0001": {"name": "Canadian Friends of Cooperative for Education", "designationCode": "C", "categoryCode": "21", "address": "402 CARTIER STREET", "city": "NORTH BAY", "province": "ON", "country": "CA", "postalCode": "P1B8N5", "twitter": "None", "instagram": "None", "facebook": "None", "youtube": "None", "website": "None", "summary": "None", "logo": "None", "latitude": 46.33601284927016, "longitude": -79.47380438161471}, "827139999RR0001": {"name": "Canadian Friends of Diskin", "designationCode": "C", "categoryCode": "09", "address": "2823 BATHURST ST", "city": "NORTH YORK", "province": "ON", "country": "CA", "postalCode": "M6B3A4", "twitter": "None", "instagram": "None", "facebook": "None", "youtube": "None", "website": "None", "summary": "None", "logo": "None", "latitude": 43.71353476103641, "longitude": -79.42838599330624}, "818289860RR0001": {"name": "Canadian Friends of Dulwich Picture Gallery", "designationCode": "C", "categoryCode": "22", "address": "4 DEVONSHIRE PL", "city": "TORONTO", "province": "ON", "country": "CA", "postalCode": "M5S2E1", "twitter": "None", "instagram": "None", "facebook": "None", "youtube": "None", "website": "None", "summary": "None", "logo": "None", "latitude": 43.664489738271136, "longitude": -79.3970538094811}, "779462928RR0001": {"name": "Canadian Friends of Igud Wiznitz", "designationCode": "C", "categoryCode": "21", "address": "212-5786 RUE HUTCHINSON", "city": "MONTREAL", "province": "QC", "country": "CA", "postalCode": "H2V4B5", "twitter": "None", "instagram": "None", "facebook": "None", "youtube": "None", "website": "None", "summary": "None", "logo": "None", "latitude": 45.52276271689084, "longitude": -73.60566500542436}, "841044811RR0001": {"name": "Canadian Friends of Interlochen", "designationCode": "C", "categoryCode": "21", "address": "PO BOX 9401, STATION A", "city": "TORONTO", "province": "ON", "country": "CA", "postalCode": "M5W4E1", "twitter": "None", "instagram": "None", "facebook": "None", "youtube": "None", "website": "None", "summary": "None", "logo": "None", "latitude": 43.64868300000006, "longitude": -79.38544399999994}, "829025352RR0001": {"name": "Canadian Friends of Kiryas Bunos", "designationCode": "C", "categoryCode": "21", "address": "1942 CLINTON AVENUE", "city": "MONTR\u00c9AL", "province": "QC", "country": "CA", "postalCode": "H3S1L1", "twitter": "None", "instagram": "None", "facebook": "None", "youtube": "None", "website": "None", "summary": "None", "logo": "None", "latitude": 45.51389874326277, "longitude": -73.6240254272608}, "839083425RR0001": {"name": "Canadian Friends of Kishorit", "designationCode": "C", "categoryCode": "59", "address": "1402 - 3230 YONGE ST", "city": "TORONTO", "province": "ON", "country": "CA", "postalCode": "M4N2L4", "twitter": "None", "instagram": "None", "facebook": "None", "youtube": "None", "website": "None", "summary": "None", "logo": "None", "latitude": 43.72931070330083, "longitude": -79.40334626576825}, "824435648RR0001": {"name": "Canadian Friends of Kulanu Inc.", "designationCode": "C", "categoryCode": "39", "address": "509 CASTLEFIELD AVENUE", "city": "TORONTO", "province": "ON", "country": "CA", "postalCode": "M5N1L7", "twitter": "None", "instagram": "None", "facebook": "None", "youtube": "None", "website": "None", "summary": "None", "logo": "None", "latitude": 43.70789777655964, "longitude": -79.41786454065443}, "119676708RR0001": {"name": "Canadian Friends of Marlboro Institute of Music / Les Amis de L'Institut de Musique Marlboro", "designationCode": "C", "categoryCode": "22", "address": "900-3500 BOUL DE MAISONNEUVE OSUITE 900", "city": "WESTMOUNT", "province": "QC", "country": "CA", "postalCode": "H3Z3C1", "twitter": "None", "instagram": "None", "facebook": "None", "youtube": "None", "website": "None", "summary": "None", "logo": "None", "latitude": 45.486532048012016, "longitude": -73.58985195461369}, "838838613RR0001": {"name": "Canadian Friends of Merkaz Hakolilim D'Shikun Square", "designationCode": "C", "categoryCode": "21", "address": "5747 HUTCHISON", "city": "MONTREAL", "province": "QC", "country": "CA", "postalCode": "H2V4B5", "twitter": "None", "instagram": "None", "facebook": "None", "youtube": "None", "website": "None", "summary": "None", "logo": "None", "latitude": 45.522850315857745, "longitude": -73.60573996182707}, "829434281RR0001": {"name": "Canadian Friends of Oaxaca Inc.", "designationCode": "C", "categoryCode": "09", "address": "PO BOX 23043 RPO QUINTE MALL", "city": "BELLEVILLE", "province": "ON", "country": "CA", "postalCode": "K8P5J3", "twitter": "None", "instagram": "None", "facebook": "None", "youtube": "None", "website": "None", "summary": "None", "logo": "None", "latitude": 44.187490000000025, "longitude": -77.40174999999994}, "819456294RR0001": {"name": "Canadian Friends of Pardes Institute of Jewish Studies", "designationCode": "C", "categoryCode": "21", "address": "502 - 49 YORK MILLS RD", "city": "NORTH YORK", "province": "ON", "country": "CA", "postalCode": "M2P1B6", "twitter": "None", "instagram": "None", "facebook": "None", "youtube": "None", "website": "None", "summary": "None", "logo": "None", "latitude": 43.74415499478701, "longitude": -79.40289462250523}, "801567330RR0001": {"name": "Canadian Friends of Rabbis for Human Rights (CFRHR)/Les Ami(e)s Canadien(ne)s des Rabbins pour les droits Humains", "designationCode": "C", "categoryCode": "03", "address": "111-4100, AVENUE BENNY", "city": "MONTREAL", "province": "QC", "country": "CA", "postalCode": "H4B2R8", "twitter": "None", "instagram": "None", "facebook": "None", "youtube": "None", "website": "None", "summary": "None", "logo": "None", "latitude": 45.4661467241042, "longitude": -73.62975164031383}, "840394696RR0001": {"name": "Canadian Friends of Red Mountain Therapeutic Riding Centre", "designationCode": "C", "categoryCode": "56", "address": "63 WHITELODGE CRESCENT", "city": "RICHMOND HILL", "province": "ON", "country": "CA", "postalCode": "L4C9A2", "twitter": "None", "instagram": "None", "facebook": "None", "youtube": "None", "website": "None", "summary": "None", "logo": "None", "latitude": 43.87680223065374, "longitude": -79.4642756014484}, "787297290RR0001": {"name": "Canadian Friends of Shalvat Haim", "designationCode": "C", "categoryCode": "11", "address": "2 - 6255 PLACE NORTHCREST", "city": "MONTREAL", "province": "QC", "country": "CA", "postalCode": "H3S2N2", "twitter": "None", "instagram": "None", "facebook": "None", "youtube": "None", "website": "None", "summary": "None", "logo": "None", "latitude": 45.51204558953185, "longitude": -73.62397090839067}, "827264995RR0001": {"name": "Canadian Friends of Soroka Medical Center", "designationCode": "C", "categoryCode": "11", "address": "3 LARRATT LANE", "city": "RICHMOND HILL", "province": "ON", "country": "CA", "postalCode": "L4C9J1", "twitter": "None", "instagram": "None", "facebook": "None", "youtube": "None", "website": "None", "summary": "None", "logo": "None", "latitude": 43.88646311824105, "longitude": -79.45786830610557}, "721702520RR0001": {"name": "Canadian Friends of Stowe Land Trust / Amis Canadiens de la Fiducie Fonci\u00e8re de Stowe", "designationCode": "C", "categoryCode": "59", "address": "28 PLACE RICHELIEU", "city": "MONTREAL", "province": "QC", "country": "CA", "postalCode": "H3G1E8", "twitter": "None", "instagram": "None", "facebook": "None", "youtube": "None", "website": "None", "summary": "None", "logo": "None", "latitude": 45.50012207882738, "longitude": -73.58061966749383}, "803408814RR0001": {"name": "Canadian Friends of Tashbar", "designationCode": "C", "categoryCode": "21", "address": "846, DUNLOP AVENUE", "city": "MONTREAL", "province": "QC", "country": "CA", "postalCode": "H2V2W7", "twitter": "None", "instagram": "None", "facebook": "None", "youtube": "None", "website": "None", "summary": "None", "logo": "None"}, "749770525RR0001": {"name": "Canadian Friends of Tov V' Chesed", "designationCode": "C", "categoryCode": "09", "address": "302 - 333 WILSON AVE", "city": "NORTH YORK", "province": "ON", "country": "CA", "postalCode": "M3H1T2", "twitter": "None", "instagram": "None", "facebook": "None", "youtube": "None", "website": "None", "summary": "None", "logo": "None", "latitude": 43.737049856483516, "longitude": -79.43551650109652}, "787660729RR0001": {"name": "Canadian Friends of Woodstock School", "designationCode": "C", "categoryCode": "21", "address": "570 GRANVILLE ST", "city": "VANCOUVER", "province": "BC", "country": "CA", "postalCode": "V6C3P1", "twitter": "None", "instagram": "None", "facebook": "None", "youtube": "None", "website": "None", "summary": "None", "logo": "None", "latitude": 49.28389665332692, "longitude": -123.11594555978436}, "785329327RR0001": {"name": "Canadian Friends of Yeshiva l'Zeirim Tiferes Yaacov", "designationCode": "C", "categoryCode": "21", "address": "6582 AV DE VIMY", "city": "MONTREAL", "province": "QC", "country": "CA", "postalCode": "H3S2R8", "twitter": "None", "instagram": "None", "facebook": "None", "youtube": "None", "website": "None", "summary": "None", "logo": "None", "latitude": 45.515288673033766, "longitude": -73.62485449821098}, "819680851RR0001": {"name": "Canadian Friends of Yeshiva University", "designationCode": "A", "categoryCode": "05", "address": "300-4580 DUFFERIN ST", "city": "TORONTO", "province": "ON", "country": "CA", "postalCode": "M3H5Y2", "twitter": "None", "instagram": "None", "facebook": "None", "youtube": "None", "website": "None", "summary": "None", "logo": "None", "latitude": 43.76972396197131, "longitude": -79.46714797062695}, "848963195RR0001": {"name": "Canadian Fund for International Understanding Through Culture", "designationCode": "C", "categoryCode": "22", "address": "4040 FINCH AVE EAST           SUITE 208", "city": "SCARBOROUGH", "province": "ON", "country": "CA", "postalCode": "M1S4V5", "twitter": "None", "instagram": "None", "facebook": "None", "youtube": "None", "website": "None", "summary": "None", "logo": "None", "latitude": 43.80199010023632, "longitude": -79.29366951624439}, "834338691RR0001": {"name": "Canadian FOP Network", "designationCode": "A", "categoryCode": "13", "address": "101 BRIXHAM CRESCENT", "city": "LONDON", "province": "ON", "country": "CA", "postalCode": "N6K1K9", "twitter": "None", "instagram": "None", "facebook": "None", "youtube": "None", "website": "None", "summary": "None", "logo": "None", "latitude": 42.939617794881485, "longitude": -81.29215807299899}, "859147548RR0001": {"name": "Canadian Geriatrics Society Scholarship Foundation", "designationCode": "C", "categoryCode": "11", "address": "20 CROWN STEEL DRIVE          UNIT 6", "city": "MARKHAM", "province": "ON", "country": "CA", "postalCode": "L3R9X9", "twitter": "None", "instagram": "None", "facebook": "None", "youtube": "None", "website": "None", "summary": "None", "logo": "None", "latitude": 43.83918666443543, "longitude": -79.32514310482394}, "886166792RR0001": {"name": "Canadian Gerontological Nursing Association/Association canadienne des infirmi\u00e8res et infirmiers en g\u00e9rontologie", "designationCode": "C", "categoryCode": "11", "address": "PO BOX 64009                  RPO ROYL BANK PLAZA", "city": "TORONTO", "province": "ON", "country": "CA", "postalCode": "M5J2T6", "twitter": "None", "instagram": "None", "facebook": "None", "youtube": "None", "website": "None", "summary": "None", "logo": "None", "latitude": 43.64868300000006, "longitude": -79.38544399999994}, "810902254RR0001": {"name": "Canadian Global Care Society", "designationCode": "C", "categoryCode": "10", "address": "17 SPRING VALLEY TERRACE SW", "city": "CALGARY", "province": "AB", "country": "CA", "postalCode": "T3H4V2", "twitter": "None", "instagram": "None", "facebook": "None", "youtube": "None", "website": "None", "summary": "None", "logo": "None", "latitude": 51.02863503857697, "longitude": -114.20369414752719}, "814030318RR0001": {"name": "Canadian Global Response", "designationCode": "C", "categoryCode": "09", "address": "100 CONVENTION WAY", "city": "COCHRANE", "province": "AB", "country": "CA", "postalCode": "T4C2G2", "twitter": "None", "instagram": "None", "facebook": "None", "youtube": "None", "website": "None", "summary": "None", "logo": "None", "latitude": 51.20903163221897, "longitude": -114.48780473147403}, "873970065RR0001": {"name": "Canadian Grand Masters Fiddling Association", "designationCode": "C", "categoryCode": "81", "address": "101 CENTREPOINTE DRIVE", "city": "OTTAWA", "province": "ON", "country": "CA", "postalCode": "K2G5K7", "twitter": "None", "instagram": "None", "facebook": "None", "youtube": "None", "website": "None", "summary": "None", "logo": "None", "latitude": 45.34384914438186, "longitude": -75.76391776423996}, "790867691RR0001": {"name": "Canadian Gujarati Association of Ontario", "designationCode": "C", "categoryCode": "48", "address": "6136 SILKEN LAUMANN WAY", "city": "MISSISSAUGA", "province": "ON", "country": "CA", "postalCode": "L5V1A2", "twitter": "None", "instagram": "None", "facebook": "None", "youtube": "None", "website": "None", "summary": "None", "logo": "None", "latitude": 43.61013970301238, "longitude": -79.70497037956589}, "833376601RR0001": {"name": "Canadian Gujarati Christchurch (CGC)", "designationCode": "C", "categoryCode": "39", "address": "115 YOUNG DRIVE", "city": "BRAMPTON", "province": "ON", "country": "CA", "postalCode": "L6Y0N9", "twitter": "None", "instagram": "None", "facebook": "None", "youtube": "None", "website": "None", "summary": "None", "logo": "None", "latitude": 43.651996963356275, "longitude": -79.76619895617158}, "890497605RR0001": {"name": "Canadian Hard of Hearing Association - Calgary", "designationCode": "C", "categoryCode": "11", "address": "63 CORNELL ROAD N.W.", "city": "CALGARY", "province": "AB", "country": "CA", "postalCode": "T2L0L4", "twitter": "None", "instagram": "None", "facebook": "None", "youtube": "None", "website": "None", "summary": "None", "logo": "None", "latitude": 51.08384248514059, "longitude": -114.09605116763807}, "827896408RR0001": {"name": "Canadian Hard of Hearing Association Vancouver Branch", "designationCode": "C", "categoryCode": "59", "address": "2125 WEST 7TH AVENUE", "city": "VANCOUVER", "province": "BC", "country": "CA", "postalCode": "V6K1X9", "twitter": "None", "instagram": "None", "facebook": "None", "youtube": "None", "website": "None", "summary": "None", "logo": "None", "latitude": 49.265636467684104, "longitude": -123.15353366472388}, "855857777RR0001": {"name": "Canadian Harmony and Inclusion Network", "designationCode": "C", "categoryCode": "29", "address": "409-5200 LAKESHORE ROAD", "city": "BURLINGTON", "province": "ON", "country": "CA", "postalCode": "L7L1C5", "twitter": "None", "instagram": "None", "facebook": "None", "youtube": "None", "website": "None", "summary": "None", "logo": "None", "latitude": 43.364816792919605, "longitude": -79.73735842734773}, "833807803RR0001": {"name": "Canadian Health, Immunization and Learning Development Foundation", "designationCode": "C", "categoryCode": "10", "address": "66 ASPEN RIDGE WAY SW", "city": "CALGARY", "province": "AB", "country": "CA", "postalCode": "T3H5M2", "twitter": "None", "instagram": "None", "facebook": "None", "youtube": "None", "website": "None", "summary": "None", "logo": "None", "latitude": 51.046775497085804, "longitude": -114.19710365918395}, "864239082RR0001": {"name": "Canadian Helen Keller Centre", "designationCode": "C", "categoryCode": "09", "address": "101 - 422 WILLOWDALE AVE", "city": "NORTH YORK", "province": "ON", "country": "CA", "postalCode": "M2N5B1", "twitter": "None", "instagram": "None", "facebook": "None", "youtube": "None", "website": "None", "summary": "None", "logo": "None", "latitude": 43.77823123535695, "longitude": -79.40572594866974}, "836393132RR0001": {"name": "Canadian Helping Arms", "designationCode": "C", "categoryCode": "09", "address": "119 ROYAL WEST DRIVE", "city": "BRAMPTON", "province": "ON", "country": "CA", "postalCode": "L6X0V4", "twitter": "None", "instagram": "None", "facebook": "None", "youtube": "None", "website": "None", "summary": "None", "logo": "None", "latitude": 43.65603762698363, "longitude": -79.81033028209956}, "119219160RR0001": {"name": "Canadian Hemochromatosis Society / Soci\u00e9t\u00e9 canadienne de l'h\u00e9mochromatose", "designationCode": "C", "categoryCode": "11", "address": "285-7000 MINORU BLVD", "city": "RICHMOND", "province": "BC", "country": "CA", "postalCode": "V6Y3Z5", "twitter": "None", "instagram": "None", "facebook": "None", "youtube": "None", "website": "None", "summary": "None", "logo": "None", "latitude": 49.162613713471075, "longitude": -123.14016571347106}, "831221221RR0001": {"name": "Canadian Hero Fund", "designationCode": "C", "categoryCode": "21", "address": "55 BLOOR STREET WEST          P.O. BOX 19532", "city": "TORONTO", "province": "ON", "country": "CA", "postalCode": "M4W3T9", "twitter": "None", "instagram": "None", "facebook": "None", "youtube": "None", "website": "None", "summary": "None", "logo": "None", "latitude": 43.66985170716733, "longitude": -79.38870512738765}, "880781562RR0001": {"name": "Canadian Herpetological Society - Soci\u00e9t\u00e9 d'Herp\u00e9tologie du Canada", "designationCode": "C", "categoryCode": "54", "address": "60 CARRIAGEWAY COURT", "city": "WOLFVILLE", "province": "NS", "country": "CA", "postalCode": "B4P2N1", "twitter": "None", "instagram": "None", "facebook": "None", "youtube": "None", "website": "None", "summary": "None", "logo": "None", "latitude": 45.09086778377299, "longitude": -64.34060740576494}, "829726041RR0001": {"name": "Canadian Himalayan Association for Innovation", "designationCode": "C", "categoryCode": "09", "address": "1128 24TH AVENUE EAST", "city": "VANCOUVER", "province": "BC", "country": "CA", "postalCode": "V5V2B2", "twitter": "None", "instagram": "None", "facebook": "None", "youtube": "None", "website": "None", "summary": "None", "logo": "None", "latitude": 49.249047532315885, "longitude": -123.08120413780367}, "824730048RR0001": {"name": "Canadian Hindu Awareness Foundation", "designationCode": "C", "categoryCode": "09", "address": "2983 ISLINGTON AVE", "city": "NORTH YORK", "province": "ON", "country": "CA", "postalCode": "M9L2K9", "twitter": "None", "instagram": "None", "facebook": "None", "youtube": "None", "website": "None", "summary": "None", "logo": "None", "latitude": 43.75897663004204, "longitude": -79.57098253271992}, "841737406RR0001": {"name": "Canadian Historical Arms Museum", "designationCode": "C", "categoryCode": "50", "address": "6615 CONCESSION 1,            R R #2", "city": "PUSLINCH", "province": "ON", "country": "CA", "postalCode": "N0B2J0", "twitter": "None", "instagram": "None", "facebook": "None", "youtube": "None", "website": "None", "summary": "None", "logo": "None", "latitude": 43.40682671568156, "longitude": -80.25277883931642}, "853107662RR0001": {"name": "Canadian Human Rights International Organization-Chrio", "designationCode": "C", "categoryCode": "59", "address": "1725 FINCH AVENUE WEST", "city": "TORONTO", "province": "ON", "country": "CA", "postalCode": "M3N1M6", "twitter": "None", "instagram": "None", "facebook": "None", "youtube": "None", "website": "None", "summary": "None", "logo": "None", "latitude": 43.7595658670151, "longitude": -79.50646642449085}, "141110155RR0001": {"name": "Canadian HIV/AIDS Legal Network R\u00e9seau Juridique canadien s ur le VIH/SIDA", "designationCode": "C", "categoryCode": "09", "address": "1240 BAY ST.                  SUITE 600", "city": "TORONTO", "province": "ON", "country": "CA", "postalCode": "M5R2A7", "twitter": "None", "instagram": "None", "facebook": "None", "youtube": "None", "website": "None", "summary": "None", "logo": "None", "latitude": 43.67039708076062, "longitude": -79.38980700654952}, "805230059RR0001": {"name": "Canadian Institute for the Study of Antisemitism", "designationCode": "C", "categoryCode": "20", "address": "PO BOX 58029                  RPO BISHOP GRANDIN", "city": "WINNIPEG", "province": "MB", "country": "CA", "postalCode": "R2M2R6", "twitter": "None", "instagram": "None", "facebook": "None", "youtube": "None", "website": "None", "summary": "None", "logo": "None", "latitude": 49.82146766240776, "longitude": -97.14545853579078}, "119219251RR0001": {"name": "Canadian Institute for Advanced Research-Institut canadien des recherches avanc\u00e9es", "designationCode": "C", "categoryCode": "21", "address": "1400-180 DUNDAS ST W", "city": "TORONTO", "province": "ON", "country": "CA", "postalCode": "M5G1Z8", "twitter": "None", "instagram": "None", "facebook": "None", "youtube": "None", "website": "None", "summary": "None", "logo": "None", "latitude": 43.65505800000001, "longitude": -79.38679049999999}, "874013196RR0001": {"name": "Canadian Institute for Child and Adolescent Psychoanalytic Psychotherapy", "designationCode": "C", "categoryCode": "20", "address": "17 SADDLETREE TRAIL", "city": "BRAMPTON", "province": "ON", "country": "CA", "postalCode": "L6X4M5", "twitter": "None", "instagram": "None", "facebook": "None", "youtube": "None", "website": "None", "summary": "None", "logo": "None", "latitude": 43.69356756535293, "longitude": -79.78535203883676}, "806894390RR0001": {"name": "Canadian Institute for Human Rights and Religious Freedom", "designationCode": "C", "categoryCode": "59", "address": "3000 - 700 9 AVE SW", "city": "CALGARY", "province": "AB", "country": "CA", "postalCode": "T2P3V4", "twitter": "None", "instagram": "None", "facebook": "None", "youtube": "None", "website": "None", "summary": "None", "logo": "None", "latitude": 51.04495107547109, "longitude": -114.0758334905459}, "119052793RR0001": {"name": "Canadian Institute for Non-Destructive Evaluation", "designationCode": "C", "categoryCode": "21", "address": "135 FENNELL AVE W. ROOM E06A", "city": "HAMILTON", "province": "ON", "country": "CA", "postalCode": "L8N3T2", "twitter": "None", "instagram": "None", "facebook": "None", "youtube": "None", "website": "None", "summary": "None", "logo": "None", "latitude": 43.23945609683212, "longitude": -79.88503155150313}, "892844168RR0001": {"name": "Canadian Institute of Sufi Studies", "designationCode": "C", "categoryCode": "49", "address": "4221 ST. JOHN'S SIDE ROAD", "city": "NEW MARKET", "province": "ON", "country": "CA", "postalCode": "L3Y4W1", "twitter": "None", "instagram": "None", "facebook": "None", "youtube": "None", "website": "None", "summary": "None", "logo": "None", "latitude": 44.04609600000006, "longitude": -79.42235749999993}, "106861610RR0001": {"name": "Canadian International Council-Conseil International du Canada", "designationCode": "C", "categoryCode": "29", "address": "6 HOSKIN AVE", "city": "TORONTO", "province": "ON", "country": "CA", "postalCode": "M5S1H8", "twitter": "None", "instagram": "None", "facebook": "None", "youtube": "None", "website": "None", "summary": "None", "logo": "None", "latitude": 43.664901420635644, "longitude": -79.39495510547981}, "840847008RR0001": {"name": "Canadian International Dental Foundation, Inc.", "designationCode": "C", "categoryCode": "11", "address": "102-1 CENTENNIAL ST", "city": "MOUNT PEARL", "province": "NL", "country": "CA", "postalCode": "A1N0C9", "twitter": "None", "instagram": "None", "facebook": "None", "youtube": "None", "website": "None", "summary": "None", "logo": "None", "latitude": 47.518730360608934, "longitude": -52.80742616897383}, "830876694RR0001": {"name": "Canadian International Life Outreach Arm", "designationCode": "C", "categoryCode": "47", "address": "PO BOX 35068                  RPO WESTGATE", "city": "OTTAWA", "province": "ON", "country": "CA", "postalCode": "K1Z1A2", "twitter": "None", "instagram": "None", "facebook": "None", "youtube": "None", "website": "None", "summary": "None", "logo": "None", "latitude": 45.42177300000006, "longitude": -75.69115999999994}, "889734265RR0001": {"name": "Canadian Intramural Recreation Association (CIRA) - Ontario", "designationCode": "C", "categoryCode": "21", "address": "790 SHAVER ROAD", "city": "ANCASTER", "province": "ON", "country": "CA", "postalCode": "L9G3K9", "twitter": "None", "instagram": "None", "facebook": "None", "youtube": "None", "website": "None", "summary": "None", "logo": "None", "latitude": 43.18993540215827, "longitude": -80.00996477162528}, "815417183RR0001": {"name": "Canadian Islamic Centre", "designationCode": "C", "categoryCode": "56", "address": "172 MILVAN DR", "city": "NORTH YORK", "province": "ON", "country": "CA", "postalCode": "M9L1Z9", "twitter": "None", "instagram": "None", "facebook": "None", "youtube": "None", "website": "None", "summary": "None", "logo": "None", "latitude": 43.75795549428719, "longitude": -79.56477339843602}, "849763107RR0001": {"name": "Canadian Islamic Dar Alfatwa Centre", "designationCode": "C", "categoryCode": "60", "address": "305 - 9006 132 AVE NW", "city": "EDMONTON", "province": "AB", "country": "CA", "postalCode": "T5E0Y2", "twitter": "None", "instagram": "None", "facebook": "None", "youtube": "None", "website": "None", "summary": "None", "logo": "None", "latitude": 53.59206747335726, "longitude": -113.4935454511334}, "886580257RR0001": {"name": "Canadian Italian Heritage Foundation", "designationCode": "C", "categoryCode": "21", "address": "11 DIRECTOR CRT", "city": "WOODBRIDGE", "province": "ON", "country": "CA", "postalCode": "L4L4S5", "twitter": "None", "instagram": "None", "facebook": "None", "youtube": "None", "website": "None", "summary": "None", "logo": "None", "latitude": 43.77296112020297, "longitude": -79.54113951999624}, "119239143RR0001": {"name": "Canadian Japanese Ministries", "designationCode": "C", "categoryCode": "39", "address": "123 STARGELL CRESCENT", "city": "MARKHAM", "province": "ON", "country": "CA", "postalCode": "L3P4J8", "twitter": "None", "instagram": "None", "facebook": "None", "youtube": "None", "website": "None", "summary": "None", "logo": "None", "latitude": 43.87733506549717, "longitude": -79.27989651820629}, "809284961RR0001": {"name": "Canadian Jewish Experience - a Tribute to Canada 150", "designationCode": "C", "categoryCode": "50", "address": "1405 - 200 RIDEAU TERRACE", "city": "OTTAWA", "province": "ON", "country": "CA", "postalCode": "K1M0Z3", "twitter": "None", "instagram": "None", "facebook": "None", "youtube": "None", "website": "None", "summary": "None", "logo": "None", "latitude": 45.4436445572742, "longitude": -75.67507019455826}, "828337105RR0001": {"name": "Canadian Language Museum", "designationCode": "C", "categoryCode": "50", "address": "150, WALMER ROAD", "city": "TORONTO", "province": "ON", "country": "CA", "postalCode": "M5R2X9", "twitter": "None", "instagram": "None", "facebook": "None", "youtube": "None", "website": "None", "summary": "None", "logo": "None", "latitude": 43.67328435192455, "longitude": -79.40776556913251}, "838751329RR0001": {"name": "Canadian Latin Community Services of Toronto", "designationCode": "C", "categoryCode": "09", "address": "3344 LAKE SHORE BLVD W", "city": "ETOBICOKE", "province": "ON", "country": "CA", "postalCode": "M8W1M9", "twitter": "None", "instagram": "None", "facebook": "None", "youtube": "None", "website": "None", "summary": "None", "logo": "None", "latitude": 43.59625509965941, "longitude": -79.52585708993587}, "715473724RR0001": {"name": "Canadian Lebanese Foundation for the Advancement of Education", "designationCode": "C", "categoryCode": "21", "address": "1436 ROSEBELLA AVE", "city": "OTTAWA", "province": "ON", "country": "CA", "postalCode": "K1T1E6", "twitter": "None", "instagram": "None", "facebook": "None", "youtube": "None", "website": "None", "summary": "None", "logo": "None", "latitude": 45.34457553093092, "longitude": -75.63674133276596}, "824788202RR0001": {"name": "Canadian Legacy Project", "designationCode": "B", "categoryCode": "09", "address": "210 1235 17TH AVE. SW", "city": "CALGARY", "province": "AB", "country": "CA", "postalCode": "T2T0C2", "twitter": "None", "instagram": "None", "facebook": "None", "youtube": "None", "website": "None", "summary": "None", "logo": "None", "latitude": 51.03780387624438, "longitude": -114.09631806548934}, "118972066RR0001": {"name": "Canadian Light Music Society", "designationCode": "C", "categoryCode": "22", "address": "1358 GARRET PL", "city": "COWICHAN BAY", "province": "BC", "country": "CA", "postalCode": "V0R1N2", "twitter": "None", "instagram": "None", "facebook": "None", "youtube": "None", "website": "None", "summary": "None", "logo": "None", "latitude": 48.731066496537565, "longitude": -123.5944527171793}, "822004974RR0001": {"name": "Canadian Lighthouses of Lake Superior", "designationCode": "C", "categoryCode": "50", "address": "202 - 212 MILES ST E", "city": "THUNDER BAY", "province": "ON", "country": "CA", "postalCode": "P7C1J6", "twitter": "None", "instagram": "None", "facebook": "None", "youtube": "None", "website": "None", "summary": "None", "logo": "None", "latitude": 48.38551650000001, "longitude": -89.24463449999999}, "851601260RR0001": {"name": "Canadian Lymphedema Framework / Partenariat Canadien du lymphoed\u00e8me", "designationCode": "C", "categoryCode": "11", "address": "204 - 4800 DUNDAS ST W", "city": "ETOBICOKE", "province": "ON", "country": "CA", "postalCode": "M9A1B1", "twitter": "None", "instagram": "None", "facebook": "None", "youtube": "None", "website": "None", "summary": "None", "logo": "None", "latitude": 43.65128994284136, "longitude": -79.5265369087078}, "106863061RR0001": {"name": "Canadian Magen David Adom for Israel/Magen David Adom Canadien pour Israel", "designationCode": "C", "categoryCode": "11", "address": "190 - 8200 BOUL DECARIE", "city": "MONTREAL", "province": "QC", "country": "CA", "postalCode": "H4P2P5", "twitter": "None", "instagram": "None", "facebook": "None", "youtube": "None", "website": "None", "summary": "None", "logo": "None", "latitude": 45.4990347909577, "longitude": -73.66112978524394}, "743613127RR0001": {"name": "Canadian Maitreya Great Tao", "designationCode": "C", "categoryCode": "35", "address": "2665 MIDLAND AVE.", "city": "TORONTO", "province": "ON", "country": "CA", "postalCode": "M1S1R8", "twitter": "None", "instagram": "None", "facebook": "None", "youtube": "None", "website": "None", "summary": "None", "logo": "None", "latitude": 43.791324202060096, "longitude": -79.28096791545983}, "140777046RR0001": {"name": "Canadian Maritime Heritage Foundation", "designationCode": "A", "categoryCode": "21", "address": "4 LANSHAW CLOSE", "city": "HALIFAX", "province": "NS", "country": "CA", "postalCode": "B3S1E7", "twitter": "None", "instagram": "None", "facebook": "None", "youtube": "None", "website": "None", "summary": "None", "logo": "None", "latitude": 44.664075869553926, "longitude": -63.66772008286673}, "835248485RR0001": {"name": "Canadian Marriage & Family Network Association", "designationCode": "C", "categoryCode": "09", "address": "64210 393 LOOP E", "city": "OKOTOKS", "province": "AB", "country": "CA", "postalCode": "T1S0L1", "twitter": "None", "instagram": "None", "facebook": "None", "youtube": "None", "website": "None", "summary": "None", "logo": "None", "latitude": 50.724177000000054, "longitude": -113.97182749999993}, "107910259RR0007": {"name": "Canadian Martyrs Parish", "designationCode": "C", "categoryCode": "38", "address": "522 PLAINS ROAD", "city": "TORONTO", "province": "ON", "country": "CA", "postalCode": "M4C2Z1", "twitter": "None", "instagram": "None", "facebook": "None", "youtube": "None", "website": "None", "summary": "None", "logo": "None", "latitude": 43.69820216515656, "longitude": -79.31834718096827}, "827493610RR0001": {"name": "Canadian Media Education Foundation", "designationCode": "B", "categoryCode": "23", "address": "3600 - 22 ADELAIDE ST W", "city": "TORONTO", "province": "ON", "country": "CA", "postalCode": "M5H4E3", "twitter": "None", "instagram": "None", "facebook": "None", "youtube": "None", "website": "None", "summary": "None", "logo": "None", "latitude": 43.6500561684748, "longitude": -79.38026958604074}, "806023057RR0001": {"name": "Canadian Medical Mission Society", "designationCode": "C", "categoryCode": "11", "address": "7111 BLAKE DR", "city": "DELTA", "province": "BC", "country": "CA", "postalCode": "V4E2W5", "twitter": "None", "instagram": "None", "facebook": "None", "youtube": "None", "website": "None", "summary": "None", "logo": "None", "latitude": 49.13281757282611, "longitude": -122.9178060737488}, "849554431RR0001": {"name": "Canadian Men's Chorus", "designationCode": "C", "categoryCode": "22", "address": "60 SHREWSBURY ST.", "city": "STRATFORD", "province": "ON", "country": "CA", "postalCode": "N5A2V6", "twitter": "None", "instagram": "None", "facebook": "None", "youtube": "None", "website": "None", "summary": "None", "logo": "None", "latitude": 43.36737381655025, "longitude": -80.99018519444269}, "819747080RR0001": {"name": "Canadian Men's Health Foundation", "designationCode": "C", "categoryCode": "11", "address": "900 - 609 HASTINGS ST W", "city": "VANCOUVER", "province": "BC", "country": "CA", "postalCode": "V6B4W4", "twitter": "None", "instagram": "None", "facebook": "None", "youtube": "None", "website": "None", "summary": "None", "logo": "None", "latitude": 49.28497935388645, "longitude": -123.11328577127951}, "106863897RR0001": {"name": "Canadian Mental Health Association - Portage Branch Central Region Inc.", "designationCode": "C", "categoryCode": "11", "address": "236 SASKATCHEWAN AVE. EAST", "city": "PORTAGE LA PRAIRIE", "province": "MB", "country": "CA", "postalCode": "R1N0K9", "twitter": "None", "instagram": "None", "facebook": "None", "youtube": "None", "website": "None", "summary": "None", "logo": "None", "latitude": 49.973041170470346, "longitude": -98.28698907107683}, "884414582RR0001": {"name": "Canadian Mental Health Association of New Brunswick Inc. / Association canadienne pour la sant\u00e9 mentale du Nouveau-Brunswick Inc.", "designationCode": "C", "categoryCode": "11", "address": "403 REGENT STREET             SUITE 202", "city": "FREDRICTON", "province": "NB", "country": "CA", "postalCode": "E3B3X6", "twitter": "None", "instagram": "None", "facebook": "None", "youtube": "None", "website": "None", "summary": "None", "logo": "None", "latitude": 45.95485146878063, "longitude": -66.64417816501233}, "118834191RR0001": {"name": "Canadian Mental Health Association, Brant-Haldimand-Norfolk Branch", "designationCode": "C", "categoryCode": "11", "address": "203-44 KING ST", "city": "BRANTFORD", "province": "ON", "country": "CA", "postalCode": "N3T3C7", "twitter": "None", "instagram": "None", "facebook": "None", "youtube": "None", "website": "None", "summary": "None", "logo": "None", "latitude": 43.140111003780234, "longitude": -80.26747683436446}, "808204820RR0001": {"name": "Canadian Mental Health Association, Kenora Branch", "designationCode": "C", "categoryCode": "11", "address": "227 SECOND STREET SOUTH       2ND FLOOR", "city": "KENORA", "province": "ON", "country": "CA", "postalCode": "P9N1G1", "twitter": "None", "instagram": "None", "facebook": "None", "youtube": "None", "website": "None", "summary": "None", "logo": "None", "latitude": 49.7660379802645, "longitude": -94.48977782128209}, "838790517RR0001": {"name": "Canadian Mental Health Association, Lambton Kent Branch", "designationCode": "C", "categoryCode": "11", "address": "SUITE 100                     240 GRAND AVENUE WEST", "city": "CHATHAM", "province": "ON", "country": "CA", "postalCode": "N7L1C1", "twitter": "None", "instagram": "None", "facebook": "None", "youtube": "None", "website": "None", "summary": "None", "logo": "None", "latitude": 42.4025672067633, "longitude": -82.19931501638955}, "129138541RR0001": {"name": "Canadian Mental Health Association, Middlesex", "designationCode": "C", "categoryCode": "11", "address": "534 QUEENS AVE", "city": "LONDON", "province": "ON", "country": "CA", "postalCode": "N6B1Y6", "twitter": "None", "instagram": "None", "facebook": "None", "youtube": "None", "website": "None", "summary": "None", "logo": "None", "latitude": 42.98922492148975, "longitude": -81.23530066085739}, "140818899RR0001": {"name": "Canadian Mental Health Association, Muskoka - Parry Sound Branch", "designationCode": "C", "categoryCode": "11", "address": "173-202 MANITOBA ST", "city": "BRACEBRIDGE", "province": "ON", "country": "CA", "postalCode": "P1L1S3", "twitter": "None", "instagram": "None", "facebook": "None", "youtube": "None", "website": "None", "summary": "None", "logo": "None", "latitude": 45.044097310324254, "longitude": -79.31654487450099}, "811691922RR0001": {"name": "Canadian Mental Health Association, Vancouver-Fraser Branch", "designationCode": "C", "categoryCode": "11", "address": "110 - 2425 QUEBEC ST", "city": "VANCOUVER", "province": "BC", "country": "CA", "postalCode": "V5T4L6", "twitter": "None", "instagram": "None", "facebook": "None", "youtube": "None", "website": "None", "summary": "None", "logo": "None", "latitude": 49.26348112101101, "longitude": -123.10298599448873}, "118834183RR0001": {"name": "Canadian Mental Health Association, Waterloo Wellington Branch", "designationCode": "C", "categoryCode": "11", "address": "80 WATERLOO AVE", "city": "GUELPH", "province": "ON", "country": "CA", "postalCode": "N1H0A1", "twitter": "None", "instagram": "None", "facebook": "None", "youtube": "None", "website": "None", "summary": "None", "logo": "None", "latitude": 43.53905614236264, "longitude": -80.25222138755866}, "841562325RR0001": {"name": "Canadian Mental Health Association, Yarmouth, Digby, Shelburne Branch", "designationCode": "C", "categoryCode": "11", "address": "PO BOX 312 STN MAIN", "city": "YARMOUTH", "province": "NS", "country": "CA", "postalCode": "B5A4B3", "twitter": "None", "instagram": "None", "facebook": "None", "youtube": "None", "website": "None", "summary": "None", "logo": "None", "latitude": 43.83439000000004, "longitude": -66.12014999999997}}