{"119201986RR0001": {"name": "ST STEPHEN'S LUTHERAN CHURCH", "designationCode": "C", "categoryCode": "32", "address": "786 SCHUTT RD., RR #2", "city": "PALMER RAPIDS", "province": "ON", "country": "CA", "postalCode": "K0J2E0", "twitter": "None", "instagram": "None", "facebook": "None", "youtube": "None", "website": "None", "summary": "None", "logo": "None", "latitude": 45.24062477491485, "longitude": -77.45796212848417}, "119202026RR0001": {"name": "ST STEPHEN'S ON THE HILL UNITED CHURCH", "designationCode": "C", "categoryCode": "44", "address": "998 INDIAN ROAD", "city": "MISSISSAUGA", "province": "ON", "country": "CA", "postalCode": "L5H1R5", "twitter": "None", "instagram": "None", "facebook": "None", "youtube": "None", "website": "None", "summary": "None", "logo": "None", "latitude": 43.540963457363596, "longitude": -79.61548527302385}, "119202042RR0001": {"name": "ST STEPHEN'S ORTHODOX LADIES AUXILIARY", "designationCode": "C", "categoryCode": "49", "address": "PO BOX 305", "city": "TEULON", "province": "MB", "country": "CA", "postalCode": "R0C3B0", "twitter": "None", "instagram": "None", "facebook": "None", "youtube": "None", "website": "None", "summary": "None", "logo": "None", "latitude": 50.38882296172802, "longitude": -97.07887338068231}, "892884362RR0001": {"name": "ST STEPHEN'S PARISH", "designationCode": "C", "categoryCode": "39", "address": "212 CH OLD CHELSEA", "city": "CHELSEA", "province": "QC", "country": "CA", "postalCode": "J9B1J3", "twitter": "None", "instagram": "None", "facebook": "None", "youtube": "None", "website": "None", "summary": "None", "logo": "None", "latitude": 45.50296445325739, "longitude": -75.80759005536962}, "119202109RR0001": {"name": "ST STEPHEN'S PRESBYTERIAN CHURCH", "designationCode": "C", "categoryCode": "37", "address": "1839 RTE 420", "city": "RED BANK", "province": "NB", "country": "CA", "postalCode": "E9E1A1", "twitter": "None", "instagram": "None", "facebook": "None", "youtube": "None", "website": "None", "summary": "None", "logo": "None", "latitude": 46.93460236737141, "longitude": -65.81223145018636}, "119202141RR0001": {"name": "ST STEPHEN'S PRESBYTERIAN CHURCH", "designationCode": "C", "categoryCode": "37", "address": "3817 LAWRENCE AVE E", "city": "SCARBOROUGH", "province": "ON", "country": "CA", "postalCode": "M1G1R2", "twitter": "None", "instagram": "None", "facebook": "None", "youtube": "None", "website": "None", "summary": "None", "logo": "None", "latitude": 43.7625258087313, "longitude": -79.21246711766413}, "128949633RR0001": {"name": "ST STEPHEN'S PRESBYTERIAN CHURCH", "designationCode": "C", "categoryCode": "37", "address": "1140 ST PAUL ST", "city": "PETERBOROUGH", "province": "ON", "country": "CA", "postalCode": "K9H7C3", "twitter": "None", "instagram": "None", "facebook": "None", "youtube": "None", "website": "None", "summary": "None", "logo": "None", "latitude": 44.33201193228114, "longitude": -78.32495236865988}, "129885661RR0001": {"name": "ST STEPHEN'S PRESBYTERIAN CHURCH", "designationCode": "C", "categoryCode": "37", "address": "579 PARKDALE AVE", "city": "OTTAWA", "province": "ON", "country": "CA", "postalCode": "K1Y4K1", "twitter": "None", "instagram": "None", "facebook": "None", "youtube": "None", "website": "None", "summary": "None", "logo": "None", "latitude": 45.395765391078434, "longitude": -75.7260606158178}, "889853594RR0001": {"name": "ST STEPHEN'S SCHOLARSHIP AND BURSARY FUND INC", "designationCode": "C", "categoryCode": "21", "address": "PO BOX 43", "city": "STEPHENVILLE", "province": "NL", "country": "CA", "postalCode": "A2N2Y7", "twitter": "None", "instagram": "None", "facebook": "None", "youtube": "None", "website": "None", "summary": "None", "logo": "None", "latitude": 48.549003000000056, "longitude": -58.57539199999994}, "119202216RR0001": {"name": "ST STEPHEN'S UNITED CHURCH", "designationCode": "C", "categoryCode": "44", "address": "68 KANES LAKE", "city": "BOOM ROAD", "province": "NB", "country": "CA", "postalCode": "E9E1H7", "twitter": "None", "instagram": "None", "facebook": "None", "youtube": "None", "website": "None", "summary": "None", "logo": "None", "latitude": 46.95782208188579, "longitude": -65.79129505964013}, "119202257RR0001": {"name": "ST STEPHEN'S UNITED CHURCH", "designationCode": "C", "categoryCode": "44", "address": "7025 GRANVILLE ST", "city": "VANCOUVER", "province": "BC", "country": "CA", "postalCode": "V6P4X6", "twitter": "None", "instagram": "None", "facebook": "None", "youtube": "None", "website": "None", "summary": "None", "logo": "None", "latitude": 49.22102786955392, "longitude": -123.14015545452679}, "132154097RR0001": {"name": "ST STEPHEN'S UNITED CHURCH", "designationCode": "C", "categoryCode": "44", "address": "1360 SIMCOE STREET N", "city": "OSHAWA", "province": "ON", "country": "CA", "postalCode": "L1G4X6", "twitter": "None", "instagram": "None", "facebook": "None", "youtube": "None", "website": "None", "summary": "None", "logo": "None", "latitude": 43.93318293643607, "longitude": -78.87904859108971}, "872671391RR0001": {"name": "ST STEPHENS ANGLICAN CHURCH", "designationCode": "C", "categoryCode": "30", "address": "25-12TH AVENUE", "city": "LACHINE", "province": "QC", "country": "CA", "postalCode": "H8S1B2", "twitter": "None", "instagram": "None", "facebook": "None", "youtube": "None", "website": "None", "summary": "None", "logo": "None", "latitude": 45.43258444463038, "longitude": -73.67465267407202}, "119202265RR0001": {"name": "ST STEPHENS UNIVERSITY", "designationCode": "C", "categoryCode": "20", "address": "8 MAIN STREET", "city": "ST STEPHEN", "province": "NB", "country": "CA", "postalCode": "E3L3E2", "twitter": "None", "instagram": "None", "facebook": "None", "youtube": "None", "website": "None", "summary": "None", "logo": "None", "latitude": 45.19285578212821, "longitude": -67.28178031406874}, "119202430RR0001": {"name": "ST THERESA OF THE CHILD JESUS PARISH", "designationCode": "C", "categoryCode": "38", "address": "PO BOX 223", "city": "GRIMSHAW", "province": "AB", "country": "CA", "postalCode": "T0H1W0", "twitter": "None", "instagram": "None", "facebook": "None", "youtube": "None", "website": "None", "summary": "None", "logo": "None", "latitude": 56.191580000000044, "longitude": -117.60929999999996}, "128967353RR0028": {"name": "ST THERESA OF THE CHILD JESUS' PARISH", "designationCode": "C", "categoryCode": "38", "address": "95 SOMERSET ST WEST", "city": "OTTAWA", "province": "ON", "country": "CA", "postalCode": "K2P0H3", "twitter": "None", "instagram": "None", "facebook": "None", "youtube": "None", "website": "None", "summary": "None", "logo": "None", "latitude": 45.4188584690691, "longitude": -75.68802469276926}, "877627877RR0001": {"name": "ST THERESA SCHOOL ASSOCIATION", "designationCode": "C", "categoryCode": "23", "address": "2021 BRENTWOOD BLVD N", "city": "SHERWOOD PARK", "province": "AB", "country": "CA", "postalCode": "T8A0X2", "twitter": "None", "instagram": "None", "facebook": "None", "youtube": "None", "website": "None", "summary": "None", "logo": "None", "latitude": 53.528957046627056, "longitude": -113.29954691670056}, "119202505RR0001": {"name": "ST THERESA'S CHURCH", "designationCode": "C", "categoryCode": "38", "address": "3597 MAIN STREET", "city": "WEST ST PAUL", "province": "MB", "country": "CA", "postalCode": "R4A5A2", "twitter": "None", "instagram": "None", "facebook": "None", "youtube": "None", "website": "None", "summary": "None", "logo": "None", "latitude": 49.980466357431986, "longitude": -97.0663461020567}, "119202513RR0001": {"name": "ST THERESA'S CHURCH", "designationCode": "C", "categoryCode": "38", "address": "BOX 171", "city": "LINTLAW", "province": "SK", "country": "CA", "postalCode": "S0A2H0", "twitter": "None", "instagram": "None", "facebook": "None", "youtube": "None", "website": "None", "summary": "None", "logo": "None", "latitude": 52.066680000000076, "longitude": -103.23427999999996}, "119264174RR0036": {"name": "ST THERESA'S CHURCH", "designationCode": "C", "categoryCode": "38", "address": "BOX 429", "city": "RED LAKE", "province": "ON", "country": "CA", "postalCode": "P0V2M0", "twitter": "None", "instagram": "None", "facebook": "None", "youtube": "None", "website": "None", "summary": "None", "logo": "None", "latitude": 51.017789973887886, "longitude": -93.82652994835257}, "891645772RR0001": {"name": "ST THERESA'S CHURCH", "designationCode": "C", "categoryCode": "38", "address": "BOX 596", "city": "ROSSBURN", "province": "MB", "country": "CA", "postalCode": "R0J1V0", "twitter": "None", "instagram": "None", "facebook": "None", "youtube": "None", "website": "None", "summary": "None", "logo": "None", "latitude": 50.66896200000005, "longitude": -100.81081249999994}, "130641988RR0001": {"name": "ST THERESA'S ROMAN CATHOLIC CHURCH", "designationCode": "C", "categoryCode": "38", "address": "7508 - 29 AVENUE", "city": "EDMONTON", "province": "AB", "country": "CA", "postalCode": "T6K3Y8", "twitter": "None", "instagram": "None", "facebook": "None", "youtube": "None", "website": "None", "summary": "None", "logo": "None", "latitude": 53.46011348658289, "longitude": -113.4459428366611}, "119203024RR0002": {"name": "ST THOMAS", "designationCode": "C", "categoryCode": "30", "address": "120 CHURCHILL DRIVE", "city": "CAMBRIDGE", "province": "ON", "country": "CA", "postalCode": "N1S1S2", "twitter": "None", "instagram": "None", "facebook": "None", "youtube": "None", "website": "None", "summary": "None", "logo": "None", "latitude": 43.35387070716731, "longitude": -80.33065879502571}, "130928351RR0001": {"name": "ST THOMAS A BECKET ANGLICAN CHURCH", "designationCode": "C", "categoryCode": "30", "address": "3535 SOUTH COMMON COURT", "city": "MISSISSAUGA", "province": "ON", "country": "CA", "postalCode": "L5L2B3", "twitter": "None", "instagram": "None", "facebook": "None", "youtube": "None", "website": "None", "summary": "None", "logo": "None", "latitude": 43.54322738138359, "longitude": -79.68633599509525}, "119202679RR0001": {"name": "ST THOMAS ANGLICAN CHURCH", "designationCode": "C", "categoryCode": "30", "address": "130 LAKEVIEW AVE", "city": "KINGSTON", "province": "ON", "country": "CA", "postalCode": "K7M3T5", "twitter": "None", "instagram": "None", "facebook": "None", "youtube": "None", "website": "None", "summary": "None", "logo": "None", "latitude": 44.21927899056495, "longitude": -76.57169354714664}, "119202695RR0002": {"name": "ST THOMAS ANGLICAN CHURCH", "designationCode": "C", "categoryCode": "30", "address": "PO BOX 507", "city": "CHATHAM", "province": "ON", "country": "CA", "postalCode": "N7M5K6", "twitter": "None", "instagram": "None", "facebook": "None", "youtube": "None", "website": "None", "summary": "None", "logo": "None", "latitude": 42.404613000000055, "longitude": -82.18960099999994}, "130922479RR0002": {"name": "ST THOMAS ANGLICAN CHURCH", "designationCode": "C", "categoryCode": "30", "address": "305 - 12TH STREET", "city": "WAINWRIGHT", "province": "AB", "country": "CA", "postalCode": "T9W1G7", "twitter": "None", "instagram": "None", "facebook": "None", "youtube": "None", "website": "None", "summary": "None", "logo": "None", "latitude": 52.83283796557798, "longitude": -110.85556153883675}, "878821107RR0001": {"name": "ST THOMAS ANGLICAN CHURCH", "designationCode": "C", "categoryCode": "30", "address": "277 HWY, 607A                 R.R. #2", "city": "ALBAN", "province": "ON", "country": "CA", "postalCode": "P0M1A0", "twitter": "None", "instagram": "None", "facebook": "None", "youtube": "None", "website": "None", "summary": "None", "logo": "None", "latitude": 46.02910875035966, "longitude": -80.5807498013158}, "891795841RR0002": {"name": "ST THOMAS ANGLICAN CHURCH-ORRVILLE", "designationCode": "C", "categoryCode": "30", "address": "12 HOLIDAY ROAD", "city": "SEGUIN", "province": "ON", "country": "CA", "postalCode": "P2A0B6", "twitter": "None", "instagram": "None", "facebook": "None", "youtube": "None", "website": "None", "summary": "None", "logo": "None", "latitude": 45.34821335177751, "longitude": -79.76863262152874}, "134883818RR0001": {"name": "ST THOMAS AQUINAS CHURCH", "designationCode": "C", "categoryCode": "38", "address": "BOX 100", "city": "CAMPERVILLE", "province": "MB", "country": "CA", "postalCode": "R0L0J0", "twitter": "None", "instagram": "None", "facebook": "None", "youtube": "None", "website": "None", "summary": "None", "logo": "None", "latitude": 51.98594000000003, "longitude": -100.14516999999995}, "890938038RR0001": {"name": "ST THOMAS AQUINAS ROMAN CATHOLIC SEPARATE REGIONAL DIVISION #38", "designationCode": "C", "categoryCode": "20", "address": "4906-50TH AVENUE", "city": "LEDUC", "province": "AB", "country": "CA", "postalCode": "T9E6W9", "twitter": "None", "instagram": "None", "facebook": "None", "youtube": "None", "website": "None", "summary": "None", "logo": "None", "latitude": 53.26476952596791, "longitude": -113.55122241618096}, "119202844RR0001": {"name": "ST THOMAS CHRISTIAN CHURCH (DISCIPLES OF CHRIST)", "designationCode": "C", "categoryCode": "39", "address": "451 WELLINGTON ST.", "city": "ST. THOMAS", "province": "ON", "country": "CA", "postalCode": "N5R5X8", "twitter": "None", "instagram": "None", "facebook": "None", "youtube": "None", "website": "None", "summary": "None", "logo": "None", "latitude": 42.774711679514965, "longitude": -81.16119050101865}, "119203115RR0001": {"name": "ST THOMAS CHURCH", "designationCode": "C", "categoryCode": "30", "address": "BOX 37", "city": "QU'APPELLE", "province": "SK", "country": "CA", "postalCode": "S0G4A0", "twitter": "None", "instagram": "None", "facebook": "None", "youtube": "None", "website": "None", "summary": "None", "logo": "None", "latitude": 50.33098795842485, "longitude": -102.28109602986969}, "129930228RR0014": {"name": "ST THOMAS CHURCH", "designationCode": "C", "categoryCode": "38", "address": "181 MAIN STREET", "city": "PLASTER ROCK", "province": "NB", "country": "CA", "postalCode": "E7G2H1", "twitter": "None", "instagram": "None", "facebook": "None", "youtube": "None", "website": "None", "summary": "None", "logo": "None", "latitude": 46.90081753926945, "longitude": -67.395159695885}, "119203172RR0001": {"name": "ST THOMAS ELGIN UNEMPLOYED HELP CENTRE", "designationCode": "C", "categoryCode": "59", "address": "PO BOX 22046                  ELMWOOD SQUARE", "city": "ST THOMAS", "province": "ON", "country": "CA", "postalCode": "N5R6A1", "twitter": "None", "instagram": "None", "facebook": "None", "youtube": "None", "website": "None", "summary": "None", "logo": "None", "latitude": 42.765196447384525, "longitude": -81.15500253399657}, "890823198RR0001": {"name": "ST THOMAS FIELD NATURALIST CLUB INC.", "designationCode": "C", "categoryCode": "21", "address": "P.O. BOX 22092                ELMWOOD SQUARE", "city": "ST. THOMAS", "province": "ON", "country": "CA", "postalCode": "N5R6A1", "twitter": "None", "instagram": "None", "facebook": "None", "youtube": "None", "website": "None", "summary": "None", "logo": "None", "latitude": 42.765196447384525, "longitude": -81.15500253399657}, "890708399RR0001": {"name": "ST THOMAS GOSPEL HALL", "designationCode": "C", "categoryCode": "39", "address": "5846 BOXALL RD                RR1", "city": "PORT STANLEY", "province": "ON", "country": "CA", "postalCode": "N5L1J1", "twitter": "None", "instagram": "None", "facebook": "None", "youtube": "None", "website": "None", "summary": "None", "logo": "None", "latitude": 42.672979788459415, "longitude": -81.28855529504706}, "890069594RR0001": {"name": "ST THOMAS KNANAYA SYRIAN ORTHODOX CHURCH", "designationCode": "C", "categoryCode": "39", "address": "11547 93 ST NW", "city": "EDMONTON", "province": "AB", "country": "CA", "postalCode": "T5G1C6", "twitter": "None", "instagram": "None", "facebook": "None", "youtube": "None", "website": "None", "summary": "None", "logo": "None", "latitude": 53.56720883819031, "longitude": -113.48416524184915}, "860534114RR0001": {"name": "ST THOMAS MAR THOMA CHURCH", "designationCode": "C", "categoryCode": "39", "address": "PO BOX 42034 RPO GUILDFORD", "city": "SURREY", "province": "BC", "country": "CA", "postalCode": "V3R1S5", "twitter": "None", "instagram": "None", "facebook": "None", "youtube": "None", "website": "None", "summary": "None", "logo": "None", "latitude": 49.19824255693469, "longitude": -122.79742933555187}, "890032642RR0001": {"name": "ST THOMAS MAR THOMA CHURCH, CALGARY", "designationCode": "C", "categoryCode": "39", "address": "117 - 3825 34 ST NE", "city": "CALGARY", "province": "AB", "country": "CA", "postalCode": "T1Y6Z8", "twitter": "None", "instagram": "None", "facebook": "None", "youtube": "None", "website": "None", "summary": "None", "logo": "None", "latitude": 51.08620955831632, "longitude": -113.98547117032334}, "119203230RR0001": {"name": "ST THOMAS MORE COLLEGE", "designationCode": "C", "categoryCode": "20", "address": "1437 COLLEGE DR", "city": "SASKATOON", "province": "SK", "country": "CA", "postalCode": "S7N0W6", "twitter": "None", "instagram": "None", "facebook": "None", "youtube": "None", "website": "None", "summary": "None", "logo": "None", "latitude": 52.12904703378069, "longitude": -106.63536746621931}, "120729595RR0001": {"name": "ST THOMAS MORE LAWYERS' GUILD OF NORTHERN ALBERTA", "designationCode": "C", "categoryCode": "39", "address": "2700 - 10155 102 ST NW", "city": "EDMONTON", "province": "AB", "country": "CA", "postalCode": "T5J4G8", "twitter": "None", "instagram": "None", "facebook": "None", "youtube": "None", "website": "None", "summary": "None", "logo": "None", "latitude": 53.54123374854291, "longitude": -113.49552380345118}, "869147785RR0001": {"name": "ST THOMAS OF VILLANOVA CATHOLIC SCHOOL", "designationCode": "C", "categoryCode": "20", "address": "2480 15TH SIDE ROAD", "city": "KING CITY", "province": "ON", "country": "CA", "postalCode": "L7B1A4", "twitter": "None", "instagram": "None", "facebook": "None", "youtube": "None", "website": "None", "summary": "None", "logo": "None", "latitude": 43.94520620684927, "longitude": -79.54036775913181}, "892325242RR0001": {"name": "ST THOMAS ORTHODOX SYRIAN CHURCH, MONTREAL", "designationCode": "C", "categoryCode": "39", "address": "155 MOZART", "city": "D.D.O.", "province": "QC", "country": "CA", "postalCode": "H9G2Z7", "twitter": "None", "instagram": "None", "facebook": "None", "youtube": "None", "website": "None", "summary": "None", "logo": "None", "latitude": 45.479937930319224, "longitude": -73.82857867043668}, "888566460RR0001": {"name": "ST THOMAS ORTHODOX SYRIAN CHURCH, OTTAWA", "designationCode": "C", "categoryCode": "39", "address": "803 MANCUSO CRT", "city": "KANATA", "province": "ON", "country": "CA", "postalCode": "K2T0E8", "twitter": "None", "instagram": "None", "facebook": "None", "youtube": "None", "website": "None", "summary": "None", "logo": "None", "latitude": 45.32511618763337, "longitude": -75.93186483331422}, "119203321RR0001": {"name": "ST THOMAS PENTECOSTAL ASSEMBLY", "designationCode": "C", "categoryCode": "36", "address": "144 WELLINGTON ST", "city": "ST THOMAS", "province": "ON", "country": "CA", "postalCode": "N5R2R9", "twitter": "None", "instagram": "None", "facebook": "None", "youtube": "None", "website": "None", "summary": "None", "logo": "None", "latitude": 42.77511042377855, "longitude": -81.19004566240024}, "129485967RR0001": {"name": "ST THOMAS PUBLIC LIBRARY BOARD", "designationCode": "C", "categoryCode": "50", "address": "153 CURTIS STREET", "city": "ST. THOMAS", "province": "ON", "country": "CA", "postalCode": "N5P3Z7", "twitter": "None", "instagram": "None", "facebook": "None", "youtube": "None", "website": "None", "summary": "None", "logo": "None", "latitude": 42.77981626930539, "longitude": -81.19272650875638}, "119203388RR0001": {"name": "ST THOMAS THE APOSTLE CHURCH", "designationCode": "C", "categoryCode": "38", "address": "BOX 254", "city": "NORQUAY", "province": "SK", "country": "CA", "postalCode": "S0A2V0", "twitter": "None", "instagram": "None", "facebook": "None", "youtube": "None", "website": "None", "summary": "None", "logo": "None", "latitude": 51.88199000000003, "longitude": -102.08761999999996}, "119203412RR0001": {"name": "ST THOMAS UNITED CHURCH", "designationCode": "C", "categoryCode": "44", "address": "100 HAWKWOOD BLVD N.W.", "city": "CALGARY", "province": "AB", "country": "CA", "postalCode": "T3G2S9", "twitter": "None", "instagram": "None", "facebook": "None", "youtube": "None", "website": "None", "summary": "None", "logo": "None", "latitude": 51.125368190951576, "longitude": -114.16693411045077}, "132758418RR0001": {"name": "ST THOMAS-ELGIN CHRISTMAS CARE", "designationCode": "C", "categoryCode": "09", "address": "P.O BOX 20016", "city": "ST THOMAS", "province": "ON", "country": "CA", "postalCode": "N5P4H4", "twitter": "None", "instagram": "None", "facebook": "None", "youtube": "None", "website": "None", "summary": "None", "logo": "None", "latitude": 42.778932000000054, "longitude": -81.19315249999994}, "137010674RR0001": {"name": "ST THOMAS-ELGIN SECOND STAGE TRANSITIONAL RESIDENCE", "designationCode": "C", "categoryCode": "01", "address": "15 GOLDING PLACE", "city": "ST THOMAS", "province": "ON", "country": "CA", "postalCode": "N5R6B6", "twitter": "None", "instagram": "None", "facebook": "None", "youtube": "None", "website": "None", "summary": "None", "logo": "None", "latitude": 42.77756240944952, "longitude": -81.15559954537108}, "119203438RR0001": {"name": "ST THOMAS-WESLEY UNITED CHURCH", "designationCode": "C", "categoryCode": "44", "address": "808 20TH STREET WEST", "city": "SASKATOON", "province": "SK", "country": "CA", "postalCode": "S7M0Y3", "twitter": "None", "instagram": "None", "facebook": "None", "youtube": "None", "website": "None", "summary": "None", "logo": "None", "latitude": 52.12621251875456, "longitude": -106.68183363918864}, "119202687RR0001": {"name": "ST THOMAS' ANGLICAN CHURCH", "designationCode": "C", "categoryCode": "30", "address": "201 CHURCH ST", "city": "BELLEVILLE", "province": "ON", "country": "CA", "postalCode": "K8N5P2", "twitter": "None", "instagram": "None", "facebook": "None", "youtube": "None", "website": "None", "summary": "None", "logo": "None", "latitude": 44.16440447461195, "longitude": -77.38101547044865}, "891751844RR0001": {"name": "ST THOMAS' ANGLICAN CHURCH", "designationCode": "C", "categoryCode": "30", "address": "RR #1", "city": "BLACKIE", "province": "AB", "country": "CA", "postalCode": "T0L0J0", "twitter": "None", "instagram": "None", "facebook": "None", "youtube": "None", "website": "None", "summary": "None", "logo": "None", "latitude": 50.51606892521704, "longitude": -113.51446758222522}, "119202950RR0001": {"name": "ST THOMAS' CHURCH", "designationCode": "C", "categoryCode": "30", "address": "P O BOX 187                   14 CENTRE ST.", "city": "MILLBROOK", "province": "ON", "country": "CA", "postalCode": "L0A1G0", "twitter": "None", "instagram": "None", "facebook": "None", "youtube": "None", "website": "None", "summary": "None", "logo": "None", "latitude": 44.15133312851285, "longitude": -78.4502291626464}, "119202976RR0001": {"name": "ST THOMAS' CHURCH", "designationCode": "C", "categoryCode": "30", "address": "28 CHURCH STREET, RR#3", "city": "ORO-MEDONTE", "province": "ON", "country": "CA", "postalCode": "L0L2L0", "twitter": "None", "instagram": "None", "facebook": "None", "youtube": "None", "website": "None", "summary": "None", "logo": "None", "latitude": 44.41051731022136, "longitude": -79.58183512090596}, "119202984RR0001": {"name": "ST THOMAS' CHURCH", "designationCode": "C", "categoryCode": "30", "address": "383 HURON ST", "city": "TORONTO", "province": "ON", "country": "CA", "postalCode": "M5S2G5", "twitter": "None", "instagram": "None", "facebook": "None", "youtube": "None", "website": "None", "summary": "None", "logo": "None", "latitude": 43.66585592506776, "longitude": -79.40096721507317}, "119203008RR0002": {"name": "ST THOMAS' CHURCH", "designationCode": "C", "categoryCode": "30", "address": "21 JARVIS STREET              BOX 697", "city": "SEAFORTH", "province": "ON", "country": "CA", "postalCode": "N0K1W0", "twitter": "None", "instagram": "None", "facebook": "None", "youtube": "None", "website": "None", "summary": "None", "logo": "None", "latitude": 43.553474904264405, "longitude": -81.39659761120059}, "132129545RR0002": {"name": "ST THOMAS' CHURCH", "designationCode": "C", "categoryCode": "30", "address": "1331 4TH AV W", "city": "OWEN SOUND", "province": "ON", "country": "CA", "postalCode": "N4K4W9", "twitter": "None", "instagram": "None", "facebook": "None", "youtube": "None", "website": "None", "summary": "None", "logo": "None", "latitude": 44.5728007610364, "longitude": -80.9507869393216}, "132615329RR0002": {"name": "ST THOMAS' CHURCH", "designationCode": "C", "categoryCode": "30", "address": "BOX 1568", "city": "WALKERTON", "province": "ON", "country": "CA", "postalCode": "N0G2V0", "twitter": "None", "instagram": "None", "facebook": "None", "youtube": "None", "website": "None", "summary": "None", "logo": "None", "latitude": 44.12817000000007, "longitude": -81.15211999999997}, "872794490RR0001": {"name": "ST THOMAS' CHURCH", "designationCode": "C", "categoryCode": "30", "address": "4211 HWY 141 RR1", "city": "UTTERSON", "province": "ON", "country": "CA", "postalCode": "P0B1M0", "twitter": "None", "instagram": "None", "facebook": "None", "youtube": "None", "website": "None", "summary": "None", "logo": "None", "latitude": 45.23285787231865, "longitude": -79.57190787791083}, "131455529RR0001": {"name": "ST THOMAS' CHURCH BROOKLIN", "designationCode": "C", "categoryCode": "30", "address": "BOX 274", "city": "BROOKLIN", "province": "ON", "country": "CA", "postalCode": "L1M1B5", "twitter": "None", "instagram": "None", "facebook": "None", "youtube": "None", "website": "None", "summary": "None", "logo": "None", "latitude": 43.957260000000076, "longitude": -78.96307999999993}, "122418601RR0023": {"name": "ST THOMAS' PARISH", "designationCode": "C", "categoryCode": "38", "address": "PO BOX 99", "city": "SHELBURNE", "province": "NS", "country": "CA", "postalCode": "B0T1W0", "twitter": "None", "instagram": "None", "facebook": "None", "youtube": "None", "website": "None", "summary": "None", "logo": "None", "latitude": 43.57026600000006, "longitude": -65.35813399999994}, "133544064RR0002": {"name": "ST TIMOTHY'S ANGLICAN CHURCH", "designationCode": "C", "categoryCode": "30", "address": "2320 PROSPECT RD", "city": "HATCHETT LAKE", "province": "NS", "country": "CA", "postalCode": "B3T1S9", "twitter": "None", "instagram": "None", "facebook": "None", "youtube": "None", "website": "None", "summary": "None", "logo": "None", "latitude": 44.55933748459234, "longitude": -63.73184381455968}, "119203578RR0001": {"name": "ST TIMOTHY'S PRESBYTERIAN CHURCH", "designationCode": "C", "categoryCode": "37", "address": "97 BURCHER RD", "city": "AJAX", "province": "ON", "country": "CA", "postalCode": "L1S2R3", "twitter": "None", "instagram": "None", "facebook": "None", "youtube": "None", "website": "None", "summary": "None", "logo": "None", "latitude": 43.84144032001267, "longitude": -79.01198180353715}, "119203974RR0001": {"name": "ST VARTAN ARMENIAN APOSTOLIC CHURCH", "designationCode": "C", "categoryCode": "39", "address": "1260 W. 67TH AVE.", "city": "VANCOUVER", "province": "BC", "country": "CA", "postalCode": "V6P2T2", "twitter": "None", "instagram": "None", "facebook": "None", "youtube": "None", "website": "None", "summary": "None", "logo": "None", "latitude": 49.21076553563412, "longitude": -123.13334205981303}, "119203990RR0001": {"name": "ST VIATOR PARISH", "designationCode": "C", "categoryCode": "38", "address": "307 WHITMORE AVE E            PO BOX 250", "city": "DAUPHIN", "province": "MB", "country": "CA", "postalCode": "R7N2V1", "twitter": "None", "instagram": "None", "facebook": "None", "youtube": "None", "website": "None", "summary": "None", "logo": "None", "latitude": 51.14022553895233, "longitude": -100.049832}, "888962578RR0001": {"name": "ST VINCENT DE PAUL SCHOOL EDUCATIONAL SOCIETY", "designationCode": "C", "categoryCode": "21", "address": "4525-49TH STREET N.W.", "city": "CALGARY", "province": "AB", "country": "CA", "postalCode": "T3A0K4", "twitter": "None", "instagram": "None", "facebook": "None", "youtube": "None", "website": "None", "summary": "None", "logo": "None", "latitude": 51.093314099082484, "longitude": -114.1587186483639}, "119204287RR0001": {"name": "ST VINCENT DE PAUL SOCIETY", "designationCode": "C", "categoryCode": "09", "address": "200 PARKDALE AVE N", "city": "HAMILTON", "province": "ON", "country": "CA", "postalCode": "L8H5X2", "twitter": "None", "instagram": "None", "facebook": "None", "youtube": "None", "website": "None", "summary": "None", "logo": "None", "latitude": 43.24191563030185, "longitude": -79.78963775794931}, "132410671RR0329": {"name": "ST VINCENT DE PAUL SOCIETY", "designationCode": "C", "categoryCode": "09", "address": "340 DOMINION STREET", "city": "MONCTON", "province": "NB", "country": "CA", "postalCode": "E1C6H8", "twitter": "None", "instagram": "None", "facebook": "None", "youtube": "None", "website": "None", "summary": "None", "logo": "None", "latitude": 46.096802402995, "longitude": -64.79512648294754}, "132410671RR0328": {"name": "ST VINCENT DE PAUL SOCIETY (HOLY REDEEMER CONFERENCE)", "designationCode": "C", "categoryCode": "09", "address": "3 POND STREET", "city": "CHARLOTTETOWN", "province": "PE", "country": "CA", "postalCode": "C1A2N9", "twitter": "None", "instagram": "None", "facebook": "None", "youtube": "None", "website": "None", "summary": "None", "logo": "None", "latitude": 46.241418372208315, "longitude": -63.13737696713584}, "132410671RR0205": {"name": "ST VINCENT DE PAUL SOCIETY - HAND IN HAND BOARD", "designationCode": "C", "categoryCode": "09", "address": "440 HERRING COVE ROAD", "city": "HALIFAX", "province": "NS", "country": "CA", "postalCode": "B3R1W4", "twitter": "None", "instagram": "None", "facebook": "None", "youtube": "None", "website": "None", "summary": "None", "logo": "None", "latitude": 44.606745229817, "longitude": -63.614267771279515}, "132410671RR0261": {"name": "ST VINCENT DE PAUL SOCIETY - ST CATHERINE'S CATHEDRAL CONF", "designationCode": "C", "categoryCode": "09", "address": "3 LYMAN STREET", "city": "ST-CATHARINES", "province": "ON", "country": "CA", "postalCode": "L2R5M8", "twitter": "None", "instagram": "None", "facebook": "None", "youtube": "None", "website": "None", "summary": "None", "logo": "None", "latitude": 43.16072549008037, "longitude": -79.2463800087315}, "132410671RR0112": {"name": "ST VINCENT DE PAUL SOCIETY - ST JOHN THE BAPTIST CONFERENCE", "designationCode": "C", "categoryCode": "09", "address": "2 - 370 STELLARTON RD", "city": "NEW GLASGOW", "province": "NS", "country": "CA", "postalCode": "B2H1M5", "twitter": "None", "instagram": "None", "facebook": "None", "youtube": "None", "website": "None", "summary": "None", "logo": "None", "latitude": 45.58352314126613, "longitude": -62.65382146084611}, "132410671RR0060": {"name": "ST VINCENT DE PAUL SOCIETY - ST LEO'S CONFERENCE", "designationCode": "C", "categoryCode": "56", "address": "277 ROYAL YORK ROAD", "city": "ETOBICOKE", "province": "ON", "country": "CA", "postalCode": "M8V2V8", "twitter": "None", "instagram": "None", "facebook": "None", "youtube": "None", "website": "None", "summary": "None", "logo": "None", "latitude": 43.61417461394189, "longitude": -79.49751086672664}, "119204121RR0001": {"name": "ST VINCENT DE PAUL SOCIETY HOLY REDEEMER CONFERENCE", "designationCode": "C", "categoryCode": "09", "address": "954 MINK ST.", "city": "PICKERING", "province": "ON", "country": "CA", "postalCode": "L1W2G5", "twitter": "None", "instagram": "None", "facebook": "None", "youtube": "None", "website": "None", "summary": "None", "logo": "None", "latitude": 43.813357165156575, "longitude": -79.09920609714924}, "132410671RR0361": {"name": "ST VINCENT DE PAUL SOCIETY OF FERGUS", "designationCode": "C", "categoryCode": "09", "address": "RR # 1", "city": "FERGUS", "province": "ON", "country": "CA", "postalCode": "N1M2W3", "twitter": "None", "instagram": "None", "facebook": "None", "youtube": "None", "website": "None", "summary": "None", "logo": "None", "latitude": 43.728088944486935, "longitude": -80.3725018777403}, "119204154RR0001": {"name": "ST VINCENT DE PAUL SOCIETY OF KINGSTON", "designationCode": "C", "categoryCode": "09", "address": "85A STEPHEN STREET", "city": "KINGSTON", "province": "ON", "country": "CA", "postalCode": "K7K2C5", "twitter": "None", "instagram": "None", "facebook": "None", "youtube": "None", "website": "None", "summary": "None", "logo": "None", "latitude": 44.24246274126117, "longitude": -76.49115062914491}, "127979391RR0001": {"name": "ST VINCENT DE PAUL SOCIETY PARTICULAR COUNCIL SARNIA DEANERY", "designationCode": "C", "categoryCode": "09", "address": "106 EAST STREET S. BOX 173", "city": "SARNIA", "province": "ON", "country": "CA", "postalCode": "N7T7H9", "twitter": "None", "instagram": "None", "facebook": "None", "youtube": "None", "website": "None", "summary": "None", "logo": "None", "latitude": 42.96976432740782, "longitude": -82.38667909374807}, "129149878RR0001": {"name": "ST VINCENT DE PAUL SOCIETY ST FRANCIS OF ASSISSI CONFERENCE PRINCE GEORGE BC", "designationCode": "C", "categoryCode": "09", "address": "BOX 1617", "city": "PRINCE GEORGE", "province": "BC", "country": "CA", "postalCode": "V2L4V6", "twitter": "None", "instagram": "None", "facebook": "None", "youtube": "None", "website": "None", "summary": "None", "logo": "None", "latitude": 53.91241800000006, "longitude": -122.74463149999994}, "119204212RR0001": {"name": "ST VINCENT DE PAUL SOCIETY ST JOHN FISHER CONFERENCE", "designationCode": "C", "categoryCode": "09", "address": "300 BALMORAL DR", "city": "BRAMPTON", "province": "ON", "country": "CA", "postalCode": "L6T1V6", "twitter": "None", "instagram": "None", "facebook": "None", "youtube": "None", "website": "None", "summary": "None", "logo": "None", "latitude": 43.71016890593784, "longitude": -79.71127722540227}, "132410671RR0284": {"name": "ST VINCENT DE PAUL SOCIETY ST MICHAEL'S CONFERENCE", "designationCode": "C", "categoryCode": "09", "address": "800 - 85 STREET WEST", "city": "CALGARY", "province": "AB", "country": "CA", "postalCode": "T3H4C7", "twitter": "None", "instagram": "None", "facebook": "None", "youtube": "None", "website": "None", "summary": "None", "logo": "None", "latitude": 51.06334530391251, "longitude": -114.21084878253224}, "132410671RR0009": {"name": "ST VINCENT DE PAUL SOCIETY-ST JOHN THE EVANGELIST CONFERENCE", "designationCode": "C", "categoryCode": "09", "address": "903 GIFFARD STREET", "city": "WHITBY", "province": "ON", "country": "CA", "postalCode": "L1N2S3", "twitter": "None", "instagram": "None", "facebook": "None", "youtube": "None", "website": "None", "summary": "None", "logo": "None", "latitude": 43.87919490640012, "longitude": -78.95368754146249}, "132410671RR0088": {"name": "ST VINCENT DE PAUL SOCIETY-ST PATRICKS CONFERENCE", "designationCode": "C", "categoryCode": "09", "address": "4673 VICTORIA AVENUE", "city": "NIAGARA FALLS", "province": "ON", "country": "CA", "postalCode": "L2E4B8", "twitter": "None", "instagram": "None", "facebook": "None", "youtube": "None", "website": "None", "summary": "None", "logo": "None", "latitude": 43.106409366639724, "longitude": -79.07327012147236}, "891904971RR0001": {"name": "ST VINCENT DE PAUL SOCIETY, BLESSED SACRAMENT CONFERENCE", "designationCode": "C", "categoryCode": "09", "address": "305 LAURENTIAN DRIVE", "city": "KITCHENER", "province": "ON", "country": "CA", "postalCode": "N2E2N6", "twitter": "None", "instagram": "None", "facebook": "None", "youtube": "None", "website": "None", "summary": "None", "logo": "None", "latitude": 43.412137848173636, "longitude": -80.49176502406333}, "119204303RR0001": {"name": "ST VINCENT DE PAUL STORES (OTTAWA) INCORPORATED", "designationCode": "C", "categoryCode": "01", "address": "1273 WELLINGTON STREET WEST", "city": "OTTAWA", "province": "ON", "country": "CA", "postalCode": "K1Y3A6", "twitter": "None", "instagram": "None", "facebook": "None", "youtube": "None", "website": "None", "summary": "None", "logo": "None", "latitude": 45.39928113240798, "longitude": -75.73391595504638}, "132410671RR0071": {"name": "ST VINCENT DE PAUL, ST MARIA GORETTI CONFERENCE, SCARBOROUGH", "designationCode": "C", "categoryCode": "09", "address": "717 KENNEDY ROAD", "city": "SCARBOROUGH", "province": "ON", "country": "CA", "postalCode": "M1K2C1", "twitter": "None", "instagram": "None", "facebook": "None", "youtube": "None", "website": "None", "summary": "None", "logo": "None", "latitude": 43.72920999446009, "longitude": -79.26667122892297}, "132410671RR0120": {"name": "ST VINCENT DE PAUL, ST MATTHEWS CONFERENCE, SURREY", "designationCode": "C", "categoryCode": "09", "address": "16079 88 AVE", "city": "SURREY", "province": "BC", "country": "CA", "postalCode": "V4N1G3", "twitter": "None", "instagram": "None", "facebook": "None", "youtube": "None", "website": "None", "summary": "None", "logo": "None", "latitude": 49.1628045004327, "longitude": -122.77648286081134}, "835534587RR0001": {"name": "ST VINCENT DE PAUL, ST TERESA'S CONFERENCE", "designationCode": "C", "categoryCode": "09", "address": "120 MUNDY POND ROAD", "city": "ST. JOHN'S", "province": "NL", "country": "CA", "postalCode": "A1E1V1", "twitter": "None", "instagram": "None", "facebook": "None", "youtube": "None", "website": "None", "summary": "None", "logo": "None", "latitude": 47.55227897394519, "longitude": -52.74091444494749}, "119204337RR0001": {"name": "ST VINCENT'S ALUMNAE SCHOLARSHIP COMMITTEE", "designationCode": "C", "categoryCode": "21", "address": "857 ANDERSON DRIVE", "city": "SAINT JOHN", "province": "NB", "country": "CA", "postalCode": "E2M4G2", "twitter": "None", "instagram": "None", "facebook": "None", "youtube": "None", "website": "None", "summary": "None", "logo": "None", "latitude": 45.24956103136361, "longitude": -66.11838571980503}, "140262734RR0001": {"name": "ST VINCENT'S BOYS-ST MALACHY'S MEMORIAL HIGH SCHOOL ALUMNI ASSOCIATION INC", "designationCode": "C", "categoryCode": "21", "address": "2-20 LEINSTER STREET", "city": "ST. JOHN", "province": "NB", "country": "CA", "postalCode": "E2L1H8", "twitter": "None", "instagram": "None", "facebook": "None", "youtube": "None", "website": "None", "summary": "None", "logo": "None", "latitude": 45.273542587423464, "longitude": -66.05343435237639}, "890953441RR0001": {"name": "ST VINCENT'S FOSTER PARENT ASSOCIATION", "designationCode": "C", "categoryCode": "09", "address": "P.O. BOX 481", "city": "VERNON", "province": "BC", "country": "CA", "postalCode": "V1T6M4", "twitter": "None", "instagram": "None", "facebook": "None", "youtube": "None", "website": "None", "summary": "None", "logo": "None", "latitude": 50.26567200000005, "longitude": -119.27378149999993}, "119204378RR0001": {"name": "ST VINCENT'S NURSING HOME", "designationCode": "C", "categoryCode": "01", "address": "2080 WINDSOR ST.", "city": "HALIFAX", "province": "NS", "country": "CA", "postalCode": "B3K5B2", "twitter": "None", "instagram": "None", "facebook": "None", "youtube": "None", "website": "None", "summary": "None", "logo": "None", "latitude": 44.64848772739378, "longitude": -63.593321698250925}, "128595220RR0001": {"name": "ST VITAL CHURCH", "designationCode": "C", "categoryCode": "38", "address": "1629 PEMBINA HWY", "city": "WINNIPEG", "province": "MB", "country": "CA", "postalCode": "R3T2G8", "twitter": "None", "instagram": "None", "facebook": "None", "youtube": "None", "website": "None", "summary": "None", "logo": "None", "latitude": 49.83011137636325, "longitude": -97.15171109611002}, "129342655RR0001": {"name": "ST VITAL E M C CHURCH", "designationCode": "C", "categoryCode": "34", "address": "2005 ST MARY'S ROAD", "city": "WINNIPEG", "province": "MB", "country": "CA", "postalCode": "R2N4P1", "twitter": "None", "instagram": "None", "facebook": "None", "youtube": "None", "website": "None", "summary": "None", "logo": "None", "latitude": 49.80816249731694, "longitude": -97.11348181441545}, "130141831RR0001": {"name": "ST VLADIMIR (MISSION SLOVENE) ARCHIDIOCESE DE MONTREAL", "designationCode": "C", "categoryCode": "38", "address": "3470 BOUL ST JOSEPH", "city": "MONTREAL", "province": "QC", "country": "CA", "postalCode": "H1X1W6", "twitter": "None", "instagram": "None", "facebook": "None", "youtube": "None", "website": "None", "summary": "None", "logo": "None", "latitude": 45.55131850178902, "longitude": -73.56698593265651}, "892363243RR0001": {"name": "ST VLADIMIR & OLGA UKRAINIAN CATHOLIC CHURCH", "designationCode": "C", "categoryCode": "38", "address": "COMP 27 RR 1", "city": "DAUPHIN", "province": "MB", "country": "CA", "postalCode": "R7N2T4", "twitter": "None", "instagram": "None", "facebook": "None", "youtube": "None", "website": "None", "summary": "None", "logo": "None", "latitude": 51.150138000000055, "longitude": -100.04934049999993}, "119204451RR0001": {"name": "ST VLADIMIR INSTITUTE", "designationCode": "C", "categoryCode": "49", "address": "620 SPADINA AVENUE", "city": "TORONTO", "province": "ON", "country": "CA", "postalCode": "M5S2H4", "twitter": "None", "instagram": "None", "facebook": "None", "youtube": "None", "website": "None", "summary": "None", "logo": "None", "latitude": 43.662010778233075, "longitude": -79.40183629173616}, "119204501RR0001": {"name": "ST VLADIMIR'S UKRAINIAN CATHOLIC CHURCH (PARISH)", "designationCode": "C", "categoryCode": "38", "address": "39-2 STREET", "city": "KIRKLAND LAKE", "province": "ON", "country": "CA", "postalCode": "P2N1R4", "twitter": "None", "instagram": "None", "facebook": "None", "youtube": "None", "website": "None", "summary": "None", "logo": "None", "latitude": 48.1487285042704, "longitude": -80.0319375795284}, "119204519RR0001": {"name": "ST VLADIMIR'S UKRAINIAN CATHOLIC PARISH", "designationCode": "C", "categoryCode": "39", "address": "3932-46 ST", "city": "RED DEER", "province": "AB", "country": "CA", "postalCode": "T4N1M1", "twitter": "None", "instagram": "None", "facebook": "None", "youtube": "None", "website": "None", "summary": "None", "logo": "None", "latitude": 52.26495245325739, "longitude": -113.78982158381903}}