{"131589285RR0001": {"name": "SONRISE FULL GOSPEL CHURCH", "designationCode": "C", "categoryCode": "39", "address": "5588-188TH STREET", "city": "SURREY", "province": "BC", "country": "CA", "postalCode": "V3S8E5", "twitter": "None", "instagram": "None", "facebook": "None", "youtube": "None", "website": "None", "summary": "None", "logo": "None", "latitude": 49.10398166827406, "longitude": -122.70159240895508}, "894649599RR0001": {"name": "SONRISE MINISTRIES", "designationCode": "C", "categoryCode": "47", "address": "29 WELLINGTON ST", "city": "CORNER BROOK", "province": "NL", "country": "CA", "postalCode": "A2H5H5", "twitter": "None", "instagram": "None", "facebook": "None", "youtube": "None", "website": "None", "summary": "None", "logo": "None", "latitude": 48.94656176545112, "longitude": -57.952708135986}, "131463564RR0001": {"name": "SONS OF ITALY (HAMILTON) CHARITABLE CORPORATION", "designationCode": "C", "categoryCode": "09", "address": "530 UPPER PARADISE RD", "city": "HAMILTON", "province": "ON", "country": "CA", "postalCode": "L9C5E3", "twitter": "None", "instagram": "None", "facebook": "None", "youtube": "None", "website": "None", "summary": "None", "logo": "None", "latitude": 43.23066404472248, "longitude": -79.91295304552959}, "119156438RR0001": {"name": "SONS OF JACOB SYNAGOGUE OF BELLEVILLE", "designationCode": "C", "categoryCode": "42", "address": "211 VICTORIA AVE", "city": "BELLEVILLE", "province": "ON", "country": "CA", "postalCode": "K8N2C2", "twitter": "None", "instagram": "None", "facebook": "None", "youtube": "None", "website": "None", "summary": "None", "logo": "None", "latitude": 44.16978527960777, "longitude": -77.37081564108713}, "795446699RR0001": {"name": "SONS OF MARY MOTHER OF MERCY CONGREGATION", "designationCode": "C", "categoryCode": "47", "address": "4026 COUNTY ROAD 121          P.O. BOX 98", "city": "KINMOUNT", "province": "ON", "country": "CA", "postalCode": "K0M2A0", "twitter": "None", "instagram": "None", "facebook": "None", "youtube": "None", "website": "None", "summary": "None", "logo": "None", "latitude": 44.77609018813189, "longitude": -78.64791140470855}, "892070640RR0001": {"name": "SONS OF NORWAY FOUNDATION IN CANADA", "designationCode": "C", "categoryCode": "23", "address": "32412 PTARMIGAN DRIVE", "city": "MISSION", "province": "BC", "country": "CA", "postalCode": "V2V5R5", "twitter": "None", "instagram": "None", "facebook": "None", "youtube": "None", "website": "None", "summary": "None", "logo": "None", "latitude": 49.146426608921566, "longitude": -122.32711597752319}, "825853476RR0001": {"name": "SONS OF SALVATION CHRISTIAN MINISTRIES OF CANADA", "designationCode": "C", "categoryCode": "47", "address": "87 SUGAR KING DRIVE", "city": "ELMIRA", "province": "ON", "country": "CA", "postalCode": "N3B3N9", "twitter": "None", "instagram": "None", "facebook": "None", "youtube": "None", "website": "None", "summary": "None", "logo": "None", "latitude": 43.595862192336575, "longitude": -80.56643469897301}, "107993453RR0001": {"name": "SONSHINE CHRISTIAN MINISTRIES INC.", "designationCode": "C", "categoryCode": "47", "address": "40 WILLOUGHBY CRESCENT", "city": "REGINA", "province": "SK", "country": "CA", "postalCode": "S4R5K4", "twitter": "None", "instagram": "None", "facebook": "None", "youtube": "None", "website": "None", "summary": "None", "logo": "None", "latitude": 50.478431236770575, "longitude": -104.66247316795518}, "132256330RR0001": {"name": "SONSHINE DAY CARE CENTRE OF BELLE RIVER", "designationCode": "C", "categoryCode": "01", "address": "494 ST. PETER STREET          PO BOX 1317", "city": "BELLE RIVER", "province": "ON", "country": "CA", "postalCode": "N0R1A0", "twitter": "None", "instagram": "None", "facebook": "None", "youtube": "None", "website": "None", "summary": "None", "logo": "None", "latitude": 42.29029586219881, "longitude": -82.70614264897425}, "119156412RR0001": {"name": "SONSHINE SOCIETY OF CHRISTIAN COMMUNITY SERVICES", "designationCode": "C", "categoryCode": "01", "address": "PO BOX 34067                  RPO WESTBROOK", "city": "CALGARY", "province": "AB", "country": "CA", "postalCode": "T3C3W2", "twitter": "None", "instagram": "None", "facebook": "None", "youtube": "None", "website": "None", "summary": "None", "logo": "None", "latitude": 51.04149007501829, "longitude": -114.14100994835258}, "890599640RR0001": {"name": "SONY CANADA CHARITABLE FOUNDATION", "designationCode": "B", "categoryCode": "23", "address": "115 GORDON BAKER ROAD", "city": "TORONTO", "province": "ON", "country": "CA", "postalCode": "M2H3R6", "twitter": "None", "instagram": "None", "facebook": "None", "youtube": "None", "website": "None", "summary": "None", "logo": "None", "latitude": 43.802756999451745, "longitude": -79.34476707363416}, "119156453RR0001": {"name": "SOO ARENA ASSOCIATION", "designationCode": "C", "categoryCode": "56", "address": "285 NORTHERN AVE EAST", "city": "SAULT STE MARIE", "province": "ON", "country": "CA", "postalCode": "P6B4H9", "twitter": "None", "instagram": "None", "facebook": "None", "youtube": "None", "website": "None", "summary": "None", "logo": "None", "latitude": 46.5340585128402, "longitude": -84.32190089064574}, "107993727RR0001": {"name": "SOO LINE DAY CARE CO-OPERATIVE", "designationCode": "C", "categoryCode": "01", "address": "101 309 1ST AVE NW", "city": "WEYBURN", "province": "SK", "country": "CA", "postalCode": "S4H1T1", "twitter": "None", "instagram": "None", "facebook": "None", "youtube": "None", "website": "None", "summary": "None", "logo": "None", "latitude": 49.668318, "longitude": -103.864743}, "890777196RR0001": {"name": "SOOFI ASSOCIATION OF NORTH AMERICA", "designationCode": "B", "categoryCode": "21", "address": "948 MAIN STREET EAST", "city": "HAMILTON", "province": "ON", "country": "CA", "postalCode": "L8M1M9", "twitter": "None", "instagram": "None", "facebook": "None", "youtube": "None", "website": "None", "summary": "None", "logo": "None", "latitude": 43.24535698415965, "longitude": -79.83126745366141}, "898448311RR0001": {"name": "SOOJUNG PRESBYTERIAN CHURCH", "designationCode": "C", "categoryCode": "37", "address": "415 - 12565 190A ST", "city": "PITT MEADOWS", "province": "BC", "country": "CA", "postalCode": "V3Y0E1", "twitter": "None", "instagram": "None", "facebook": "None", "youtube": "None", "website": "None", "summary": "None", "logo": "None", "latitude": 49.2310112858433, "longitude": -122.69414128584332}, "119156479RR0001": {"name": "SOOKE BAPTIST CHURCH", "designationCode": "C", "categoryCode": "31", "address": "7110 WEST COAST ROAD", "city": "SOOKE", "province": "BC", "country": "CA", "postalCode": "V9Z0S1", "twitter": "None", "instagram": "None", "facebook": "None", "youtube": "None", "website": "None", "summary": "None", "logo": "None", "latitude": 48.36674106817097, "longitude": -123.74178220938312}, "859185803RR0001": {"name": "SOOKE CO-OPERATIVE ASSOCIATION OF SERVICE AGENCIES", "designationCode": "C", "categoryCode": "59", "address": "100 - 6672 WADAMS WAY", "city": "SOOKE", "province": "BC", "country": "CA", "postalCode": "V9Z0H3", "twitter": "None", "instagram": "None", "facebook": "None", "youtube": "None", "website": "None", "summary": "None", "logo": "None", "latitude": 48.38075818528204, "longitude": -123.72564304905983}, "134317585RR0001": {"name": "SOOKE ELDERLY CITIZENS HOUSING SOCIETY", "designationCode": "C", "categoryCode": "01", "address": "6764 AYRE RD", "city": "SOOKE", "province": "BC", "country": "CA", "postalCode": "V9Z1K1", "twitter": "None", "instagram": "None", "facebook": "None", "youtube": "None", "website": "None", "summary": "None", "logo": "None", "latitude": 48.37844176750408, "longitude": -123.72608612321532}, "128217098RR0001": {"name": "SOOKE FAMILY RESOURCE SOCIETY", "designationCode": "C", "categoryCode": "09", "address": "100 - 6672 WADAMS WAY", "city": "SOOKE", "province": "BC", "country": "CA", "postalCode": "V9Z0H3", "twitter": "None", "instagram": "None", "facebook": "None", "youtube": "None", "website": "None", "summary": "None", "logo": "None", "latitude": 48.38075818528204, "longitude": -123.72564304905983}, "852375765RR0001": {"name": "SOOKE FINE ARTS SOCIETY", "designationCode": "C", "categoryCode": "22", "address": "PO BOX 471", "city": "SOOKE", "province": "BC", "country": "CA", "postalCode": "V9Z1H4", "twitter": "None", "instagram": "None", "facebook": "None", "youtube": "None", "website": "None", "summary": "None", "logo": "None", "latitude": 48.381873000000056, "longitude": -123.73120249999994}, "811393875RR0001": {"name": "SOOKE FOLK MUSIC SOCIETY", "designationCode": "C", "categoryCode": "22", "address": "1030 MALLOCH ROAD", "city": "VICTORIA", "province": "BC", "country": "CA", "postalCode": "V9C4G9", "twitter": "None", "instagram": "None", "facebook": "None", "youtube": "None", "website": "None", "summary": "None", "logo": "None", "latitude": 48.35733914174868, "longitude": -123.58203905993571}, "118870559RR0001": {"name": "SOOKE FOOD BANK SOCIETY", "designationCode": "C", "categoryCode": "09", "address": "PO BOX 983                    2219 SHIELDS RD", "city": "SOOKE", "province": "BC", "country": "CA", "postalCode": "V9Z1H9", "twitter": "None", "instagram": "None", "facebook": "None", "youtube": "None", "website": "None", "summary": "None", "logo": "None", "latitude": 48.376836, "longitude": -123.725151}, "892509449RR0001": {"name": "SOOKE HARBOUR PLAYERS SOCIETY", "designationCode": "C", "categoryCode": "22", "address": "PO 735 STN MAIN", "city": "SOOKE", "province": "BC", "country": "CA", "postalCode": "V9Z1H7", "twitter": "None", "instagram": "None", "facebook": "None", "youtube": "None", "website": "None", "summary": "None", "logo": "None", "latitude": 48.381873000000056, "longitude": -123.73120249999994}, "814526075RR0001": {"name": "SOOKE HOSPICE SOCIETY", "designationCode": "C", "categoryCode": "01", "address": "P.O BOX 731", "city": "SOOKE", "province": "BC", "country": "CA", "postalCode": "V9Z1H7", "twitter": "None", "instagram": "None", "facebook": "None", "youtube": "None", "website": "None", "summary": "None", "logo": "None", "latitude": 48.381873000000056, "longitude": -123.73120249999994}, "870082823RR0001": {"name": "SOOKE OPTIONS FOR COMMUNITY LIVING ASSOCIATION", "designationCode": "C", "categoryCode": "11", "address": "6580 SOOKE ROAD", "city": "SOOKE", "province": "BC", "country": "CA", "postalCode": "V9Z0A7", "twitter": "None", "instagram": "None", "facebook": "None", "youtube": "None", "website": "None", "summary": "None", "logo": "None", "latitude": 48.37945933982226, "longitude": -123.71731202126779}, "124476466RR0001": {"name": "SOOKE REGION HISTORICAL SOCIETY", "designationCode": "C", "categoryCode": "50", "address": "PO BOX 774", "city": "SOOKE", "province": "BC", "country": "CA", "postalCode": "V9Z1H7", "twitter": "None", "instagram": "None", "facebook": "None", "youtube": "None", "website": "None", "summary": "None", "logo": "None", "latitude": 48.381873000000056, "longitude": -123.73120249999994}, "844029330RR0001": {"name": "SOOKE REGION WOMEN'S CANCER SUPPORT SOCIETY", "designationCode": "C", "categoryCode": "11", "address": "10924 WEST COAST RD", "city": "SHIRLEY", "province": "BC", "country": "CA", "postalCode": "V9Z1G9", "twitter": "None", "instagram": "None", "facebook": "None", "youtube": "None", "website": "None", "summary": "None", "logo": "None", "latitude": 48.401309379700024, "longitude": -123.98659657342245}, "138792460RR0001": {"name": "SOOKE ROTARY COMMUNITY ORGANIZATION", "designationCode": "A", "categoryCode": "63", "address": "BOX 515", "city": "SOOKE", "province": "BC", "country": "CA", "postalCode": "V9Z1H5", "twitter": "None", "instagram": "None", "facebook": "None", "youtube": "None", "website": "None", "summary": "None", "logo": "None", "latitude": 48.381873000000056, "longitude": -123.73120249999994}, "893029967RR0001": {"name": "SOOKE SALMON ENHANCEMENT SOCIETY", "designationCode": "C", "categoryCode": "54", "address": "P O BOX 947", "city": "SOOKE", "province": "BC", "country": "CA", "postalCode": "V9Z1H9", "twitter": "None", "instagram": "None", "facebook": "None", "youtube": "None", "website": "None", "summary": "None", "logo": "None", "latitude": 48.381873000000056, "longitude": -123.73120249999994}, "870917002RR0001": {"name": "SOOKE SENIOR DROP IN CENTER", "designationCode": "C", "categoryCode": "56", "address": "POSTAL OFFICE BOX 1004", "city": "SOOKE", "province": "BC", "country": "CA", "postalCode": "V9Z1J1", "twitter": "None", "instagram": "None", "facebook": "None", "youtube": "None", "website": "None", "summary": "None", "logo": "None", "latitude": 48.381873000000056, "longitude": -123.73120249999994}, "890676240RR0001": {"name": "SOOKE SENIORS ACTIVITY SOCIETY", "designationCode": "C", "categoryCode": "09", "address": "BOX 987", "city": "SOOKE", "province": "BC", "country": "CA", "postalCode": "V9Z1H9", "twitter": "None", "instagram": "None", "facebook": "None", "youtube": "None", "website": "None", "summary": "None", "logo": "None", "latitude": 48.381873000000056, "longitude": -123.73120249999994}, "898824198RR0001": {"name": "SOOKE TRANSITION HOUSE SOCIETY", "designationCode": "C", "categoryCode": "01", "address": "PO BOX 527", "city": "SOOKE", "province": "BC", "country": "CA", "postalCode": "V9Z1H5", "twitter": "None", "instagram": "None", "facebook": "None", "youtube": "None", "website": "None", "summary": "None", "logo": "None", "latitude": 48.381873000000056, "longitude": -123.73120249999994}, "893022368RR0001": {"name": "SOP'S ARM POLLARDS POINT VOLUNTEER FIRE DEPARTMENT", "designationCode": "C", "categoryCode": "59", "address": "SOP'S ARM                     GENERAL DELIVERY", "city": "POLLARD'S POINT", "province": "NL", "country": "CA", "postalCode": "A0K5K0", "twitter": "None", "instagram": "None", "facebook": "None", "youtube": "None", "website": "None", "summary": "None", "logo": "None", "latitude": 49.769808000000054, "longitude": -56.892580999999936}, "119156578RR0001": {"name": "SOPAR-Bala Vikasa", "designationCode": "C", "categoryCode": "01", "address": "1 CHEMIN DES ERABLES", "city": "GATINEAU", "province": "QC", "country": "CA", "postalCode": "J8V1C1", "twitter": "None", "instagram": "None", "facebook": "None", "youtube": "None", "website": "None", "summary": "None", "logo": "None", "latitude": 45.493282729384326, "longitude": -75.75289304013484}, "871529533RR0001": {"name": "SOPHIA PROVIDENT FUND INC", "designationCode": "A", "categoryCode": "43", "address": "45 BAY ST", "city": "ANTIGONISH", "province": "NS", "country": "CA", "postalCode": "B2G2G6", "twitter": "None", "instagram": "None", "facebook": "None", "youtube": "None", "website": "None", "summary": "None", "logo": "None", "latitude": 45.62938766183741, "longitude": -61.979190257861454}, "130915408RR0001": {"name": "SORIF INC", "designationCode": "C", "categoryCode": "59", "address": "5150 RUE SAINT-HUBERT", "city": "MONTR\u00c9AL", "province": "QC", "country": "CA", "postalCode": "H2J2Y3", "twitter": "None", "instagram": "None", "facebook": "None", "youtube": "None", "website": "None", "summary": "None", "logo": "None", "latitude": 45.52937060364144, "longitude": -73.5887310646891}, "119156586RR0001": {"name": "SOROPTIMIST CLUB OF TORONTO TRUST", "designationCode": "C", "categoryCode": "09", "address": "726 - 2 BLOOR ST W", "city": "TORONTO", "province": "ON", "country": "CA", "postalCode": "M4W3E2", "twitter": "None", "instagram": "None", "facebook": "None", "youtube": "None", "website": "None", "summary": "None", "logo": "None", "latitude": 43.67018118347844, "longitude": -79.38709687122736}, "119156594RR0001": {"name": "SOROPTIMIST FOUNDATION OF CANADA", "designationCode": "C", "categoryCode": "63", "address": "2455 CUNNINGHAM BLVD", "city": "PETERBOROUGH", "province": "ON", "country": "CA", "postalCode": "K9H0B2", "twitter": "None", "instagram": "None", "facebook": "None", "youtube": "None", "website": "None", "summary": "None", "logo": "None", "latitude": 44.33937982110007, "longitude": -78.30239824152747}, "869160903RR0001": {"name": "SOROPTIMIST INTERNATIONAL OF HAMILTON - BURLINGTON", "designationCode": "A", "categoryCode": "65", "address": "180 JAMES STREET SOUTH        P.O. BOX 43504", "city": "HAMILTON", "province": "ON", "country": "CA", "postalCode": "L8P4X5", "twitter": "None", "instagram": "None", "facebook": "None", "youtube": "None", "website": "None", "summary": "None", "logo": "None", "latitude": 43.2513542930925, "longitude": -79.87144375647742}, "888698198RR0001": {"name": "SOROPTIMIST INTERNATIONAL OF PETERBOROUGH TRUST", "designationCode": "C", "categoryCode": "65", "address": "PO BOX 1231", "city": "PETERBOROUGH", "province": "ON", "country": "CA", "postalCode": "K9J7H5", "twitter": "None", "instagram": "None", "facebook": "None", "youtube": "None", "website": "None", "summary": "None", "logo": "None", "latitude": 44.30591700000005, "longitude": -78.31950199999993}, "887930048RR0001": {"name": "SOROPTIMIST NUTRITION PROJECT", "designationCode": "C", "categoryCode": "09", "address": "P.O. BOX 8937", "city": "SASKATOON", "province": "SK", "country": "CA", "postalCode": "S7K6S7", "twitter": "None", "instagram": "None", "facebook": "None", "youtube": "None", "website": "None", "summary": "None", "logo": "None", "latitude": 52.13049000000005, "longitude": -106.65926449999994}, "890215395RR0001": {"name": "SORRENTO & DISTRICT HOSPICE SOCIETY", "designationCode": "C", "categoryCode": "01", "address": "P.O. BOX 134", "city": "SORRENTO", "province": "BC", "country": "CA", "postalCode": "V0E2W0", "twitter": "None", "instagram": "None", "facebook": "None", "youtube": "None", "website": "None", "summary": "None", "logo": "None", "latitude": 50.876960000000054, "longitude": -119.46544999999998}, "129144549RR0021": {"name": "SORRENTO CENTRE ANGLICAN CHURCH OF CANADA", "designationCode": "C", "categoryCode": "49", "address": "BOX 99", "city": "SORRENTO", "province": "BC", "country": "CA", "postalCode": "V0E2W0", "twitter": "None", "instagram": "None", "facebook": "None", "youtube": "None", "website": "None", "summary": "None", "logo": "None", "latitude": 50.876960000000054, "longitude": -119.46544999999998}, "864405592RR0001": {"name": "SORRENTO CENTRE FOUNDATION", "designationCode": "A", "categoryCode": "03", "address": "BOX 99", "city": "SORRENTO", "province": "BC", "country": "CA", "postalCode": "V0E2W0", "twitter": "None", "instagram": "None", "facebook": "None", "youtube": "None", "website": "None", "summary": "None", "logo": "None", "latitude": 50.876960000000054, "longitude": -119.46544999999998}, "119156610RR0001": {"name": "SORRENTO DROP IN SOCIETY", "designationCode": "C", "categoryCode": "56", "address": "BOX 228", "city": "SORRENTO", "province": "BC", "country": "CA", "postalCode": "V0E2W0", "twitter": "None", "instagram": "None", "facebook": "None", "youtube": "None", "website": "None", "summary": "None", "logo": "None", "latitude": 50.876960000000054, "longitude": -119.46544999999998}, "896987427RR0001": {"name": "SORRENTO EVANGELICAL FREE CHURCH", "designationCode": "C", "categoryCode": "39", "address": "BOX 37", "city": "SORRENTO", "province": "BC", "country": "CA", "postalCode": "V0E2W0", "twitter": "None", "instagram": "None", "facebook": "None", "youtube": "None", "website": "None", "summary": "None", "logo": "None", "latitude": 50.876960000000054, "longitude": -119.46544999999998}, "807011143RR0001": {"name": "SORRENTO FOOD BANK", "designationCode": "C", "categoryCode": "09", "address": "BOX 568", "city": "SORRENTO", "province": "BC", "country": "CA", "postalCode": "V0E2W0", "twitter": "None", "instagram": "None", "facebook": "None", "youtube": "None", "website": "None", "summary": "None", "logo": "None", "latitude": 50.876960000000054, "longitude": -119.46544999999998}, "865023469RR0001": {"name": "SORRENTO MEMORIAL HALL ASSOCIATION", "designationCode": "C", "categoryCode": "56", "address": "PO BOX 84                     1148 PASSCHENDAELE ROAD", "city": "SORRENTO", "province": "BC", "country": "CA", "postalCode": "V0E2W0", "twitter": "None", "instagram": "None", "facebook": "None", "youtube": "None", "website": "None", "summary": "None", "logo": "None", "latitude": 50.878530884423284, "longitude": -119.47540458299548}, "120300587RR0001": {"name": "SORTIES DE REVE POUR PERSONNES HEBERGEES INC.", "designationCode": "C", "categoryCode": "09", "address": "197 THORNILL", "city": "DOLLARD-DES-ORMEAUX", "province": "QC", "country": "CA", "postalCode": "H9B3H8", "twitter": "None", "instagram": "None", "facebook": "None", "youtube": "None", "website": "None", "summary": "None", "logo": "None", "latitude": 45.47974128758123, "longitude": -73.81570499157455}, "138247259RR0001": {"name": "SOS Children's Villages Canada / SOS Villages d'enfants Canada", "designationCode": "C", "categoryCode": "09", "address": "240 -44 BYWARD MARKET SQUARE", "city": "OTTAWA", "province": "ON", "country": "CA", "postalCode": "K1N7A2", "twitter": "None", "instagram": "None", "facebook": "None", "youtube": "None", "website": "None", "summary": "None", "logo": "None", "latitude": 45.42767364057364, "longitude": -75.69291669054755}, "129935011RR0001": {"name": "SOS CHILDREN'S VILLAGE BRITISH COLUMBIA (CANADA) SOCIETY", "designationCode": "C", "categoryCode": "09", "address": "302 - 14225 57 AVE", "city": "SURREY", "province": "BC", "country": "CA", "postalCode": "V3X0H6", "twitter": "None", "instagram": "None", "facebook": "None", "youtube": "None", "website": "None", "summary": "None", "logo": "None", "latitude": 49.106462582759775, "longitude": -122.82784331548423}, "857016588RR0001": {"name": "SOS CLOWN", "designationCode": "C", "categoryCode": "09", "address": "129,RUE JACQUES CARTIER EST   BUREAU 308", "city": "CHICOUTIMI", "province": "QC", "country": "CA", "postalCode": "G7H1Y4", "twitter": "None", "instagram": "None", "facebook": "None", "youtube": "None", "website": "None", "summary": "None", "logo": "None", "latitude": 48.42653148268775, "longitude": -71.06470247155058}, "138792635RR0001": {"name": "SOS ELMS COALITION INC", "designationCode": "C", "categoryCode": "59", "address": "1618 - 9TH AVE N", "city": "SASKATOON", "province": "SK", "country": "CA", "postalCode": "S7K3A1", "twitter": "None", "instagram": "None", "facebook": "None", "youtube": "None", "website": "None", "summary": "None", "logo": "None", "latitude": 52.149895638351936, "longitude": -106.64776780887553}, "841447345RR0001": {"name": "SOS HAITI - SOS AYITI", "designationCode": "C", "categoryCode": "09", "address": "485 CH. SWEDE", "city": "COMPTON", "province": "QC", "country": "CA", "postalCode": "J0B1L0", "twitter": "None", "instagram": "None", "facebook": "None", "youtube": "None", "website": "None", "summary": "None", "logo": "None", "latitude": 45.26520649711448, "longitude": -71.91347022300768}, "890280647RR0001": {"name": "SOS HANDICAPES", "designationCode": "C", "categoryCode": "09", "address": "194 RUE LIEBERT", "city": "VARENNES", "province": "QC", "country": "CA", "postalCode": "J3X2J8", "twitter": "None", "instagram": "None", "facebook": "None", "youtube": "None", "website": "None", "summary": "None", "logo": "None", "latitude": 45.68866099471988, "longitude": -73.428381515379}, "886937309RR0001": {"name": "SOS II CHILDREN'S VILLAGE BRITISH COLUMBIA (CANADA) SOCIETY", "designationCode": "A", "categoryCode": "53", "address": "805 WEST BROADWAY             12TH FLOOR", "city": "VANCOUVER", "province": "BC", "country": "CA", "postalCode": "V5Z1K1", "twitter": "None", "instagram": "None", "facebook": "None", "youtube": "None", "website": "None", "summary": "None", "logo": "None", "latitude": 49.26336346826103, "longitude": -123.12226036219633}, "869837716RR0001": {"name": "SOS LEVRIERS QUEBEC/GREYHOUND RESCUE OF QUEBEC", "designationCode": "C", "categoryCode": "54", "address": "432 HAMPTON COURT", "city": "DOLLARD DES ORMEAUX", "province": "QC", "country": "CA", "postalCode": "H9G1L3", "twitter": "None", "instagram": "None", "facebook": "None", "youtube": "None", "website": "None", "summary": "None", "logo": "None", "latitude": 45.4697228967626, "longitude": -73.83608476562401}, "811334176RR0001": {"name": "SOS Miss Dolittle", "designationCode": "C", "categoryCode": "54", "address": "175 CH DU BRAS", "city": "SAINT-HENRI-DE-LEVIS", "province": "QC", "country": "CA", "postalCode": "G0R3E0", "twitter": "None", "instagram": "None", "facebook": "None", "youtube": "None", "website": "None", "summary": "None", "logo": "None", "latitude": 46.692295770240314, "longitude": -71.11367745331563}, "848852547RR0001": {"name": "SOS Program Camrose (Service Options for Seniors) Society", "designationCode": "C", "categoryCode": "09", "address": "102-4909A 48ST", "city": "CAMROSE", "province": "AB", "country": "CA", "postalCode": "T4V1L7", "twitter": "None", "instagram": "None", "facebook": "None", "youtube": "None", "website": "None", "summary": "None", "logo": "None", "latitude": 53.02098600000005, "longitude": -112.82205049999993}, "886251792RR0001": {"name": "SOSAKA INC", "designationCode": "C", "categoryCode": "11", "address": "565 PORTLAND", "city": "VILLE MONT ROYAL", "province": "QC", "country": "CA", "postalCode": "H3R1V9", "twitter": "None", "instagram": "None", "facebook": "None", "youtube": "None", "website": "None", "summary": "None", "logo": "None", "latitude": 45.50581320122338, "longitude": -73.64931317112917}, "817134141RR0001": {"name": "SOTERIA MINISTRIES, INC.", "designationCode": "C", "categoryCode": "39", "address": "30 RIVIERA ST", "city": "DSL DE DRUMMOND", "province": "NB", "country": "CA", "postalCode": "E3Y2L3", "twitter": "None", "instagram": "None", "facebook": "None", "youtube": "None", "website": "None", "summary": "None", "logo": "None", "latitude": 47.06405749507527, "longitude": -67.7222949421419}, "898824917RR0001": {"name": "SOTOS SYNDROME SUPPORT ASSOCIATION OF CANADA/ASSOCIATION CANADIENNE D'ENTAIDE DU SYNDROME DE SOTOS.", "designationCode": "C", "categoryCode": "11", "address": "1944 DUMFRIES", "city": "MONTREAL", "province": "QC", "country": "CA", "postalCode": "H3P2R9", "twitter": "None", "instagram": "None", "facebook": "None", "youtube": "None", "website": "None", "summary": "None", "logo": "None", "latitude": 45.52344221339973, "longitude": -73.64539862672383}, "858076649RR0001": {"name": "SOUFFLE ET VIE SANS FRONTIERES", "designationCode": "C", "categoryCode": "49", "address": "1280 RUE DE LOUVAIN EST", "city": "MONTREAL", "province": "QC", "country": "CA", "postalCode": "H2M1B6", "twitter": "None", "instagram": "None", "facebook": "None", "youtube": "None", "website": "None", "summary": "None", "logo": "None", "latitude": 45.56024785261705, "longitude": -73.644913368977}, "892354168RR0001": {"name": "SOUL HARVEST CHRISTIAN CENTRE", "designationCode": "C", "categoryCode": "19", "address": "287 MARGATE CLOSE", "city": "CALGARY", "province": "AB", "country": "CA", "postalCode": "T2A3E5", "twitter": "None", "instagram": "None", "facebook": "None", "youtube": "None", "website": "None", "summary": "None", "logo": "None", "latitude": 51.06036653318127, "longitude": -113.97425383236194}, "841525074RR0001": {"name": "SOUL SANCTUARY CHURCH", "designationCode": "C", "categoryCode": "39", "address": "2050 CHEVRIER BLVD", "city": "WINNIPEG", "province": "MB", "country": "CA", "postalCode": "R3Y0T3", "twitter": "None", "instagram": "None", "facebook": "None", "youtube": "None", "website": "None", "summary": "None", "logo": "None", "latitude": 49.820039187287584, "longitude": -97.18657076764417}, "133897447RR0001": {"name": "SOUL'S HARBOR INC", "designationCode": "C", "categoryCode": "39", "address": "BOX 611", "city": "CENTREVILLE", "province": "NB", "country": "CA", "postalCode": "E7K3H5", "twitter": "None", "instagram": "None", "facebook": "None", "youtube": "None", "website": "None", "summary": "None", "logo": "None", "latitude": 46.42971900000006, "longitude": -67.71115249999993}, "869698449RR0001": {"name": "SOULPEPPER THEATRE COMPANY", "designationCode": "C", "categoryCode": "22", "address": "50 TANK HOUSE LANE", "city": "TORONTO", "province": "ON", "country": "CA", "postalCode": "M5A3C4", "twitter": "None", "instagram": "None", "facebook": "None", "youtube": "None", "website": "None", "summary": "None", "logo": "None", "latitude": 43.650803084655756, "longitude": -79.35744044685208}, "869846030RR0001": {"name": "SOULS HARBOUR RESCUE MISSION, INC.", "designationCode": "C", "categoryCode": "01", "address": "P O BOX 3356 STN MAIN", "city": "REGINA", "province": "SK", "country": "CA", "postalCode": "S4P3H1", "twitter": "None", "instagram": "None", "facebook": "None", "youtube": "None", "website": "None", "summary": "None", "logo": "None", "latitude": 50.448246000000054, "longitude": -104.59517299999993}, "816362347RR0001": {"name": "SOULSTREAM INITIATIVES", "designationCode": "C", "categoryCode": "39", "address": "35535 MCKEE RD", "city": "ABBOTSFORD", "province": "BC", "country": "CA", "postalCode": "V3G3E4", "twitter": "None", "instagram": "None", "facebook": "None", "youtube": "None", "website": "None", "summary": "None", "logo": "None", "latitude": 49.066260954238345, "longitude": -122.24062898014893}, "881104491RR0001": {"name": "SOUND OF FAITH BROADCASTING", "designationCode": "C", "categoryCode": "49", "address": "2 - 604 BELMONT AVE W", "city": "KITCHENER", "province": "ON", "country": "CA", "postalCode": "N2M1N5", "twitter": "None", "instagram": "None", "facebook": "None", "youtube": "None", "website": "None", "summary": "None", "logo": "None", "latitude": 43.445592309205885, "longitude": -80.51325890664451}, "871265294RR0001": {"name": "SOUND SERVANT MINISTRIES", "designationCode": "C", "categoryCode": "39", "address": "PH4 2263 MARINE DRIVE", "city": "OAKVILLE", "province": "ON", "country": "CA", "postalCode": "L6L5K1", "twitter": "None", "instagram": "None", "facebook": "None", "youtube": "None", "website": "None", "summary": "None", "logo": "None", "latitude": 43.398372036383925, "longitude": -79.70524312669517}, "133639187RR0001": {"name": "SOUND TIMES SUPPORT SERVICES OF METROPOLITAN TORONTO", "designationCode": "C", "categoryCode": "09", "address": "280 PARLIAMENT ST", "city": "TORONTO", "province": "ON", "country": "CA", "postalCode": "M5A3A4", "twitter": "None", "instagram": "None", "facebook": "None", "youtube": "None", "website": "None", "summary": "None", "logo": "None", "latitude": 43.65853441020836, "longitude": -79.36568552917056}, "118849389RR0001": {"name": "SOUNDSTREAMS CANADA CONCERTS/CONCERTS SOUNDSTREAMS DU CANADA", "designationCode": "C", "categoryCode": "22", "address": "302 - 579 RICHMOND ST W", "city": "TORONTO", "province": "ON", "country": "CA", "postalCode": "M5V1Y6", "twitter": "None", "instagram": "None", "facebook": "None", "youtube": "None", "website": "None", "summary": "None", "logo": "None", "latitude": 43.64792255983254, "longitude": -79.39538964100468}, "138513676RR0001": {"name": "SOUPE POPULAIRE DE CHEZ-NOUS", "designationCode": "C", "categoryCode": "09", "address": "1042 PLACE DES COPAINS", "city": "DOLBEAU", "province": "QC", "country": "CA", "postalCode": "G8L3N5", "twitter": "None", "instagram": "None", "facebook": "None", "youtube": "None", "website": "None", "summary": "None", "logo": "None", "latitude": 48.876986043020366, "longitude": -72.22476319233657}, "141329490RR0001": {"name": "SOUPE POPULAIRE DE HULL, INC.", "designationCode": "C", "categoryCode": "01", "address": "751 BOUL ST-JOSEPH", "city": "GATINEAU", "province": "QC", "country": "CA", "postalCode": "J8Y4B7", "twitter": "None", "instagram": "None", "facebook": "None", "youtube": "None", "website": "None", "summary": "None", "logo": "None", "latitude": 45.45826026034389, "longitude": -75.7421955137629}, "890911241RR0001": {"name": "SOUPERJAZZ INC.", "designationCode": "A", "categoryCode": "01", "address": "36 CARLOTTA AVE", "city": "VANIER", "province": "ON", "country": "CA", "postalCode": "K1L6S6", "twitter": "None", "instagram": "None", "facebook": "None", "youtube": "None", "website": "None", "summary": "None", "logo": "None", "latitude": 45.430144576172985, "longitude": -75.66690979808413}, "136031432RR0001": {"name": "SOURCE ALIMENTAIRE BONAVIGNON", "designationCode": "C", "categoryCode": "01", "address": "706A BOUL. PERRON EST", "city": "MARIA", "province": "QC", "country": "CA", "postalCode": "G0C1Y0", "twitter": "None", "instagram": "None", "facebook": "None", "youtube": "None", "website": "None", "summary": "None", "logo": "None", "latitude": 48.19126528954815, "longitude": -65.96737038956078}, "897754248RR0001": {"name": "SOURCE D'ESPOIR TEMIS INC.", "designationCode": "C", "categoryCode": "09", "address": "30B RUE PELLETIER", "city": "TEMISCOUATA-SUR-LE-LAC", "province": "QC", "country": "CA", "postalCode": "G0L1E0", "twitter": "None", "instagram": "None", "facebook": "None", "youtube": "None", "website": "None", "summary": "None", "logo": "None", "latitude": 47.67993136619682, "longitude": -68.8802118736938}, "133146456RR0001": {"name": "SOURCE DE VIE DE ST-GABRIEL INC", "designationCode": "C", "categoryCode": "09", "address": "147 RUE BEAUSOLEIL", "city": "SAINT-GABRIEL-DE-BRANDON", "province": "QC", "country": "CA", "postalCode": "J0K2N0", "twitter": "None", "instagram": "None", "facebook": "None", "youtube": "None", "website": "None", "summary": "None", "logo": "None", "latitude": 46.29175706968077, "longitude": -73.38051516192525}, "854938685RR0001": {"name": "SOURCE MINISTRIES INC.", "designationCode": "C", "categoryCode": "47", "address": "PO BOX 4511", "city": "ROTHESAY", "province": "NB", "country": "CA", "postalCode": "E2E5X2", "twitter": "None", "instagram": "None", "facebook": "None", "youtube": "None", "website": "None", "summary": "None", "logo": "None", "latitude": 45.380919929916686, "longitude": -65.99681338202436}, "107828360RR0001": {"name": "SOURCES COMMUNITY RESOURCES SOCIETY", "designationCode": "C", "categoryCode": "59", "address": "882 MAPLE ST", "city": "WHITE ROCK", "province": "BC", "country": "CA", "postalCode": "V4B4M2", "twitter": "None", "instagram": "None", "facebook": "None", "youtube": "None", "website": "None", "summary": "None", "logo": "None", "latitude": 49.01805933527612, "longitude": -122.78882111486551}, "886063395RR0001": {"name": "SOURCES VIVES FAMILLES MONOPARENTALES ET RECOMPOSEES INC.", "designationCode": "C", "categoryCode": "56", "address": "2900 BOUL. DU LOIRET          STE 113", "city": "QUEBEC", "province": "QC", "country": "CA", "postalCode": "G1C3X3", "twitter": "None", "instagram": "None", "facebook": "None", "youtube": "None", "website": "None", "summary": "None", "logo": "None", "latitude": 46.852474724132854, "longitude": -71.23421786715933}, "125656835RR0001": {"name": "SOURIS AND DISTRICT HERITAGE CLUB INC.", "designationCode": "C", "categoryCode": "59", "address": "BOX 1305", "city": "SOURIS", "province": "MB", "country": "CA", "postalCode": "R0K2C0", "twitter": "None", "instagram": "None", "facebook": "None", "youtube": "None", "website": "None", "summary": "None", "logo": "None", "latitude": 49.59915625917259, "longitude": -99.8622610573006}, "107994402RR0001": {"name": "SOURIS CO-OPERATIVE DAY CARE CENTRE INC.", "designationCode": "C", "categoryCode": "01", "address": "BOX 1004", "city": "SOURIS", "province": "MB", "country": "CA", "postalCode": "R0K2C0", "twitter": "None", "instagram": "None", "facebook": "None", "youtube": "None", "website": "None", "summary": "None", "logo": "None", "latitude": 49.59915625917259, "longitude": -99.8622610573006}, "861491025RR0001": {"name": "SOURIS FOOD BANK", "designationCode": "C", "categoryCode": "09", "address": "P.O. BOX 956", "city": "SOURIS", "province": "PE", "country": "CA", "postalCode": "C0A2B0", "twitter": "None", "instagram": "None", "facebook": "None", "youtube": "None", "website": "None", "summary": "None", "logo": "None", "latitude": 46.35451000000006, "longitude": -62.25295999999997}, "131970352RR0001": {"name": "SOURIS GLENWOOD FOUNDATION INC.", "designationCode": "A", "categoryCode": "03", "address": "P.O. BOX 577", "city": "SOURIS", "province": "MB", "country": "CA", "postalCode": "R0K2C0", "twitter": "None", "instagram": "None", "facebook": "None", "youtube": "None", "website": "None", "summary": "None", "logo": "None", "latitude": 49.59915625917259, "longitude": -99.8622610573006}, "119156735RR0001": {"name": "SOURIS GOSPEL CHAPEL", "designationCode": "C", "categoryCode": "39", "address": "BOX 457", "city": "SOURIS", "province": "MB", "country": "CA", "postalCode": "R0K2C0", "twitter": "None", "instagram": "None", "facebook": "None", "youtube": "None", "website": "None", "summary": "None", "logo": "None", "latitude": 49.59915625917259, "longitude": -99.8622610573006}, "119156743RR0001": {"name": "SOURIS GROUP HOME ASSOCIATION", "designationCode": "C", "categoryCode": "01", "address": "PO BOX 567", "city": "SOURIS", "province": "PE", "country": "CA", "postalCode": "C0A2B0", "twitter": "None", "instagram": "None", "facebook": "None", "youtube": "None", "website": "None", "summary": "None", "logo": "None", "latitude": 46.35451000000006, "longitude": -62.25295999999997}, "122294382RR0001": {"name": "SOURIS HEALTH AUXILIARY OF THE ASSINIBOINE REGIONAL HEALTH AUTHORITY INC.", "designationCode": "C", "categoryCode": "19", "address": "POST OFFICE BOX 303", "city": "SOURIS", "province": "MB", "country": "CA", "postalCode": "R0K2C0", "twitter": "None", "instagram": "None", "facebook": "None", "youtube": "None", "website": "None", "summary": "None", "logo": "None", "latitude": 49.59915625917259, "longitude": -99.8622610573006}, "891896060RR0001": {"name": "SOURIS HEALTH DISTRICT FOUNDATION INC.", "designationCode": "A", "categoryCode": "13", "address": "BOX 311", "city": "SOURIS", "province": "MB", "country": "CA", "postalCode": "R0K2C0", "twitter": "None", "instagram": "None", "facebook": "None", "youtube": "None", "website": "None", "summary": "None", "logo": "None", "latitude": 49.59915625917259, "longitude": -99.8622610573006}, "107994469RR0001": {"name": "SOURIS HILLCREST COMMUNITY CORPORATION INC.", "designationCode": "C", "categoryCode": "50", "address": "BOX 1287", "city": "SOURIS", "province": "MB", "country": "CA", "postalCode": "R0K2C0", "twitter": "None", "instagram": "None", "facebook": "None", "youtube": "None", "website": "None", "summary": "None", "logo": "None", "latitude": 49.59915625917259, "longitude": -99.8622610573006}, "874523509RR0001": {"name": "SOURIS RIVER CHARITABLE TRUST", "designationCode": "B", "categoryCode": "39", "address": "1401 PRINCESS AVENUE", "city": "BRANDON", "province": "MB", "country": "CA", "postalCode": "R7A7L7", "twitter": "None", "instagram": "None", "facebook": "None", "youtube": "None", "website": "None", "summary": "None", "logo": "None", "latitude": 49.84694947489748, "longitude": -99.957294}, "119156776RR0001": {"name": "SOURIS VALLEY ANTIQUE ASSOCIATION", "designationCode": "A", "categoryCode": "50", "address": "P.O. BOX 352", "city": "MIDALE", "province": "SK", "country": "CA", "postalCode": "S0C1S0", "twitter": "None", "instagram": "None", "facebook": "None", "youtube": "None", "website": "None", "summary": "None", "logo": "None", "latitude": 49.40006000000005, "longitude": -103.40099999999995}, "892600644RR0001": {"name": "SOURIS-MOOSE CREEK WILDLIFE FEDERATION", "designationCode": "C", "categoryCode": "54", "address": "PO BOX 1168", "city": "OXBOW", "province": "SK", "country": "CA", "postalCode": "S0C2B0", "twitter": "None", "instagram": "None", "facebook": "None", "youtube": "None", "website": "None", "summary": "None", "logo": "None", "latitude": 49.23346331645773, "longitude": -102.17827573496838}, "119156792RR0001": {"name": "SOURP HAGOP ARMENIAN CHURCH", "designationCode": "C", "categoryCode": "39", "address": "3401 OLIVAR ASSELIN", "city": "MONTREAL", "province": "QC", "country": "CA", "postalCode": "H4J1L8", "twitter": "None", "instagram": "None", "facebook": "None", "youtube": "None", "website": "None", "summary": "None", "logo": "None", "latitude": 45.53229752873787, "longitude": -73.69718800790585}, "107994618RR0001": {"name": "SOURP NISHAN ARMENIAN APOSTOLIC CHURCH OF CAMBRIDGE", "designationCode": "C", "categoryCode": "39", "address": "15 INTERNATION DR", "city": "CAMBRIDGE", "province": "ON", "country": "CA", "postalCode": "N1R7M5", "twitter": "None", "instagram": "None", "facebook": "None", "youtube": "None", "website": "None", "summary": "None", "logo": "None", "latitude": 43.39035000000001, "longitude": -80.31851878968735}, "132975038RR0001": {"name": "SOUTH & METCALFE NON-PROFIT HOUSING CORPORATION", "designationCode": "C", "categoryCode": "59", "address": "2-25 KENT STREET NORTH", "city": "SIMCOE", "province": "ON", "country": "CA", "postalCode": "N3Y3S1", "twitter": "None", "instagram": "None", "facebook": "None", "youtube": "None", "website": "None", "summary": "None", "logo": "None", "latitude": 42.839511039738404, "longitude": -80.30604154726849}, "865747992RR0002": {"name": "SOUTH ABBOTSFORD MENNONITE BRETHERN CHURCH", "designationCode": "C", "categoryCode": "34", "address": "32424 HUNTINGDON ROAD", "city": "ABBOTSFORD", "province": "BC", "country": "CA", "postalCode": "V2T5Z1", "twitter": "None", "instagram": "None", "facebook": "None", "youtube": "None", "website": "None", "summary": "None", "logo": "None", "latitude": 49.01670054674261, "longitude": -122.32578172009349}, "129849634RR0001": {"name": "SOUTH ALBERTA (JAPANESE) PASTORAL CHARGE", "designationCode": "C", "categoryCode": "44", "address": "821-9 AVE N", "city": "LETHBRIDGE", "province": "AB", "country": "CA", "postalCode": "T1H1E8", "twitter": "None", "instagram": "None", "facebook": "None", "youtube": "None", "website": "None", "summary": "None", "logo": "None", "latitude": 49.712772518754555, "longitude": -112.8342105}, "131909061RR0001": {"name": "SOUTH ALBERTA PRESBYTERY, THE UNITED CHURCH OF CANADA,", "designationCode": "C", "categoryCode": "44", "address": "359 CRYSTALRIDGE VIEW", "city": "OKOTOKS", "province": "AB", "country": "CA", "postalCode": "T1S1W7", "twitter": "None", "instagram": "None", "facebook": "None", "youtube": "None", "website": "None", "summary": "None", "logo": "None", "latitude": 50.7258361157309, "longitude": -113.95499617690024}}