{"101837896RR0001": {"name": "FONDATION DE L'INSTITUT DE CARDIOLOGIE DE MONTR\u00c9AL/MONTR\u00c9AL HEART INSTITUTE FOUNDATION", "designationCode": "C", "categoryCode": "11", "address": "5000 RUE BELANGER", "city": "MONTREAL", "province": "QC", "country": "CA", "postalCode": "H1T1C8", "twitter": "None", "instagram": "None", "facebook": "None", "youtube": "None", "website": "None", "summary": "None", "logo": "None", "latitude": 45.574538669427064, "longitude": -73.57891870673463}, "118929041RR0001": {"name": "FONDATION DE L'INSTITUT DE RECHERCHES CLINIQUES DE MONTREAL", "designationCode": "A", "categoryCode": "13", "address": "110 AVE DES PINS O", "city": "MONTREAL", "province": "QC", "country": "CA", "postalCode": "H2W1R7", "twitter": "None", "instagram": "None", "facebook": "None", "youtube": "None", "website": "None", "summary": "None", "logo": "None", "latitude": 45.51385075714124, "longitude": -73.57608656520871}, "878547603RR0001": {"name": "FONDATION DE L'INSTITUT DE TOURISME ET D'H\u00d4TELLERIE DU QU\u00c9BEC", "designationCode": "A", "categoryCode": "20", "address": "3535, RUE ST-DENIS", "city": "MONTR\u00c9AL", "province": "QC", "country": "CA", "postalCode": "H2X3P1", "twitter": "None", "instagram": "None", "facebook": "None", "youtube": "None", "website": "None", "summary": "None", "logo": "None", "latitude": 45.51766326536422, "longitude": -73.56898039575297}, "868211145RR0001": {"name": "FONDATION DE L'INSTITUT NAZARETH ET LOUIS-BRAILLE", "designationCode": "A", "categoryCode": "03", "address": "1111 RUE SAINT-CHARLES OUEST", "city": "LONGUEUIL", "province": "QC", "country": "CA", "postalCode": "J4K5G4", "twitter": "None", "instagram": "None", "facebook": "None", "youtube": "None", "website": "None", "summary": "None", "logo": "None", "latitude": 45.52636407799065, "longitude": -73.51944321735218}, "887888261RR0001": {"name": "FONDATION DE L'INSTITUT ST-JOSEPH INC.", "designationCode": "A", "categoryCode": "23", "address": "900, RUE JOFFRE", "city": "QU\u00c9BEC", "province": "QC", "country": "CA", "postalCode": "G1S4Z3", "twitter": "None", "instagram": "None", "facebook": "None", "youtube": "None", "website": "None", "summary": "None", "logo": "None", "latitude": 46.79609550066384, "longitude": -71.2444823543478}, "118923242RR0001": {"name": "FONDATION DE L'INSTITUT UNIVERSITAIRE DE CARDIOLOGIE ET DE PNEUMOLOGIE DE QU\u00c9BEC", "designationCode": "A", "categoryCode": "13", "address": "2700 CHEMIN DES QUATRE-BOURGEOIS", "city": "QU\u00c9BEC", "province": "QC", "country": "CA", "postalCode": "G1V0B8", "twitter": "None", "instagram": "None", "facebook": "None", "youtube": "None", "website": "None", "summary": "None", "logo": "None", "latitude": 46.77788512132814, "longitude": -71.29418677704963}, "101469609RR0001": {"name": "FONDATION DE L'INSTITUT UNIVERSITAIRE EN SANT\u00c9 MENTALE DOUGLAS / DOUGLAS MENTAL HEALTH UNIVERSITY INSTITUTE FOUNDATION", "designationCode": "A", "categoryCode": "13", "address": "6875 BOUL LASALLE", "city": "MONTREAL", "province": "QC", "country": "CA", "postalCode": "H4H1R3", "twitter": "None", "instagram": "None", "facebook": "None", "youtube": "None", "website": "None", "summary": "None", "logo": "None", "latitude": 45.44093910547881, "longitude": -73.57937923037674}, "886166438RR0001": {"name": "FONDATION DE L'INSTRUCTION DE ST-MARC-SUR-RICHELIEU", "designationCode": "C", "categoryCode": "23", "address": "102, RUE DE LA FABRIQUE", "city": "SAINT-MARC-SUR RICHELIEU", "province": "QC", "country": "CA", "postalCode": "J0L2E0", "twitter": "None", "instagram": "None", "facebook": "None", "youtube": "None", "website": "None", "summary": "None", "logo": "None", "latitude": 45.67832580959667, "longitude": -73.19530873656902}, "826787129RR0001": {"name": "FONDATION DE L'OFFICE MUNICIPAL D'HABITATION DE MONTR\u00c9AL", "designationCode": "C", "categoryCode": "09", "address": "415, RUE SAINT-ANTOINE OUEST", "city": "MONTREAL", "province": "QC", "country": "CA", "postalCode": "H2Z1H8", "twitter": "None", "instagram": "None", "facebook": "None", "youtube": "None", "website": "None", "summary": "None", "logo": "None", "latitude": 45.50243044714053, "longitude": -73.56107799795119}, "871078309RR0001": {"name": "FONDATION DE L'OP\u00c9RA DE MONTR\u00c9AL", "designationCode": "A", "categoryCode": "23", "address": "260 BOUL. DE MAISONNEUVE OUEST", "city": "MONTR\u00c9AL", "province": "QC", "country": "CA", "postalCode": "H2X1Y9", "twitter": "None", "instagram": "None", "facebook": "None", "youtube": "None", "website": "None", "summary": "None", "logo": "None", "latitude": 45.508406327708435, "longitude": -73.56812827526383}, "126300029RR0001": {"name": "FONDATION DE L'OP\u00c9RA DE QU\u00c9BEC", "designationCode": "A", "categoryCode": "23", "address": "1220, AVE TACHE", "city": "QUEBEC", "province": "QC", "country": "CA", "postalCode": "G1R3V4", "twitter": "None", "instagram": "None", "facebook": "None", "youtube": "None", "website": "None", "summary": "None", "logo": "None", "latitude": 46.80406636635126, "longitude": -71.21949317112917}, "867942013RR0001": {"name": "FONDATION DE L'ORATOIRE SAINT-JOSEPH DU MONT-ROYAL", "designationCode": "A", "categoryCode": "43", "address": "3800, CHEMIN QUEEN-MARY", "city": "MONTREAL", "province": "QC", "country": "CA", "postalCode": "H3V1H6", "twitter": "None", "instagram": "None", "facebook": "None", "youtube": "None", "website": "None", "summary": "None", "logo": "None", "latitude": 45.49360960377943, "longitude": -73.62021765348871}, "882081987RR0001": {"name": "FONDATION DE L'ORCHESTRE SYMPHONIQUE DE MONTR\u00c9AL", "designationCode": "A", "categoryCode": "23", "address": "1600 RUE SAINT-URBAIN", "city": "MONTREAL", "province": "QC", "country": "CA", "postalCode": "H2X0S1", "twitter": "None", "instagram": "None", "facebook": "None", "youtube": "None", "website": "None", "summary": "None", "logo": "None", "latitude": 45.50924198277467, "longitude": -73.56598358064504}, "129180378RR0001": {"name": "FONDATION DE L'ORCHESTRE SYMPHONIQUE DE QUEBEC", "designationCode": "A", "categoryCode": "23", "address": "250 - 437 GRANDE ALLEE E", "city": "QUEBEC", "province": "QC", "country": "CA", "postalCode": "G1R2J5", "twitter": "None", "instagram": "None", "facebook": "None", "youtube": "None", "website": "None", "summary": "None", "logo": "None", "latitude": 46.80585090362552, "longitude": -71.21738613913874}, "820729465RR0001": {"name": "FONDATION DE L'ORDRE DES ACUPUNCTEURS DU QU\u00c9BEC", "designationCode": "C", "categoryCode": "21", "address": "1106-505 BOUL. REN\u00c9-L\u00c9VESQUE O", "city": "MONTR\u00c9AL", "province": "QC", "country": "CA", "postalCode": "H2Z1Y7", "twitter": "None", "instagram": "None", "facebook": "None", "youtube": "None", "website": "None", "summary": "None", "logo": "None", "latitude": 45.50392864891217, "longitude": -73.56588739344436}, "118921766RR0001": {"name": "FONDATION DE L'UNITE DES CHEVALIERS DE COLOMB DU DIOCESE DE STE-ANNE DE LA POCATIERE", "designationCode": "B", "categoryCode": "49", "address": "CP 5025", "city": "LA POCATI\u00c8RE", "province": "QC", "country": "CA", "postalCode": "G0R1Z0", "twitter": "None", "instagram": "None", "facebook": "None", "youtube": "None", "website": "None", "summary": "None", "logo": "None", "latitude": 47.35548000000006, "longitude": -70.06540999999999}, "132154899RR0001": {"name": "FONDATION DE L'UNIVERSIT\u00c9 DU QU\u00c9BEC \u00c0 RIMOUSKI INC.", "designationCode": "A", "categoryCode": "23", "address": "300 ALLEE DES URSULINES", "city": "RIMOUSKI", "province": "QC", "country": "CA", "postalCode": "G5L3A1", "twitter": "None", "instagram": "None", "facebook": "None", "youtube": "None", "website": "None", "summary": "None", "logo": "None", "latitude": 48.45378023701654, "longitude": -68.51392655695639}, "119001725RR0002": {"name": "FONDATION DE L'UNIVERSIT\u00c9 DU QU\u00c9BEC \u00c0 TROIS-RIVI\u00c8RES", "designationCode": "A", "categoryCode": "23", "address": "3351, BOUL. DES FORGES, CP 500", "city": "TROIS-RIVIERES", "province": "QC", "country": "CA", "postalCode": "G9A5H7", "twitter": "None", "instagram": "None", "facebook": "None", "youtube": "None", "website": "None", "summary": "None", "logo": "None", "latitude": 46.35025325783373, "longitude": -72.57562244991051}, "118921824RR0001": {"name": "FONDATION DE L'UNIVERSIT\u00c9 DU QU\u00c9BEC EN ABITIBI-T\u00c9MISCAMINGUE INC.", "designationCode": "A", "categoryCode": "23", "address": "445, BOULEVARD DE L'UNIVERSITE", "city": "ROUYN", "province": "QC", "country": "CA", "postalCode": "J9X5E4", "twitter": "None", "instagram": "None", "facebook": "None", "youtube": "None", "website": "None", "summary": "None", "logo": "None", "latitude": 48.2303947559606, "longitude": -79.00969620414955}, "118921816RR0001": {"name": "FONDATION DE L'UNIVERSIT\u00c9 DU QU\u00c9BEC EN OUTAOUAIS", "designationCode": "A", "categoryCode": "23", "address": "283, BOUL. ALEXANDRE-TACH\u00c9    CP 1250, SUCCURSALE HULL", "city": "GATINEAU", "province": "QC", "country": "CA", "postalCode": "J8X3X7", "twitter": "None", "instagram": "None", "facebook": "None", "youtube": "None", "website": "None", "summary": "None", "logo": "None", "latitude": 45.42279754731954, "longitude": -75.73900770843673}, "118921808RR0001": {"name": "FONDATION DE L'UNIVERSITE DU QU\u00c9BEC A MONTR\u00c9AL", "designationCode": "A", "categoryCode": "13", "address": "C P 8888 SUCCURSALE CENTRE VIL", "city": "MONTREAL", "province": "QC", "country": "CA", "postalCode": "H3C3P8", "twitter": "None", "instagram": "None", "facebook": "None", "youtube": "None", "website": "None", "summary": "None", "logo": "None", "latitude": 45.49833600000005, "longitude": -73.55148649999994}, "889356390RR0001": {"name": "FONDATION DE LA BIBLIOTH\u00c8QUE DE ROUYN-NORANDA", "designationCode": "C", "categoryCode": "53", "address": "201, AVENUE DALLAIRE", "city": "ROUYN-NORANDA", "province": "QC", "country": "CA", "postalCode": "J9X4T5", "twitter": "None", "instagram": "None", "facebook": "None", "youtube": "None", "website": "None", "summary": "None", "logo": "None", "latitude": 48.237029580904846, "longitude": -79.0225797559874}, "892044645RR0001": {"name": "FONDATION DE LA BIBLIOTH\u00c8QUE MEMPHR\u00c9MAGOG INC.", "designationCode": "C", "categoryCode": "50", "address": "90, RUE SAINT-DAVID", "city": "MAGOG", "province": "QC", "country": "CA", "postalCode": "J1X0H9", "twitter": "None", "instagram": "None", "facebook": "None", "youtube": "None", "website": "None", "summary": "None", "logo": "None", "latitude": 45.26375713266779, "longitude": -72.13833116319465}, "839197548RR0001": {"name": "FONDATION DE LA BIBLIOTH\u00c8QUE ROBERT-OUIMET", "designationCode": "C", "categoryCode": "21", "address": "1450, 3IEME AVENUE", "city": "ACTON VALE", "province": "QC", "country": "CA", "postalCode": "J0H1A0", "twitter": "None", "instagram": "None", "facebook": "None", "youtube": "None", "website": "None", "summary": "None", "logo": "None", "latitude": 45.65711250937682, "longitude": -72.5716125}, "884234725RR0001": {"name": "FONDATION DE LA BIBLIOTHEQUE MUNICIPALE RICHELIEU DE LA SARRE", "designationCode": "A", "categoryCode": "53", "address": "195 PRINCIPALE", "city": "LA SARRE", "province": "QC", "country": "CA", "postalCode": "J9Z1Y3", "twitter": "None", "instagram": "None", "facebook": "None", "youtube": "None", "website": "None", "summary": "None", "logo": "None", "latitude": 48.80716317346645, "longitude": -79.20527931251085}, "118921287RR0001": {"name": "FONDATION DE LA CATHEDRALE DE CHICOUTIMI INC.", "designationCode": "A", "categoryCode": "43", "address": "514, RUE RACINE EST", "city": "CHICOUTIMI", "province": "QC", "country": "CA", "postalCode": "G7H1T9", "twitter": "None", "instagram": "None", "facebook": "None", "youtube": "None", "website": "None", "summary": "None", "logo": "None", "latitude": 48.428727601708204, "longitude": -71.05260704801204}, "893352765RR0001": {"name": "FONDATION DE LA CATHEDRALE DE LA SAINTE-TRINITE/CATHEDRAL OF THE HOLY TRINITY FOUNDATION", "designationCode": "A", "categoryCode": "43", "address": "31 RUE DES JARDINS", "city": "QUEBEC", "province": "QC", "country": "CA", "postalCode": "G1R4L6", "twitter": "None", "instagram": "None", "facebook": "None", "youtube": "None", "website": "None", "summary": "None", "logo": "None", "latitude": 46.81278795253625, "longitude": -71.20739304893566}, "874332695RR0001": {"name": "FONDATION DE LA CHAPELLE DU PARDON", "designationCode": "C", "categoryCode": "49", "address": "949 ROUTE 276", "city": "SAINT-FREDERIC", "province": "QC", "country": "CA", "postalCode": "G0N1P0", "twitter": "None", "instagram": "None", "facebook": "None", "youtube": "None", "website": "None", "summary": "None", "logo": "None", "latitude": 46.29238858692842, "longitude": -70.9321255060054}, "870003803RR0001": {"name": "FONDATION DE LA CHAPELLE HISTORIQUE DU BON PASTEUR", "designationCode": "C", "categoryCode": "22", "address": "100 RUE SHERBROOKE EST", "city": "MONTREAL", "province": "QC", "country": "CA", "postalCode": "H2X1C3", "twitter": "None", "instagram": "None", "facebook": "None", "youtube": "None", "website": "None", "summary": "None", "logo": "None", "latitude": 45.51344435330954, "longitude": -73.56899682483144}, "868714684RR0001": {"name": "FONDATION DE LA CHENELIERE", "designationCode": "B", "categoryCode": "03", "address": "10 HENRI-DAOUST", "city": "KIRKLAND", "province": "QC", "country": "CA", "postalCode": "H9J2C5", "twitter": "None", "instagram": "None", "facebook": "None", "youtube": "None", "website": "None", "summary": "None", "logo": "None", "latitude": 45.45285579848818, "longitude": -73.86936566406004}, "890811342RR0001": {"name": "FONDATION DE LA CIT\u00c9 \u00c9TUDIANTE ROBERVAL", "designationCode": "C", "categoryCode": "21", "address": "171 BOUL DE LA JEUNESSE", "city": "ROBERVAL", "province": "QC", "country": "CA", "postalCode": "G8H2N9", "twitter": "None", "instagram": "None", "facebook": "None", "youtube": "None", "website": "None", "summary": "None", "logo": "None", "latitude": 48.50027807076323, "longitude": -72.22968375990745}, "884184003RR0001": {"name": "FONDATION DE LA CIT\u00c9-DES-JEUNES POUR LA VIE \u00c9TUDIANTE", "designationCode": "A", "categoryCode": "21", "address": "400, AVENUE ST-CHARLES", "city": "VAUDREUIL-DORION", "province": "QC", "country": "CA", "postalCode": "J7V6B1", "twitter": "None", "instagram": "None", "facebook": "None", "youtube": "None", "website": "None", "summary": "None", "logo": "None", "latitude": 45.39572833838148, "longitude": -74.02465538220403}, "897772026RR0001": {"name": "FONDATION DE LA CITE COLLEGIALE", "designationCode": "C", "categoryCode": "21", "address": "801 PROMENADE DE L'AVIATION   PIECE C3080", "city": "OTTAWA", "province": "ON", "country": "CA", "postalCode": "K1K4R3", "twitter": "None", "instagram": "None", "facebook": "None", "youtube": "None", "website": "None", "summary": "None", "logo": "None", "latitude": 45.435854944683165, "longitude": -75.63460764279753}, "889948667RR0001": {"name": "FONDATION DE LA CLINIQUE DE READAPTATION DE QUEBEC, INC.", "designationCode": "A", "categoryCode": "13", "address": "1505 RUE PAMPHILE-LE MAY", "city": "CAP-ROUGE", "province": "QC", "country": "CA", "postalCode": "G1Y3C3", "twitter": "None", "instagram": "None", "facebook": "None", "youtube": "None", "website": "None", "summary": "None", "logo": "None", "latitude": 46.738412328899486, "longitude": -71.35913184759671}, "845604362RR0001": {"name": "FONDATION DE LA COMMISSION SCOLAIRE DE L'ESTUAIRE", "designationCode": "C", "categoryCode": "21", "address": "771 BOUL. JOLLIET", "city": "BAIE-COMEAU", "province": "QC", "country": "CA", "postalCode": "G5C1P3", "twitter": "None", "instagram": "None", "facebook": "None", "youtube": "None", "website": "None", "summary": "None", "logo": "None", "latitude": 49.19090160444952, "longitude": -68.25531770884075}, "864768320RR0001": {"name": "FONDATION DE LA COMMISSION SCOLAIRE DE MONTR\u00c9AL", "designationCode": "C", "categoryCode": "21", "address": "3737, RUE SHERBROOKE E", "city": "MONTREAL", "province": "QC", "country": "CA", "postalCode": "H1X3B3", "twitter": "None", "instagram": "None", "facebook": "None", "youtube": "None", "website": "None", "summary": "None", "logo": "None", "latitude": 45.550213092705846, "longitude": -73.55503882941815}, "869718122RR0001": {"name": "FONDATION DE LA COMMISSION SCOLAIRE DES PORTAGES-DE-L'OUTAOUAIS", "designationCode": "C", "categoryCode": "20", "address": "225 RUE SAINT-REDEMPTEUR", "city": "GATINEAU", "province": "QC", "country": "CA", "postalCode": "J8X2T3", "twitter": "None", "instagram": "None", "facebook": "None", "youtube": "None", "website": "None", "summary": "None", "logo": "None", "latitude": 45.43390760199666, "longitude": -75.72200247036716}, "889620134RR0003": {"name": "FONDATION DE LA COMMISSION SCOLAIRE DU LAC-SAINT-JEAN", "designationCode": "C", "categoryCode": "21", "address": "350, BOULEVARD CHAMPLAIN SUD", "city": "ALMA", "province": "QC", "country": "CA", "postalCode": "G8B3N8", "twitter": "None", "instagram": "None", "facebook": "None", "youtube": "None", "website": "None", "summary": "None", "logo": "None", "latitude": 48.54878175272652, "longitude": -71.66406807588358}, "863563672RR0001": {"name": "FONDATION DE LA COOP\u00c9RATIVE DE SOLIDARIT\u00c9 SANT\u00c9 DE SAINTE-TH\u00c8CLE", "designationCode": "A", "categoryCode": "13", "address": "115, RUE LACORDAIRE", "city": "SAINTE-THECLE", "province": "QC", "country": "CA", "postalCode": "G0X3G0", "twitter": "None", "instagram": "None", "facebook": "None", "youtube": "None", "website": "None", "summary": "None", "logo": "None", "latitude": 46.81836268549857, "longitude": -72.50509878134879}, "890991847RR0001": {"name": "FONDATION DE LA CORPORATION DES SERVICES UNIVERSITAIRES EN CHAUDI\u00c8RE-APPALACHES", "designationCode": "A", "categoryCode": "23", "address": "1055 RUE 116E                 IEME", "city": "SAINT-GEORGES", "province": "QC", "country": "CA", "postalCode": "G5Y3G1", "twitter": "None", "instagram": "None", "facebook": "None", "youtube": "None", "website": "None", "summary": "None", "logo": "None", "latitude": 46.12605986987104, "longitude": -70.66877744760188}, "892240656RR0001": {"name": "FONDATION DE LA FAMILLE LEMAIRE", "designationCode": "A", "categoryCode": "03", "address": "404 BOUL MARIE-VICTORIN", "city": "KINGSEY FALLS", "province": "QC", "country": "CA", "postalCode": "J0A1B0", "twitter": "None", "instagram": "None", "facebook": "None", "youtube": "None", "website": "None", "summary": "None", "logo": "None", "latitude": 45.85850922234384, "longitude": -72.07416419683729}, "134636042RR0001": {"name": "FONDATION DE LA FAMILLE TERRIENNE", "designationCode": "C", "categoryCode": "59", "address": "555, BOUL. ROLAND-THERRIEN", "city": "LONGUEUIL", "province": "QC", "country": "CA", "postalCode": "J4H3Y9", "twitter": "None", "instagram": "None", "facebook": "None", "youtube": "None", "website": "None", "summary": "None", "logo": "None", "latitude": 45.544851648363924, "longitude": -73.49136519395269}, "144875945RR0001": {"name": "FONDATION DE LA FAUNE DU QUEBEC", "designationCode": "A", "categoryCode": "53", "address": "PLACE IBERVILLE 11            1175, AV. LAVIGERIE, PORTE 420", "city": "QUEBEC", "province": "QC", "country": "CA", "postalCode": "G1V4P1", "twitter": "None", "instagram": "None", "facebook": "None", "youtube": "None", "website": "None", "summary": "None", "logo": "None", "latitude": 46.7662149111893, "longitude": -71.29532332203283}, "885258012RR0001": {"name": "FONDATION DE LA FEDERATION QUEBECOISE DES LARYNGECTOMISES", "designationCode": "A", "categoryCode": "15", "address": "5565 EST, RUE SHERBROOKE", "city": "MONTREAL", "province": "QC", "country": "CA", "postalCode": "H1N1A2", "twitter": "None", "instagram": "None", "facebook": "None", "youtube": "None", "website": "None", "summary": "None", "logo": "None", "latitude": 45.57127880609907, "longitude": -73.55061032157265}, "886580992RR0001": {"name": "FONDATION DE LA GREFFE DE MOELLE OSSEUSE DE L'EST DU QUEBEC", "designationCode": "C", "categoryCode": "09", "address": "1433 4E AVENUE", "city": "QUEBEC", "province": "QC", "country": "CA", "postalCode": "G1J3B9", "twitter": "None", "instagram": "None", "facebook": "None", "youtube": "None", "website": "None", "summary": "None", "logo": "None", "latitude": 46.83002306826713, "longitude": -71.23050518431515}, "120590195RR0001": {"name": "FONDATION DE LA JOC", "designationCode": "A", "categoryCode": "43", "address": "3119 RUE MONSABRE", "city": "MONTREAL", "province": "QC", "country": "CA", "postalCode": "H1N2L3", "twitter": "None", "instagram": "None", "facebook": "None", "youtube": "None", "website": "None", "summary": "None", "logo": "None", "latitude": 45.573139727739544, "longitude": -73.54546391811421}, "886389592RR0001": {"name": "FONDATION DE LA MAISON DE L'AFRIQUE / AFRICAN HOUSE FOUNDATION", "designationCode": "C", "categoryCode": "29", "address": "202-49 PLACE DU SOLEIL", "city": "VERDUN-ILE DES SOEURS", "province": "QC", "country": "CA", "postalCode": "H3E1P7", "twitter": "None", "instagram": "None", "facebook": "None", "youtube": "None", "website": "None", "summary": "None", "logo": "None", "latitude": 45.46501182816382, "longitude": -73.54284109080436}, "809628548RR0001": {"name": "FONDATION DE LA MAISON DE QUARTIER", "designationCode": "A", "categoryCode": "03", "address": "8069 BOUL CENTRE-HOSPITALIER", "city": "CHARNY", "province": "QC", "country": "CA", "postalCode": "G6X1L3", "twitter": "None", "instagram": "None", "facebook": "None", "youtube": "None", "website": "None", "summary": "None", "logo": "None", "latitude": 46.72167797887952, "longitude": -71.26999555470579}, "836401349RR0001": {"name": "FONDATION DE LA MAISON DE SOINS PALLIATIFS DE VAUDREUIL-SOULANGES (FMSPVS) VAUDREUIL-SOULANGES PALLIATIVE CARE RESIDENCE FOUNDATION (VSPCRF)", "designationCode": "C", "categoryCode": "11", "address": "90, COMO GARDENS", "city": "HUDSON", "province": "QC", "country": "CA", "postalCode": "J0P1H0", "twitter": "None", "instagram": "None", "facebook": "None", "youtube": "None", "website": "None", "summary": "None", "logo": "None", "latitude": 45.45119226614361, "longitude": -74.13124547284866}, "131464869RR0001": {"name": "FONDATION DE LA MAISON DES ARTS DE LAVAL", "designationCode": "C", "categoryCode": "22", "address": "206 - 233 BOUL SAINTE-ROSE", "city": "LAVAL", "province": "QC", "country": "CA", "postalCode": "H7L1L7", "twitter": "None", "instagram": "None", "facebook": "None", "youtube": "None", "website": "None", "summary": "None", "logo": "None", "latitude": 45.61321193868645, "longitude": -73.78742814449743}, "848130563RR0001": {"name": "FONDATION DE LA MAISON DESJARDINS DE SOINS PALLIATIFS DU KRTB", "designationCode": "A", "categoryCode": "13", "address": "44, DE CHAUFFAILLES", "city": "RIVI\u00c8RE-DU-LOUP", "province": "QC", "country": "CA", "postalCode": "G5R4E1", "twitter": "None", "instagram": "None", "facebook": "None", "youtube": "None", "website": "None", "summary": "None", "logo": "None", "latitude": 47.81735179545842, "longitude": -69.53819686874586}, "894083658RR0001": {"name": "FONDATION DE LA MAISON MICHEL SARRAZIN", "designationCode": "A", "categoryCode": "03", "address": "2101, CHEMIN SAINT-LOUIS", "city": "QUEBEC", "province": "QC", "country": "CA", "postalCode": "G1T1P5", "twitter": "None", "instagram": "None", "facebook": "None", "youtube": "None", "website": "None", "summary": "None", "logo": "None", "latitude": 46.77402480653825, "longitude": -71.25543530792324}, "894212174RR0001": {"name": "FONDATION DE LA MODE DE MONTREAL", "designationCode": "C", "categoryCode": "22", "address": "1400, RUE DUFORT", "city": "MONTREAL", "province": "QC", "country": "CA", "postalCode": "H3H2T1", "twitter": "None", "instagram": "None", "facebook": "None", "youtube": "None", "website": "None", "summary": "None", "logo": "None", "latitude": 45.49180200000005, "longitude": -73.58144299999994}, "892126566RR0001": {"name": "FONDATION DE LA P\u00c9DAGOGIE FREINET", "designationCode": "C", "categoryCode": "21", "address": "945 BOUL DES CHUTES", "city": "BEAUPORT", "province": "QC", "country": "CA", "postalCode": "G1E2C8", "twitter": "None", "instagram": "None", "facebook": "None", "youtube": "None", "website": "None", "summary": "None", "logo": "None", "latitude": 46.86622298254353, "longitude": -71.18104081603063}, "856972963RR0001": {"name": "FONDATION DE LA PLACE DES ARTS", "designationCode": "A", "categoryCode": "23", "address": "260 BOUL DE MAISONNEUVE OUEST", "city": "MONTREAL", "province": "QC", "country": "CA", "postalCode": "H2X1Y9", "twitter": "None", "instagram": "None", "facebook": "None", "youtube": "None", "website": "None", "summary": "None", "logo": "None", "latitude": 45.508406327708435, "longitude": -73.56812827526383}, "120516521RR0001": {"name": "FONDATION DE LA POINTE BLEUE INC.", "designationCode": "C", "categoryCode": "09", "address": "414 BARON EMPAIN              SUITE 1106", "city": "STE-MARGUERITE DU LAC MASSON", "province": "QC", "country": "CA", "postalCode": "J0T1L0", "twitter": "None", "instagram": "None", "facebook": "None", "youtube": "None", "website": "None", "summary": "None", "logo": "None", "latitude": 46.03445002221704, "longitude": -74.04002992339429}, "891132540RR0001": {"name": "FONDATION DE LA POLICE MONT\u00c9E MOUNTED POLICE FOUNDATION", "designationCode": "C", "categoryCode": "59", "address": "2460 LANCASTER ROAD           SUITE 203", "city": "OTTAWA", "province": "ON", "country": "CA", "postalCode": "K1B4S5", "twitter": "None", "instagram": "None", "facebook": "None", "youtube": "None", "website": "None", "summary": "None", "logo": "None", "latitude": 45.401797899763686, "longitude": -75.61850598707382}, "863510285RR0001": {"name": "FONDATION DE LA POLYVALENTE B\u00c9LANGER", "designationCode": "C", "categoryCode": "21", "address": "30A CHEMIN DE LA POLYVALENTE", "city": "SAINT-MARTIN", "province": "QC", "country": "CA", "postalCode": "G0M1B0", "twitter": "None", "instagram": "None", "facebook": "None", "youtube": "None", "website": "None", "summary": "None", "logo": "None", "latitude": 45.95807581052309, "longitude": -70.65000454767736}, "855870796RR0001": {"name": "FONDATION DE LA POLYVALENTE DE BLACK LAKE", "designationCode": "C", "categoryCode": "23", "address": "499, RUE SAINT-DESIRE", "city": "THETFORD MINES", "province": "QC", "country": "CA", "postalCode": "G6H1L7", "twitter": "None", "instagram": "None", "facebook": "None", "youtube": "None", "website": "None", "summary": "None", "logo": "None", "latitude": 46.045734864728296, "longitude": -71.3643248627112}, "815507678RR0001": {"name": "FONDATION DE LA POLYVALENTE DE LA POCATI\u00c8RE", "designationCode": "C", "categoryCode": "21", "address": "950, 12E AVENUE", "city": "LA POCATIERE", "province": "QC", "country": "CA", "postalCode": "G0R1Z0", "twitter": "None", "instagram": "None", "facebook": "None", "youtube": "None", "website": "None", "summary": "None", "logo": "None", "latitude": 47.36021100000005, "longitude": -70.05913099999994}, "891240889RR0001": {"name": "FONDATION DE LA POLYVALENTE DES ABENAQUIS", "designationCode": "A", "categoryCode": "23", "address": "2105-25 IEME AVENUE", "city": "ST PROSPER", "province": "QC", "country": "CA", "postalCode": "G0M1Y0", "twitter": "None", "instagram": "None", "facebook": "None", "youtube": "None", "website": "None", "summary": "None", "logo": "None", "latitude": 46.220208000000056, "longitude": -70.50051349999994}, "889704367RR0001": {"name": "FONDATION DE LA POLYVALENTE DEUX-MONTAGNES", "designationCode": "C", "categoryCode": "21", "address": "500 CHEMIN DES ANCIENS", "city": "DEUX-MONTAGNES", "province": "QC", "country": "CA", "postalCode": "J7R6A7", "twitter": "None", "instagram": "None", "facebook": "None", "youtube": "None", "website": "None", "summary": "None", "logo": "None", "latitude": 45.54571315608928, "longitude": -73.90859079067124}, "820657948RR0001": {"name": "FONDATION DE LA POLYVALENTE ST-FRAN\u00c7OIS", "designationCode": "C", "categoryCode": "21", "address": "228 AVENUE LAMBERT", "city": "BEAUCEVILLE", "province": "QC", "country": "CA", "postalCode": "G5X3N9", "twitter": "None", "instagram": "None", "facebook": "None", "youtube": "None", "website": "None", "summary": "None", "logo": "None", "latitude": 46.210345185151866, "longitude": -70.7781683445087}, "101835395RR0001": {"name": "FONDATION DE LA PSYCHIATRIE DE LA REGION DE VALLEYFIELD", "designationCode": "A", "categoryCode": "09", "address": "150 ST-THOMAS", "city": "VALLEYFIELD", "province": "QC", "country": "CA", "postalCode": "J6T6C1", "twitter": "None", "instagram": "None", "facebook": "None", "youtube": "None", "website": "None", "summary": "None", "logo": "None", "latitude": 45.24976341268987, "longitude": -74.12919790902492}, "891701245RR0001": {"name": "FONDATION DE LA R\u00c9SIDENCE LOUIS-RIEL", "designationCode": "C", "categoryCode": "56", "address": "2120 AUGUSTIN-CANTIN", "city": "MONTREAL", "province": "QC", "country": "CA", "postalCode": "H3K3G3", "twitter": "None", "instagram": "None", "facebook": "None", "youtube": "None", "website": "None", "summary": "None", "logo": "None", "latitude": 45.4821446277917, "longitude": -73.56655550302976}, "859961203RR0001": {"name": "FONDATION DE LA R\u00c9SIDENCE MARCEL SIOUI", "designationCode": "A", "categoryCode": "03", "address": "70, RUE DE L'OURS", "city": "WENDAKE", "province": "QC", "country": "CA", "postalCode": "G0A4V0", "twitter": "None", "instagram": "None", "facebook": "None", "youtube": "None", "website": "None", "summary": "None", "logo": "None", "latitude": 46.86507360421837, "longitude": -71.35929960782504}, "891278079RR0001": {"name": "FONDATION DE LA R\u00c9USSITE \u00c9DUCATIVE AU COEUR-DES-VALL\u00c9ES", "designationCode": "C", "categoryCode": "21", "address": "582 RUE MACLAREN", "city": "GATINEAU", "province": "QC", "country": "CA", "postalCode": "J8L2W2", "twitter": "None", "instagram": "None", "facebook": "None", "youtube": "None", "website": "None", "summary": "None", "logo": "None", "latitude": 45.58638425650609, "longitude": -75.4021938781532}, "806924072RR0001": {"name": "FONDATION DE LA RESIDENCE DU CARRE ROYAL", "designationCode": "B", "categoryCode": "11", "address": "71 RUE PRINCE", "city": "SOREL-TRACY", "province": "QC", "country": "CA", "postalCode": "J3P4J7", "twitter": "None", "instagram": "None", "facebook": "None", "youtube": "None", "website": "None", "summary": "None", "logo": "None", "latitude": 46.04438851901437, "longitude": -73.11435932970754}, "898914445RR0001": {"name": "FONDATION DE LA SANT\u00c9 DE RIVI\u00c8RE-DU-LOUP", "designationCode": "A", "categoryCode": "03", "address": "75 RUE ST-HENRI", "city": "RIVIERE-DU-LOUP", "province": "QC", "country": "CA", "postalCode": "G5R2A4", "twitter": "None", "instagram": "None", "facebook": "None", "youtube": "None", "website": "None", "summary": "None", "logo": "None", "latitude": 47.820009975967736, "longitude": -69.53722675545318}, "899146542RR0001": {"name": "FONDATION DE LA SANT\u00c9 DU T\u00c9MISCOUATA", "designationCode": "A", "categoryCode": "13", "address": "58, DE L'EGLISE", "city": "NOTRE-DAME DU LAC", "province": "QC", "country": "CA", "postalCode": "G0L1X0", "twitter": "None", "instagram": "None", "facebook": "None", "youtube": "None", "website": "None", "summary": "None", "logo": "None", "latitude": 47.61218002553528, "longitude": -68.79918003058417}, "129883070RR0001": {"name": "FONDATION DE LA SCLEROSE EN PLAQUES DU K.R.T.B. INC.", "designationCode": "C", "categoryCode": "01", "address": "75 RUE ST-HENRI               CP 3E \u00c9TAGE", "city": "RIVI\u00c8RE-DU-LOUP", "province": "QC", "country": "CA", "postalCode": "G5R2A4", "twitter": "None", "instagram": "None", "facebook": "None", "youtube": "None", "website": "None", "summary": "None", "logo": "None", "latitude": 47.820009975967736, "longitude": -69.53722675545318}, "891941825RR0001": {"name": "FONDATION DE LA SOCIETE DES MISSIONNAIRES DES SAINTS-APOTRES", "designationCode": "A", "categoryCode": "45", "address": "8594 RUE BERRI", "city": "MONTREAL", "province": "QC", "country": "CA", "postalCode": "H2P2G4", "twitter": "None", "instagram": "None", "facebook": "None", "youtube": "None", "website": "None", "summary": "None", "logo": "None", "latitude": 45.54544806076531, "longitude": -73.63661804330883}, "107391567RR0001": {"name": "FONDATION DE LA VISITE", "designationCode": "C", "categoryCode": "09", "address": "11832 RUE BELLEVOIS", "city": "MONTREAL-NORD", "province": "QC", "country": "CA", "postalCode": "H1H3G1", "twitter": "None", "instagram": "None", "facebook": "None", "youtube": "None", "website": "None", "summary": "None", "logo": "None", "latitude": 45.60336723007682, "longitude": -73.63787207051747}, "118921410RR0001": {"name": "FONDATION DE LAUBERIVIERE", "designationCode": "A", "categoryCode": "05", "address": "401 RUE ST-PAUL", "city": "QUEBEC", "province": "QC", "country": "CA", "postalCode": "G1K3X3", "twitter": "None", "instagram": "None", "facebook": "None", "youtube": "None", "website": "None", "summary": "None", "logo": "None", "latitude": 46.81652552120739, "longitude": -71.2148535}, "888632668RR0001": {"name": "FONDATION DE MAINTIEN \u00c0 DOMICILE DES A\u00ceNES DE L'ESTRIE", "designationCode": "C", "categoryCode": "09", "address": "554 RUE DUFFERIN", "city": "SHERBROOKE", "province": "QC", "country": "CA", "postalCode": "J1H4N1", "twitter": "None", "instagram": "None", "facebook": "None", "youtube": "None", "website": "None", "summary": "None", "logo": "None", "latitude": 45.40822086816893, "longitude": -71.89731921036997}, "865506919RR0001": {"name": "FONDATION DE MAITRE ESDRAS", "designationCode": "C", "categoryCode": "21", "address": "18, ST-FRANCOIS-XAVIER EST    C. P. 128", "city": "GRANDE-VALLEE", "province": "QC", "country": "CA", "postalCode": "G0E1K0", "twitter": "None", "instagram": "None", "facebook": "None", "youtube": "None", "website": "None", "summary": "None", "logo": "None", "latitude": 49.22628465104789, "longitude": -65.12010766579172}, "118921402RR0001": {"name": "FONDATION DE MARIE-IMMACUL\u00c9E", "designationCode": "C", "categoryCode": "49", "address": "3-2028 RUE DU CARDINAL-PERSICO", "city": "QUEBEC", "province": "QC", "country": "CA", "postalCode": "G1T1V4", "twitter": "None", "instagram": "None", "facebook": "None", "youtube": "None", "website": "None", "summary": "None", "logo": "None", "latitude": 46.774558612556916, "longitude": -71.24477504123135}, "101835502RR0001": {"name": "FONDATION DE POLYTECHNIQUE", "designationCode": "A", "categoryCode": "23", "address": "C P 6079                      SUCCURSALE CENTRE-VILLE", "city": "MONTR\u00c9AL", "province": "QC", "country": "CA", "postalCode": "H3C3A7", "twitter": "None", "instagram": "None", "facebook": "None", "youtube": "None", "website": "None", "summary": "None", "logo": "None", "latitude": 45.49833600000005, "longitude": -73.55148649999994}, "107391591RR0001": {"name": "FONDATION DE RECHERCHE APPLIQU\u00c9E DE TECHNOLOGIE PHYSIQUE DE LA POCATI\u00c8RE INC.", "designationCode": "C", "categoryCode": "21", "address": "129, RUE DU PARC-DE-L'INNOVATION", "city": "LA POCATIERE", "province": "QC", "country": "CA", "postalCode": "G0R1Z0", "twitter": "None", "instagram": "None", "facebook": "None", "youtube": "None", "website": "None", "summary": "None", "logo": "None", "latitude": 47.3576028903573, "longitude": -70.06470657120998}, "118921873RR0001": {"name": "FONDATION DE RECHERCHE EN ADMINISTRATION DE L UNIVERSITE DE SHERBROOKE F.R.A.U.S.", "designationCode": "A", "categoryCode": "23", "address": "2500 BOUL. DE L'UNIVERSITE", "city": "SHERBROOKE", "province": "QC", "country": "CA", "postalCode": "J1K2R1", "twitter": "None", "instagram": "None", "facebook": "None", "youtube": "None", "website": "None", "summary": "None", "logo": "None", "latitude": 45.381356656245536, "longitude": -71.93111333807403}, "118921881RR0001": {"name": "FONDATION DE RECHERCHE ET D'EDUCATION EN ORTHOPEDIE DE MONTREAL", "designationCode": "B", "categoryCode": "11", "address": "5400 GOUIN OUEST              LOCAL C-2095", "city": "MONTREAL", "province": "QC", "country": "CA", "postalCode": "H4J1C5", "twitter": "None", "instagram": "None", "facebook": "None", "youtube": "None", "website": "None", "summary": "None", "logo": "None", "latitude": 45.53401666106287, "longitude": -73.7161646987599}, "890690076RR0001": {"name": "FONDATION DE SAINT-DENYS-GARNEAU", "designationCode": "C", "categoryCode": "21", "address": "3535 AV BELMORE", "city": "MONTREAL", "province": "QC", "country": "CA", "postalCode": "H4B2B8", "twitter": "None", "instagram": "None", "facebook": "None", "youtube": "None", "website": "None", "summary": "None", "logo": "None", "latitude": 45.460173592850055, "longitude": -73.6397018284668}, "136480175RR0001": {"name": "FONDATION DE SANT\u00c9 DES COLLINES/ DES COLLINES HEALTH FOUNDATION", "designationCode": "A", "categoryCode": "03", "address": "1-101 CH. BURNSIDE", "city": "WAKEFIELD", "province": "QC", "country": "CA", "postalCode": "J0X3G0", "twitter": "None", "instagram": "None", "facebook": "None", "youtube": "None", "website": "None", "summary": "None", "logo": "None", "latitude": 45.6492053602631, "longitude": -75.93177047273309}, "101835635RR0001": {"name": "FONDATION DE SOUTIEN AUX ARTS DE LAVAL INC.", "designationCode": "C", "categoryCode": "22", "address": "CP 79003 CSP DES OISEAUX", "city": "LAVAL", "province": "QC", "country": "CA", "postalCode": "H7L5J1", "twitter": "None", "instagram": "None", "facebook": "None", "youtube": "None", "website": "None", "summary": "None", "logo": "None", "latitude": 45.59214953628656, "longitude": -73.77144707945317}, "893415786RR0001": {"name": "FONDATION DE TECHNOLOGIE LAITIERE DU QUEBEC INC.", "designationCode": "A", "categoryCode": "21", "address": "307-2035 AVENUE VICTORIA", "city": "SAINT-LAMBERT", "province": "QC", "country": "CA", "postalCode": "J4S1H1", "twitter": "None", "instagram": "None", "facebook": "None", "youtube": "None", "website": "None", "summary": "None", "logo": "None", "latitude": 45.47764961529822, "longitude": -73.47588204388573}, "141715516RR0001": {"name": "FONDATION DE THERAPIE EQUESTRE LES NOUVEAUX ECUYERS", "designationCode": "C", "categoryCode": "09", "address": "C.P. 1", "city": "BROMONT", "province": "QC", "country": "CA", "postalCode": "J2L1A9", "twitter": "None", "instagram": "None", "facebook": "None", "youtube": "None", "website": "None", "summary": "None", "logo": "None", "latitude": 45.34250120206009, "longitude": -72.6481801839971}, "863521886RR0001": {"name": "FONDATION DE ZOOTHERAPIE", "designationCode": "C", "categoryCode": "09", "address": "260 BOUL. LANGELIER", "city": "QUEBEC", "province": "QC", "country": "CA", "postalCode": "G1K5N1", "twitter": "None", "instagram": "None", "facebook": "None", "youtube": "None", "website": "None", "summary": "None", "logo": "None", "latitude": 46.8144777418778, "longitude": -71.23229006607409}, "130533094RR0001": {"name": "FONDATION DE-LA-SALLE", "designationCode": "C", "categoryCode": "09", "address": "270 RUE DE NORMANDIE", "city": "LONGUEUIL", "province": "QC", "country": "CA", "postalCode": "J4H3P2", "twitter": "None", "instagram": "None", "facebook": "None", "youtube": "None", "website": "None", "summary": "None", "logo": "None", "latitude": 45.542622039673496, "longitude": -73.50295892189378}, "121137293RR0001": {"name": "FONDATION DENIS PROVOST", "designationCode": "C", "categoryCode": "05", "address": "585 RUE L\u00c9ONARD", "city": "MONT-TREMBLANT", "province": "QC", "country": "CA", "postalCode": "J8E3H9", "twitter": "None", "instagram": "None", "facebook": "None", "youtube": "None", "website": "None", "summary": "None", "logo": "None", "latitude": 46.11591937745977, "longitude": -74.59577167603486}, "864440938RR0001": {"name": "FONDATION DENIS VINET", "designationCode": "C", "categoryCode": "09", "address": "190 RUE PRINCIPALE", "city": "STE-CLAIRE", "province": "QC", "country": "CA", "postalCode": "G0R2V0", "twitter": "None", "instagram": "None", "facebook": "None", "youtube": "None", "website": "None", "summary": "None", "logo": "None"}, "873426449RR0001": {"name": "FONDATION DENISE ET ROBERT GIBELLEAU", "designationCode": "B", "categoryCode": "03", "address": "1029 RUE DES ESCOUMINS BUR.110", "city": "TERREBONNE", "province": "QC", "country": "CA", "postalCode": "J6W5H2", "twitter": "None", "instagram": "None", "facebook": "None", "youtube": "None", "website": "None", "summary": "None", "logo": "None", "latitude": 45.71167950458764, "longitude": -73.63832649676868}, "120819529RR0001": {"name": "FONDATION DENISE SAINT-PIERRE", "designationCode": "B", "categoryCode": "45", "address": "1073, BOUL. REN\u00c9-L\u00c9VESQUE O.", "city": "QU\u00c9BEC", "province": "QC", "country": "CA", "postalCode": "G1S4R5", "twitter": "None", "instagram": "None", "facebook": "None", "youtube": "None", "website": "None", "summary": "None", "logo": "None", "latitude": 46.79480836547074, "longitude": -71.24324980090242}, "890866841RR0001": {"name": "FONDATION DENTAIRE EN ONCOLOGIE DE QUEBEC", "designationCode": "C", "categoryCode": "11", "address": "25, RUE CHARLEVOIX", "city": "QUEBEC", "province": "QC", "country": "CA", "postalCode": "G1R2J6", "twitter": "None", "instagram": "None", "facebook": "None", "youtube": "None", "website": "None", "summary": "None", "logo": "None", "latitude": 46.81532468552723, "longitude": -71.20923801373424}, "118921907RR0001": {"name": "FONDATION DERY MARCOUX", "designationCode": "B", "categoryCode": "53", "address": "1, BOULEVARD NOTRE-DAME", "city": "PONT-ROUGE", "province": "QC", "country": "CA", "postalCode": "G3H3K4", "twitter": "None", "instagram": "None", "facebook": "None", "youtube": "None", "website": "None", "summary": "None", "logo": "None", "latitude": 46.75633977352988, "longitude": -71.69962296430857}, "884868613RR0001": {"name": "FONDATION DES \u00c9COLES PRIMAIRES \u00ceLES-DES-SOEURS", "designationCode": "A", "categoryCode": "23", "address": "530, RUE DE GASPE", "city": "VERDUN", "province": "QC", "country": "CA", "postalCode": "H3E1E7", "twitter": "None", "instagram": "None", "facebook": "None", "youtube": "None", "website": "None", "summary": "None", "logo": "None", "latitude": 45.45657234473986, "longitude": -73.54965328458104}, "141878967RR0001": {"name": "FONDATION DES \u00c9COLIERS MONT-BLEU", "designationCode": "C", "categoryCode": "21", "address": "45 RUE BOUCHER", "city": "GATINEAU", "province": "QC", "country": "CA", "postalCode": "J8Y6G2", "twitter": "None", "instagram": "None", "facebook": "None", "youtube": "None", "website": "None", "summary": "None", "logo": "None", "latitude": 45.45813271215898, "longitude": -75.75553279938221}, "888727278RR0001": {"name": "FONDATION DES \u00c9NFANTS DE L'ECOLE JEAN-PIAGET", "designationCode": "C", "categoryCode": "21", "address": "3150 BOUL. DAGENASI OUEST", "city": "LAVAL", "province": "QC", "country": "CA", "postalCode": "H7P1V1", "twitter": "None", "instagram": "None", "facebook": "None", "youtube": "None", "website": "None", "summary": "None", "logo": "None", "latitude": 45.578824516735345, "longitude": -73.79583138634658}, "890931645RR0001": {"name": "FONDATION DES AINES DU BASSIN DE CHAMBLY", "designationCode": "C", "categoryCode": "09", "address": "1390, RUE BOURGOYNE", "city": "CHAMBLY", "province": "QC", "country": "CA", "postalCode": "J3L1Y3", "twitter": "None", "instagram": "None", "facebook": "None", "youtube": "None", "website": "None", "summary": "None", "logo": "None", "latitude": 45.450831250591726, "longitude": -73.29623861134482}, "852026368RR0001": {"name": "FONDATION DES AMIS DE BELLEFEUILLE", "designationCode": "C", "categoryCode": "09", "address": "70 RUE DE LA PLAGE", "city": "PABOS-MILLS", "province": "QC", "country": "CA", "postalCode": "G0C2J0", "twitter": "None", "instagram": "None", "facebook": "None", "youtube": "None", "website": "None", "summary": "None", "logo": "None", "latitude": 48.31576138903124, "longitude": -64.70044850914064}, "118921915RR0001": {"name": "FONDATION DES AMIS DE JACQUES CARTIER", "designationCode": "A", "categoryCode": "53", "address": "1195 RUE SHERBROOKE OUEST", "city": "MONTREAL", "province": "QC", "country": "CA", "postalCode": "H3A1H9", "twitter": "None", "instagram": "None", "facebook": "None", "youtube": "None", "website": "None", "summary": "None", "logo": "None", "latitude": 45.50071925258228, "longitude": -73.57773646367339}}