{"815204714RR0001": {"name": "Global Freedom Foundation", "designationCode": "B", "categoryCode": "03", "address": "27372 GLOUCESTER WAY", "city": "LANGLEY", "province": "BC", "country": "CA", "postalCode": "V4W4A1", "twitter": "None", "instagram": "None", "facebook": "None", "youtube": "None", "website": "None", "summary": "None", "logo": "None", "latitude": 49.09768476004187, "longitude": -122.46754814418334}, "811073337RR0001": {"name": "Global Friends Foundation", "designationCode": "C", "categoryCode": "09", "address": "2511 SCOTCH PINE DRIVE", "city": "OAKVILLE", "province": "ON", "country": "CA", "postalCode": "L6M4C3", "twitter": "None", "instagram": "None", "facebook": "None", "youtube": "None", "website": "None", "summary": "None", "logo": "None", "latitude": 43.45398443104037, "longitude": -79.75423376172888}, "798552527RR0001": {"name": "Global Gates Network of Canada", "designationCode": "C", "categoryCode": "49", "address": "680 RAYNER COURT", "city": "MILTON", "province": "ON", "country": "CA", "postalCode": "L9T0N9", "twitter": "None", "instagram": "None", "facebook": "None", "youtube": "None", "website": "None", "summary": "None", "logo": "None", "latitude": 43.489828478475495, "longitude": -79.87691664767142}, "850178484RR0001": {"name": "Global Give Society", "designationCode": "A", "categoryCode": "03", "address": "#203 - 1001 AUSTIN AVENUE", "city": "COQUITLAM", "province": "BC", "country": "CA", "postalCode": "V3K3N9", "twitter": "None", "instagram": "None", "facebook": "None", "youtube": "None", "website": "None", "summary": "None", "logo": "None", "latitude": 49.249019460470755, "longitude": -122.86722166763806}, "824115778RR0001": {"name": "Global Good News Initiative (GGNI)", "designationCode": "C", "categoryCode": "47", "address": "6140 CREEK CROSSING STREET", "city": "ORLEANS", "province": "ON", "country": "CA", "postalCode": "K1W1E2", "twitter": "None", "instagram": "None", "facebook": "None", "youtube": "None", "website": "None", "summary": "None", "logo": "None", "latitude": 45.438225067978685, "longitude": -75.52319551497497}, "823344502RR0001": {"name": "Global Hospital & Educational Charitable Society (British Columbia)", "designationCode": "C", "categoryCode": "10", "address": "12182 - 63A AVENUE", "city": "SURREY", "province": "BC", "country": "CA", "postalCode": "V3X3G6", "twitter": "None", "instagram": "None", "facebook": "None", "youtube": "None", "website": "None", "summary": "None", "logo": "None", "latitude": 49.118316348764274, "longitude": -122.88484962835143}, "850716515RR0001": {"name": "Global Kindness Foundation", "designationCode": "C", "categoryCode": "11", "address": "4551 SMITH CRES", "city": "RICHMOND", "province": "BC", "country": "CA", "postalCode": "V6V1S5", "twitter": "None", "instagram": "None", "facebook": "None", "youtube": "None", "website": "None", "summary": "None", "logo": "None", "latitude": 49.179267102489725, "longitude": -122.96450152804496}, "753561323RR0001": {"name": "Global Korean Community Church", "designationCode": "C", "categoryCode": "39", "address": "17 CHIMES LANE", "city": "ETOBICOKE", "province": "ON", "country": "CA", "postalCode": "M8Y4H8", "twitter": "None", "instagram": "None", "facebook": "None", "youtube": "None", "website": "None", "summary": "None", "logo": "None", "latitude": 43.626108247850425, "longitude": -79.49153992907847}, "810983163RR0001": {"name": "Global Message of Hope Mission International, Ministry of Calgary", "designationCode": "C", "categoryCode": "39", "address": "75 ROCKYWOOD CIR NW", "city": "CALGARY", "province": "AB", "country": "CA", "postalCode": "T3G5W2", "twitter": "None", "instagram": "None", "facebook": "None", "youtube": "None", "website": "None", "summary": "None", "logo": "None", "latitude": 51.15354452928612, "longitude": -114.24706141326678}, "857574115RR0001": {"name": "Global Partners in Christian Education Society", "designationCode": "C", "categoryCode": "21", "address": "8930 162 ST", "city": "SURREY", "province": "BC", "country": "CA", "postalCode": "V4N3G1", "twitter": "None", "instagram": "None", "facebook": "None", "youtube": "None", "website": "None", "summary": "None", "logo": "None", "latitude": 49.16487599999999, "longitude": -122.77316901330155}, "813175957RR0001": {"name": "Global PartnerLink Society", "designationCode": "C", "categoryCode": "47", "address": "233-1935 32ND AVENUE NE", "city": "CALGARY", "province": "AB", "country": "CA", "postalCode": "T2E7C8", "twitter": "None", "instagram": "None", "facebook": "None", "youtube": "None", "website": "None", "summary": "None", "logo": "None", "latitude": 51.08138453231591, "longitude": -114.01310152553522}, "819167321RR0001": {"name": "Global Peace Centre Canada", "designationCode": "C", "categoryCode": "20", "address": "140 WESTMOUNT ROAD NORTH", "city": "WATERLOO", "province": "ON", "country": "CA", "postalCode": "N2L3G6", "twitter": "None", "instagram": "None", "facebook": "None", "youtube": "None", "website": "None", "summary": "None", "logo": "None", "latitude": 43.465611731757114, "longitude": -80.54457678428436}, "853942993RR0001": {"name": "Global Peace Initiative", "designationCode": "C", "categoryCode": "09", "address": "35 KINGSWAY CRES", "city": "TORONTO", "province": "ON", "country": "CA", "postalCode": "M8X2P9", "twitter": "None", "instagram": "None", "facebook": "None", "youtube": "None", "website": "None", "summary": "None", "logo": "None", "latitude": 43.65606516180969, "longitude": -79.504815032143}, "802703744RR0001": {"name": "Global Peace Network", "designationCode": "C", "categoryCode": "09", "address": "210-2255 WEST 5TH AVENUE", "city": "VANCOUVER", "province": "BC", "country": "CA", "postalCode": "V6K4K1", "twitter": "None", "instagram": "None", "facebook": "None", "youtube": "None", "website": "None", "summary": "None", "logo": "None", "latitude": 49.267361460470745, "longitude": -123.15686358090484}, "821946506RR0001": {"name": "Global Pediatric Endocrinology and Diabetes Association", "designationCode": "C", "categoryCode": "11", "address": "334 - 3381 CAMBIE ST", "city": "VANCOUVER", "province": "BC", "country": "CA", "postalCode": "V5Z4R3", "twitter": "None", "instagram": "None", "facebook": "None", "youtube": "None", "website": "None", "summary": "None", "logo": "None", "latitude": 49.25517378573488, "longitude": -123.1151819905936}, "835472028RR0001": {"name": "Global Pets & Animals Foundation / La fondation pour animauxGlobal", "designationCode": "A", "categoryCode": "03", "address": "294 WALKER DR", "city": "BRAMPTON", "province": "ON", "country": "CA", "postalCode": "L6T4Z2", "twitter": "None", "instagram": "None", "facebook": "None", "youtube": "None", "website": "None", "summary": "None", "logo": "None", "latitude": 43.7390057593343, "longitude": -79.6974212507073}, "822978540RR0001": {"name": "Global Revival Ministries", "designationCode": "C", "categoryCode": "39", "address": "62 - 2300 FINCH AVE W", "city": "NORTH YORK", "province": "ON", "country": "CA", "postalCode": "M9M2Y3", "twitter": "None", "instagram": "None", "facebook": "None", "youtube": "None", "website": "None", "summary": "None", "logo": "None", "latitude": 43.752311999999996, "longitude": -79.54081199999999}, "849474093RR0001": {"name": "Global River Basin Ministries", "designationCode": "C", "categoryCode": "49", "address": "9-29 FOUR WINDS DRIVE", "city": "TORONTO", "province": "ON", "country": "CA", "postalCode": "M3J1K7", "twitter": "None", "instagram": "None", "facebook": "None", "youtube": "None", "website": "None", "summary": "None", "logo": "None", "latitude": 43.76431287581592, "longitude": -79.49778795998073}, "899672364RR0001": {"name": "Global Scholars Canada", "designationCode": "C", "categoryCode": "47", "address": "1630 DANFORTH AVENUE2         PO BOX 72052", "city": "TORONTO", "province": "ON", "country": "CA", "postalCode": "M4C0A1", "twitter": "None", "instagram": "None", "facebook": "None", "youtube": "None", "website": "None", "summary": "None", "logo": "None", "latitude": 43.68370420180028, "longitude": -79.32211933847877}, "812167658RR0001": {"name": "Global Strides Charity", "designationCode": "C", "categoryCode": "09", "address": "14 BROADFIELD DR", "city": "ETOBICOKE", "province": "ON", "country": "CA", "postalCode": "M9C1L6", "twitter": "None", "instagram": "None", "facebook": "None", "youtube": "None", "website": "None", "summary": "None", "logo": "None", "latitude": 43.627749819608646, "longitude": -79.57567403078669}, "845513423RR0001": {"name": "Global View Foundation", "designationCode": "A", "categoryCode": "03", "address": "1250 - 1500 WEST GEORGIA ST.  BOX 62", "city": "VANCOUVER", "province": "BC", "country": "CA", "postalCode": "V6G2Z6", "twitter": "None", "instagram": "None", "facebook": "None", "youtube": "None", "website": "None", "summary": "None", "logo": "None", "latitude": 49.290187500000016, "longitude": -123.130035}, "819171133RR0001": {"name": "GlobalFire", "designationCode": "C", "categoryCode": "02", "address": "33 BELVIA RD", "city": "ETOBICOKE", "province": "ON", "country": "CA", "postalCode": "M8W3R2", "twitter": "None", "instagram": "None", "facebook": "None", "youtube": "None", "website": "None", "summary": "None", "logo": "None", "latitude": 43.6032897160828, "longitude": -79.52751889947523}, "868029406RR0001": {"name": "Globus Theatre Inc.", "designationCode": "C", "categoryCode": "22", "address": "2300 PIGEON LAKE RD", "city": "BOBCAYGEON", "province": "ON", "country": "CA", "postalCode": "K0M1A0", "twitter": "None", "instagram": "None", "facebook": "None", "youtube": "None", "website": "None", "summary": "None", "logo": "None", "latitude": 44.45008320488735, "longitude": -78.51333726976901}, "812926384RR0001": {"name": "Glorious and Free Foundation", "designationCode": "B", "categoryCode": "03", "address": "2602 - 2 BLOOR ST W", "city": "TORONTO", "province": "ON", "country": "CA", "postalCode": "M4W3E2", "twitter": "None", "instagram": "None", "facebook": "None", "youtube": "None", "website": "None", "summary": "None", "logo": "None", "latitude": 43.67018118347844, "longitude": -79.38709687122736}, "107406316RR0058": {"name": "Glorious Hope Community Church", "designationCode": "C", "categoryCode": "39", "address": "L178-1485 PORTAGE AVENUE      POST OFFICE BOX 33082", "city": "WINNIPEG", "province": "MB", "country": "CA", "postalCode": "R3G0W4", "twitter": "None", "instagram": "None", "facebook": "None", "youtube": "None", "website": "None", "summary": "None", "logo": "None", "latitude": 49.880997812268006, "longitude": -97.19821292599467}, "874977309RR0001": {"name": "Glorious Praise Ministries", "designationCode": "C", "categoryCode": "47", "address": "7050 BRAMALEA ROAD, UNIT 44-48", "city": "MISSISSAUGA", "province": "ON", "country": "CA", "postalCode": "L5S1S9", "twitter": "None", "instagram": "None", "facebook": "None", "youtube": "None", "website": "None", "summary": "None", "logo": "None", "latitude": 43.68526403713469, "longitude": -79.66421261734608}, "844153700RR0001": {"name": "Glory to Glory Ministries Society", "designationCode": "B", "categoryCode": "39", "address": "BOX 549, 6104 SELBY ROAD", "city": "TAYLOR", "province": "BC", "country": "CA", "postalCode": "V0C2K0", "twitter": "None", "instagram": "None", "facebook": "None", "youtube": "None", "website": "None", "summary": "None", "logo": "None", "latitude": 56.173724561917794, "longitude": -120.7159292358904}, "813278611RR0001": {"name": "Glory Church", "designationCode": "C", "categoryCode": "39", "address": "2695 FIRST AVENUE SOUTH", "city": "CRANBROOK", "province": "BC", "country": "CA", "postalCode": "V1C6Y3", "twitter": "None", "instagram": "None", "facebook": "None", "youtube": "None", "website": "None", "summary": "None", "logo": "None", "latitude": 49.483177335132844, "longitude": -115.78227332760048}, "815000187RR0001": {"name": "Glory Community Church", "designationCode": "C", "categoryCode": "39", "address": "5 FAIRLAWN CRT", "city": "ST CATHARINES", "province": "ON", "country": "CA", "postalCode": "L2M7K4", "twitter": "None", "instagram": "None", "facebook": "None", "youtube": "None", "website": "None", "summary": "None", "logo": "None", "latitude": 43.181976518754546, "longitude": -79.216884}, "849829619RR0001": {"name": "Glory Grace International Ministries", "designationCode": "C", "categoryCode": "01", "address": "28 BURTON RD", "city": "GUELPH", "province": "ON", "country": "CA", "postalCode": "N1H8A8", "twitter": "None", "instagram": "None", "facebook": "None", "youtube": "None", "website": "None", "summary": "None", "logo": "None", "latitude": 43.53289855897629, "longitude": -80.29555064019826}, "767611528RR0001": {"name": "Glory Holiness Church", "designationCode": "C", "categoryCode": "39", "address": "1151 NORTH RIVER RD", "city": "OTTAWA", "province": "ON", "country": "CA", "postalCode": "K1K3W5", "twitter": "None", "instagram": "None", "facebook": "None", "youtube": "None", "website": "None", "summary": "None", "logo": "None", "latitude": 45.42101777687677, "longitude": -75.66423796381855}, "805736535RR0001": {"name": "Glory House Center", "designationCode": "C", "categoryCode": "39", "address": "91 RETREAT BOULEVARD", "city": "WOODBRIDGE", "province": "ON", "country": "CA", "postalCode": "L4H0C2", "twitter": "None", "instagram": "None", "facebook": "None", "youtube": "None", "website": "None", "summary": "None", "logo": "None", "latitude": 43.84986981262644, "longitude": -79.55781605508116}, "849275227RR0001": {"name": "Glory House Ministries", "designationCode": "C", "categoryCode": "39", "address": "142 SOLEIL AVENUE", "city": "OTTAWA", "province": "ON", "country": "CA", "postalCode": "K4A0V8", "twitter": "None", "instagram": "None", "facebook": "None", "youtube": "None", "website": "None", "summary": "None", "logo": "None", "latitude": 45.4521783558197, "longitude": -75.45880249068051}, "119288918RR1574": {"name": "Gloucester Arabic Congregation of Jehovah's Witnesses, Ottawa, Ontario", "designationCode": "C", "categoryCode": "61", "address": "2803 QUINN ROAD", "city": "OTTAWA", "province": "ON", "country": "CA", "postalCode": "K1T3V4", "twitter": "None", "instagram": "None", "facebook": "None", "youtube": "None", "website": "None", "summary": "None", "logo": "None", "latitude": 45.317260411362206, "longitude": -75.62278178437856}, "837109032RR0001": {"name": "Go and Play Stable", "designationCode": "C", "categoryCode": "54", "address": "6046 COUNTY ROAD 50           RR 4", "city": "CAMPBELLFORD", "province": "ON", "country": "CA", "postalCode": "K0L1L0", "twitter": "None", "instagram": "None", "facebook": "None", "youtube": "None", "website": "None", "summary": "None", "logo": "None", "latitude": 44.315805838356766, "longitude": -77.79399629596702}, "848466298RR0001": {"name": "Go le grand d\u00e9fi inc.", "designationCode": "C", "categoryCode": "11", "address": "540 RUE D'AVAUGOUR            BUREAU 1300", "city": "BOUCHERVILLE", "province": "QC", "country": "CA", "postalCode": "J4B0G6", "twitter": "None", "instagram": "None", "facebook": "None", "youtube": "None", "website": "None", "summary": "None", "logo": "None", "latitude": 45.588184232269846, "longitude": -73.42950642861713}, "836674838RR0001": {"name": "Gobind Marg Charitable Trust Foundation", "designationCode": "C", "categoryCode": "62", "address": "53 SADDLECREST PK NE", "city": "CALGARY", "province": "AB", "country": "CA", "postalCode": "T3J5L4", "twitter": "None", "instagram": "None", "facebook": "None", "youtube": "None", "website": "None", "summary": "None", "logo": "None", "latitude": 51.135516502914186, "longitude": -113.9413947685382}, "842550592RR0001": {"name": "God is Able ... Tabernacle (Camrose)", "designationCode": "C", "categoryCode": "39", "address": "3102 61A ST", "city": "CAMROSE", "province": "AB", "country": "CA", "postalCode": "T4V4R7", "twitter": "None", "instagram": "None", "facebook": "None", "youtube": "None", "website": "None", "summary": "None", "logo": "None", "latitude": 52.997625251457094, "longitude": -112.84696562813745}, "824190110RR0001": {"name": "God is Alive Christian Ministries", "designationCode": "C", "categoryCode": "39", "address": "1905 - 3275 SHEPPARD AVE E", "city": "SCARBOROUGH", "province": "ON", "country": "CA", "postalCode": "M1T3P1", "twitter": "None", "instagram": "None", "facebook": "None", "youtube": "None", "website": "None", "summary": "None", "logo": "None", "latitude": 43.77925288861409, "longitude": -79.3057941016905}, "806340139RR0001": {"name": "God of All Grace Church of Calgary", "designationCode": "C", "categoryCode": "39", "address": "507 EVERMEADOW ROAD SOUTHWEST", "city": "CALGARY", "province": "AB", "country": "CA", "postalCode": "T2Y4W4", "twitter": "None", "instagram": "None", "facebook": "None", "youtube": "None", "website": "None", "summary": "None", "logo": "None", "latitude": 50.912198538721206, "longitude": -114.12143045599869}, "847137593RR0001": {"name": "God the Almighty Charismatic Prayer Foundation International of Alberta", "designationCode": "C", "categoryCode": "47", "address": "PO BOX 53100                  RPO MARLBOROUGH", "city": "CALGARY", "province": "AB", "country": "CA", "postalCode": "T2A7L9", "twitter": "None", "instagram": "None", "facebook": "None", "youtube": "None", "website": "None", "summary": "None", "logo": "None", "latitude": 51.059556000000015, "longitude": -113.96975741544264}, "825673437RR0001": {"name": "God Cares International Ltd.", "designationCode": "C", "categoryCode": "09", "address": "13208 - 95 STREET NORTHWEST", "city": "EDMONTON", "province": "AB", "country": "CA", "postalCode": "T5E3Y4", "twitter": "None", "instagram": "None", "facebook": "None", "youtube": "None", "website": "None", "summary": "None", "logo": "None", "latitude": 53.59245412101103, "longitude": -113.48786761994316}, "824120042RR0001": {"name": "God Evangelical Ministries", "designationCode": "C", "categoryCode": "39", "address": "PO BOX 72009                  RPO FINCHDALE MALL", "city": "TORONTO", "province": "ON", "country": "CA", "postalCode": "M9M3A6", "twitter": "None", "instagram": "None", "facebook": "None", "youtube": "None", "website": "None", "summary": "None", "logo": "None", "latitude": 43.63124828905707, "longitude": -79.55082565427827}, "838347664RR0001": {"name": "God's Assembly Worship Centre Inc.", "designationCode": "B", "categoryCode": "39", "address": "7652 KITTRIDGE DRIVE", "city": "MISSISSAUGA", "province": "ON", "country": "CA", "postalCode": "L4T3J6", "twitter": "None", "instagram": "None", "facebook": "None", "youtube": "None", "website": "None", "summary": "None", "logo": "None", "latitude": 43.72574191589251, "longitude": -79.64959793770547}, "826971350RR0001": {"name": "God's City of Deliverance", "designationCode": "C", "categoryCode": "39", "address": "1926 COLORADO LANE,", "city": "ORLEANS", "province": "ON", "country": "CA", "postalCode": "K1C6V3", "twitter": "None", "instagram": "None", "facebook": "None", "youtube": "None", "website": "None", "summary": "None", "logo": "None", "latitude": 45.45688886759201, "longitude": -75.50655687731555}, "838312601RR0001": {"name": "God's Dwelling Place Christian Ministries", "designationCode": "C", "categoryCode": "39", "address": "1 - 70 ADVANCE BLVD", "city": "BRAMPTON", "province": "ON", "country": "CA", "postalCode": "L6T4S7", "twitter": "None", "instagram": "None", "facebook": "None", "youtube": "None", "website": "None", "summary": "None", "logo": "None", "latitude": 43.69702720148317, "longitude": -79.69520325841064}, "890848542RR0001": {"name": "God's Garden", "designationCode": "C", "categoryCode": "36", "address": "PO BOX 48041", "city": "VICTORIA", "province": "BC", "country": "CA", "postalCode": "V8X2M6", "twitter": "None", "instagram": "None", "facebook": "None", "youtube": "None", "website": "None", "summary": "None", "logo": "None", "latitude": 48.47793900000005, "longitude": -123.38163799999992}, "836098822RR0001": {"name": "God's Gift Ministry Society", "designationCode": "B", "categoryCode": "39", "address": "9822 134TH STREET", "city": "SURREY", "province": "BC", "country": "CA", "postalCode": "V3T1B9", "twitter": "None", "instagram": "None", "facebook": "None", "youtube": "None", "website": "None", "summary": "None", "logo": "None", "latitude": 49.180824670552255, "longitude": -122.85130850608819}, "800827883RR0001": {"name": "God's Kingdom Gospel Church", "designationCode": "C", "categoryCode": "39", "address": "21 ED QUIGG WAY", "city": "WOODBRIDGE", "province": "ON", "country": "CA", "postalCode": "L4H2S2", "twitter": "None", "instagram": "None", "facebook": "None", "youtube": "None", "website": "None", "summary": "None", "logo": "None", "latitude": 43.818522757429704, "longitude": -79.6245405474351}, "832228647RR0001": {"name": "God's Light Christian Fellowship", "designationCode": "C", "categoryCode": "39", "address": "7667 145A STREET", "city": "SURREY", "province": "BC", "country": "CA", "postalCode": "V3S9C3", "twitter": "None", "instagram": "None", "facebook": "None", "youtube": "None", "website": "None", "summary": "None", "logo": "None", "latitude": 49.14221247016561, "longitude": -122.81994201056025}, "771942125RR0001": {"name": "God's Servants Healing Ministry", "designationCode": "C", "categoryCode": "39", "address": "77 MUSKOX DRIVE,", "city": "TORONTO", "province": "ON", "country": "CA", "postalCode": "M1B6E5", "twitter": "None", "instagram": "None", "facebook": "None", "youtube": "None", "website": "None", "summary": "None", "logo": "None", "latitude": 43.81106586620704, "longitude": -79.182669940591}, "803891258RR0001": {"name": "God's Solution Ministries", "designationCode": "C", "categoryCode": "39", "address": "78 COURTNEY CRESCENT", "city": "BARRIE", "province": "ON", "country": "CA", "postalCode": "L4N5S8", "twitter": "None", "instagram": "None", "facebook": "None", "youtube": "None", "website": "None", "summary": "None", "logo": "None", "latitude": 44.34589017236993, "longitude": -79.64165612989781}, "826801003RR0001": {"name": "Goderich and District Community Charitable Foundation", "designationCode": "C", "categoryCode": "52", "address": "94 ST PATRICK ST", "city": "GODERICH", "province": "ON", "country": "CA", "postalCode": "N7A2L6", "twitter": "None", "instagram": "None", "facebook": "None", "youtube": "None", "website": "None", "summary": "None", "logo": "None", "latitude": 43.743966525967906, "longitude": -81.71558999999999}, "835906231RR0001": {"name": "Goderich to Guelph Rail Trail Inc.", "designationCode": "C", "categoryCode": "56", "address": "36 - 620 DAVENPORT RD", "city": "WATERLOO", "province": "ON", "country": "CA", "postalCode": "N2V2C2", "twitter": "None", "instagram": "None", "facebook": "None", "youtube": "None", "website": "None", "summary": "None", "logo": "None", "latitude": 43.5039452317789, "longitude": -80.5288658586479}, "843311432RR0001": {"name": "Godly Generation Covenant Church", "designationCode": "C", "categoryCode": "39", "address": "16 PARKDALE AVE N", "city": "HAMILTON", "province": "ON", "country": "CA", "postalCode": "L8H5W8", "twitter": "None", "instagram": "None", "facebook": "None", "youtube": "None", "website": "None", "summary": "None", "logo": "None", "latitude": 43.23663984901036, "longitude": -79.7919191524902}, "804464576RR0001": {"name": "Gold Foundation for Humanistic Health Care, Canada", "designationCode": "A", "categoryCode": "03", "address": "900-3500 BOUL.DE MAISONNEUVE O", "city": "MONTR\u00c9AL", "province": "QC", "country": "CA", "postalCode": "H3Z3C1", "twitter": "None", "instagram": "None", "facebook": "None", "youtube": "None", "website": "None", "summary": "None", "logo": "None", "latitude": 45.49001400000001, "longitude": -73.58592825}, "820512242RR0001": {"name": "Gold Spring Charitable Trust", "designationCode": "B", "categoryCode": "45", "address": "3425 2ND AVENUE SOUTH", "city": "LETHBRIDGE", "province": "AB", "country": "CA", "postalCode": "T1J4V1", "twitter": "None", "instagram": "None", "facebook": "None", "youtube": "None", "website": "None", "summary": "None", "logo": "None", "latitude": 49.696839530439966, "longitude": -112.78914308381903}, "814797049RR0001": {"name": "Golden Age Village for the Elderly", "designationCode": "C", "categoryCode": "09", "address": "11088 PINE VALLEY DR", "city": "WOODBRIDGE", "province": "ON", "country": "CA", "postalCode": "L4L1A6", "twitter": "None", "instagram": "None", "facebook": "None", "youtube": "None", "website": "None", "summary": "None", "logo": "None", "latitude": 43.86666571325608, "longitude": -79.59260603130008}, "129634275RR0001": {"name": "Golden Ears United Church", "designationCode": "C", "categoryCode": "44", "address": "22165 DEWDNEY TRUNK RD", "city": "MAPLE RIDGE", "province": "BC", "country": "CA", "postalCode": "V2X3H7", "twitter": "None", "instagram": "None", "facebook": "None", "youtube": "None", "website": "None", "summary": "None", "logo": "None", "latitude": 49.22052145715253, "longitude": -122.60782405886073}, "817521552RR0001": {"name": "Golden Horseshoe Children of Chernobyl", "designationCode": "C", "categoryCode": "09", "address": "15 POLO COURT,", "city": "ANCASTER", "province": "ON", "country": "CA", "postalCode": "L9K1H8", "twitter": "None", "instagram": "None", "facebook": "None", "youtube": "None", "website": "None", "summary": "None", "logo": "None", "latitude": 43.22208998112989, "longitude": -79.94813537520942}, "835804253RR0001": {"name": "Golden Horseshoe Museum of Natural Science and History", "designationCode": "C", "categoryCode": "49", "address": "4 BOTANY HILL ROAD", "city": "SCARBOROUGH", "province": "ON", "country": "CA", "postalCode": "M1G3K2", "twitter": "None", "instagram": "None", "facebook": "None", "youtube": "None", "website": "None", "summary": "None", "logo": "None", "latitude": 43.77214112519463, "longitude": -79.2085674805816}, "825973431RR0001": {"name": "Golden Rain Ministries", "designationCode": "C", "categoryCode": "39", "address": "802 - 790 MOHAWK RD W", "city": "HAMILTON", "province": "ON", "country": "CA", "postalCode": "L9C6C6", "twitter": "None", "instagram": "None", "facebook": "None", "youtube": "None", "website": "None", "summary": "None", "logo": "None", "latitude": 43.231981045221055, "longitude": -79.90522596027786}, "107438921RR0001": {"name": "Golden Sikh Cultural Society", "designationCode": "C", "categoryCode": "62", "address": "POST OFFICE BOX 1125          603 13TH STREET", "city": "GOLDEN", "province": "BC", "country": "CA", "postalCode": "V0A1H0", "twitter": "None", "instagram": "None", "facebook": "None", "youtube": "None", "website": "None", "summary": "None", "logo": "None", "latitude": 51.292450333164325, "longitude": -116.97305396309442}, "815808720RR0001": {"name": "Golder Trust for Orphans Canada", "designationCode": "C", "categoryCode": "01", "address": "6925 CENTURY AVE", "city": "MISSISSAUGA", "province": "ON", "country": "CA", "postalCode": "L5N7K2", "twitter": "None", "instagram": "None", "facebook": "None", "youtube": "None", "website": "None", "summary": "None", "logo": "None", "latitude": 43.60195006416951, "longitude": -79.75026912949379}, "845924190RR0001": {"name": "Golok Parikar Canada Inc.", "designationCode": "C", "categoryCode": "48", "address": "29 BRIARWOOD ROAD", "city": "MARKHAM", "province": "ON", "country": "CA", "postalCode": "L3R2W7", "twitter": "None", "instagram": "None", "facebook": "None", "youtube": "None", "website": "None", "summary": "None", "logo": "None", "latitude": 43.87406990034062, "longitude": -79.33495412585845}, "813613767RR0001": {"name": "Gonzaga Middle School of Winnipeg Inc.", "designationCode": "C", "categoryCode": "20", "address": "2200 GRANT AVE", "city": "WINNIPEG", "province": "MB", "country": "CA", "postalCode": "R3P0P8", "twitter": "None", "instagram": "None", "facebook": "None", "youtube": "None", "website": "None", "summary": "None", "logo": "None", "latitude": 49.8575826621564, "longitude": -97.22658762173216}, "802337261RR0001": {"name": "Good Cents for Change Society", "designationCode": "C", "categoryCode": "09", "address": "328 MYLENE CRESCENT", "city": "LADYSMITH", "province": "BC", "country": "CA", "postalCode": "V9G1V1", "twitter": "None", "instagram": "None", "facebook": "None", "youtube": "None", "website": "None", "summary": "None", "logo": "None", "latitude": 48.97627727197201, "longitude": -123.80259139399261}, "768654725RR0001": {"name": "Good Community Korean Methodist Church", "designationCode": "C", "categoryCode": "39", "address": "2390 MCMILLAN RD", "city": "ABBOTSFORD", "province": "BC", "country": "CA", "postalCode": "V2S7R3", "twitter": "None", "instagram": "None", "facebook": "None", "youtube": "None", "website": "None", "summary": "None", "logo": "None", "latitude": 49.04517560199668, "longitude": -122.26017874802423}, "825692668RR0001": {"name": "Good Foot Support Services", "designationCode": "C", "categoryCode": "59", "address": "408 OAKWOOD DRIVE", "city": "BURLINGTON", "province": "ON", "country": "CA", "postalCode": "L7N1X2", "twitter": "None", "instagram": "None", "facebook": "None", "youtube": "None", "website": "None", "summary": "None", "logo": "None", "latitude": 43.34711376908648, "longitude": -79.7745676031505}, "817605025RR0001": {"name": "Good Friends Society of Canada", "designationCode": "C", "categoryCode": "01", "address": "402 - 4603 KINGSWAY", "city": "BURNABY", "province": "BC", "country": "CA", "postalCode": "V5H4M4", "twitter": "None", "instagram": "None", "facebook": "None", "youtube": "None", "website": "None", "summary": "None", "logo": "None", "latitude": 49.229330192500214, "longitude": -123.00192017828068}, "833418866RR0001": {"name": "Good Grief Resource Centre", "designationCode": "C", "categoryCode": "59", "address": "936 LORNE AVENUE", "city": "LONDON", "province": "ON", "country": "CA", "postalCode": "N5W3L1", "twitter": "None", "instagram": "None", "facebook": "None", "youtube": "None", "website": "None", "summary": "None", "logo": "None", "latitude": 42.99533986262903, "longitude": -81.22151038288412}, "849648894RR0001": {"name": "Good Hope Charitable Trust", "designationCode": "B", "categoryCode": "45", "address": "2500-201 PORTAGE AVENUE", "city": "WINNIPEG", "province": "MB", "country": "CA", "postalCode": "R3B3K6", "twitter": "None", "instagram": "None", "facebook": "None", "youtube": "None", "website": "None", "summary": "None", "logo": "None", "latitude": 49.895359615067065, "longitude": -97.13919299627776}, "859812224RR0001": {"name": "Good Mission Vancouver", "designationCode": "C", "categoryCode": "47", "address": "2378 WARRENTON AVE", "city": "COQUITLAM", "province": "BC", "country": "CA", "postalCode": "V3K3M5", "twitter": "None", "instagram": "None", "facebook": "None", "youtube": "None", "website": "None", "summary": "None", "logo": "None", "latitude": 49.24818247403208, "longitude": -122.828103}, "140831926RR0001": {"name": "Good Neighbours Active Living Centre Inc.", "designationCode": "C", "categoryCode": "09", "address": "720 HENDERSON HWY.", "city": "WINNIPEG", "province": "MB", "country": "CA", "postalCode": "R2K0Z5", "twitter": "None", "instagram": "None", "facebook": "None", "youtube": "None", "website": "None", "summary": "None", "logo": "None", "latitude": 49.92671285821429, "longitude": -97.1050148402382}, "809847288RR0001": {"name": "Good News for Everyday Living Ministries Inc.", "designationCode": "C", "categoryCode": "39", "address": "5229 CRANE CRES", "city": "REGINA", "province": "SK", "country": "CA", "postalCode": "S4W0J3", "twitter": "None", "instagram": "None", "facebook": "None", "youtube": "None", "website": "None", "summary": "None", "logo": "None", "latitude": 50.39788701935946, "longitude": -104.65563808382275}, "119097780RR0001": {"name": "Good News Baptist Church, Inc.", "designationCode": "C", "categoryCode": "31", "address": "120-1081 CENTRAL AVE N", "city": "SWIFT CURRENT", "province": "SK", "country": "CA", "postalCode": "S9H4Z2", "twitter": "None", "instagram": "None", "facebook": "None", "youtube": "None", "website": "None", "summary": "None", "logo": "None", "latitude": 50.30050071416355, "longitude": -107.7962660470305}, "827498734RR0001": {"name": "Good News Chapel Inc.", "designationCode": "C", "categoryCode": "39", "address": "PO BOX 4011 STN MAIN", "city": "REGINA", "province": "SK", "country": "CA", "postalCode": "S4P3R9", "twitter": "None", "instagram": "None", "facebook": "None", "youtube": "None", "website": "None", "summary": "None", "logo": "None", "latitude": 50.448246000000054, "longitude": -104.59517299999993}, "810003905RR0001": {"name": "Good News Christian Fellowship", "designationCode": "C", "categoryCode": "39", "address": "11316 130 AVE NW", "city": "EDMONTON", "province": "AB", "country": "CA", "postalCode": "T5E0T5", "twitter": "None", "instagram": "None", "facebook": "None", "youtube": "None", "website": "None", "summary": "None", "logo": "None"}, "812866689RR0001": {"name": "Good News Church of Cambridge Inc.", "designationCode": "C", "categoryCode": "39", "address": "215, SOUTH STREET", "city": "CAMBRIDGE", "province": "ON", "country": "CA", "postalCode": "N1R2P3", "twitter": "None", "instagram": "None", "facebook": "None", "youtube": "None", "website": "None", "summary": "None", "logo": "None", "latitude": 43.35326876545113, "longitude": -80.29627485039533}, "843198318RR0001": {"name": "Good News Community Church", "designationCode": "C", "categoryCode": "39", "address": "PO BOX 27006                  RPO DUNDAS MCLAREN", "city": "CAMBRIDGE", "province": "ON", "country": "CA", "postalCode": "N1R8H1", "twitter": "None", "instagram": "None", "facebook": "None", "youtube": "None", "website": "None", "summary": "None", "logo": "None", "latitude": 43.36032747117104, "longitude": -80.29288131122428}, "825933203RR0001": {"name": "Good News International Church", "designationCode": "C", "categoryCode": "39", "address": "276 EDDYSTONE AVE", "city": "TORONTO", "province": "ON", "country": "CA", "postalCode": "M3N1H7", "twitter": "None", "instagram": "None", "facebook": "None", "youtube": "None", "website": "None", "summary": "None", "logo": "None", "latitude": 43.747637132407974, "longitude": -79.52235706440064}, "800654857RR0001": {"name": "Good News Pentecostal Church in Canada", "designationCode": "C", "categoryCode": "49", "address": "3-644 PORTLAND STREET", "city": "DARTMOUTH", "province": "NS", "country": "CA", "postalCode": "B2W2M3", "twitter": "None", "instagram": "None", "facebook": "None", "youtube": "None", "website": "None", "summary": "None", "logo": "None", "latitude": 44.67172546054011, "longitude": -63.51816547889348}, "805950888RR0001": {"name": "Good Noise Vancouver Gospel Choir Society", "designationCode": "C", "categoryCode": "22", "address": "147-4255 ARBUTUS STREET       POST OFFICE BOX 62060", "city": "VANCOUVER", "province": "BC", "country": "CA", "postalCode": "V6J1Z1", "twitter": "None", "instagram": "None", "facebook": "None", "youtube": "None", "website": "None", "summary": "None", "logo": "None", "latitude": 49.2485300044434, "longitude": -123.15325246015269}, "824675623RR0001": {"name": "Good Samaritan Community Church", "designationCode": "C", "categoryCode": "31", "address": "RR#1", "city": "BARTON", "province": "NS", "country": "CA", "postalCode": "B0W1H0", "twitter": "None", "instagram": "None", "facebook": "None", "youtube": "None", "website": "None", "summary": "None", "logo": "None", "latitude": 44.54499000000004, "longitude": -65.86569999999995}, "848597456RR0001": {"name": "Good Shepherd Barrhaven", "designationCode": "C", "categoryCode": "39", "address": "3500 FALLOWFIELD RD           UNIT 5", "city": "NEPEAN", "province": "ON", "country": "CA", "postalCode": "K2J4A7", "twitter": "None", "instagram": "None", "facebook": "None", "youtube": "None", "website": "None", "summary": "None", "logo": "None", "latitude": 45.294010464279914, "longitude": -75.74254274738907}, "847643087RR0001": {"name": "Good Shepherd Gospel Church", "designationCode": "C", "categoryCode": "39", "address": "307-90 MORNELLE CRT", "city": "SCARBOROUGH", "province": "ON", "country": "CA", "postalCode": "M1E4P9", "twitter": "None", "instagram": "None", "facebook": "None", "youtube": "None", "website": "None", "summary": "None", "logo": "None", "latitude": 43.78763608716592, "longitude": -79.19547691915247}, "854392222RR0001": {"name": "Good Shepherd Lutheran Christian Day Care", "designationCode": "C", "categoryCode": "01", "address": "11 CONCESSION 3 NORTH         RURAL ROUTE #4", "city": "AMHERSTBURG", "province": "ON", "country": "CA", "postalCode": "N9V2Y9", "twitter": "None", "instagram": "None", "facebook": "None", "youtube": "None", "website": "None", "summary": "None", "logo": "None"}, "118941624RR0001": {"name": "Good Shepherd Lutheran Church of Regina", "designationCode": "C", "categoryCode": "32", "address": "3825 HILLSDALE STREET", "city": "REGINA", "province": "SK", "country": "CA", "postalCode": "S4S3Y5", "twitter": "None", "instagram": "None", "facebook": "None", "youtube": "None", "website": "None", "summary": "None", "logo": "None", "latitude": 50.41837791618096, "longitude": -104.6015184119687}, "107910176RR0042": {"name": "Good Shepherd Parish", "designationCode": "C", "categoryCode": "38", "address": "P.O. BOX 1363", "city": "ST JOHN'S", "province": "NL", "country": "CA", "postalCode": "A1C5N5", "twitter": "None", "instagram": "None", "facebook": "None", "youtube": "None", "website": "None", "summary": "None", "logo": "None", "latitude": 47.56082100000006, "longitude": -52.71219349999993}, "119109817RR0072": {"name": "Good Shepherd Parish", "designationCode": "C", "categoryCode": "38", "address": "PO BOX 400", "city": "EMERYVILLE", "province": "ON", "country": "CA", "postalCode": "N0R1C0", "twitter": "None", "instagram": "None", "facebook": "None", "youtube": "None", "website": "None", "summary": "None", "logo": "None", "latitude": 37.83717000000007, "longitude": -122.30174999999997}, "809328651RR0001": {"name": "Good Shepherd Prayer Ministry North York", "designationCode": "C", "categoryCode": "39", "address": "4-95 EDDYSTONE AVE.", "city": "NORTH YORK", "province": "ON", "country": "CA", "postalCode": "M3N1H6", "twitter": "None", "instagram": "None", "facebook": "None", "youtube": "None", "website": "None", "summary": "None", "logo": "None", "latitude": 43.7484758531653, "longitude": -79.5182938956374}, "892508169RR0001": {"name": "Good Shepherd Refuge Social Ministries", "designationCode": "C", "categoryCode": "01", "address": "412 QUEEN ST E", "city": "TORONTO", "province": "ON", "country": "CA", "postalCode": "M5A1T3", "twitter": "None", "instagram": "None", "facebook": "None", "youtube": "None", "website": "None", "summary": "None", "logo": "None", "latitude": 43.65606208912783, "longitude": -79.36251032696624}, "809707227RR0001": {"name": "Good Tree Church", "designationCode": "C", "categoryCode": "39", "address": "400 BURNHAMTHORPE ROAD", "city": "TORONTO", "province": "ON", "country": "CA", "postalCode": "M9B2A8", "twitter": "None", "instagram": "None", "facebook": "None", "youtube": "None", "website": "None", "summary": "None", "logo": "None", "latitude": 43.64706082705317, "longitude": -79.55640628238801}, "815221809RR0001": {"name": "Good Women Dance Society", "designationCode": "C", "categoryCode": "22", "address": "11205 107 AVE NW", "city": "EDMONTON", "province": "AB", "country": "CA", "postalCode": "T5H0Y2", "twitter": "None", "instagram": "None", "facebook": "None", "youtube": "None", "website": "None", "summary": "None", "logo": "None", "latitude": 53.55136649235394, "longitude": -113.51445219317328}, "827062720RR0001": {"name": "Goodhearts Transplant Foundation", "designationCode": "C", "categoryCode": "11", "address": "468 SOUTHGATE CENTRE NW       PO BOX 76066", "city": "EDMONTON", "province": "AB", "country": "CA", "postalCode": "T6H5Y7", "twitter": "None", "instagram": "None", "facebook": "None", "youtube": "None", "website": "None", "summary": "None", "logo": "None", "latitude": 53.48413000000005, "longitude": -113.51408999999995}, "832362685RR0001": {"name": "Goodlands Heritage Church", "designationCode": "C", "categoryCode": "39", "address": "POST OFFICE BOX 15", "city": "GOODLANDS", "province": "MB", "country": "CA", "postalCode": "R0M0R0", "twitter": "None", "instagram": "None", "facebook": "None", "youtube": "None", "website": "None", "summary": "None", "logo": "None", "latitude": 49.094340000000045, "longitude": -100.60062999999997}, "812223337RR0001": {"name": "Goodness and Mercy Baptist Church", "designationCode": "C", "categoryCode": "39", "address": "1615 NORTH ROUTLEDGE PARK     #37", "city": "LONDON", "province": "ON", "country": "CA", "postalCode": "N6H5N5", "twitter": "None", "instagram": "None", "facebook": "None", "youtube": "None", "website": "None", "summary": "None", "logo": "None", "latitude": 42.99914292514759, "longitude": -81.3366568329852}, "857545123RR0001": {"name": "Goodnews Vancouver Church", "designationCode": "C", "categoryCode": "39", "address": "409 GOYER CRT", "city": "COQUITLAM", "province": "BC", "country": "CA", "postalCode": "V3K6A2", "twitter": "None", "instagram": "None", "facebook": "None", "youtube": "None", "website": "None", "summary": "None", "logo": "None", "latitude": 49.24544808494422, "longitude": -122.85437953883677}, "835687351RR0001": {"name": "Goodtree Christian Fellowship of Calgary", "designationCode": "C", "categoryCode": "31", "address": "1212 1ST STREET NW", "city": "CALGARY", "province": "AB", "country": "CA", "postalCode": "T2M2S3", "twitter": "None", "instagram": "None", "facebook": "None", "youtube": "None", "website": "None", "summary": "None", "logo": "None", "latitude": 51.06276941909516, "longitude": -114.06491977531887}, "119023810RR0002": {"name": "Goodwill Industries, Ontario Great Lakes", "designationCode": "C", "categoryCode": "09", "address": "255 HORTON ST E", "city": "LONDON", "province": "ON", "country": "CA", "postalCode": "N6B1L1", "twitter": "None", "instagram": "None", "facebook": "None", "youtube": "None", "website": "None", "summary": "None", "logo": "None", "latitude": 42.97989302743981, "longitude": -81.24370692587583}}