{"108148263RR0001": {"name": "UKRAINIAN ORTHODOX CHURCH OF CANADA", "designationCode": "C", "categoryCode": "39", "address": "9 ST JOHN'S AVE", "city": "WINNIPEG", "province": "MB", "country": "CA", "postalCode": "R2W1G8", "twitter": "None", "instagram": "None", "facebook": "None", "youtube": "None", "website": "None", "summary": "None", "logo": "None", "latitude": 49.920249990305145, "longitude": -97.12756598943976}, "865632640RR0001": {"name": "UKRAINIAN ORTHODOX CHURCH OF CANADA FOUNDATION", "designationCode": "A", "categoryCode": "03", "address": "9 ST. JOHN'S AVENUE", "city": "WINNIPEG", "province": "MB", "country": "CA", "postalCode": "R2W1G8", "twitter": "None", "instagram": "None", "facebook": "None", "youtube": "None", "website": "None", "summary": "None", "logo": "None", "latitude": 49.920249990305145, "longitude": -97.12756598943976}, "801714072RR0001": {"name": "UKRAINIAN ORTHODOX CHURCH OF HOLY ASCENSION, PRUTH", "designationCode": "C", "categoryCode": "39", "address": "PO BOX 103", "city": "HAIRY HILL", "province": "AB", "country": "CA", "postalCode": "T0B1S0", "twitter": "None", "instagram": "None", "facebook": "None", "youtube": "None", "website": "None", "summary": "None", "logo": "None", "latitude": 53.76470000000006, "longitude": -111.98247999999995}, "108148263RR0086": {"name": "UKRAINIAN ORTHODOX CHURCH OF HOLY GHOST, GOODEVE", "designationCode": "C", "categoryCode": "39", "address": "BOX 127", "city": "GOODEVE", "province": "SK", "country": "CA", "postalCode": "S0A1C0", "twitter": "None", "instagram": "None", "facebook": "None", "youtube": "None", "website": "None", "summary": "None", "logo": "None"}, "108148263RR0083": {"name": "UKRAINIAN ORTHODOX CHURCH OF HOLY GHOST, ITUNA", "designationCode": "C", "categoryCode": "39", "address": "BOX 255", "city": "ITUNA", "province": "SK", "country": "CA", "postalCode": "S0A1N0", "twitter": "None", "instagram": "None", "facebook": "None", "youtube": "None", "website": "None", "summary": "None", "logo": "None", "latitude": 51.17134000000004, "longitude": -103.49577999999997}, "108148263RR0013": {"name": "UKRAINIAN ORTHODOX CHURCH OF HOLY GHOST, PETLURA", "designationCode": "C", "categoryCode": "39", "address": "GENERAL DELIVERY", "city": "SHORTDALE", "province": "MB", "country": "CA", "postalCode": "R0L1W0", "twitter": "None", "instagram": "None", "facebook": "None", "youtube": "None", "website": "None", "summary": "None", "logo": "None", "latitude": 51.22524300000006, "longitude": -101.03517349999993}, "108148263RR0073": {"name": "UKRAINIAN ORTHODOX CHURCH OF HOLY GHOST, REGINA", "designationCode": "C", "categoryCode": "39", "address": "1920 TORONTO ST", "city": "REGINA", "province": "SK", "country": "CA", "postalCode": "S4P1M8", "twitter": "None", "instagram": "None", "facebook": "None", "youtube": "None", "website": "None", "summary": "None", "logo": "None", "latitude": 50.44863566472387, "longitude": -104.59920466348312}, "108148263RR0039": {"name": "UKRAINIAN ORTHODOX CHURCH OF HOLY TRANSFIGURATION, GRASSLAND", "designationCode": "C", "categoryCode": "39", "address": "BOX 24", "city": "GRASSLAND", "province": "AB", "country": "CA", "postalCode": "T0A1V0", "twitter": "None", "instagram": "None", "facebook": "None", "youtube": "None", "website": "None", "summary": "None", "logo": "None", "latitude": 54.82033000000007, "longitude": -112.68602999999996}, "108148263RR0112": {"name": "UKRAINIAN ORTHODOX CHURCH OF HOLY TRANSFIGURATION, MENZIE", "designationCode": "C", "categoryCode": "39", "address": "P.O. BOX 83", "city": "ELPHINSTONE", "province": "MB", "country": "CA", "postalCode": "R0J0N0", "twitter": "None", "instagram": "None", "facebook": "None", "youtube": "None", "website": "None", "summary": "None", "logo": "None", "latitude": 50.53263000000004, "longitude": -100.32305999999994}, "108148263RR0015": {"name": "UKRAINIAN ORTHODOX CHURCH OF HOLY TRANSFIGURATION, YORKTON", "designationCode": "C", "categoryCode": "39", "address": "89 BRADBROOKE DR.", "city": "YORKTON", "province": "SK", "country": "CA", "postalCode": "S3N2Y2", "twitter": "None", "instagram": "None", "facebook": "None", "youtube": "None", "website": "None", "summary": "None", "logo": "None", "latitude": 51.20694852844943, "longitude": -102.48602016870592}, "108148263RR0029": {"name": "UKRAINIAN ORTHODOX CHURCH OF HOLY TRINITY", "designationCode": "C", "categoryCode": "39", "address": "BOX 1394", "city": "PRINCE ALBERT", "province": "SK", "country": "CA", "postalCode": "S6V5S9", "twitter": "None", "instagram": "None", "facebook": "None", "youtube": "None", "website": "None", "summary": "None", "logo": "None", "latitude": 53.199456000000055, "longitude": -105.74863099999993}, "847168564RR0001": {"name": "UKRAINIAN ORTHODOX CHURCH OF HOLY TRINITY SHEHO, SASK. INC.", "designationCode": "C", "categoryCode": "39", "address": "PO BOX 229", "city": "SHEHO", "province": "SK", "country": "CA", "postalCode": "S0A3T0", "twitter": "None", "instagram": "None", "facebook": "None", "youtube": "None", "website": "None", "summary": "None", "logo": "None", "latitude": 51.58994202791057, "longitude": -103.21179149855433}, "108148263RR0074": {"name": "UKRAINIAN ORTHODOX CHURCH OF HOLY TRINITY, CANORA", "designationCode": "C", "categoryCode": "39", "address": "BOX 1389", "city": "CANORA", "province": "SK", "country": "CA", "postalCode": "S0A0L0", "twitter": "None", "instagram": "None", "facebook": "None", "youtube": "None", "website": "None", "summary": "None", "logo": "None", "latitude": 51.62535661313478, "longitude": -102.4443087080291}, "108148263RR0101": {"name": "UKRAINIAN ORTHODOX CHURCH OF HOLY TRINITY, LENNARD", "designationCode": "C", "categoryCode": "39", "address": "PO BOX 208", "city": "INGLIS", "province": "MB", "country": "CA", "postalCode": "R0J0X0", "twitter": "None", "instagram": "None", "facebook": "None", "youtube": "None", "website": "None", "summary": "None", "logo": "None", "latitude": 50.94838000000004, "longitude": -101.25137999999998}, "108148263RR0050": {"name": "UKRAINIAN ORTHODOX CHURCH OF HOLY TRINITY, LONDON", "designationCode": "C", "categoryCode": "39", "address": "151 KING EDWARD AVE.", "city": "LONDON", "province": "ON", "country": "CA", "postalCode": "N5Z3T5", "twitter": "None", "instagram": "None", "facebook": "None", "youtube": "None", "website": "None", "summary": "None", "logo": "None", "latitude": 42.968246626695176, "longitude": -81.21253930339292}, "108148263RR0071": {"name": "UKRAINIAN ORTHODOX CHURCH OF HOLY TRINITY, MYRNAM", "designationCode": "C", "categoryCode": "39", "address": "BOX 101", "city": "MYRNAM", "province": "AB", "country": "CA", "postalCode": "T0B3K0", "twitter": "None", "instagram": "None", "facebook": "None", "youtube": "None", "website": "None", "summary": "None", "logo": "None", "latitude": 53.66686000000004, "longitude": -111.23503999999997}, "108148263RR0063": {"name": "UKRAINIAN ORTHODOX CHURCH OF HOLY TRINITY, SARNIA", "designationCode": "C", "categoryCode": "39", "address": "1244 EXMOUTH ST.", "city": "SARNIA", "province": "ON", "country": "CA", "postalCode": "N7S1W6", "twitter": "None", "instagram": "None", "facebook": "None", "youtube": "None", "website": "None", "summary": "None", "logo": "None", "latitude": 42.98471874703949, "longitude": -82.36300810203923}, "108148263RR0070": {"name": "UKRAINIAN ORTHODOX CHURCH OF HOLY TRINITY, SPEDDEN", "designationCode": "C", "categoryCode": "39", "address": "PO BOX 98", "city": "SPEDDEN", "province": "AB", "country": "CA", "postalCode": "T0A3E0", "twitter": "None", "instagram": "None", "facebook": "None", "youtube": "None", "website": "None", "summary": "None", "logo": "None", "latitude": 54.136880000000076, "longitude": -111.72822999999994}, "108148263RR0028": {"name": "UKRAINIAN ORTHODOX CHURCH OF HOLY TRINITY, WELLAND", "designationCode": "C", "categoryCode": "39", "address": "105 FIRST ST.", "city": "WELLAND", "province": "ON", "country": "CA", "postalCode": "L3B4S1", "twitter": "None", "instagram": "None", "facebook": "None", "youtube": "None", "website": "None", "summary": "None", "logo": "None", "latitude": 42.98293952120739, "longitude": -79.24563080682671}, "119274504RR0001": {"name": "UKRAINIAN ORTHODOX CHURCH OF ST ANDREW THE APOSTLE", "designationCode": "C", "categoryCode": "39", "address": "1630 DUPONT ST", "city": "TORONTO", "province": "ON", "country": "CA", "postalCode": "M6P3S7", "twitter": "None", "instagram": "None", "facebook": "None", "youtube": "None", "website": "None", "summary": "None", "logo": "None", "latitude": 43.66495925618894, "longitude": -79.45510673342369}, "890900848RR0001": {"name": "UKRAINIAN ORTHODOX CHURCH OF ST MARY THE PROTECTRESS", "designationCode": "C", "categoryCode": "39", "address": "203-32638-7TH AVE", "city": "MISSION", "province": "BC", "country": "CA", "postalCode": "V2V4P9", "twitter": "None", "instagram": "None", "facebook": "None", "youtube": "None", "website": "None", "summary": "None", "logo": "None", "latitude": 49.1401376855526, "longitude": -122.32123753059476}, "887268191RR0001": {"name": "UKRAINIAN ORTHODOX CHURCH OF ST MARY, CASLAN-NORAL", "designationCode": "C", "categoryCode": "39", "address": "BOX 119", "city": "CASLAN", "province": "AB", "country": "CA", "postalCode": "T0A0R0", "twitter": "None", "instagram": "None", "facebook": "None", "youtube": "None", "website": "None", "summary": "None", "logo": "None", "latitude": 54.636293592697186, "longitude": -112.50567730014461}, "132427618RR0001": {"name": "UKRAINIAN ORTHODOX CHURCH OF ST VOLODYMYR", "designationCode": "C", "categoryCode": "39", "address": "190 BAKER STREET", "city": "SUDBURY", "province": "ON", "country": "CA", "postalCode": "P3C2G1", "twitter": "None", "instagram": "None", "facebook": "None", "youtube": "None", "website": "None", "summary": "None", "logo": "None", "latitude": 46.497763624516864, "longitude": -81.00266635732855}, "108148263RR0037": {"name": "UKRAINIAN ORTHODOX CHURCH OF ST. ANNE, TORONTO", "designationCode": "C", "categoryCode": "39", "address": "525 MORRISH RD.", "city": "WEST HILL", "province": "ON", "country": "CA", "postalCode": "M1C1G2", "twitter": "None", "instagram": "None", "facebook": "None", "youtube": "None", "website": "None", "summary": "None", "logo": "None", "latitude": 43.78244643298832, "longitude": -79.17029589507078}, "108008566RR0001": {"name": "UKRAINIAN ORTHODOX CHURCH OF ST. ANTHONY, EDMONTON", "designationCode": "C", "categoryCode": "39", "address": "6103 172 STREET", "city": "EDMONTON", "province": "AB", "country": "CA", "postalCode": "T6M1C1", "twitter": "None", "instagram": "None", "facebook": "None", "youtube": "None", "website": "None", "summary": "None", "logo": "None", "latitude": 53.49673928864908, "longitude": -113.62091645219044}, "131638454RR0001": {"name": "UKRAINIAN ORTHODOX CHURCH OF ST. DEMETRIUS", "designationCode": "C", "categoryCode": "39", "address": "3338 LAKESHORE BLVD WEST", "city": "ETOBICOKE", "province": "ON", "country": "CA", "postalCode": "M8W1M9", "twitter": "None", "instagram": "None", "facebook": "None", "youtube": "None", "website": "None", "summary": "None", "logo": "None", "latitude": 43.59627911408611, "longitude": -79.52570709714924}, "108148263RR0025": {"name": "UKRAINIAN ORTHODOX CHURCH OF ST. DEMETRIUS, CHILLIWACK", "designationCode": "C", "categoryCode": "39", "address": "8978 BROADWAY", "city": "CHILLIWACK", "province": "BC", "country": "CA", "postalCode": "V2P5W1", "twitter": "None", "instagram": "None", "facebook": "None", "youtube": "None", "website": "None", "summary": "None", "logo": "None", "latitude": 49.165449398758156, "longitude": -121.93515999804528}, "891331209RR0001": {"name": "UKRAINIAN ORTHODOX CHURCH OF ST. DEMETRIUS, CRAIGEND", "designationCode": "C", "categoryCode": "39", "address": "BOX 362", "city": "LAC LA BICHE", "province": "AB", "country": "CA", "postalCode": "T0A2C0", "twitter": "None", "instagram": "None", "facebook": "None", "youtube": "None", "website": "None", "summary": "None", "logo": "None", "latitude": 54.768200000000036, "longitude": -111.98244999999997}, "108148263RR0057": {"name": "UKRAINIAN ORTHODOX CHURCH OF ST. DEMETRIUS, VILNA", "designationCode": "C", "categoryCode": "39", "address": "PO BOX 5245 STN MAIN", "city": "BONNYVILLE", "province": "AB", "country": "CA", "postalCode": "T9N2G4", "twitter": "None", "instagram": "None", "facebook": "None", "youtube": "None", "website": "None", "summary": "None", "logo": "None", "latitude": 54.267945000000054, "longitude": -110.75332399999994}, "108148263RR0010": {"name": "UKRAINIAN ORTHODOX CHURCH OF ST. DMITRIUS IN STENEN", "designationCode": "C", "categoryCode": "39", "address": "BOX 70", "city": "STENEN", "province": "SK", "country": "CA", "postalCode": "S0A3X0", "twitter": "None", "instagram": "None", "facebook": "None", "youtube": "None", "website": "None", "summary": "None", "logo": "None", "latitude": 51.89998000000003, "longitude": -102.38423999999998}, "108148263RR0100": {"name": "UKRAINIAN ORTHODOX CHURCH OF ST. ELIAH, ROSSBURN", "designationCode": "C", "categoryCode": "39", "address": "PO BOX 391", "city": "ROSSBURN", "province": "MB", "country": "CA", "postalCode": "R0J1V0", "twitter": "None", "instagram": "None", "facebook": "None", "youtube": "None", "website": "None", "summary": "None", "logo": "None", "latitude": 50.66896200000005, "longitude": -100.81081249999994}, "108148263RR0051": {"name": "UKRAINIAN ORTHODOX CHURCH OF ST. ELIAS, EDMONTON", "designationCode": "C", "categoryCode": "39", "address": "11833-66 STREET NW", "city": "EDMONTON", "province": "AB", "country": "CA", "postalCode": "T5B1J2", "twitter": "None", "instagram": "None", "facebook": "None", "youtube": "None", "website": "None", "summary": "None", "logo": "None", "latitude": 53.571383999999995, "longitude": -113.44296726680744}, "108148263RR0059": {"name": "UKRAINIAN ORTHODOX CHURCH OF ST. ELIAS, SPIRIT RIVER", "designationCode": "C", "categoryCode": "39", "address": "BOX 702", "city": "SPIRIT RIVER", "province": "AB", "country": "CA", "postalCode": "T0H3G0", "twitter": "None", "instagram": "None", "facebook": "None", "youtube": "None", "website": "None", "summary": "None", "logo": "None", "latitude": 58.38582002553528, "longitude": -116.01813004501088}, "108148263RR0068": {"name": "UKRAINIAN ORTHODOX CHURCH OF ST. ELIAS, TOPORIWTZI-LUZAN", "designationCode": "C", "categoryCode": "39", "address": "BOX 13", "city": "TWO HILLS", "province": "AB", "country": "CA", "postalCode": "T0H0K0", "twitter": "None", "instagram": "None", "facebook": "None", "youtube": "None", "website": "None", "summary": "None", "logo": "None", "latitude": 55.79751219142917, "longitude": -117.67719502433668}, "108148263RR0060": {"name": "UKRAINIAN ORTHODOX CHURCH OF ST. GEORGE, DAUPHIN", "designationCode": "C", "categoryCode": "39", "address": "810 MAIN ST. SOUTH", "city": "DAUPHIN", "province": "MB", "country": "CA", "postalCode": "R7N1L9", "twitter": "None", "instagram": "None", "facebook": "None", "youtube": "None", "website": "None", "summary": "None", "logo": "None", "latitude": 51.143235593081215, "longitude": -100.05762042555871}, "108148263RR0031": {"name": "UKRAINIAN ORTHODOX CHURCH OF ST. GEORGE, FORT FRANCES", "designationCode": "C", "categoryCode": "39", "address": "242-6TH ST EAST", "city": "FORT FRANCES", "province": "ON", "country": "CA", "postalCode": "P9A1W7", "twitter": "None", "instagram": "None", "facebook": "None", "youtube": "None", "website": "None", "summary": "None", "logo": "None", "latitude": 48.61662266396449, "longitude": -93.39725011145313}, "108148263RR0056": {"name": "UKRAINIAN ORTHODOX CHURCH OF ST. GEORGE, GRIMSBY", "designationCode": "C", "categoryCode": "39", "address": "19 ONTARIO ST", "city": "GRIMSBY", "province": "ON", "country": "CA", "postalCode": "L3M3G8", "twitter": "None", "instagram": "None", "facebook": "None", "youtube": "None", "website": "None", "summary": "None", "logo": "None", "latitude": 43.19427493034789, "longitude": -79.55946492258626}, "108148263RR0030": {"name": "UKRAINIAN ORTHODOX CHURCH OF ST. GEORGE, ST. CATHARINES", "designationCode": "C", "categoryCode": "39", "address": "8 AUGUSTA AVENUE", "city": "ST CATHARINES", "province": "ON", "country": "CA", "postalCode": "L2M5R2", "twitter": "None", "instagram": "None", "facebook": "None", "youtube": "None", "website": "None", "summary": "None", "logo": "None", "latitude": 43.177015791563264, "longitude": -79.22420602510253}, "108148263RR0045": {"name": "UKRAINIAN ORTHODOX CHURCH OF ST. JOHN THE BAPTIST", "designationCode": "C", "categoryCode": "39", "address": "BOX 67", "city": "THEODORE", "province": "SK", "country": "CA", "postalCode": "S0A4C0", "twitter": "None", "instagram": "None", "facebook": "None", "youtube": "None", "website": "None", "summary": "None", "logo": "None", "latitude": 51.42383692488636, "longitude": -102.91737413770832}, "108148263RR0067": {"name": "UKRAINIAN ORTHODOX CHURCH OF ST. JOHN, OSHAWA", "designationCode": "C", "categoryCode": "39", "address": "31 BLOOR ST. E", "city": "OSHAWA", "province": "ON", "country": "CA", "postalCode": "L1H3L9", "twitter": "None", "instagram": "None", "facebook": "None", "youtube": "None", "website": "None", "summary": "None", "logo": "None", "latitude": 43.88067681262645, "longitude": -78.85459654884875}, "108148263RR0076": {"name": "UKRAINIAN ORTHODOX CHURCH OF ST. JOHN, PENO", "designationCode": "C", "categoryCode": "39", "address": "185028-HWY 45                 R.R. 1", "city": "ST. MICHAEL", "province": "AB", "country": "CA", "postalCode": "T0B4B0", "twitter": "None", "instagram": "None", "facebook": "None", "youtube": "None", "website": "None", "summary": "None", "logo": "None", "latitude": 53.831796000000054, "longitude": -112.62431149999993}, "108148263RR0019": {"name": "UKRAINIAN ORTHODOX CHURCH OF ST. JOHN, ROBLIN", "designationCode": "C", "categoryCode": "39", "address": "BOX 681", "city": "ROBLIN", "province": "MB", "country": "CA", "postalCode": "R0L1P0", "twitter": "None", "instagram": "None", "facebook": "None", "youtube": "None", "website": "None", "summary": "None", "logo": "None", "latitude": 51.22816000000006, "longitude": -101.35248999999999}, "108148263RR0002": {"name": "UKRAINIAN ORTHODOX CHURCH OF ST. JOHN, WEIRDALE", "designationCode": "C", "categoryCode": "39", "address": "5 BORROWMAN PL", "city": "PRINCE ALBERT", "province": "SK", "country": "CA", "postalCode": "S6X0B1", "twitter": "None", "instagram": "None", "facebook": "None", "youtube": "None", "website": "None", "summary": "None", "logo": "None", "latitude": 53.19253631180106, "longitude": -105.69828715752726}, "108148263RR0104": {"name": "UKRAINIAN ORTHODOX CHURCH OF ST. MARY (USPENSKA)", "designationCode": "C", "categoryCode": "39", "address": "BOX 2155", "city": "CANORA", "province": "SK", "country": "CA", "postalCode": "S0A0L0", "twitter": "None", "instagram": "None", "facebook": "None", "youtube": "None", "website": "None", "summary": "None", "logo": "None", "latitude": 51.62535661313478, "longitude": -102.4443087080291}, "108148263RR0048": {"name": "UKRAINIAN ORTHODOX CHURCH OF ST. MARY THE PROTECTRESS", "designationCode": "C", "categoryCode": "39", "address": "BOX 24", "city": "RORKETON", "province": "MB", "country": "CA", "postalCode": "R0L1R0", "twitter": "None", "instagram": "None", "facebook": "None", "youtube": "None", "website": "None", "summary": "None", "logo": "None", "latitude": 51.390840000000026, "longitude": -99.59604999999999}, "108148263RR0053": {"name": "UKRAINIAN ORTHODOX CHURCH OF ST. MARY, BORDEN", "designationCode": "C", "categoryCode": "39", "address": "BOX 131", "city": "BORDEN", "province": "SK", "country": "CA", "postalCode": "S0K0N0", "twitter": "None", "instagram": "None", "facebook": "None", "youtube": "None", "website": "None", "summary": "None", "logo": "None", "latitude": 52.37279920269652, "longitude": -107.14668130840676}, "108148263RR0098": {"name": "UKRAINIAN ORTHODOX CHURCH OF ST. MARY, EDMORE", "designationCode": "C", "categoryCode": "39", "address": "BOX 20", "city": "WEST BEND", "province": "SK", "country": "CA", "postalCode": "S0A4M0", "twitter": "None", "instagram": "None", "facebook": "None", "youtube": "None", "website": "None", "summary": "None", "logo": "None", "latitude": 51.560826312525215, "longitude": -101.89478249999999}, "108148263RR0043": {"name": "UKRAINIAN ORTHODOX CHURCH OF ST. MARY, MEACHAM", "designationCode": "C", "categoryCode": "39", "address": "MEYERS NORRIS PENNY           800-119 4TH AVE. SOUTH", "city": "SASKATOON", "province": "SK", "country": "CA", "postalCode": "S7K5X2", "twitter": "None", "instagram": "None", "facebook": "None", "youtube": "None", "website": "None", "summary": "None", "logo": "None", "latitude": 52.12717188426912, "longitude": -106.66091634725001}, "108148263RR0093": {"name": "UKRAINIAN ORTHODOX CHURCH OF ST. MARY, OSHAWA", "designationCode": "C", "categoryCode": "39", "address": "34 TAUNTON RD W.", "city": "OSHAWA", "province": "ON", "country": "CA", "postalCode": "L1G3T2", "twitter": "None", "instagram": "None", "facebook": "None", "youtube": "None", "website": "None", "summary": "None", "logo": "None", "latitude": 43.9327141690517, "longitude": -78.88002953165206}, "108148263RR0032": {"name": "UKRAINIAN ORTHODOX CHURCH OF ST. MARY, OTTAWA", "designationCode": "C", "categoryCode": "39", "address": "1000 BYRON AVE.", "city": "OTTAWA", "province": "ON", "country": "CA", "postalCode": "K2A0J3", "twitter": "None", "instagram": "None", "facebook": "None", "youtube": "None", "website": "None", "summary": "None", "logo": "None", "latitude": 45.37917871937235, "longitude": -75.77281024057973}, "108148263RR0026": {"name": "UKRAINIAN ORTHODOX CHURCH OF ST. MARY, SICH-KOLOMEA", "designationCode": "C", "categoryCode": "39", "address": "157 52318 RANGE ROAD 213", "city": "SHERWOOD PARK", "province": "AB", "country": "CA", "postalCode": "T8G1C3", "twitter": "None", "instagram": "None", "facebook": "None", "youtube": "None", "website": "None", "summary": "None", "logo": "None", "latitude": 53.50312351211813, "longitude": -113.03955153332551}, "108148263RR0090": {"name": "UKRAINIAN ORTHODOX CHURCH OF ST. MARY, SURREY", "designationCode": "C", "categoryCode": "39", "address": "PO BOX 163 STN MAIN", "city": "SURREY", "province": "BC", "country": "CA", "postalCode": "V3T4W8", "twitter": "None", "instagram": "None", "facebook": "None", "youtube": "None", "website": "None", "summary": "None", "logo": "None", "latitude": 49.19164800000006, "longitude": -122.85002149999994}, "108148263RR0091": {"name": "UKRAINIAN ORTHODOX CHURCH OF ST. MARY, THEODORE", "designationCode": "C", "categoryCode": "39", "address": "BOX 456", "city": "THEODORE", "province": "SK", "country": "CA", "postalCode": "S0A4C0", "twitter": "None", "instagram": "None", "facebook": "None", "youtube": "None", "website": "None", "summary": "None", "logo": "None", "latitude": 51.42383692488636, "longitude": -102.91737413770832}, "108148263RR0103": {"name": "UKRAINIAN ORTHODOX CHURCH OF ST. MICHAEL", "designationCode": "C", "categoryCode": "39", "address": "PO BOX 836", "city": "INDIAN HEAD", "province": "SK", "country": "CA", "postalCode": "S0G2K0", "twitter": "None", "instagram": "None", "facebook": "None", "youtube": "None", "website": "None", "summary": "None", "logo": "None", "latitude": 50.52675000000005, "longitude": -103.66901999999999}, "108148263RR0135": {"name": "UKRAINIAN ORTHODOX CHURCH OF ST. MICHAEL", "designationCode": "C", "categoryCode": "39", "address": "110 DISRAELI STREET", "city": "WINNIPEG", "province": "MB", "country": "CA", "postalCode": "R2W3J5", "twitter": "None", "instagram": "None", "facebook": "None", "youtube": "None", "website": "None", "summary": "None", "logo": "None", "latitude": 49.90609217594796, "longitude": -97.1253177034164}, "108148263RR0139": {"name": "UKRAINIAN ORTHODOX CHURCH OF ST. MICHAEL", "designationCode": "C", "categoryCode": "39", "address": "721 SIMCOE ROAD", "city": "BRADFORD", "province": "ON", "country": "CA", "postalCode": "L3Z2A6", "twitter": "None", "instagram": "None", "facebook": "None", "youtube": "None", "website": "None", "summary": "None", "logo": "None", "latitude": 44.091985662861354, "longitude": -79.56698879815474}, "108148263RR0106": {"name": "UKRAINIAN ORTHODOX CHURCH OF ST. MICHAEL, GARDENTON", "designationCode": "C", "categoryCode": "39", "address": "35 MAIN STREET                POST OFFICE BOX 20", "city": "GARDENTON", "province": "MB", "country": "CA", "postalCode": "R0A0M0", "twitter": "None", "instagram": "None", "facebook": "None", "youtube": "None", "website": "None", "summary": "None", "logo": "None", "latitude": 49.50392075702937, "longitude": -96.87217828312953}, "108148263RR0087": {"name": "UKRAINIAN ORTHODOX CHURCH OF ST. MICHAEL, LEPINE", "designationCode": "C", "categoryCode": "39", "address": "BOX 16", "city": "WAKAW", "province": "SK", "country": "CA", "postalCode": "S0K4P0", "twitter": "None", "instagram": "None", "facebook": "None", "youtube": "None", "website": "None", "summary": "None", "logo": "None", "latitude": 52.65295000000003, "longitude": -105.74270999999999}, "108148263RR0061": {"name": "UKRAINIAN ORTHODOX CHURCH OF ST. NICHOLAS, GONOR", "designationCode": "C", "categoryCode": "39", "address": "BOX 19 GR326, RR3", "city": "SELKIRK", "province": "MB", "country": "CA", "postalCode": "R1A2A8", "twitter": "None", "instagram": "None", "facebook": "None", "youtube": "None", "website": "None", "summary": "None", "logo": "None", "latitude": 50.14571100000006, "longitude": -96.87391999999993}, "108148263RR0109": {"name": "UKRAINIAN ORTHODOX CHURCH OF ST. NICHOLAS, HUDSON BAY", "designationCode": "C", "categoryCode": "39", "address": "BOX 431", "city": "HUDSON BAY", "province": "SK", "country": "CA", "postalCode": "S0E0Y0", "twitter": "None", "instagram": "None", "facebook": "None", "youtube": "None", "website": "None", "summary": "None", "logo": "None", "latitude": 52.862685000000056, "longitude": -102.38924149999994}, "108148263RR0108": {"name": "UKRAINIAN ORTHODOX CHURCH OF ST. NICHOLAS, PORTAGE LA PRAIRIE", "designationCode": "C", "categoryCode": "39", "address": "43 BROOKSIDE CRESCENT", "city": "PORTAGE LA PRAIRIE", "province": "MB", "country": "CA", "postalCode": "R1N3W8", "twitter": "None", "instagram": "None", "facebook": "None", "youtube": "None", "website": "None", "summary": "None", "logo": "None", "latitude": 49.953319609696834, "longitude": -98.28385753769807}, "108148263RR0088": {"name": "UKRAINIAN ORTHODOX CHURCH OF ST. STEPHEN, PLEASANT HOME", "designationCode": "C", "categoryCode": "39", "address": "BOX 136", "city": "TEULON", "province": "MB", "country": "CA", "postalCode": "R0C3B0", "twitter": "None", "instagram": "None", "facebook": "None", "youtube": "None", "website": "None", "summary": "None", "logo": "None", "latitude": 50.38882296172802, "longitude": -97.07887338068231}, "108148263RR0064": {"name": "UKRAINIAN ORTHODOX CHURCH OF ST. VLADIMIR, HAMILTON", "designationCode": "C", "categoryCode": "39", "address": "855 BARTON ST E", "city": "HAMILTON", "province": "ON", "country": "CA", "postalCode": "L8L3B4", "twitter": "None", "instagram": "None", "facebook": "None", "youtube": "None", "website": "None", "summary": "None", "logo": "None", "latitude": 43.254366975878405, "longitude": -79.82777362724343}, "108148263RR0027": {"name": "UKRAINIAN ORTHODOX CHURCH OF ST. VLADIMIR, MOOSE JAW", "designationCode": "C", "categoryCode": "39", "address": "673 GRANVIEW ST. W", "city": "MOOSE JAW", "province": "SK", "country": "CA", "postalCode": "S6H5L3", "twitter": "None", "instagram": "None", "facebook": "None", "youtube": "None", "website": "None", "summary": "None", "logo": "None", "latitude": 50.38047297580733, "longitude": -105.55126039802585}, "108148263RR0102": {"name": "UKRAINIAN ORTHODOX CHURCH OF ST. VLADIMIR, OAKBURN", "designationCode": "C", "categoryCode": "39", "address": "GENERAL DELIVERY", "city": "OAKBURN", "province": "MB", "country": "CA", "postalCode": "R0J1L0", "twitter": "None", "instagram": "None", "facebook": "None", "youtube": "None", "website": "None", "summary": "None", "logo": "None", "latitude": 50.56455300000006, "longitude": -100.57706449999993}, "108148263RR0078": {"name": "UKRAINIAN ORTHODOX CHURCH OF ST. VLADIMIR, THUNDER BAY", "designationCode": "C", "categoryCode": "39", "address": "1502 MOUNTDALE AVE.", "city": "THUNDER BAY", "province": "ON", "country": "CA", "postalCode": "P7E3A5", "twitter": "None", "instagram": "None", "facebook": "None", "youtube": "None", "website": "None", "summary": "None", "logo": "None", "latitude": 48.364856664723874, "longitude": -89.2948301838538}, "108148263RR0034": {"name": "UKRAINIAN ORTHODOX CHURCH OF ST. VLADIMIR, VEGREVILLE", "designationCode": "C", "categoryCode": "39", "address": "PO BOX 1572 STN MAIN", "city": "VEGREVILLE", "province": "AB", "country": "CA", "postalCode": "T9C1S7", "twitter": "None", "instagram": "None", "facebook": "None", "youtube": "None", "website": "None", "summary": "None", "logo": "None", "latitude": 53.49528600000005, "longitude": -112.05415249999993}, "886823590RR0001": {"name": "UKRAINIAN ORTHODOX CHURCH OF ST.GEORGE", "designationCode": "C", "categoryCode": "39", "address": "616 NORMANTON CRT.", "city": "VICTORIA", "province": "BC", "country": "CA", "postalCode": "V8S5H7", "twitter": "None", "instagram": "None", "facebook": "None", "youtube": "None", "website": "None", "summary": "None", "logo": "None", "latitude": 48.41871751540767, "longitude": -123.32668976063235}, "888284247RR0001": {"name": "UKRAINIAN ORTHODOX CHURCH OF STS PETER & PAUL", "designationCode": "C", "categoryCode": "39", "address": "BOX 170", "city": "ROBLIN", "province": "MB", "country": "CA", "postalCode": "R0L1P0", "twitter": "None", "instagram": "None", "facebook": "None", "youtube": "None", "website": "None", "summary": "None", "logo": "None", "latitude": 51.22816000000006, "longitude": -101.35248999999999}, "108148263RR0081": {"name": "UKRAINIAN ORTHODOX CHURCH OF STS. PETER & PAUL, THORHILD", "designationCode": "C", "categoryCode": "39", "address": "PO BOX 153", "city": "THORHILD", "province": "AB", "country": "CA", "postalCode": "T0A3J0", "twitter": "None", "instagram": "None", "facebook": "None", "youtube": "None", "website": "None", "summary": "None", "logo": "None", "latitude": 54.15764000000007, "longitude": -113.12560999999994}, "108148263RR0012": {"name": "UKRAINIAN ORTHODOX CHURCH OF STS. PETER AND PAUL", "designationCode": "C", "categoryCode": "39", "address": "BOX 40", "city": "ROSA", "province": "MB", "country": "CA", "postalCode": "R0A1N0", "twitter": "None", "instagram": "None", "facebook": "None", "youtube": "None", "website": "None", "summary": "None", "logo": "None", "latitude": 49.74472800000001, "longitude": -96.87443175}, "108148263RR0113": {"name": "UKRAINIAN ORTHODOX CHURCH OF STS. PETER AND PAUL", "designationCode": "C", "categoryCode": "39", "address": "BOX 7", "city": "CALDER", "province": "SK", "country": "CA", "postalCode": "S0A0K0", "twitter": "None", "instagram": "None", "facebook": "None", "youtube": "None", "website": "None", "summary": "None", "logo": "None", "latitude": 51.14999000000006, "longitude": -101.75092999999998}, "108148263RR0038": {"name": "UKRAINIAN ORTHODOX CHURCH OF STS. PETER AND PAUL, ATHABASKA", "designationCode": "C", "categoryCode": "39", "address": "4302-50 AVE", "city": "ATHABASCA", "province": "AB", "country": "CA", "postalCode": "T9S1P6", "twitter": "None", "instagram": "None", "facebook": "None", "youtube": "None", "website": "None", "summary": "None", "logo": "None", "latitude": 54.72123549567218, "longitude": -113.273091}, "108148263RR0095": {"name": "UKRAINIAN ORTHODOX CHURCH OF STS. PETER AND PAUL, FOAM LAKE", "designationCode": "C", "categoryCode": "39", "address": "PO BOX 864", "city": "FOAM LAKE", "province": "SK", "country": "CA", "postalCode": "S0A1A0", "twitter": "None", "instagram": "None", "facebook": "None", "youtube": "None", "website": "None", "summary": "None", "logo": "None", "latitude": 51.63984000000005, "longitude": -103.53940999999998}, "108148263RR0125": {"name": "UKRAINIAN ORTHODOX CHURCH OF STS. PETER AND PAUL, HONEYMOON", "designationCode": "C", "categoryCode": "39", "address": "RR4 SITE9 BOX12", "city": "PRINCE ALBERT", "province": "SK", "country": "CA", "postalCode": "S6V5R2", "twitter": "None", "instagram": "None", "facebook": "None", "youtube": "None", "website": "None", "summary": "None", "logo": "None", "latitude": 53.199456000000055, "longitude": -105.74863099999993}, "108148263RR0062": {"name": "UKRAINIAN ORTHODOX CHURCH OF STS. PETER AND PAUL, KALELAND", "designationCode": "C", "categoryCode": "39", "address": "BOX 351", "city": "KALELAND- TWO HILLS", "province": "AB", "country": "CA", "postalCode": "T0B4K0", "twitter": "None", "instagram": "None", "facebook": "None", "youtube": "None", "website": "None", "summary": "None", "logo": "None", "latitude": 53.71548900000006, "longitude": -111.74182099999993}, "108148263RR0033": {"name": "UKRAINIAN ORTHODOX CHURCH OF STS. PETER AND PAUL, NIAGARA FALLS", "designationCode": "C", "categoryCode": "39", "address": "6 SHORTHILL PLACE", "city": "FONTHILL", "province": "ON", "country": "CA", "postalCode": "L0S1E3", "twitter": "None", "instagram": "None", "facebook": "None", "youtube": "None", "website": "None", "summary": "None", "logo": "None", "latitude": 43.051839812626426, "longitude": -79.2839885256508}, "108148263RR0111": {"name": "UKRAINIAN ORTHODOX CHURCH OF STS. PETER AND PAUL, SARTO", "designationCode": "C", "categoryCode": "39", "address": "BOX 79", "city": "SARTO", "province": "MB", "country": "CA", "postalCode": "R0A1X0", "twitter": "None", "instagram": "None", "facebook": "None", "youtube": "None", "website": "None", "summary": "None", "logo": "None", "latitude": 49.39936000000006, "longitude": -96.74359999999996}, "108148263RR0016": {"name": "UKRAINIAN ORTHODOX CHURCH OF STS. PETER AND PAUL, SOUTH INSINGER", "designationCode": "C", "categoryCode": "39", "address": "BOX 124", "city": "INSINGER", "province": "SK", "country": "CA", "postalCode": "S0A1L0", "twitter": "None", "instagram": "None", "facebook": "None", "youtube": "None", "website": "None", "summary": "None", "logo": "None", "latitude": 51.519870000000026, "longitude": -103.08208999999994}, "108148263RR0046": {"name": "UKRAINIAN ORTHODOX CHURCH OF THE HOLY GHOST", "designationCode": "C", "categoryCode": "39", "address": "PO BOX 232", "city": "HAFFORD", "province": "SK", "country": "CA", "postalCode": "S0J1A0", "twitter": "None", "instagram": "None", "facebook": "None", "youtube": "None", "website": "None", "summary": "None", "logo": "None", "latitude": 52.71682000000004, "longitude": -107.35123999999996}, "888109865RR0001": {"name": "UKRAINIAN ORTHODOX CHURCH OF THE HOLY TRINITY, REDWATER", "designationCode": "C", "categoryCode": "39", "address": "BOX 228", "city": "REDWATER", "province": "AB", "country": "CA", "postalCode": "T0A2W0", "twitter": "None", "instagram": "None", "facebook": "None", "youtube": "None", "website": "None", "summary": "None", "logo": "None", "latitude": 53.94921000000005, "longitude": -113.10568999999998}, "108148263RR0127": {"name": "UKRAINIAN ORTHODOX CHURCH OF THE HOLY TRINITY, STURGIS", "designationCode": "C", "categoryCode": "39", "address": "BOX 443", "city": "STURGIS", "province": "SK", "country": "CA", "postalCode": "S0A4A0", "twitter": "None", "instagram": "None", "facebook": "None", "youtube": "None", "website": "None", "summary": "None", "logo": "None", "latitude": 51.940030000000036, "longitude": -102.54296999999997}, "133483974RR0001": {"name": "UKRAINIAN ORTHODOX CHURCH OF THE NATIVITY OF ST MARY", "designationCode": "C", "categoryCode": "39", "address": "301-9 BURLAND AVENUE", "city": "WINNIPEG", "province": "MB", "country": "CA", "postalCode": "R2N2E4", "twitter": "None", "instagram": "None", "facebook": "None", "youtube": "None", "website": "None", "summary": "None", "logo": "None", "latitude": 49.801651097495025, "longitude": -97.11500869516385}, "119274801RR0001": {"name": "UKRAINIAN ORTHODOX CONGREGATION OF HOLY ASCENSION", "designationCode": "C", "categoryCode": "39", "address": "241 SWAN RIVER DRIVE          BOX 2235", "city": "SWAN RIVER", "province": "MB", "country": "CA", "postalCode": "R0L1Z0", "twitter": "None", "instagram": "None", "facebook": "None", "youtube": "None", "website": "None", "summary": "None", "logo": "None", "latitude": 52.116731266172266, "longitude": -101.2599406392173}, "108148263RR0124": {"name": "UKRAINIAN ORTHODOX CONGREGATION OF ST. ELIAS", "designationCode": "C", "categoryCode": "39", "address": "PO BOX 263", "city": "SHEHO", "province": "SK", "country": "CA", "postalCode": "S0A3T0", "twitter": "None", "instagram": "None", "facebook": "None", "youtube": "None", "website": "None", "summary": "None", "logo": "None", "latitude": 51.58994202791057, "longitude": -103.21179149855433}, "108148263RR0018": {"name": "UKRAINIAN ORTHODOX METROPOLITAN CATHEDRAL HOLY TRINITY, WINNIPEG", "designationCode": "C", "categoryCode": "38", "address": "1175 MAIN ST", "city": "WINNIPEG", "province": "MB", "country": "CA", "postalCode": "R2W3S4", "twitter": "None", "instagram": "None", "facebook": "None", "youtube": "None", "website": "None", "summary": "None", "logo": "None", "latitude": 49.91881345071856, "longitude": -97.12964546427992}, "108148263RR0023": {"name": "UKRAINIAN ORTHODOX Parish OF ST. PETER AND PAUL in Andrew Alberta", "designationCode": "C", "categoryCode": "39", "address": "BOX 99", "city": "ANDREW", "province": "AB", "country": "CA", "postalCode": "T0B0C0", "twitter": "None", "instagram": "None", "facebook": "None", "youtube": "None", "website": "None", "summary": "None", "logo": "None", "latitude": 53.88346000000007, "longitude": -112.35188999999997}, "891432973RR0001": {"name": "UKRAINIAN ORTHODOX PARISH OF ST PARASKEVIA", "designationCode": "C", "categoryCode": "39", "address": "4210-48A STREET", "city": "VEGREVILLE", "province": "AB", "country": "CA", "postalCode": "T9C1B3", "twitter": "None", "instagram": "None", "facebook": "None", "youtube": "None", "website": "None", "summary": "None", "logo": "None", "latitude": 53.48563200000001, "longitude": -112.05260763436988}, "108148263RR0099": {"name": "UKRAINIAN ORTHODOX PARISH OF ST.MARY THE PROTECTRESS, PARKSVILLE, B.C.", "designationCode": "C", "categoryCode": "39", "address": "594 KARLS WAY", "city": "PARKSVILLE", "province": "BC", "country": "CA", "postalCode": "V9P1Y8", "twitter": "None", "instagram": "None", "facebook": "None", "youtube": "None", "website": "None", "summary": "None", "logo": "None", "latitude": 49.348972149225055, "longitude": -124.37235002387095}, "889543062RR0001": {"name": "UKRAINIAN ORTHODOX PARISH OF STS PETER AND PAUL", "designationCode": "C", "categoryCode": "39", "address": "1935 BARLEE RD", "city": "KELOWNA", "province": "BC", "country": "CA", "postalCode": "V1Y4S3", "twitter": "None", "instagram": "None", "facebook": "None", "youtube": "None", "website": "None", "summary": "None", "logo": "None", "latitude": 49.87808801025193, "longitude": -119.44828472059076}, "119275113RR0001": {"name": "UKRAINIAN ORTHODOX SENIOR CITIZENS SOCIETY", "designationCode": "C", "categoryCode": "01", "address": "2509 LOUISE ST", "city": "SASKATOON", "province": "SK", "country": "CA", "postalCode": "S7J3L7", "twitter": "None", "instagram": "None", "facebook": "None", "youtube": "None", "website": "None", "summary": "None", "logo": "None", "latitude": 52.10027646494281, "longitude": -106.61524102553523}, "119275121RR0001": {"name": "UKRAINIAN ORTHODOX SUMMER CAMP (CAMP VESELKA)", "designationCode": "C", "categoryCode": "56", "address": "1175 MAIN STREET", "city": "WINNIPEG", "province": "MB", "country": "CA", "postalCode": "R2W3S4", "twitter": "None", "instagram": "None", "facebook": "None", "youtube": "None", "website": "None", "summary": "None", "logo": "None", "latitude": 49.91881345071856, "longitude": -97.12964546427992}, "871494142RR0001": {"name": "UKRAINIAN PENTECOSTAL CHURCH", "designationCode": "C", "categoryCode": "36", "address": "445 STEVENSON ROAD NORTH", "city": "OSHAWA", "province": "ON", "country": "CA", "postalCode": "L1J5N8", "twitter": "None", "instagram": "None", "facebook": "None", "youtube": "None", "website": "None", "summary": "None", "logo": "None", "latitude": 43.905004177792385, "longitude": -78.88852726693382}, "119275147RR0001": {"name": "UKRAINIAN PENTECOSTAL TEMPLE,", "designationCode": "C", "categoryCode": "36", "address": "3195 CAROLINA ST", "city": "VANCOUVER", "province": "BC", "country": "CA", "postalCode": "V5T3T7", "twitter": "None", "instagram": "None", "facebook": "None", "youtube": "None", "website": "None", "summary": "None", "logo": "None", "latitude": 49.25654330306691, "longitude": -123.09189637211468}, "119275170RR0001": {"name": "UKRAINIAN SENIOR CITIZENS HOME OF ST JOHN", "designationCode": "C", "categoryCode": "01", "address": "13516 102 STREET", "city": "EDMONTON", "province": "AB", "country": "CA", "postalCode": "T5E6A2", "twitter": "None", "instagram": "None", "facebook": "None", "youtube": "None", "website": "None", "summary": "None", "logo": "None", "latitude": 53.597161089647415, "longitude": -113.49552973261564}, "119275196RR0001": {"name": "UKRAINIAN SENIOR CITIZENS HOME OF TARAS H SHEVCHENKO (WINDSOR) INC", "designationCode": "C", "categoryCode": "01", "address": "3007 REGIS AVE", "city": "WINDSOR", "province": "ON", "country": "CA", "postalCode": "N8R1T7", "twitter": "None", "instagram": "None", "facebook": "None", "youtube": "None", "website": "None", "summary": "None", "logo": "None", "latitude": 42.30384422647014, "longitude": -82.92238986084001}, "119275162RR0001": {"name": "UKRAINIAN SENIORS' CENTRE OF SUDBURY INC.", "designationCode": "C", "categoryCode": "56", "address": "30 NOTRE DAME AVENUE", "city": "SUDBURY", "province": "ON", "country": "CA", "postalCode": "P3C5K2", "twitter": "None", "instagram": "None", "facebook": "None", "youtube": "None", "website": "None", "summary": "None", "logo": "None", "latitude": 46.494352304696, "longitude": -80.99096068672051}, "119275220RR0001": {"name": "UKRAINIAN SHUMKA DANCERS", "designationCode": "C", "categoryCode": "22", "address": "10515 111 ST NW", "city": "EDMONTON", "province": "AB", "country": "CA", "postalCode": "T5H3E8", "twitter": "None", "instagram": "None", "facebook": "None", "youtube": "None", "website": "None", "summary": "None", "logo": "None", "latitude": 53.54848799999999, "longitude": -113.51206727459773}, "108025990RR0001": {"name": "UKRAINIAN SISTERS OF ST. JOSEPH OF SASKATOON", "designationCode": "C", "categoryCode": "46", "address": "33 VALENS DRIVE", "city": "SASKATOON", "province": "SK", "country": "CA", "postalCode": "S7L3S2", "twitter": "None", "instagram": "None", "facebook": "None", "youtube": "None", "website": "None", "summary": "None", "logo": "None", "latitude": 52.1464797341162, "longitude": -106.6868329295685}, "891109449RR0001": {"name": "UKRAINIAN STUDIES FOUNDATION OF BRITISH COLUMBIA", "designationCode": "A", "categoryCode": "23", "address": "2342 130 STREET", "city": "SURREY", "province": "BC", "country": "CA", "postalCode": "V4A8X3", "twitter": "None", "instagram": "None", "facebook": "None", "youtube": "None", "website": "None", "summary": "None", "logo": "None", "latitude": 49.044787910352596, "longitude": -122.86110058990721}}