{"806280954RR0001": {"name": "Maison des jeunes de LaSalle", "designationCode": "C", "categoryCode": "09", "address": "170, AVENUE ORCHARD", "city": "LASALLE", "province": "QC", "country": "CA", "postalCode": "H8R0A2", "twitter": "None", "instagram": "None", "facebook": "None", "youtube": "None", "website": "None", "summary": "None", "logo": "None", "latitude": 45.42263124063705, "longitude": -73.64763465003735}, "839210556RR0001": {"name": "Maison des jeunes de Marieville", "designationCode": "C", "categoryCode": "09", "address": "1972, RUE DU PONT", "city": "MARIEVILLE", "province": "QC", "country": "CA", "postalCode": "J3M1J8", "twitter": "None", "instagram": "None", "facebook": "None", "youtube": "None", "website": "None", "summary": "None", "logo": "None", "latitude": 45.43292250678069, "longitude": -73.1577922754631}, "872035977RR0001": {"name": "Maison des jeunes de Pointe-aux-Trembles", "designationCode": "C", "categoryCode": "09", "address": "13701 RUE FORSYTH", "city": "POINTE-AUX-TREMBLES", "province": "QC", "country": "CA", "postalCode": "H1A3W6", "twitter": "None", "instagram": "None", "facebook": "None", "youtube": "None", "website": "None", "summary": "None", "logo": "None", "latitude": 45.664420389405, "longitude": -73.5047307438397}, "828843110RR0001": {"name": "Maison des jeunes de Saint-Augustin (Dalmas)", "designationCode": "C", "categoryCode": "09", "address": "714 RUE DES LOISIRS", "city": "SAINT-AUGUSTIN", "province": "QC", "country": "CA", "postalCode": "G0W1K0", "twitter": "None", "instagram": "None", "facebook": "None", "youtube": "None", "website": "None", "summary": "None", "logo": "None", "latitude": 48.80553987487677, "longitude": -71.94445458300943}, "898142740RR0001": {"name": "Maison des jeunes de Saint-G\u00e9d\u00e9on", "designationCode": "C", "categoryCode": "99", "address": "208 DEQUEN C.P 561", "city": "ST-G\u00c9D\u00c9ON", "province": "QC", "country": "CA", "postalCode": "G0W2P0", "twitter": "None", "instagram": "None", "facebook": "None", "youtube": "None", "website": "None", "summary": "None", "logo": "None"}, "878426212RR0001": {"name": "Maison des jeunes de Saint-Phillippe", "designationCode": "C", "categoryCode": "09", "address": "2245 EDOUARD VII", "city": "SAINT-PHILIPPE", "province": "QC", "country": "CA", "postalCode": "J0L2K0", "twitter": "None", "instagram": "None", "facebook": "None", "youtube": "None", "website": "None", "summary": "None", "logo": "None", "latitude": 45.36078634029644, "longitude": -73.48045872892297}, "891208639RR0001": {"name": "Maison des jeunes de Ste-Catherine-de-la-Jacques-Cartier", "designationCode": "C", "categoryCode": "09", "address": "16 RUE LOUIS-JOLLIET", "city": "STE-CATHERINE-JACQUES-CARTIER", "province": "QC", "country": "CA", "postalCode": "G3N2N6", "twitter": "None", "instagram": "None", "facebook": "None", "youtube": "None", "website": "None", "summary": "None", "logo": "None", "latitude": 46.845281768769354, "longitude": -71.62228531375162}, "837921162RR0001": {"name": "Maison des jeunes des quatre-vents", "designationCode": "C", "categoryCode": "09", "address": "1426 RUE SAINT-PIERRE", "city": "SAINT-JUDE", "province": "QC", "country": "CA", "postalCode": "J0H1P0", "twitter": "None", "instagram": "None", "facebook": "None", "youtube": "None", "website": "None", "summary": "None", "logo": "None", "latitude": 45.773632258382015, "longitude": -72.98897540034059}, "893344838RR0002": {"name": "Maison des jeunes l'authentique", "designationCode": "C", "categoryCode": "09", "address": "2,RUE LABRIE", "city": "BAIE-TRINIT\u00c9", "province": "QC", "country": "CA", "postalCode": "G0H1A0", "twitter": "None", "instagram": "None", "facebook": "None", "youtube": "None", "website": "None", "summary": "None", "logo": "None", "latitude": 49.422026001384985, "longitude": -67.30258034722134}, "857198675RR0001": {"name": "Maison des jeunes la Rel\u00e8ve Saint-Calixte", "designationCode": "C", "categoryCode": "09", "address": "6340 RUE PRINCIPALE", "city": "ST-CALIXTE", "province": "QC", "country": "CA", "postalCode": "J0K1Z0", "twitter": "None", "instagram": "None", "facebook": "None", "youtube": "None", "website": "None", "summary": "None", "logo": "None", "latitude": 45.95268696364473, "longitude": -73.84730715834723}, "896058880RR0001": {"name": "Maison des jeunes L'Entre-Parenth\u00e8se de Chambord", "designationCode": "C", "categoryCode": "59", "address": "65, BOUL. DE LA MONTAGNE", "city": "CHAMBORD", "province": "QC", "country": "CA", "postalCode": "G0W1G0", "twitter": "None", "instagram": "None", "facebook": "None", "youtube": "None", "website": "None", "summary": "None", "logo": "None", "latitude": 48.427372602833394, "longitude": -72.06420806246742}, "135591758RR0001": {"name": "Maison des jeunes L'Islet-Nord", "designationCode": "C", "categoryCode": "09", "address": "50-C DE GASP\u00c9 EST", "city": "ST-JEAN-PORT-JOLI", "province": "QC", "country": "CA", "postalCode": "G0R3G0", "twitter": "None", "instagram": "None", "facebook": "None", "youtube": "None", "website": "None", "summary": "None", "logo": "None", "latitude": 47.23652829959812, "longitude": -70.23910175173111}, "813962891RR0001": {"name": "Maison des jeunes La Baraque Des \u00c9boulements", "designationCode": "C", "categoryCode": "09", "address": "2389 ROUTE DU FLEUVE", "city": "LES \u00c9BOULEMENTS", "province": "QC", "country": "CA", "postalCode": "G0A2M0", "twitter": "None", "instagram": "None", "facebook": "None", "youtube": "None", "website": "None", "summary": "None", "logo": "None", "latitude": 47.47999717056937, "longitude": -70.31555455220663}, "104918982RR0001": {"name": "Maison des jeunes Sodarrid de Boisbriand inc.", "designationCode": "C", "categoryCode": "09", "address": "955 BOUL GRANDE ALLEE", "city": "BOISBRIAND", "province": "QC", "country": "CA", "postalCode": "J7G1W6", "twitter": "None", "instagram": "None", "facebook": "None", "youtube": "None", "website": "None", "summary": "None", "logo": "None", "latitude": 45.6127272603439, "longitude": -73.83884082884123}, "834073819RR0001": {"name": "Maison des jeunes St-Ludger de Milot", "designationCode": "C", "categoryCode": "09", "address": "739 RUE GAUDREAULT", "city": "ST-LUDGER DE MILOT", "province": "QC", "country": "CA", "postalCode": "G0W2B0", "twitter": "None", "instagram": "None", "facebook": "None", "youtube": "None", "website": "None", "summary": "None", "logo": "None", "latitude": 48.897135566484565, "longitude": -71.81973971441562}, "875193526RR0001": {"name": "Maison des jeunes Sympholie", "designationCode": "C", "categoryCode": "09", "address": "65 RUE BOARDMAN", "city": "DELSON", "province": "QC", "country": "CA", "postalCode": "J5B2B8", "twitter": "None", "instagram": "None", "facebook": "None", "youtube": "None", "website": "None", "summary": "None", "logo": "None", "latitude": 45.38046094153606, "longitude": -73.54488987493956}, "801309261RR0001": {"name": "Maison des soins palliatifs l'Ang\u00e9lique de Charlevoix", "designationCode": "C", "categoryCode": "11", "address": "124 RUE DU JARDIN", "city": "LA MALBAIE", "province": "QC", "country": "CA", "postalCode": "G5A1H6", "twitter": "None", "instagram": "None", "facebook": "None", "youtube": "None", "website": "None", "summary": "None", "logo": "None", "latitude": 47.64834693533954, "longitude": -70.15099288398065}, "898551684RR0001": {"name": "Maison des Familles de la Matanie", "designationCode": "C", "categoryCode": "09", "address": "350 RUE SAINT-JOSEPH", "city": "MATANE", "province": "QC", "country": "CA", "postalCode": "G4W1N8", "twitter": "None", "instagram": "None", "facebook": "None", "youtube": "None", "website": "None", "summary": "None", "logo": "None", "latitude": 48.839929971983274, "longitude": -67.51568270523407}, "841847346RR0001": {"name": "Maison des Jeunes Merci\u00e9rois", "designationCode": "C", "categoryCode": "09", "address": "4 RUE FAUBERT", "city": "MERCIER", "province": "QC", "country": "CA", "postalCode": "J6R1E2", "twitter": "None", "instagram": "None", "facebook": "None", "youtube": "None", "website": "None", "summary": "None", "logo": "None", "latitude": 45.313151344971, "longitude": -73.742753461019}, "820345882RR0001": {"name": "Maison des Soins Palliatifs du Sault-Saint-Louis", "designationCode": "A", "categoryCode": "11", "address": "55 AV DUPRAS", "city": "MONTR\u00c9AL", "province": "QC", "country": "CA", "postalCode": "H8R4A8", "twitter": "None", "instagram": "None", "facebook": "None", "youtube": "None", "website": "None", "summary": "None", "logo": "None", "latitude": 45.428526502914195, "longitude": -73.66278337757535}, "119016210RR0001": {"name": "Maison des Tournesols (1981)", "designationCode": "C", "categoryCode": "09", "address": "1720 RUE DE GAULLE", "city": "SAINT-HUBERT", "province": "QC", "country": "CA", "postalCode": "J4T1M9", "twitter": "None", "instagram": "None", "facebook": "None", "youtube": "None", "website": "None", "summary": "None", "logo": "None", "latitude": 45.49539480653826, "longitude": -73.46790686912124}, "804859965RR0001": {"name": "Maison du Minist\u00e8re de la Mis\u00e9ricorde/House Of Mercy Ministrie", "designationCode": "C", "categoryCode": "39", "address": "545 RUE LEGENDRE O", "city": "MONTREAL", "province": "QC", "country": "CA", "postalCode": "H2N1J1", "twitter": "None", "instagram": "None", "facebook": "None", "youtube": "None", "website": "None", "summary": "None", "logo": "None", "latitude": 45.53682271663105, "longitude": -73.65187274343566}, "107619322RR0001": {"name": "Maison du P\u00e8re", "designationCode": "C", "categoryCode": "01", "address": "550, BOUL. RENE-LEVESQUE EST", "city": "MONTREAL", "province": "QC", "country": "CA", "postalCode": "H2L2L3", "twitter": "None", "instagram": "None", "facebook": "None", "youtube": "None", "website": "None", "summary": "None", "logo": "None", "latitude": 45.51410602772825, "longitude": -73.55681637962415}, "850506304RR0001": {"name": "Maison du Pas Sage", "designationCode": "C", "categoryCode": "09", "address": "5320, BOUL. DES LAURENTIDES", "city": "LAVAL", "province": "QC", "country": "CA", "postalCode": "H7K2J8", "twitter": "None", "instagram": "None", "facebook": "None", "youtube": "None", "website": "None", "summary": "None", "logo": "None", "latitude": 45.62356996751121, "longitude": -73.74871156428507}, "835968454RR0001": {"name": "Maison internationale des femmes", "designationCode": "C", "categoryCode": "09", "address": "425 RUE BEAUBIEN EST", "city": "MONTREAL", "province": "QC", "country": "CA", "postalCode": "H2S1S4", "twitter": "None", "instagram": "None", "facebook": "None", "youtube": "None", "website": "None", "summary": "None", "logo": "None", "latitude": 45.53403203580702, "longitude": -73.60505142881867}, "869222349RR0001": {"name": "Maison l'odyss\u00e9e jeu alcool drogues", "designationCode": "C", "categoryCode": "57", "address": "717 AVENUE SAINT-ALFRED", "city": "SAINTE-MARIE", "province": "QC", "country": "CA", "postalCode": "G6E1G2", "twitter": "None", "instagram": "None", "facebook": "None", "youtube": "None", "website": "None", "summary": "None", "logo": "None", "latitude": 46.44405223503983, "longitude": -71.02272302689154}, "118845114RR0001": {"name": "Maison le Puits inc.", "designationCode": "C", "categoryCode": "09", "address": "276, RUE LANGLAIS", "city": "TROIS-PISTOLES", "province": "QC", "country": "CA", "postalCode": "G0L4K0", "twitter": "None", "instagram": "None", "facebook": "None", "youtube": "None", "website": "None", "summary": "None", "logo": "None", "latitude": 48.12586025116863, "longitude": -69.17305787956589}, "801040205RR0001": {"name": "Maison papillon bleu du Canada / Blue Butterfly Home of Canada", "designationCode": "C", "categoryCode": "09", "address": "41 RUE DES CITADINS NORD", "city": "FARNHAM", "province": "QC", "country": "CA", "postalCode": "J2N3B6", "twitter": "None", "instagram": "None", "facebook": "None", "youtube": "None", "website": "None", "summary": "None", "logo": "None", "latitude": 45.27966045767213, "longitude": -72.98431437480538}, "847437704RR0001": {"name": "Maison source de vie", "designationCode": "C", "categoryCode": "09", "address": "5600 BOULEVARD MONK", "city": "MONTREAL", "province": "QC", "country": "CA", "postalCode": "H4E3G8", "twitter": "None", "instagram": "None", "facebook": "None", "youtube": "None", "website": "None", "summary": "None", "logo": "None", "latitude": 45.46267268082405, "longitude": -73.59756942893424}, "870668134RR0001": {"name": "Maison Alabtros Trois-Rivi\u00e8res Inc.", "designationCode": "C", "categoryCode": "11", "address": "2325 1RE AV", "city": "TROIS-RIVIERES", "province": "QC", "country": "CA", "postalCode": "G8Z2X4", "twitter": "None", "instagram": "None", "facebook": "None", "youtube": "None", "website": "None", "summary": "None", "logo": "None", "latitude": 46.348536929770965, "longitude": -72.55464294809283}, "809923493RR0001": {"name": "Maison Belfield", "designationCode": "B", "categoryCode": "09", "address": "6449 AV COOLBROOK", "city": "MONTREAL", "province": "QC", "country": "CA", "postalCode": "H3X2N3", "twitter": "None", "instagram": "None", "facebook": "None", "youtube": "None", "website": "None", "summary": "None", "logo": "None", "latitude": 45.48988833417962, "longitude": -73.64591111114326}, "811703206RR0001": {"name": "Maison Boreal Home Inc.", "designationCode": "C", "categoryCode": "09", "address": "12 BIRCH ST                   BOX 867", "city": "CHAPLEAU", "province": "ON", "country": "CA", "postalCode": "P0M1K0", "twitter": "None", "instagram": "None", "facebook": "None", "youtube": "None", "website": "None", "summary": "None", "logo": "None", "latitude": 46.49639557759124, "longitude": -80.5437263063143}, "131496788RR0001": {"name": "Maison D'Ha\u00efti", "designationCode": "C", "categoryCode": "09", "address": "8833 BOUL SAINT-MICHEL", "city": "MONTREAL", "province": "QC", "country": "CA", "postalCode": "H1Z3G3", "twitter": "None", "instagram": "None", "facebook": "None", "youtube": "None", "website": "None", "summary": "None", "logo": "None", "latitude": 45.5703002431472, "longitude": -73.62410114097766}, "141713446RR0001": {"name": "Maison Dunham inc. / Dunham House inc.", "designationCode": "A", "categoryCode": "01", "address": "1964 CH SCOTTSMORE", "city": "DUNHAM", "province": "QC", "country": "CA", "postalCode": "J0E1M0", "twitter": "None", "instagram": "None", "facebook": "None", "youtube": "None", "website": "None", "summary": "None", "logo": "None"}, "850716051RR0001": {"name": "Maison Face \u00e0 l'Avenir", "designationCode": "C", "categoryCode": "57", "address": "132, RUE ST-JEAN-BAPTISTE", "city": "L'ASSOMPTION", "province": "QC", "country": "CA", "postalCode": "J5W3G4", "twitter": "None", "instagram": "None", "facebook": "None", "youtube": "None", "website": "None", "summary": "None", "logo": "None", "latitude": 45.82401060225646, "longitude": -73.42433613185972}, "844502211RR0001": {"name": "Maison Hebrida Marie J\u00e9sus", "designationCode": "C", "categoryCode": "09", "address": "1807 - 650 RUE JEAN-D'ESTREES", "city": "MONTREAL", "province": "QC", "country": "CA", "postalCode": "H3C0G3", "twitter": "None", "instagram": "None", "facebook": "None", "youtube": "None", "website": "None", "summary": "None", "logo": "None", "latitude": 45.495055806769386, "longitude": -73.5654750933114}, "822486817RR0001": {"name": "Maison InterCD", "designationCode": "C", "categoryCode": "47", "address": "11A5 - 626 RUE NOTRE-DAME E", "city": "TROIS-RIVIERES", "province": "QC", "country": "CA", "postalCode": "G8T4G9", "twitter": "None", "instagram": "None", "facebook": "None", "youtube": "None", "website": "None", "summary": "None", "logo": "None", "latitude": 46.384165748907286, "longitude": -72.48126194558029}, "805926516RR0001": {"name": "Maison J\u00e9sus-Marie", "designationCode": "C", "categoryCode": "46", "address": "86 RUE SAINT-CHARLES EST", "city": "LONGUEUIL", "province": "QC", "country": "CA", "postalCode": "J4H1A9", "twitter": "None", "instagram": "None", "facebook": "None", "youtube": "None", "website": "None", "summary": "None", "logo": "None", "latitude": 45.54229478264781, "longitude": -73.50713540331304}, "787249929RR0001": {"name": "Maison Jean-Claude Colin", "designationCode": "C", "categoryCode": "01", "address": "3530 RUE ADAM", "city": "MONTREAL", "province": "QC", "country": "CA", "postalCode": "H1W1Y8", "twitter": "None", "instagram": "None", "facebook": "None", "youtube": "None", "website": "None", "summary": "None", "logo": "None", "latitude": 45.54339753759601, "longitude": -73.54112185535834}, "849434907RR0001": {"name": "Maison Kangourou / Kangaroo House", "designationCode": "C", "categoryCode": "01", "address": "6875 RUE SHERBROOKE E", "city": "MONTREAL", "province": "QC", "country": "CA", "postalCode": "H1N1C7", "twitter": "None", "instagram": "None", "facebook": "None", "youtube": "None", "website": "None", "summary": "None", "logo": "None", "latitude": 45.585864471002324, "longitude": -73.54145030310445}, "809126873RR0001": {"name": "Maison L'Entr'Amis", "designationCode": "C", "categoryCode": "09", "address": "1207 PLACE GEORGES H ROBICHON", "city": "TROIS-RIVIERES", "province": "QC", "country": "CA", "postalCode": "G8Y2L1", "twitter": "None", "instagram": "None", "facebook": "None", "youtube": "None", "website": "None", "summary": "None", "logo": "None", "latitude": 46.35684076464306, "longitude": -72.57721650983909}, "820673572RR0001": {"name": "Maison L'Essentielle", "designationCode": "C", "categoryCode": "56", "address": "5, RUE DE L'\u00c9GLISE", "city": "GROS-MORNE", "province": "QC", "country": "CA", "postalCode": "G0E1L0", "twitter": "None", "instagram": "None", "facebook": "None", "youtube": "None", "website": "None", "summary": "None", "logo": "None", "latitude": 49.25168477240469, "longitude": -65.54053905444599}, "130310733RR0001": {"name": "Maison L'Exode inc.", "designationCode": "C", "categoryCode": "57", "address": "2590 AVENUE L\u00c9TOURNEUX", "city": "MONTR\u00c9AL", "province": "QC", "country": "CA", "postalCode": "H1V2P4", "twitter": "None", "instagram": "None", "facebook": "None", "youtube": "None", "website": "None", "summary": "None", "logo": "None", "latitude": 45.55520511904912, "longitude": -73.54824101347444}, "810992644RR0001": {"name": "Maison La Jeunesse", "designationCode": "C", "categoryCode": "09", "address": "4373 CHEMIN GIROUX", "city": "STE-PRAX\u00c8DE", "province": "QC", "country": "CA", "postalCode": "G0N1E1", "twitter": "None", "instagram": "None", "facebook": "None", "youtube": "None", "website": "None", "summary": "None", "logo": "None", "latitude": 45.914049973368265, "longitude": -71.29083812793591}, "827191008RR0001": {"name": "Maison Marie Pag\u00e9", "designationCode": "C", "categoryCode": "11", "address": "250, RANG PARISEAU", "city": "VICTORIAVILLE", "province": "QC", "country": "CA", "postalCode": "G6T0J6", "twitter": "None", "instagram": "None", "facebook": "None", "youtube": "None", "website": "None", "summary": "None", "logo": "None", "latitude": 46.06380983873858, "longitude": -72.00997478198398}, "882864507RR0001": {"name": "Maison Marie-\u00c9lisabeth", "designationCode": "C", "categoryCode": "11", "address": "76 2E RUE EST", "city": "RIMOUSKI", "province": "QC", "country": "CA", "postalCode": "G5L0A6", "twitter": "None", "instagram": "None", "facebook": "None", "youtube": "None", "website": "None", "summary": "None", "logo": "None", "latitude": 48.44686005193583, "longitude": -68.51468118073713}, "834712465RR0001": {"name": "Maison Marie-\u00c9lisabeth Inc.", "designationCode": "C", "categoryCode": "59", "address": "76, 2E RUE EST", "city": "RIMOUSKI", "province": "QC", "country": "CA", "postalCode": "G5L0A6", "twitter": "None", "instagram": "None", "facebook": "None", "youtube": "None", "website": "None", "summary": "None", "logo": "None", "latitude": 48.44686005193583, "longitude": -68.51468118073713}, "865695571RR0001": {"name": "Maison Marie-Rollet", "designationCode": "C", "categoryCode": "01", "address": "C.P. 20004, SUCC. BELVEDERE", "city": "QUEBEC", "province": "QC", "country": "CA", "postalCode": "G1S4Z2", "twitter": "None", "instagram": "None", "facebook": "None", "youtube": "None", "website": "None", "summary": "None", "logo": "None", "latitude": 46.798082356563114, "longitude": -71.24051725089743}, "883713117RR0001": {"name": "Maison Montessori de Chelsea", "designationCode": "C", "categoryCode": "01", "address": "66, CHEMIN OLD CHELSEA", "city": "CHELSEA", "province": "QC", "country": "CA", "postalCode": "J9B1K9", "twitter": "None", "instagram": "None", "facebook": "None", "youtube": "None", "website": "None", "summary": "None", "logo": "None", "latitude": 45.50404542772216, "longitude": -75.79165286234056}, "878485515RR0001": {"name": "Maison Montessori des 4 Vall\u00e9es", "designationCode": "C", "categoryCode": "20", "address": "490 ROUTE 105                 BUREAU 105", "city": "CHELSEA", "province": "QC", "country": "CA", "postalCode": "J9B1L2", "twitter": "None", "instagram": "None", "facebook": "None", "youtube": "None", "website": "None", "summary": "None", "logo": "None", "latitude": 45.50547902306783, "longitude": -75.78396049395842}, "822766739RR0001": {"name": "Maison Normand L\u00e9veill\u00e9", "designationCode": "C", "categoryCode": "09", "address": "950, CHEMIN HEMMING           CASIER POSTALE 306", "city": "DRUMMONDVILLE", "province": "QC", "country": "CA", "postalCode": "J2B6W3", "twitter": "None", "instagram": "None", "facebook": "None", "youtube": "None", "website": "None", "summary": "None", "logo": "None", "latitude": 45.86750383793053, "longitude": -72.45944283080406}, "802065227RR0001": {"name": "Maison Nouvelle Vie", "designationCode": "C", "categoryCode": "57", "address": "15 CHEMIN GOSFORD NORD", "city": "HAM-SUD", "province": "QC", "country": "CA", "postalCode": "J0B3J0", "twitter": "None", "instagram": "None", "facebook": "None", "youtube": "None", "website": "None", "summary": "None", "logo": "None", "latitude": 45.757909791563264, "longitude": -71.60240184814496}, "822772778RR0001": {"name": "Maison Oxyg\u00e8ne Joliette-Lanaudi\u00e8re", "designationCode": "C", "categoryCode": "09", "address": "688 BOULEVARD MANSEAU", "city": "JOLIETTE", "province": "QC", "country": "CA", "postalCode": "J6E3E6", "twitter": "None", "instagram": "None", "facebook": "None", "youtube": "None", "website": "None", "summary": "None", "logo": "None", "latitude": 46.02262884375891, "longitude": -73.44338100141364}, "801312976RR0001": {"name": "Maison Point de Rep\u00e8re", "designationCode": "C", "categoryCode": "09", "address": "10165 GRANDE ALLEE", "city": "MONTREAL", "province": "QC", "country": "CA", "postalCode": "H3L2M2", "twitter": "None", "instagram": "None", "facebook": "None", "youtube": "None", "website": "None", "summary": "None", "logo": "None", "latitude": 45.5489188842691, "longitude": -73.66250357423974}, "828413039RR0001": {"name": "Maison Ren\u00e9-Verrier", "designationCode": "C", "categoryCode": "11", "address": "2200 BOUL ALLARD", "city": "DRUMMONDVILLE", "province": "QC", "country": "CA", "postalCode": "J2B8B5", "twitter": "None", "instagram": "None", "facebook": "None", "youtube": "None", "website": "None", "summary": "None", "logo": "None", "latitude": 45.85958746378896, "longitude": -72.44951005482136}, "130165996RR0001": {"name": "Maison Richelieu h\u00e9bergement jeunesse inc.", "designationCode": "C", "categoryCode": "01", "address": "2808 CH DES QUATRE-BOURGEOIS", "city": "SAINTE-FOY", "province": "QC", "country": "CA", "postalCode": "G1V1X7", "twitter": "None", "instagram": "None", "facebook": "None", "youtube": "None", "website": "None", "summary": "None", "logo": "None", "latitude": 46.77535813517795, "longitude": -71.29803023593385}, "814437737RR0001": {"name": "Maison Saint-Columba / Saint Columba House", "designationCode": "C", "categoryCode": "03", "address": "2365 GRAND TRUNK ST", "city": "MONTREAL", "province": "QC", "country": "CA", "postalCode": "H3K1M8", "twitter": "None", "instagram": "None", "facebook": "None", "youtube": "None", "website": "None", "summary": "None", "logo": "None", "latitude": 45.478835495989294, "longitude": -73.56532875993986}, "859302705RR0001": {"name": "Maison SAM X", "designationCode": "C", "categoryCode": "09", "address": "6235 BOUL. L\u00c9GER", "city": "MONTR\u00c9AL", "province": "QC", "country": "CA", "postalCode": "H1G6K8", "twitter": "None", "instagram": "None", "facebook": "None", "youtube": "None", "website": "None", "summary": "None", "logo": "None", "latitude": 45.621556490160906, "longitude": -73.62509140510112}, "830512307RR0001": {"name": "Maisons FMJ", "designationCode": "C", "categoryCode": "43", "address": "263 RUE DU C\u00c9GEP", "city": "SHERBROOKE", "province": "QC", "country": "CA", "postalCode": "J1E2J8", "twitter": "None", "instagram": "None", "facebook": "None", "youtube": "None", "website": "None", "summary": "None", "logo": "None"}, "839863198RR0001": {"name": "Maisy's Foundation of Hope", "designationCode": "C", "categoryCode": "21", "address": "347B PAGANAKOMIN MIKAN", "city": "MANIWAKI", "province": "QC", "country": "CA", "postalCode": "J9E3B1", "twitter": "None", "instagram": "None", "facebook": "None", "youtube": "None", "website": "None", "summary": "None", "logo": "None", "latitude": 46.396222655724834, "longitude": -76.03172470048237}, "809170327RR0001": {"name": "Maitland Community Cemeteries", "designationCode": "C", "categoryCode": "59", "address": "8940 HIGHWAY 215", "city": "MAITLAND", "province": "NS", "country": "CA", "postalCode": "B0N1T0", "twitter": "None", "instagram": "None", "facebook": "None", "youtube": "None", "website": "None", "summary": "None", "logo": "None", "latitude": 45.31252090341437, "longitude": -63.49224331121786}, "854568789RR0001": {"name": "Maitland Family Foundation", "designationCode": "B", "categoryCode": "03", "address": "53 BEDDINGTON GARDENS NE", "city": "CALGARY", "province": "AB", "country": "CA", "postalCode": "T3K4N9", "twitter": "None", "instagram": "None", "facebook": "None", "youtube": "None", "website": "None", "summary": "None", "logo": "None", "latitude": 51.12805152178431, "longitude": -114.06688245045876}, "829007434RR0001": {"name": "Maitland Street Church", "designationCode": "C", "categoryCode": "39", "address": "819 MAITLAND STREET", "city": "LONDON", "province": "ON", "country": "CA", "postalCode": "N5Y2W6", "twitter": "None", "instagram": "None", "facebook": "None", "youtube": "None", "website": "None", "summary": "None", "logo": "None", "latitude": 43.000294212591676, "longitude": -81.24365422609475}, "874873201RR0001": {"name": "Maiyoo Keyoh Society", "designationCode": "C", "categoryCode": "52", "address": "5707 CRANBROOK HILL RD", "city": "PRINCE GEORGE", "province": "BC", "country": "CA", "postalCode": "V2M7C6", "twitter": "None", "instagram": "None", "facebook": "None", "youtube": "None", "website": "None", "summary": "None", "logo": "None", "latitude": 53.91772748124546, "longitude": -122.8425435}, "831444310RR0001": {"name": "Majengo Canada", "designationCode": "C", "categoryCode": "01", "address": "284 MAJOR STREET", "city": "TORONTO", "province": "ON", "country": "CA", "postalCode": "M5S2L6", "twitter": "None", "instagram": "None", "facebook": "None", "youtube": "None", "website": "None", "summary": "None", "logo": "None", "latitude": 43.66554502247682, "longitude": -79.40603603929812}, "853537678RR0001": {"name": "Make A Change Canada/Faire un Changement Canada", "designationCode": "C", "categoryCode": "09", "address": "P.O BOX 278", "city": "NELSON", "province": "BC", "country": "CA", "postalCode": "V1L5P9", "twitter": "None", "instagram": "None", "facebook": "None", "youtube": "None", "website": "None", "summary": "None", "logo": "None", "latitude": 49.49754900000005, "longitude": -117.28882249999992}, "804559458RR0001": {"name": "Make Change Interactive Giving Foundation", "designationCode": "A", "categoryCode": "03", "address": "61 CAMERON CRESCENT", "city": "TORONTO", "province": "ON", "country": "CA", "postalCode": "M4G2A1", "twitter": "None", "instagram": "None", "facebook": "None", "youtube": "None", "website": "None", "summary": "None", "logo": "None", "latitude": 43.708667542327866, "longitude": -79.37211533677667}, "834452369RR0001": {"name": "Make Music Matter Inc.", "designationCode": "C", "categoryCode": "20", "address": "804 - 1 SCOTT STREET", "city": "TORONTO", "province": "ON", "country": "CA", "postalCode": "M5E1A1", "twitter": "None", "instagram": "None", "facebook": "None", "youtube": "None", "website": "None", "summary": "None", "logo": "None", "latitude": 43.6467669775232, "longitude": -79.37546796791524}, "856677554RR0001": {"name": "Making Kenora Home Charitable Services Inc.", "designationCode": "C", "categoryCode": "09", "address": "308 SECOND STREET SOUTH       SUITE 6", "city": "KENORA", "province": "ON", "country": "CA", "postalCode": "P9N1G4", "twitter": "None", "instagram": "None", "facebook": "None", "youtube": "None", "website": "None", "summary": "None", "logo": "None", "latitude": 49.76585503358532, "longitude": -94.4889334052167}, "833898000RR0001": {"name": "Making Ourselves Matter Services Society", "designationCode": "C", "categoryCode": "57", "address": "PO 23052", "city": "PRINCE GEORGE", "province": "BC", "country": "CA", "postalCode": "V2N6Z2", "twitter": "None", "instagram": "None", "facebook": "None", "youtube": "None", "website": "None", "summary": "None", "logo": "None", "latitude": 53.91241800000006, "longitude": -122.74463149999994}, "828311712RR0001": {"name": "Makom, Creative Downtown Judaism", "designationCode": "C", "categoryCode": "39", "address": "402 COLLEGE ST", "city": "TORONTO", "province": "ON", "country": "CA", "postalCode": "M5T1S8", "twitter": "None", "instagram": "None", "facebook": "None", "youtube": "None", "website": "None", "summary": "None", "logo": "None", "latitude": 43.65681919069179, "longitude": -79.40599751041601}, "840097141RR0001": {"name": "Makonsag Aboriginal Head Start Inc.", "designationCode": "C", "categoryCode": "21", "address": "149 KING GEORGE ST", "city": "OTTAWA", "province": "ON", "country": "CA", "postalCode": "K1K1V2", "twitter": "None", "instagram": "None", "facebook": "None", "youtube": "None", "website": "None", "summary": "None", "logo": "None", "latitude": 45.42537947547438, "longitude": -75.65798571593855}, "834036535RR0001": {"name": "Malachi Dads Ministry Canada Inc.", "designationCode": "C", "categoryCode": "59", "address": "1503-74 ST NW", "city": "EDMONTON", "province": "AB", "country": "CA", "postalCode": "T6K2S7", "twitter": "None", "instagram": "None", "facebook": "None", "youtube": "None", "website": "None", "summary": "None", "logo": "None", "latitude": 53.44447165860703, "longitude": -113.4479893176181}, "826558306RR0001": {"name": "Malachi 4:6 Man Ministries", "designationCode": "C", "categoryCode": "39", "address": "2027 BLACK CREEK", "city": "BALCK CREEK", "province": "BC", "country": "CA", "postalCode": "V9N1G5", "twitter": "None", "instagram": "None", "facebook": "None", "youtube": "None", "website": "None", "summary": "None", "logo": "None", "latitude": 49.69577400000006, "longitude": -124.95214249999994}, "826222556RR0001": {"name": "Malagash Bible Camp Association", "designationCode": "C", "categoryCode": "49", "address": "163 BRENTWOOD AVE", "city": "TIMBERLEA", "province": "NS", "country": "CA", "postalCode": "B3T1H8", "twitter": "None", "instagram": "None", "facebook": "None", "youtube": "None", "website": "None", "summary": "None", "logo": "None", "latitude": 44.6504019158925, "longitude": -63.73870595894154}, "825478365RR0001": {"name": "Malaika Foundation Society", "designationCode": "C", "categoryCode": "21", "address": "1581 12TH AVE E", "city": "VANCOUVER", "province": "BC", "country": "CA", "postalCode": "V5N2A2", "twitter": "None", "instagram": "None", "facebook": "None", "youtube": "None", "website": "None", "summary": "None", "logo": "None", "latitude": 49.259602486005974, "longitude": -123.07188180391252}, "849677091RR0001": {"name": "Malamulele Onward Canada", "designationCode": "C", "categoryCode": "19", "address": "140 MAYLA DRIVE", "city": "OAKVILLE", "province": "ON", "country": "CA", "postalCode": "L6H3T4", "twitter": "None", "instagram": "None", "facebook": "None", "youtube": "None", "website": "None", "summary": "None", "logo": "None", "latitude": 43.46350838161473, "longitude": -79.7194536083733}, "840443899RR0001": {"name": "Malaspina Land Conservancy Society", "designationCode": "C", "categoryCode": "59", "address": "3852 GORDON AVE", "city": "POWELL RIVER", "province": "BC", "country": "CA", "postalCode": "V8A2T5", "twitter": "None", "instagram": "None", "facebook": "None", "youtube": "None", "website": "None", "summary": "None", "logo": "None", "latitude": 49.82021437385311, "longitude": -124.52343301814896}, "894572734RR0001": {"name": "Malaspina Printmakers Society", "designationCode": "C", "categoryCode": "22", "address": "1555 DURANLEAU STREET", "city": "VANCOUVER", "province": "BC", "country": "CA", "postalCode": "V6H3S3", "twitter": "None", "instagram": "None", "facebook": "None", "youtube": "None", "website": "None", "summary": "None", "logo": "None", "latitude": 49.27135032482278, "longitude": -123.13591911887885}, "736862095RR0001": {"name": "Malayalee Christian Assembly - Hamilton", "designationCode": "C", "categoryCode": "39", "address": "7 AMHERST CIRCLE", "city": "HAMILTON", "province": "ON", "country": "CA", "postalCode": "L8W3K2", "twitter": "None", "instagram": "None", "facebook": "None", "youtube": "None", "website": "None", "summary": "None", "logo": "None", "latitude": 43.20303378409012, "longitude": -79.86378027627117}, "831866199RR0001": {"name": "Malca Camelgar Guzy Foundation", "designationCode": "C", "categoryCode": "21", "address": "58 ELM RIDGE DRIVE,", "city": "TORONTO", "province": "ON", "country": "CA", "postalCode": "M6B1A5", "twitter": "None", "instagram": "None", "facebook": "None", "youtube": "None", "website": "None", "summary": "None", "logo": "None", "latitude": 43.704460979196654, "longitude": -79.43152793825374}, "819046558RR0001": {"name": "Malcolm J. Jenkins Family Foundation Incorporated", "designationCode": "B", "categoryCode": "03", "address": "3725 2ND AVENUE WEST", "city": "PRINCE ALBERT", "province": "SK", "country": "CA", "postalCode": "S6V1A1", "twitter": "None", "instagram": "None", "facebook": "None", "youtube": "None", "website": "None", "summary": "None", "logo": "None", "latitude": 53.180030185535195, "longitude": -105.76036288915138}, "827251505RR0001": {"name": "Male Victims Standing Tall", "designationCode": "C", "categoryCode": "11", "address": "702-165 ONTARIO STREET", "city": "KINGSTON", "province": "ON", "country": "CA", "postalCode": "K7L2Y6", "twitter": "None", "instagram": "None", "facebook": "None", "youtube": "None", "website": "None", "summary": "None", "logo": "None", "latitude": 44.22797778016631, "longitude": -76.48180046263512}, "822225116RR0001": {"name": "Malhotra Family Foundation", "designationCode": "B", "categoryCode": "03", "address": "2001-210 GLADSTONE AVE", "city": "OTTAWA", "province": "ON", "country": "CA", "postalCode": "K2P0Y6", "twitter": "None", "instagram": "None", "facebook": "None", "youtube": "None", "website": "None", "summary": "None", "logo": "None", "latitude": 45.414153556466154, "longitude": -75.68872253023842}, "840324552RR0001": {"name": "Malvern Spiritual Sai Centre", "designationCode": "C", "categoryCode": "48", "address": "63 ALFRED PATTERSON DR", "city": "MARKHAM", "province": "ON", "country": "CA", "postalCode": "L6E1J5", "twitter": "None", "instagram": "None", "facebook": "None", "youtube": "None", "website": "None", "summary": "None", "logo": "None", "latitude": 43.90083053427779, "longitude": -79.24387195279604}, "825737281RR0001": {"name": "Mama Ibado Charity", "designationCode": "B", "categoryCode": "01", "address": "255 DUNCAN MILL ROAD, 308", "city": "TORONTO", "province": "ON", "country": "CA", "postalCode": "M3B3H9", "twitter": "None", "instagram": "None", "facebook": "None", "youtube": "None", "website": "None", "summary": "None", "logo": "None", "latitude": 43.761636736020755, "longitude": -79.35163791355524}, "778678896RR0001": {"name": "Maman va \u00e0 l'\u00e9cole", "designationCode": "C", "categoryCode": "21", "address": "2 RUE CAMILLE", "city": "REPENTIGNY", "province": "QC", "country": "CA", "postalCode": "J6A4W9", "twitter": "None", "instagram": "None", "facebook": "None", "youtube": "None", "website": "None", "summary": "None", "logo": "None", "latitude": 45.75025958174157, "longitude": -73.43215148167813}, "819134982RR0001": {"name": "Mamas for Mamas", "designationCode": "C", "categoryCode": "09", "address": "120 - 1735 DOLPHIN AVE", "city": "KELOWNA", "province": "BC", "country": "CA", "postalCode": "V1Y8A6", "twitter": "None", "instagram": "None", "facebook": "None", "youtube": "None", "website": "None", "summary": "None", "logo": "None", "latitude": 49.879210487881885, "longitude": -119.45955285651218}, "135152064RR0001": {"name": "Mamele'Awt Qweesome Housing Society", "designationCode": "C", "categoryCode": "09", "address": "POST OFFICE BOX 3563", "city": "MISSION", "province": "BC", "country": "CA", "postalCode": "V2V4L1", "twitter": "None", "instagram": "None", "facebook": "None", "youtube": "None", "website": "None", "summary": "None", "logo": "None", "latitude": 49.13294100000006, "longitude": -122.32108249999993}, "120600325RR0001": {"name": "Mamie-Lait", "designationCode": "C", "categoryCode": "11", "address": "14,RUE ST-AMAND", "city": "QU\u00c9BEC", "province": "QC", "country": "CA", "postalCode": "G2A2K9", "twitter": "None", "instagram": "None", "facebook": "None", "youtube": "None", "website": "None", "summary": "None", "logo": "None", "latitude": 46.85452957397995, "longitude": -71.35925387619037}, "814819553RR0001": {"name": "Mamow Sha-Way-Gi-Kay-Win", "designationCode": "C", "categoryCode": "59", "address": "48 BROCK RD S", "city": "PUSLINCH", "province": "ON", "country": "CA", "postalCode": "N0B2J0", "twitter": "None", "instagram": "None", "facebook": "None", "youtube": "None", "website": "None", "summary": "None", "logo": "None", "latitude": 43.470929239829005, "longitude": -80.14802069106716}, "831808894RR0001": {"name": "Mamquam River Access Society", "designationCode": "C", "categoryCode": "50", "address": "2541 LOMOND WAY               BOX 3530", "city": "GARIBALDI HIGHLANDS", "province": "BC", "country": "CA", "postalCode": "V0N1T0", "twitter": "None", "instagram": "None", "facebook": "None", "youtube": "None", "website": "None", "summary": "None", "logo": "None", "latitude": 49.739217540261144, "longitude": -123.11411436993582}, "871786828RR0001": {"name": "Man of Peace Development", "designationCode": "C", "categoryCode": "47", "address": "156 MOUNT EDWARD ROAD", "city": "CHARLOTTETOWN", "province": "PE", "country": "CA", "postalCode": "C1A5T2", "twitter": "None", "instagram": "None", "facebook": "None", "youtube": "None", "website": "None", "summary": "None", "logo": "None", "latitude": 46.26196715459633, "longitude": -63.134533986525575}, "852623453RR0001": {"name": "Manantial de Vida Christian Ministries Society", "designationCode": "C", "categoryCode": "39", "address": "557 58TH AVE E", "city": "VANCOUVER", "province": "BC", "country": "CA", "postalCode": "V5X1W1", "twitter": "None", "instagram": "None", "facebook": "None", "youtube": "None", "website": "None", "summary": "None", "logo": "None", "latitude": 49.217173478792596, "longitude": -123.09364299708581}, "829917194RR0001": {"name": "Manavta", "designationCode": "C", "categoryCode": "09", "address": "1005 - 1410 1 ST SE", "city": "CALGARY", "province": "AB", "country": "CA", "postalCode": "T2G5T7", "twitter": "None", "instagram": "None", "facebook": "None", "youtube": "None", "website": "None", "summary": "None", "logo": "None", "latitude": 51.04340379476093, "longitude": -114.0607125}, "119288918RR1565": {"name": "Mandarin Central Congregation of Jehovah's Witnesses, Vancouver, British Columbia", "designationCode": "C", "categoryCode": "61", "address": "3280 GRANDVIEW HIGHWAY", "city": "VANCOUVER", "province": "BC", "country": "CA", "postalCode": "V5M2G2", "twitter": "None", "instagram": "None", "facebook": "None", "youtube": "None", "website": "None", "summary": "None", "logo": "None", "latitude": 49.25813950288553, "longitude": -123.03475102553523}, "119288918RR1404": {"name": "Mandarin Congregation of Jehovah's Witnesses, Edmonton, Alberta", "designationCode": "C", "categoryCode": "61", "address": "6-9932 88 AVENUE NW", "city": "EDMONTON", "province": "AB", "country": "CA", "postalCode": "T6E2R5", "twitter": "None", "instagram": "None", "facebook": "None", "youtube": "None", "website": "None", "summary": "None", "logo": "None", "latitude": 53.52353646768411, "longitude": -113.48772291618097}, "119288918RR1541": {"name": "Mandarin Congregation of Jehovah's Witnesses, Surrey, British Columbia", "designationCode": "C", "categoryCode": "61", "address": "10446 157 ST", "city": "SURREY", "province": "BC", "country": "CA", "postalCode": "V4N2H7", "twitter": "None", "instagram": "None", "facebook": "None", "youtube": "None", "website": "None", "summary": "None", "logo": "None", "latitude": 49.192325832361945, "longitude": -122.78688192226915}, "119288918RR1653": {"name": "Mandarin North Congregation of Jehovah's Witnesses, Markham, Ontario", "designationCode": "C", "categoryCode": "61", "address": "8205 MCCOWAN RD", "city": "MARKHAM", "province": "ON", "country": "CA", "postalCode": "L3P3J3", "twitter": "None", "instagram": "None", "facebook": "None", "youtube": "None", "website": "None", "summary": "None", "logo": "None", "latitude": 43.86044101638861, "longitude": -79.28280552432406}, "856485917RR0001": {"name": "Mangalashri Taklung Kagyu Foundation", "designationCode": "C", "categoryCode": "35", "address": "910 - 61 HEINTZMAN ST", "city": "TORONTO", "province": "ON", "country": "CA", "postalCode": "M6P5A2", "twitter": "None", "instagram": "None", "facebook": "None", "youtube": "None", "website": "None", "summary": "None", "logo": "None", "latitude": 43.66666904746378, "longitude": -79.46378917372624}}