{"898274741RR0001": {"name": "THE TORONTO BAPTIST SEMINARY AND BIBLE COLLEGE", "designationCode": "C", "categoryCode": "20", "address": "130 GERRARD STREET EAST", "city": "TORONTO", "province": "ON", "country": "CA", "postalCode": "M5A3T4", "twitter": "None", "instagram": "None", "facebook": "None", "youtube": "None", "website": "None", "summary": "None", "logo": "None", "latitude": 43.66058426008411, "longitude": -79.37525678449413}, "137292843RR0001": {"name": "THE TORONTO BRANCH OF THE ROYAL SCHOOL OF CHURCH MUSIC", "designationCode": "C", "categoryCode": "22", "address": "62 GREENCROFT CR", "city": "MARKHAM", "province": "ON", "country": "CA", "postalCode": "L3R3Y5", "twitter": "None", "instagram": "None", "facebook": "None", "youtube": "None", "website": "None", "summary": "None", "logo": "None", "latitude": 43.87941909244603, "longitude": -79.31133974978364}, "864867528RR0001": {"name": "THE TORONTO CANTATA CHORUS", "designationCode": "C", "categoryCode": "22", "address": "81 INGRAM RD", "city": "MARKHAM", "province": "ON", "country": "CA", "postalCode": "L3S4J9", "twitter": "None", "instagram": "None", "facebook": "None", "youtube": "None", "website": "None", "summary": "None", "logo": "None", "latitude": 43.834149, "longitude": -79.28429493447416}, "119259356RR0001": {"name": "THE TORONTO CANTORIAL TRUST FUND", "designationCode": "A", "categoryCode": "25", "address": "37 SOUTHBOURNE AVENUE", "city": "DOWNSVIEW", "province": "ON", "country": "CA", "postalCode": "M3H3C6", "twitter": "None", "instagram": "None", "facebook": "None", "youtube": "None", "website": "None", "summary": "None", "logo": "None", "latitude": 43.738914575596056, "longitude": -79.4310960796641}, "887275592RR0001": {"name": "THE TORONTO CENTRE FOR PHILOSOPHY", "designationCode": "C", "categoryCode": "20", "address": "29 MADISON AVE", "city": "TORONTO", "province": "ON", "country": "CA", "postalCode": "M5R2S2", "twitter": "None", "instagram": "None", "facebook": "None", "youtube": "None", "website": "None", "summary": "None", "logo": "None", "latitude": 43.66837539078996, "longitude": -79.40324702328486}, "108076829RR0001": {"name": "THE TORONTO CHILD-PARENT DEVELOPMENT CENTRE", "designationCode": "C", "categoryCode": "09", "address": "826 BLOOR STREET WEST", "city": "TORONTO", "province": "ON", "country": "CA", "postalCode": "M6G1L9", "twitter": "None", "instagram": "None", "facebook": "None", "youtube": "None", "website": "None", "summary": "None", "logo": "None", "latitude": 43.66260013572621, "longitude": -79.4229264111893}, "136282480RR0001": {"name": "THE TORONTO CHILDREN'S BREAKFAST CLUB", "designationCode": "C", "categoryCode": "01", "address": "SUITE 100                     2225 SHEPPARD AVENUE EAST", "city": "TORONTO", "province": "ON", "country": "CA", "postalCode": "M2J5C2", "twitter": "None", "instagram": "None", "facebook": "None", "youtube": "None", "website": "None", "summary": "None", "logo": "None", "latitude": 43.77470076043036, "longitude": -79.32865525168873}, "119259406RR0001": {"name": "THE TORONTO CHILDREN'S CHORUS", "designationCode": "C", "categoryCode": "22", "address": "26 DELISLE AVE.", "city": "TORONTO", "province": "ON", "country": "CA", "postalCode": "M4V1S5", "twitter": "None", "instagram": "None", "facebook": "None", "youtube": "None", "website": "None", "summary": "None", "logo": "None", "latitude": 43.6888922240173, "longitude": -79.39576537942166}, "119266104RR0001": {"name": "THE TORONTO CHINESE MENNONITE CHURCH", "designationCode": "C", "categoryCode": "34", "address": "1038 WOODBINE AVENUE", "city": "TORONTO", "province": "ON", "country": "CA", "postalCode": "M4C4C4", "twitter": "None", "instagram": "None", "facebook": "None", "youtube": "None", "website": "None", "summary": "None", "logo": "None", "latitude": 43.687468100467456, "longitude": -79.31358384321064}, "846792752RR0001": {"name": "THE TORONTO CHORAL SOCIETY (2005)", "designationCode": "C", "categoryCode": "22", "address": "608-283 DANFORTH AVE", "city": "TORONTO", "province": "ON", "country": "CA", "postalCode": "M4K1N2", "twitter": "None", "instagram": "None", "facebook": "None", "youtube": "None", "website": "None", "summary": "None", "logo": "None", "latitude": 43.677047725489174, "longitude": -79.35440498528482}, "119259414RR0001": {"name": "THE TORONTO CHURCH OF CHRIST", "designationCode": "C", "categoryCode": "39", "address": "610 MONARCH AVE", "city": "AJAX", "province": "ON", "country": "CA", "postalCode": "L1S6M4", "twitter": "None", "instagram": "None", "facebook": "None", "youtube": "None", "website": "None", "summary": "None", "logo": "None", "latitude": 43.83430866242702, "longitude": -79.02144110943952}, "134034065RR0001": {"name": "THE TORONTO CHURCH OF THE LIVING GOD", "designationCode": "C", "categoryCode": "39", "address": "2537 BAYVIEW AVENUE", "city": "TORONTO", "province": "ON", "country": "CA", "postalCode": "M2L1B1", "twitter": "None", "instagram": "None", "facebook": "None", "youtube": "None", "website": "None", "summary": "None", "logo": "None", "latitude": 43.74564302054357, "longitude": -79.38367437754668}, "108114158RR0001": {"name": "THE TORONTO CITY MISSION", "designationCode": "C", "categoryCode": "47", "address": "2610 BIRCHMOUNT ROAD", "city": "SCARBOROUGH", "province": "ON", "country": "CA", "postalCode": "M1W2P5", "twitter": "None", "instagram": "None", "facebook": "None", "youtube": "None", "website": "None", "summary": "None", "logo": "None", "latitude": 43.79085605661037, "longitude": -79.30250531825233}, "891606840RR0001": {"name": "THE TORONTO CLASSICAL SINGERS", "designationCode": "C", "categoryCode": "22", "address": "601 MOORELANDS CRES", "city": "MILTON", "province": "ON", "country": "CA", "postalCode": "L9T4B3", "twitter": "None", "instagram": "None", "facebook": "None", "youtube": "None", "website": "None", "summary": "None", "logo": "None", "latitude": 43.51139583068851, "longitude": -79.85775898502501}, "851367367RR0001": {"name": "THE TORONTO COMMANDERY HOSPICE INC.", "designationCode": "C", "categoryCode": "10", "address": "119-660 EGLINTON AVENUE EAST  UNIT 417", "city": "TORONTO", "province": "ON", "country": "CA", "postalCode": "M4G2K2", "twitter": "None", "instagram": "None", "facebook": "None", "youtube": "None", "website": "None", "summary": "None", "logo": "None", "latitude": 43.7114745, "longitude": -79.3751355}, "105255152RR0001": {"name": "THE TORONTO CONSORT", "designationCode": "C", "categoryCode": "22", "address": "427 BLOOR ST WEST", "city": "TORONTO", "province": "ON", "country": "CA", "postalCode": "M5S1X7", "twitter": "None", "instagram": "None", "facebook": "None", "youtube": "None", "website": "None", "summary": "None", "logo": "None", "latitude": 43.66625081652159, "longitude": -79.40573662155927}, "119266401RR0001": {"name": "THE TORONTO EARLY MUSIC CENTRE", "designationCode": "C", "categoryCode": "22", "address": "215 MELROSE AVE.", "city": "TORONTO", "province": "ON", "country": "CA", "postalCode": "M5M1Y9", "twitter": "None", "instagram": "None", "facebook": "None", "youtube": "None", "website": "None", "summary": "None", "logo": "None", "latitude": 43.7307897948815, "longitude": -79.41412742408681}, "105255178RR0001": {"name": "THE TORONTO EVANGELISTIC ASSOCIATION", "designationCode": "C", "categoryCode": "36", "address": "4190 YONGE STREET", "city": "WILLOWDALE", "province": "ON", "country": "CA", "postalCode": "M2P1N9", "twitter": "None", "instagram": "None", "facebook": "None", "youtube": "None", "website": "None", "summary": "None", "logo": "None", "latitude": 43.747383867043766, "longitude": -79.40751836242654}, "119259455RR0001": {"name": "THE TORONTO FRENCH SCHOOL FOUNDATION", "designationCode": "C", "categoryCode": "23", "address": "306 LAWRENCE AVE E", "city": "TORONTO", "province": "ON", "country": "CA", "postalCode": "M4N1T7", "twitter": "None", "instagram": "None", "facebook": "None", "youtube": "None", "website": "None", "summary": "None", "logo": "None", "latitude": 43.728010971983274, "longitude": -79.38422625491954}, "119259471RR0001": {"name": "THE TORONTO FRIENDSHIP CENTRE INC", "designationCode": "C", "categoryCode": "09", "address": "737 GLENGROVE AVE", "city": "NORTH YORK", "province": "ON", "country": "CA", "postalCode": "M6B2J7", "twitter": "None", "instagram": "None", "facebook": "None", "youtube": "None", "website": "None", "summary": "None", "logo": "None", "latitude": 43.70979580209485, "longitude": -79.4486973985516}, "865868012RR0001": {"name": "THE TORONTO GRACEHILL COMMUNITY CHURCH", "designationCode": "B", "categoryCode": "39", "address": "82 SUMMITCREST DR", "city": "RICHMOND HILL", "province": "ON", "country": "CA", "postalCode": "L4S1A8", "twitter": "None", "instagram": "None", "facebook": "None", "youtube": "None", "website": "None", "summary": "None", "logo": "None", "latitude": 43.90349714293955, "longitude": -79.43065936011887}, "868108648RR0001": {"name": "THE TORONTO HONG KONG LIONS FOUNDATION", "designationCode": "B", "categoryCode": "03", "address": "608-255 DUNCAN MILL ROAD", "city": "NORTH YORK", "province": "ON", "country": "CA", "postalCode": "M3B3H9", "twitter": "None", "instagram": "None", "facebook": "None", "youtube": "None", "website": "None", "summary": "None", "logo": "None", "latitude": 43.76163150000001, "longitude": -79.35144299999999}, "119259513RR0001": {"name": "THE TORONTO HUMANE SOCIETY", "designationCode": "C", "categoryCode": "54", "address": "11 RIVER STREET", "city": "TORONTO", "province": "ON", "country": "CA", "postalCode": "M5A4C2", "twitter": "None", "instagram": "None", "facebook": "None", "youtube": "None", "website": "None", "summary": "None", "logo": "None", "latitude": 43.65764266501233, "longitude": -79.35660130844283}, "135226793RR0001": {"name": "THE TORONTO JEWISH FILM FOUNDATION", "designationCode": "C", "categoryCode": "22", "address": "19 MADISON AVENUE", "city": "TORONTO", "province": "ON", "country": "CA", "postalCode": "M5R2S2", "twitter": "None", "instagram": "None", "facebook": "None", "youtube": "None", "website": "None", "summary": "None", "logo": "None", "latitude": 43.66804239078998, "longitude": -79.40311907435532}, "128369568RR0001": {"name": "THE TORONTO JEWISH MISSION", "designationCode": "C", "categoryCode": "49", "address": "PO BOX 10070                  RPO YONGE AND FINCH", "city": "NORTH YORK", "province": "ON", "country": "CA", "postalCode": "M2N0B6", "twitter": "None", "instagram": "None", "facebook": "None", "youtube": "None", "website": "None", "summary": "None", "logo": "None", "latitude": 43.77978000000002, "longitude": -79.415559}, "119259547RR0001": {"name": "THE TORONTO KIWANIS - T P LOBLAW CHARITABLE TRUST", "designationCode": "C", "categoryCode": "09", "address": "PO BOX 270 STN 1ST CAN PLACE", "city": "TORONTO", "province": "ON", "country": "CA", "postalCode": "M5X1C9", "twitter": "None", "instagram": "None", "facebook": "None", "youtube": "None", "website": "None", "summary": "None", "logo": "None", "latitude": 43.64868300000006, "longitude": -79.38544399999994}, "108122656RR0001": {"name": "THE TORONTO KOREAN EVANGELICAL CHURCH", "designationCode": "C", "categoryCode": "39", "address": "2799 WESTON RD", "city": "WESTON", "province": "ON", "country": "CA", "postalCode": "M9M2R8", "twitter": "None", "instagram": "None", "facebook": "None", "youtube": "None", "website": "None", "summary": "None", "logo": "None", "latitude": 43.719324139881145, "longitude": -79.53759579762279}, "856198049RR0001": {"name": "THE TORONTO KOREAN LIBRARY", "designationCode": "C", "categoryCode": "50", "address": "501C - 211 SAINT PATRICK ST", "city": "TORONTO", "province": "ON", "country": "CA", "postalCode": "M5T2Y9", "twitter": "None", "instagram": "None", "facebook": "None", "youtube": "None", "website": "None", "summary": "None", "logo": "None", "latitude": 43.65567754261633, "longitude": -79.39079794082214}, "890277999RR0001": {"name": "THE TORONTO KOREAN-CANADIAN CHOIR FOUNDATION", "designationCode": "C", "categoryCode": "22", "address": "18 PALMETTE DR.", "city": "RICHMOND HILL", "province": "ON", "country": "CA", "postalCode": "L4E5A4", "twitter": "None", "instagram": "None", "facebook": "None", "youtube": "None", "website": "None", "summary": "None", "logo": "None", "latitude": 43.93913956506449, "longitude": -79.4323152814357}, "130397052RR0001": {"name": "THE TORONTO LAKEWOOD MINYAN", "designationCode": "C", "categoryCode": "42", "address": "2803 BATHURST ST", "city": "TORONTO", "province": "ON", "country": "CA", "postalCode": "M6B3A4", "twitter": "None", "instagram": "None", "facebook": "None", "youtube": "None", "website": "None", "summary": "None", "logo": "None", "latitude": 43.71305826395058, "longitude": -79.42826818647951}, "119259604RR0001": {"name": "THE TORONTO MENDELSSOHN CHOIR", "designationCode": "C", "categoryCode": "22", "address": "404-720 BATHURST ST", "city": "TORONTO", "province": "ON", "country": "CA", "postalCode": "M5S2R4", "twitter": "None", "instagram": "None", "facebook": "None", "youtube": "None", "website": "None", "summary": "None", "logo": "None"}, "118974435RR0001": {"name": "THE TORONTO MIKVAH SOCIETY", "designationCode": "C", "categoryCode": "39", "address": "694 SHEPPARD AVENUE WEST", "city": "NORTH YORK", "province": "ON", "country": "CA", "postalCode": "M3H2S6", "twitter": "None", "instagram": "None", "facebook": "None", "youtube": "None", "website": "None", "summary": "None", "logo": "None", "latitude": 43.7544712018003, "longitude": -79.443658864014}, "877945782RR0001": {"name": "THE TORONTO MILITARY FAMILY RESOURCE CENTRE", "designationCode": "C", "categoryCode": "09", "address": "5 YUKON LANE", "city": "NORTH YORK", "province": "ON", "country": "CA", "postalCode": "M3K0A1", "twitter": "None", "instagram": "None", "facebook": "None", "youtube": "None", "website": "None", "summary": "None", "logo": "None", "latitude": 43.750642401869825, "longitude": -79.47043650164478}, "119259620RR0001": {"name": "THE TORONTO OUTDOOR ART EXHIBITION", "designationCode": "C", "categoryCode": "22", "address": "401 RICHMOND STREET WEST,     SUITE 264", "city": "TORONTO", "province": "ON", "country": "CA", "postalCode": "M5V3A8", "twitter": "None", "instagram": "None", "facebook": "None", "youtube": "None", "website": "None", "summary": "None", "logo": "None", "latitude": 43.64802194030256, "longitude": -79.39487429779568}, "886554476RR0001": {"name": "THE TORONTO PUBLIC LIBRARY FOUNDATION", "designationCode": "A", "categoryCode": "53", "address": "789 YONGE STREET", "city": "TORONTO", "province": "ON", "country": "CA", "postalCode": "M4W2G8", "twitter": "None", "instagram": "None", "facebook": "None", "youtube": "None", "website": "None", "summary": "None", "logo": "None", "latitude": 43.6717527685382, "longitude": -79.3873500718165}, "849308275RR0001": {"name": "THE TORONTO RAIL HERITAGE PRESERVATION SOCIETY", "designationCode": "C", "categoryCode": "50", "address": "283 SYMINGTON AVE", "city": "TORONTO", "province": "ON", "country": "CA", "postalCode": "M6P3W7", "twitter": "None", "instagram": "None", "facebook": "None", "youtube": "None", "website": "None", "summary": "None", "logo": "None", "latitude": 43.664783866783964, "longitude": -79.45082818953796}, "119267342RR0001": {"name": "THE TORONTO SCHOOL OF THEOLOGY", "designationCode": "C", "categoryCode": "20", "address": "47 QUEEN'S PARK CR EAST", "city": "TORONTO", "province": "ON", "country": "CA", "postalCode": "M5S2C3", "twitter": "None", "instagram": "None", "facebook": "None", "youtube": "None", "website": "None", "summary": "None", "logo": "None", "latitude": 43.66464755704306, "longitude": -79.3910169669343}, "888255791RR0001": {"name": "THE TORONTO SCOTTISH REGIMENT FOUNDATION", "designationCode": "A", "categoryCode": "53", "address": "70 BIRMINGHAM STREET", "city": "TORONTO", "province": "ON", "country": "CA", "postalCode": "M8V3W6", "twitter": "None", "instagram": "None", "facebook": "None", "youtube": "None", "website": "None", "summary": "None", "logo": "None", "latitude": 43.60400714192901, "longitude": -79.5029898314383}, "134119171RR0001": {"name": "THE TORONTO SOUTH ASIAN REVIEW", "designationCode": "C", "categoryCode": "22", "address": "240 - 6 GARAMOND CRT", "city": "NORTH YORK", "province": "ON", "country": "CA", "postalCode": "M3C1Z5", "twitter": "None", "instagram": "None", "facebook": "None", "youtube": "None", "website": "None", "summary": "None", "logo": "None", "latitude": 43.725981709129236, "longitude": -79.33380878700429}, "886295799RR0001": {"name": "THE TORONTO SPANISH EMMANUEL CHURCH OF THE NAZARENE", "designationCode": "C", "categoryCode": "39", "address": "1875 SHEPPARD AVENUE WEST", "city": "DOWNSVIEW", "province": "ON", "country": "CA", "postalCode": "M3L1Y6", "twitter": "None", "instagram": "None", "facebook": "None", "youtube": "None", "website": "None", "summary": "None", "logo": "None", "latitude": 43.74088984927016, "longitude": -79.50413654495361}, "119259653RR0001": {"name": "THE TORONTO SPIRITUAL LIFE CONVENTION", "designationCode": "C", "categoryCode": "49", "address": "374 SHEPPARD AVENUE EAST", "city": "TORONTO", "province": "ON", "country": "CA", "postalCode": "M2N3B6", "twitter": "None", "instagram": "None", "facebook": "None", "youtube": "None", "website": "None", "summary": "None", "logo": "None", "latitude": 43.76545014077519, "longitude": -79.39320693730144}, "119267425RR0001": {"name": "THE TORONTO STAR CHILDREN'S CHARITIES", "designationCode": "A", "categoryCode": "03", "address": "1 YONGE STREET, 4TH FLOOR", "city": "TORONTO", "province": "ON", "country": "CA", "postalCode": "M5E1E6", "twitter": "None", "instagram": "None", "facebook": "None", "youtube": "None", "website": "None", "summary": "None", "logo": "None", "latitude": 43.64240744465904, "longitude": -79.3749228855681}, "105255335RR0001": {"name": "THE TORONTO SYMPHONY", "designationCode": "C", "categoryCode": "22", "address": "500 - 145 WELLINGTON ST W", "city": "TORONTO", "province": "ON", "country": "CA", "postalCode": "M5J1H8", "twitter": "None", "instagram": "None", "facebook": "None", "youtube": "None", "website": "None", "summary": "None", "logo": "None", "latitude": 43.646944794450405, "longitude": -79.38149702774794}, "887967248RR0001": {"name": "THE TORONTO SYMPHONY FOUNDATION", "designationCode": "A", "categoryCode": "23", "address": "212 KING STREET W             SUITE 550", "city": "TORONTO", "province": "ON", "country": "CA", "postalCode": "M5H1K5", "twitter": "None", "instagram": "None", "facebook": "None", "youtube": "None", "website": "None", "summary": "None", "logo": "None", "latitude": 43.647364212908776, "longitude": -79.38630963809213}, "845186949RR0001": {"name": "THE TORONTO TRADITIONAL MASS SOCIETY", "designationCode": "C", "categoryCode": "38", "address": "3701 LAKESHORE BLVD W. STN    LONG BRANCH PO BOX 48577", "city": "TORONTO", "province": "ON", "country": "CA", "postalCode": "M8W4Y6", "twitter": "None", "instagram": "None", "facebook": "None", "youtube": "None", "website": "None", "summary": "None", "logo": "None", "latitude": 43.593248024121586, "longitude": -79.53850373659769}, "108123274RR0001": {"name": "THE TORONTO UNITED CHURCH COUNCIL", "designationCode": "C", "categoryCode": "49", "address": "24-30 WERTHEIM COURT", "city": "RICHMOND HILL", "province": "ON", "country": "CA", "postalCode": "L4B1B9", "twitter": "None", "instagram": "None", "facebook": "None", "youtube": "None", "website": "None", "summary": "None", "logo": "None", "latitude": 43.84559070051096, "longitude": -79.3850354223765}, "132350950RR0001": {"name": "THE TORONTO WALDORF SCHOOL", "designationCode": "C", "categoryCode": "20", "address": "9100 BATHURST ST.", "city": "THORNHILL", "province": "ON", "country": "CA", "postalCode": "L4J8C7", "twitter": "None", "instagram": "None", "facebook": "None", "youtube": "None", "website": "None", "summary": "None", "logo": "None", "latitude": 43.84329706514407, "longitude": -79.45771560010877}, "891512188RR0001": {"name": "THE TORONTO YOUNG AHM SUNGKYUL CHURCH", "designationCode": "C", "categoryCode": "39", "address": "1214 WARDEN AVENUE", "city": "TORONTO", "province": "ON", "country": "CA", "postalCode": "M1R2R3", "twitter": "None", "instagram": "None", "facebook": "None", "youtube": "None", "website": "None", "summary": "None", "logo": "None", "latitude": 43.74883271994928, "longitude": -79.2961768316981}, "891849044RR0001": {"name": "THE TORONTO YPU CAMP SITE", "designationCode": "C", "categoryCode": "56", "address": "106 MILLHOUSE CRESCENT", "city": "SCARBOROUGH", "province": "ON", "country": "CA", "postalCode": "M1B2E3", "twitter": "None", "instagram": "None", "facebook": "None", "youtube": "None", "website": "None", "summary": "None", "logo": "None", "latitude": 43.80577713240798, "longitude": -79.17219937122735}, "888243391RR0001": {"name": "THE TORONTO-CALCUTTA FOUNDATION", "designationCode": "C", "categoryCode": "09", "address": "2 LELAND AVE.", "city": "TORONTO", "province": "ON", "country": "CA", "postalCode": "M8Z2X5", "twitter": "None", "instagram": "None", "facebook": "None", "youtube": "None", "website": "None", "summary": "None", "logo": "None", "latitude": 43.64068731392451, "longitude": -79.5089949131512}, "119259729RR0001": {"name": "THE TORRINGTON AND DISTRICT AGRICULTURAL SOCIETY", "designationCode": "C", "categoryCode": "56", "address": "BOX 77", "city": "TORRINGTON", "province": "AB", "country": "CA", "postalCode": "T0M2B0", "twitter": "None", "instagram": "None", "facebook": "None", "youtube": "None", "website": "None", "summary": "None", "logo": "None", "latitude": 51.79455000000007, "longitude": -113.60697999999996}, "862949195RR0001": {"name": "THE TOSKAN CASALE FOUNDATION", "designationCode": "B", "categoryCode": "03", "address": "3080 YONGE STREET SUITE 5090  INTERACT MANAGEMENT", "city": "TORONTO", "province": "ON", "country": "CA", "postalCode": "M4N3N1", "twitter": "None", "instagram": "None", "facebook": "None", "youtube": "None", "website": "None", "summary": "None", "logo": "None", "latitude": 43.72562362669517, "longitude": -79.40238573027837}, "849179874RR0001": {"name": "THE TOUR DES PINS INSTITUTE/L'INSTITUT TOUR DES PINS", "designationCode": "C", "categoryCode": "49", "address": "630 SHERBROOKE ST. WEST       BUREAU 400", "city": "MONTREAL", "province": "QC", "country": "CA", "postalCode": "H3A1E4", "twitter": "None", "instagram": "None", "facebook": "None", "youtube": "None", "website": "None", "summary": "None", "logo": "None", "latitude": 45.50531513237934, "longitude": -73.5731159379366}, "892879743RR0001": {"name": "THE TOWER OF LIGHT CHILDREN'S FOUNDATION INC /LA FONDATION POUR LES ENFANTS TOUR DE LUMIERE INC.", "designationCode": "C", "categoryCode": "01", "address": "2E - 5167 BOUL DECARIE", "city": "MONTREAL", "province": "QC", "country": "CA", "postalCode": "H3W3C2", "twitter": "None", "instagram": "None", "facebook": "None", "youtube": "None", "website": "None", "summary": "None", "logo": "None", "latitude": 45.4844122065035, "longitude": -73.63027812655093}, "119259745RR0001": {"name": "THE TOWER POETRY SOCIETY", "designationCode": "C", "categoryCode": "22", "address": "P.O. BOX 10148                27 LEGEND COURT", "city": "ANCASTER", "province": "ON", "country": "CA", "postalCode": "L9K1P3", "twitter": "None", "instagram": "None", "facebook": "None", "youtube": "None", "website": "None", "summary": "None", "logo": "None", "latitude": 43.22742206717062, "longitude": -79.9484487795598}, "891326597RR0001": {"name": "THE TOWN OF COCHRANE LIBRARY BOARD", "designationCode": "C", "categoryCode": "50", "address": "405 RAILWAY ST W", "city": "COCHRANE", "province": "AB", "country": "CA", "postalCode": "T4C2E2", "twitter": "None", "instagram": "None", "facebook": "None", "youtube": "None", "website": "None", "summary": "None", "logo": "None", "latitude": 51.18914846875197, "longitude": -114.4718048272547}, "129973988RR0001": {"name": "THE TOWN OF EAST GWILLIMBURY PUBLIC LIBRARY BOARD", "designationCode": "C", "categoryCode": "50", "address": "PO BOX 1609,19513 YONGE STREET", "city": "HOLLAND LANDING", "province": "ON", "country": "CA", "postalCode": "L9N1P2", "twitter": "None", "instagram": "None", "facebook": "None", "youtube": "None", "website": "None", "summary": "None", "logo": "None", "latitude": 44.10445286124404, "longitude": -79.49229431207911}, "108082736RR0001": {"name": "THE TOWN OF GANANOQUE PUBLIC LIBRARY BOARD", "designationCode": "C", "categoryCode": "50", "address": "100 PARK STREET", "city": "GANANOQUE", "province": "ON", "country": "CA", "postalCode": "K7G2Y5", "twitter": "None", "instagram": "None", "facebook": "None", "youtube": "None", "website": "None", "summary": "None", "logo": "None", "latitude": 44.328049884701414, "longitude": -76.16463777498431}, "716405725RR0001": {"name": "THE TOWN OF GIBBONS LIBRARY BOARD", "designationCode": "C", "categoryCode": "50", "address": "PO BOX 510", "city": "GIBBONS", "province": "AB", "country": "CA", "postalCode": "T0A1N0", "twitter": "None", "instagram": "None", "facebook": "None", "youtube": "None", "website": "None", "summary": "None", "logo": "None", "latitude": 53.82811000000004, "longitude": -113.32767999999999}, "140913682RR0001": {"name": "THE TOWN OF OLDS LIBRARY BOARD", "designationCode": "C", "categoryCode": "50", "address": "5217 52 ST", "city": "OLDS", "province": "AB", "country": "CA", "postalCode": "T4H1H7", "twitter": "None", "instagram": "None", "facebook": "None", "youtube": "None", "website": "None", "summary": "None", "logo": "None", "latitude": 51.79137269663575, "longitude": -114.11198629600666}, "130638018RR0001": {"name": "THE TOWN OF PELHAM PUBLIC LIBRARY BOARD", "designationCode": "C", "categoryCode": "50", "address": "43 PELHAM TOWN SQUARE         P.O. BOX 830", "city": "FONTHILL", "province": "ON", "country": "CA", "postalCode": "L0S1E0", "twitter": "None", "instagram": "None", "facebook": "None", "youtube": "None", "website": "None", "summary": "None", "logo": "None", "latitude": 43.04408253563411, "longitude": -79.28310086081135}, "108101627RR0001": {"name": "THE TOWN OF YORK HISTORICAL SOCIETY", "designationCode": "C", "categoryCode": "50", "address": "260 ADELAIDE ST EAST", "city": "TORONTO", "province": "ON", "country": "CA", "postalCode": "M5A1N1", "twitter": "None", "instagram": "None", "facebook": "None", "youtube": "None", "website": "None", "summary": "None", "logo": "None", "latitude": 43.651775146834694, "longitude": -79.37042615251885}, "864188420RR0001": {"name": "THE TOWNSHIPS PROJECT", "designationCode": "C", "categoryCode": "09", "address": "69 UPPER PRINCE STREET", "city": "CHARLOTTETOWN", "province": "PE", "country": "CA", "postalCode": "C1A4S6", "twitter": "None", "instagram": "None", "facebook": "None", "youtube": "None", "website": "None", "summary": "None", "logo": "None", "latitude": 46.24083941909515, "longitude": -63.12957936456226}, "873544712RR0001": {"name": "THE TOY TEA FOR CHILDREN / THE-JOUET POUR ENFANTS", "designationCode": "A", "categoryCode": "09", "address": "72 BELMONT CR.", "city": "MONTREAL", "province": "QC", "country": "CA", "postalCode": "H3Y1Y4", "twitter": "None", "instagram": "None", "facebook": "None", "youtube": "None", "website": "None", "summary": "None", "logo": "None", "latitude": 45.483747244792006, "longitude": -73.60534256881539}, "818151748RR0001": {"name": "THE TR'ONDEK HWECH'IN EDUCATION TRUST", "designationCode": "C", "categoryCode": "25", "address": "P.O. BOX 599", "city": "DAWSON CITY", "province": "YT", "country": "CA", "postalCode": "Y0B1G0", "twitter": "None", "instagram": "None", "facebook": "None", "youtube": "None", "website": "None", "summary": "None", "logo": "None", "latitude": 64.05386000000004, "longitude": -139.43884999999995}, "851239830RR0001": {"name": "THE TRADITIONAL CHRISTIAN CATHOLIC CHURCH/EGLISE CHRETIENNE CATHOLIQUE TRADITIONELLE", "designationCode": "C", "categoryCode": "39", "address": "22 RUE DES MELEZES", "city": "SAINT-PHILIPPE", "province": "QC", "country": "CA", "postalCode": "J0L2K0", "twitter": "None", "instagram": "None", "facebook": "None", "youtube": "None", "website": "None", "summary": "None", "logo": "None", "latitude": 45.37437291508444, "longitude": -73.49296890922741}, "137693164RR0001": {"name": "THE TRADITIONAL LEARNING SOCIETY OF BRITISH COLUMBIA", "designationCode": "C", "categoryCode": "20", "address": "1189 ROCHESTER AVENUE", "city": "COQUITLAM", "province": "BC", "country": "CA", "postalCode": "V3K2X3", "twitter": "None", "instagram": "None", "facebook": "None", "youtube": "None", "website": "None", "summary": "None", "logo": "None", "latitude": 49.24506705587708, "longitude": -122.85705319350386}, "108135773RR0001": {"name": "THE TRAIL HISTORICAL SOCIETY", "designationCode": "C", "categoryCode": "50", "address": "P.O. BOX 405", "city": "TRAIL", "province": "BC", "country": "CA", "postalCode": "V1R4L7", "twitter": "None", "instagram": "None", "facebook": "None", "youtube": "None", "website": "None", "summary": "None", "logo": "None", "latitude": 49.096419000000054, "longitude": -117.71217349999993}, "886404482RR0001": {"name": "THE TRAINING RENEWAL FOUNDATION/FONDATION POUR LA FORMATION RENOUVELLEE", "designationCode": "C", "categoryCode": "20", "address": "7-231 MILLWAY AVE", "city": "CONCORD", "province": "ON", "country": "CA", "postalCode": "L4K3W7", "twitter": "None", "instagram": "None", "facebook": "None", "youtube": "None", "website": "None", "summary": "None", "logo": "None", "latitude": 43.799743905649386, "longitude": -79.52814700170302}, "891679722RR0001": {"name": "THE TREE HOUSE FAMILY RESOURCE CENTRE INC.", "designationCode": "C", "categoryCode": "09", "address": "1 POPLAR ROAD", "city": "DEER LAKE", "province": "NL", "country": "CA", "postalCode": "A8A1Z3", "twitter": "None", "instagram": "None", "facebook": "None", "youtube": "None", "website": "None", "summary": "None", "logo": "None", "latitude": 49.17042054494866, "longitude": -57.43401058618756}, "119441780RR0001": {"name": "THE TREE OF PEACE FRIENDSHIP CENTRE", "designationCode": "C", "categoryCode": "59", "address": "5009-51 ST                    PO BOX 2667", "city": "YELLOWKNIFE", "province": "NT", "country": "CA", "postalCode": "X1A2P9", "twitter": "None", "instagram": "None", "facebook": "None", "youtube": "None", "website": "None", "summary": "None", "logo": "None", "latitude": 62.45353107518347, "longitude": -114.37285322450204}, "864578406RR0001": {"name": "THE TRI-COMMUNITY HEALTH AND WELLNESS FOUNDATION", "designationCode": "A", "categoryCode": "13", "address": "BOX 3520                      205 DIAMOND AVENUE", "city": "SPRUCE GROVE", "province": "AB", "country": "CA", "postalCode": "T7X3A8", "twitter": "None", "instagram": "None", "facebook": "None", "youtube": "None", "website": "None", "summary": "None", "logo": "None", "latitude": 53.53592758435656, "longitude": -113.909265061697}, "890676943RR0001": {"name": "THE TRINITY CHURCH CEMETERY", "designationCode": "C", "categoryCode": "59", "address": "41 LOWE ST", "city": "CHATHAM", "province": "ON", "country": "CA", "postalCode": "N7L1J6", "twitter": "None", "instagram": "None", "facebook": "None", "youtube": "None", "website": "None", "summary": "None", "logo": "None", "latitude": 42.409184395233396, "longitude": -82.19515926340232}, "871632428RR0001": {"name": "THE TRINITY GOSPEL CHURCH", "designationCode": "C", "categoryCode": "39", "address": "30 APPALACHIAN CR.", "city": "KITCHENER", "province": "ON", "country": "CA", "postalCode": "N2E1A4", "twitter": "None", "instagram": "None", "facebook": "None", "youtube": "None", "website": "None", "summary": "None", "logo": "None", "latitude": 43.42222800972352, "longitude": -80.48184588470178}, "137823670RR0001": {"name": "THE TRINITY HOUSING SOCIETY", "designationCode": "C", "categoryCode": "09", "address": "410-1669 E BROADWAY", "city": "VANCOUVER", "province": "BC", "country": "CA", "postalCode": "V5N1V9", "twitter": "None", "instagram": "None", "facebook": "None", "youtube": "None", "website": "None", "summary": "None", "logo": "None", "latitude": 49.26235347879261, "longitude": -123.07054402553523}, "119259869RR0001": {"name": "THE TRIUMPHANT CHURCH OF GOD IN CANADA", "designationCode": "C", "categoryCode": "39", "address": "1 ELROSE AVE", "city": "TORONTO", "province": "ON", "country": "CA", "postalCode": "M9M2H5", "twitter": "None", "instagram": "None", "facebook": "None", "youtube": "None", "website": "None", "summary": "None", "logo": "None", "latitude": 43.717665509579284, "longitude": -79.52560382566818}, "890882160RR0001": {"name": "THE TRIUMPHANT CHURCH OF JESUS CHRIST (APOSTOLIC) OF ONTARIO", "designationCode": "C", "categoryCode": "49", "address": "5 GREENSBORO DRIVE", "city": "TORONTO", "province": "ON", "country": "CA", "postalCode": "M9W1C7", "twitter": "None", "instagram": "None", "facebook": "None", "youtube": "None", "website": "None", "summary": "None", "logo": "None", "latitude": 43.702785860378675, "longitude": -79.56131567692888}, "892387960RR0001": {"name": "THE TRIUMPHANT CHURCH-AN OASIS OF LOVE", "designationCode": "B", "categoryCode": "39", "address": "5223 87 ST NW", "city": "EDMONTON", "province": "AB", "country": "CA", "postalCode": "T6E5L5", "twitter": "None", "instagram": "None", "facebook": "None", "youtube": "None", "website": "None", "summary": "None", "logo": "None", "latitude": 53.4894657485429, "longitude": -113.45701436115806}, "108142423RR0001": {"name": "THE TROCHU VALLEY HISTORICAL SOCIETY", "designationCode": "C", "categoryCode": "50", "address": "BOX 538", "city": "TROCHU", "province": "AB", "country": "CA", "postalCode": "T0M2C0", "twitter": "None", "instagram": "None", "facebook": "None", "youtube": "None", "website": "None", "summary": "None", "logo": "None", "latitude": 51.82281000000001, "longitude": -113.23290741784133}, "119259885RR0001": {"name": "THE TROPICANA COMMUNITY SERVICES ORGANIZATION OF SCARBOROUGH", "designationCode": "C", "categoryCode": "09", "address": "1385 HUNTINGWOOD DRIVE", "city": "SCARBOROUGH", "province": "ON", "country": "CA", "postalCode": "M1S3J1", "twitter": "None", "instagram": "None", "facebook": "None", "youtube": "None", "website": "None", "summary": "None", "logo": "None", "latitude": 43.7982167176989, "longitude": -79.26445705799534}, "863613295RR0001": {"name": "THE TROTTIER FAMILY FOUNDATION/LA FONDATION FAMILIALE TROTTIER", "designationCode": "B", "categoryCode": "03", "address": "800 - 2120 RUE SHERBROOKE E", "city": "MONTREAL", "province": "QC", "country": "CA", "postalCode": "H2K1C3", "twitter": "None", "instagram": "None", "facebook": "None", "youtube": "None", "website": "None", "summary": "None", "logo": "None", "latitude": 45.53400108533833, "longitude": -73.56199564861863}, "824398473RR0001": {"name": "THE TRUDY AND DOUG PEDEN CHARITABLE FOUNDATION", "designationCode": "B", "categoryCode": "03", "address": "509-612 VIEW STREET", "city": "VICTORIA", "province": "BC", "country": "CA", "postalCode": "V8W1J5", "twitter": "None", "instagram": "None", "facebook": "None", "youtube": "None", "website": "None", "summary": "None", "logo": "None", "latitude": 48.425680423827025, "longitude": -123.36727068872989}, "857344535RR0001": {"name": "THE TRUE LIGHT CHURCH", "designationCode": "C", "categoryCode": "49", "address": "41 UXBRIDGE AVE", "city": "TORONTO", "province": "ON", "country": "CA", "postalCode": "M6N2Y1", "twitter": "None", "instagram": "None", "facebook": "None", "youtube": "None", "website": "None", "summary": "None", "logo": "None", "latitude": 43.66896978879332, "longitude": -79.45639992226914}, "869439000RR0001": {"name": "THE TRUE NORTH CENTRE FOR EDUCATION AND HUMAN DEVELOPMENT", "designationCode": "C", "categoryCode": "49", "address": "3618 DU MUSEE AVENUE", "city": "MONTREAL", "province": "QC", "country": "CA", "postalCode": "H3G2C9", "twitter": "None", "instagram": "None", "facebook": "None", "youtube": "None", "website": "None", "summary": "None", "logo": "None", "latitude": 45.50052382234997, "longitude": -73.58317185180898}, "890848393RR0001": {"name": "THE TRUE NORTH PERFORMANCE SOCIETY OF BRITISH COLUMBIA", "designationCode": "C", "categoryCode": "20", "address": "2131 STIRLING AVENUE", "city": "RICHMOND", "province": "BC", "country": "CA", "postalCode": "V7B1J6", "twitter": "None", "instagram": "None", "facebook": "None", "youtube": "None", "website": "None", "summary": "None", "logo": "None", "latitude": 49.190530936147624, "longitude": -123.14673385807005}, "833406143RR0001": {"name": "THE TRUE RESTORED PENTECOSTAL TABERNACLE", "designationCode": "C", "categoryCode": "39", "address": "104 PADFIELD", "city": "BOWMANVILLE", "province": "ON", "country": "CA", "postalCode": "L1C5H6", "twitter": "None", "instagram": "None", "facebook": "None", "youtube": "None", "website": "None", "summary": "None", "logo": "None", "latitude": 43.90263141355524, "longitude": -78.71137058425171}, "886841790RR0001": {"name": "THE TRUSTEE BOARD OF THE FIRST AVENUE CHURCH OF GOD", "designationCode": "C", "categoryCode": "39", "address": "50850 YALE ROAD EAST", "city": "ROSEDALE", "province": "BC", "country": "CA", "postalCode": "V0X1X2", "twitter": "None", "instagram": "None", "facebook": "None", "youtube": "None", "website": "None", "summary": "None", "logo": "None", "latitude": 49.17547624458951, "longitude": -121.81718576775907}, "128917366RR0001": {"name": "THE TRUSTEES OF FIRST BAPTIST CHURCH, DARTMOUTH", "designationCode": "C", "categoryCode": "31", "address": "P.O.BOX 186", "city": "DARTMOUTH", "province": "NS", "country": "CA", "postalCode": "B2Y3Y3", "twitter": "None", "instagram": "None", "facebook": "None", "youtube": "None", "website": "None", "summary": "None", "logo": "None", "latitude": 44.67403500000006, "longitude": -63.57535099999993}, "107664047RR0001": {"name": "THE TRUSTEES OF MARANATHA EVANGELICAL FREE CHURCH, A RELIGIOUS SOCIETY IN THE CITY OF WINNIPEG, IN THE PROVINCE OF MANITOBA", "designationCode": "C", "categoryCode": "39", "address": "910 STURGEON RD,", "city": "WINNIPEG", "province": "MB", "country": "CA", "postalCode": "R2Y0L2", "twitter": "None", "instagram": "None", "facebook": "None", "youtube": "None", "website": "None", "summary": "None", "logo": "None", "latitude": 49.89008687399734, "longitude": -97.27822227263489}, "119260057RR0001": {"name": "THE TRUSTEES OF MARSHFIELD COMMUNITY CEMETERY", "designationCode": "C", "categoryCode": "59", "address": "382 JENKINS ROAD", "city": "MARSHFIELD", "province": "PE", "country": "CA", "postalCode": "C1C0J6", "twitter": "None", "instagram": "None", "facebook": "None", "youtube": "None", "website": "None", "summary": "None", "logo": "None", "latitude": 46.28846671663105, "longitude": -63.06522106647812}, "844505164RR0001": {"name": "THE TRUSTEES OF MURRAY RIVER CEMETERY", "designationCode": "C", "categoryCode": "59", "address": "PO BOX 88", "city": "MURRAY RIVER", "province": "PE", "country": "CA", "postalCode": "C0A1W0", "twitter": "None", "instagram": "None", "facebook": "None", "youtube": "None", "website": "None", "summary": "None", "logo": "None", "latitude": 45.98806724330268, "longitude": -62.720381883269674}, "892316589RR0001": {"name": "THE TRUSTEES OF OAKVALE CEMETERY ASSOCIATION", "designationCode": "C", "categoryCode": "59", "address": "P.O. BOX 21", "city": "CLARKS HARBOUR", "province": "NS", "country": "CA", "postalCode": "B0W1P0", "twitter": "None", "instagram": "None", "facebook": "None", "youtube": "None", "website": "None", "summary": "None", "logo": "None", "latitude": 43.44549995614297, "longitude": -65.63261007328738}, "119259919RR0001": {"name": "THE TRUSTEES OF PICTOU ACADEMY EDUCATIONAL FOUNDATION", "designationCode": "B", "categoryCode": "21", "address": "PO BOX 1515", "city": "PICTOU", "province": "NS", "country": "CA", "postalCode": "B0K1H0", "twitter": "None", "instagram": "None", "facebook": "None", "youtube": "None", "website": "None", "summary": "None", "logo": "None", "latitude": 45.67583400000005, "longitude": -62.70865099999993}, "127892172RR0001": {"name": "THE TRUSTEES OF ST PAUL'S CHURCH ANGLICAN CEMETERY", "designationCode": "C", "categoryCode": "59", "address": "560 DUNDAS STREET", "city": "WOODSTOCK", "province": "ON", "country": "CA", "postalCode": "N4S1C7", "twitter": "None", "instagram": "None", "facebook": "None", "youtube": "None", "website": "None", "summary": "None", "logo": "None", "latitude": 43.13048261945314, "longitude": -80.7538195606784}, "107409757RR0001": {"name": "THE TRUSTEES OF THE FUNDAMENTAL BAPTIST CHURCH OF LANCASTER", "designationCode": "C", "categoryCode": "31", "address": "1170 SAND COVE ROAD", "city": "SAINT JOHN", "province": "NB", "country": "CA", "postalCode": "E2M0G3", "twitter": "None", "instagram": "None", "facebook": "None", "youtube": "None", "website": "None", "summary": "None", "logo": "None", "latitude": 45.241315374978285, "longitude": -66.1019015145996}, "893185975RR0001": {"name": "THE TRUSTEES OF THE HOLY GHOST UKRAINIAN ORTHODOX CHURCH", "designationCode": "C", "categoryCode": "39", "address": "PO BOX 129", "city": "TOLSTOI", "province": "MB", "country": "CA", "postalCode": "R0A2E0", "twitter": "None", "instagram": "None", "facebook": "None", "youtube": "None", "website": "None", "summary": "None", "logo": "None", "latitude": 49.08761000000004, "longitude": -96.80849999999998}, "889837993RR0001": {"name": "THE TRUSTEES OF THE LAURENTIAN REGIONAL HIGH SCHOOL ALUMNI CORPORATION", "designationCode": "C", "categoryCode": "21", "address": "448 ARGENTEUIL AVENUE", "city": "LACHUTE", "province": "QC", "country": "CA", "postalCode": "J8H1W9", "twitter": "None", "instagram": "None", "facebook": "None", "youtube": "None", "website": "None", "summary": "None", "logo": "None", "latitude": 45.63854881970371, "longitude": -74.34621520674341}, "889474979RR0001": {"name": "THE TRUSTEES OF THE MIDDLE RIVER PRESBYTERIAN CEMETERY", "designationCode": "C", "categoryCode": "59", "address": "RR 3                          BOX 76", "city": "BADDECK", "province": "NS", "country": "CA", "postalCode": "B0E1B0", "twitter": "None", "instagram": "None", "facebook": "None", "youtube": "None", "website": "None", "summary": "None", "logo": "None", "latitude": 46.087500000000034, "longitude": -60.780119999999954}, "889061644RR0001": {"name": "THE TRUSTEES OF THE MISSION CHURCH OF SAINT JOHN BAPTIST", "designationCode": "A", "categoryCode": "30", "address": "815 MILLIDGE AVE", "city": "SAINT JOHN", "province": "NB", "country": "CA", "postalCode": "E2K2N8", "twitter": "None", "instagram": "None", "facebook": "None", "youtube": "None", "website": "None", "summary": "None", "logo": "None", "latitude": 45.29728295031454, "longitude": -66.09937768624837}, "119259976RR0001": {"name": "THE TRUSTEES OF THE MURRAY HARBOUR CEMETERY", "designationCode": "C", "categoryCode": "59", "address": "PO BOX 193", "city": "MURRAY HARBOUR", "province": "PE", "country": "CA", "postalCode": "C0A1V0", "twitter": "None", "instagram": "None", "facebook": "None", "youtube": "None", "website": "None", "summary": "None", "logo": "None", "latitude": 46.16917635237179, "longitude": -62.81750980881458}}