{"809200827RR0001": {"name": "Fafamem Foundation", "designationCode": "C", "categoryCode": "21", "address": "PO BOX 48354 BENTALL PO", "city": "VANCOUVER", "province": "BC", "country": "CA", "postalCode": "V7X1A1", "twitter": "None", "instagram": "None", "facebook": "None", "youtube": "None", "website": "None", "summary": "None", "logo": "None", "latitude": 49.286055733749365, "longitude": -123.11861287615625}, "739742526RR0001": {"name": "Fahy Family Charitable Trust", "designationCode": "B", "categoryCode": "03", "address": "10 - 1616 BROADWAY W", "city": "VANCOUVER", "province": "BC", "country": "CA", "postalCode": "V6J1X6", "twitter": "None", "instagram": "None", "facebook": "None", "youtube": "None", "website": "None", "summary": "None", "logo": "None", "latitude": 49.263610528420756, "longitude": -123.1414727216227}, "803578491RR0001": {"name": "Fairfax Community Resources Inc.", "designationCode": "C", "categoryCode": "09", "address": "201-88A SHERBROOK ST", "city": "WINNIPEG", "province": "MB", "country": "CA", "postalCode": "R3C2B3", "twitter": "None", "instagram": "None", "facebook": "None", "youtube": "None", "website": "None", "summary": "None", "logo": "None", "latitude": 49.88105110948972, "longitude": -97.15962982713995}, "128210259RR0001": {"name": "Fairfield Community Association of Victoria", "designationCode": "C", "categoryCode": "59", "address": "1330 FAIRFIELD RD", "city": "VICTORIA", "province": "BC", "country": "CA", "postalCode": "V8S5J1", "twitter": "None", "instagram": "None", "facebook": "None", "youtube": "None", "website": "None", "summary": "None", "logo": "None", "latitude": 48.41476028951445, "longitude": -123.34741681822366}, "107797383RR0130": {"name": "Fairhavens Filipino Seventh-day Adventist Church", "designationCode": "C", "categoryCode": "41", "address": "8795 KEELE STREET", "city": "VAUGHAN", "province": "ON", "country": "CA", "postalCode": "L4K2N1", "twitter": "None", "instagram": "None", "facebook": "None", "youtube": "None", "website": "None", "summary": "None", "logo": "None", "latitude": 43.8256783333429, "longitude": -79.50570570364755}, "742380124RR0001": {"name": "Fairley Family Foundation", "designationCode": "B", "categoryCode": "03", "address": "6550 TUSCANY OAKS DRIVE,", "city": "WINDSOR", "province": "ON", "country": "CA", "postalCode": "N9J0B6", "twitter": "None", "instagram": "None", "facebook": "None", "youtube": "None", "website": "None", "summary": "None", "logo": "None", "latitude": 42.23445690867916, "longitude": -83.06574297137769}, "804232510RR0001": {"name": "Fairview Aircraft Restoration Society", "designationCode": "C", "categoryCode": "50", "address": "10205 110 STREET              POST OFFICE BOX 78", "city": "FAIRVIEW", "province": "AB", "country": "CA", "postalCode": "T0H1L0", "twitter": "None", "instagram": "None", "facebook": "None", "youtube": "None", "website": "None", "summary": "None", "logo": "None", "latitude": 56.06691437246812, "longitude": -118.38424150856969}, "829535509RR0001": {"name": "Fairview Baptist Cemetery Inc.", "designationCode": "C", "categoryCode": "59", "address": "24 MARRIANNE DRIVE", "city": "CORNWALL", "province": "PE", "country": "CA", "postalCode": "C0A1H8", "twitter": "None", "instagram": "None", "facebook": "None", "youtube": "None", "website": "None", "summary": "None", "logo": "None", "latitude": 46.24780787148716, "longitude": -63.18594750207746}, "119288918RR0048": {"name": "Fairview Congregation of Jehovah's Witnesses, Halifax, Nova Scotia", "designationCode": "C", "categoryCode": "61", "address": "309 - 40 KNIGHTSRIDGE DRIVE", "city": "HALIFAX", "province": "NS", "country": "CA", "postalCode": "B3M4G5", "twitter": "None", "instagram": "None", "facebook": "None", "youtube": "None", "website": "None", "summary": "None", "logo": "None", "latitude": 44.67058201780226, "longitude": -63.66165513950576}, "107372112RR0001": {"name": "Fairview Mennonite Brethren Church", "designationCode": "C", "categoryCode": "34", "address": "455 GENEVA ST", "city": "ST CATHARINES", "province": "ON", "country": "CA", "postalCode": "L2N2H2", "twitter": "None", "instagram": "None", "facebook": "None", "youtube": "None", "website": "None", "summary": "None", "logo": "None", "latitude": 43.189471163194675, "longitude": -79.24146060430434}, "855159083RR0001": {"name": "Fairview United Family Resource Centre", "designationCode": "C", "categoryCode": "09", "address": "6 TITUS ST", "city": "HALIFAX", "province": "NS", "country": "CA", "postalCode": "B3N2Y7", "twitter": "None", "instagram": "None", "facebook": "None", "youtube": "None", "website": "None", "summary": "None", "logo": "None", "latitude": 44.658993709677496, "longitude": -63.633275119077766}, "802495655RR0001": {"name": "Fairway Charitable Trust", "designationCode": "B", "categoryCode": "39", "address": "PO BOX 330", "city": "DOUGLAS", "province": "MB", "country": "CA", "postalCode": "R0K0R0", "twitter": "None", "instagram": "None", "facebook": "None", "youtube": "None", "website": "None", "summary": "None", "logo": "None", "latitude": 49.89291000000003, "longitude": -99.71012999999999}, "832712442RR0001": {"name": "Fairy Lake Environmental Association", "designationCode": "C", "categoryCode": "52", "address": "37 KING WILLIAM STREET", "city": "HUNTSVILLE", "province": "ON", "country": "CA", "postalCode": "P1H1G4", "twitter": "None", "instagram": "None", "facebook": "None", "youtube": "None", "website": "None", "summary": "None", "logo": "None", "latitude": 45.33150895585445, "longitude": -79.20907538063376}, "822039111RR0001": {"name": "Faith & Hope Ministries", "designationCode": "C", "categoryCode": "11", "address": "P.O. BOX 699", "city": "BRIGHTON", "province": "ON", "country": "CA", "postalCode": "K0K1H0", "twitter": "None", "instagram": "None", "facebook": "None", "youtube": "None", "website": "None", "summary": "None", "logo": "None", "latitude": 44.04197993003085, "longitude": -77.73788995224774}, "814573713RR0001": {"name": "Faith & Prayer Ministries Canada", "designationCode": "C", "categoryCode": "39", "address": "8 CARABRAM CRT", "city": "BRAMPTON", "province": "ON", "country": "CA", "postalCode": "L6X4M2", "twitter": "None", "instagram": "None", "facebook": "None", "youtube": "None", "website": "None", "summary": "None", "logo": "None", "latitude": 43.69080683873857, "longitude": -79.78843381637734}, "828276121RR0001": {"name": "Faith & The Common Good/La foi et le bien commun", "designationCode": "C", "categoryCode": "52", "address": "400 215 SPADINA AVE", "city": "TORONTO", "province": "ON", "country": "CA", "postalCode": "M5T2C7", "twitter": "None", "instagram": "None", "facebook": "None", "youtube": "None", "website": "None", "summary": "None", "logo": "None", "latitude": 43.65063316348313, "longitude": -79.39697013165816}, "824484372RR0001": {"name": "Faith and Healing Ministry", "designationCode": "C", "categoryCode": "39", "address": "25 REDWILLOW ROAD", "city": "BRAMPTON", "province": "ON", "country": "CA", "postalCode": "L6P2A4", "twitter": "None", "instagram": "None", "facebook": "None", "youtube": "None", "website": "None", "summary": "None", "logo": "None", "latitude": 43.77688002943037, "longitude": -79.70302397887951}, "847668050RR0001": {"name": "Faith and Love Children's Ministry", "designationCode": "C", "categoryCode": "01", "address": "4519 222A ST", "city": "LANGLEY", "province": "BC", "country": "CA", "postalCode": "V2Z1B2", "twitter": "None", "instagram": "None", "facebook": "None", "youtube": "None", "website": "None", "summary": "None", "logo": "None", "latitude": 49.08428197446477, "longitude": -122.60705291788307}, "811602994RR0001": {"name": "Faith in Jesus City Church Winnipeg Inc.", "designationCode": "C", "categoryCode": "39", "address": "44 CHAPPARAL CRES.", "city": "WINNIPEG", "province": "MB", "country": "CA", "postalCode": "R2P2B9", "twitter": "None", "instagram": "None", "facebook": "None", "youtube": "None", "website": "None", "summary": "None", "logo": "None", "latitude": 49.96502753952927, "longitude": -97.18667455689884}, "852715689RR0001": {"name": "Faith in Our Community Society", "designationCode": "C", "categoryCode": "09", "address": "2ND FLOOR, 107 EAST 3RD AVENUE", "city": "VANCOUVER", "province": "BC", "country": "CA", "postalCode": "V5T1C7", "twitter": "None", "instagram": "None", "facebook": "None", "youtube": "None", "website": "None", "summary": "None", "logo": "None", "latitude": 49.26826948600598, "longitude": -123.1025127485429}, "809549330RR0001": {"name": "Faith is Our Victory Now Ministries", "designationCode": "C", "categoryCode": "39", "address": "4 - 127 SUNRISE AVE", "city": "NORTH YORK", "province": "ON", "country": "CA", "postalCode": "M4A1A9", "twitter": "None", "instagram": "None", "facebook": "None", "youtube": "None", "website": "None", "summary": "None", "logo": "None", "latitude": 43.717532878700524, "longitude": -79.31054600499166}, "812877751RR0001": {"name": "Faith of Life Network", "designationCode": "C", "categoryCode": "60", "address": "7150 EDWARDS BOULEVARD", "city": "MISSISSAUGA", "province": "ON", "country": "CA", "postalCode": "L5S1Z1", "twitter": "None", "instagram": "None", "facebook": "None", "youtube": "None", "website": "None", "summary": "None", "logo": "None", "latitude": 43.65079469522211, "longitude": -79.70806878189707}, "809401284RR0001": {"name": "Faith to Live by Inc.", "designationCode": "C", "categoryCode": "47", "address": "BOX 426", "city": "WINNIPEG", "province": "MB", "country": "CA", "postalCode": "R3C2H6", "twitter": "None", "instagram": "None", "facebook": "None", "youtube": "None", "website": "None", "summary": "None", "logo": "None", "latitude": 49.899525000000054, "longitude": -97.14112999999993}, "131110827RR0001": {"name": "Faith Alive Christian Church of Barrie", "designationCode": "C", "categoryCode": "39", "address": "110 LINE 7 SOUTH", "city": "ORO-MEDONTE", "province": "ON", "country": "CA", "postalCode": "L0L2X0", "twitter": "None", "instagram": "None", "facebook": "None", "youtube": "None", "website": "None", "summary": "None", "logo": "None", "latitude": 44.47691843331217, "longitude": -79.53260766477617}, "813815123RR0001": {"name": "Faith Alive Family Church", "designationCode": "C", "categoryCode": "39", "address": "3034 GLANWORTH DR", "city": "LONDON", "province": "ON", "country": "CA", "postalCode": "N6N1N6", "twitter": "None", "instagram": "None", "facebook": "None", "youtube": "None", "website": "None", "summary": "None", "logo": "None", "latitude": 42.86642142050879, "longitude": -81.198253974609}, "852437755RR0001": {"name": "Faith Alive Ministry 7th Day", "designationCode": "C", "categoryCode": "39", "address": "49 TULIP DRIVE", "city": "BRAMPTON", "province": "ON", "country": "CA", "postalCode": "L6Y3W3", "twitter": "None", "instagram": "None", "facebook": "None", "youtube": "None", "website": "None", "summary": "None", "logo": "None", "latitude": 43.64896370162739, "longitude": -79.74252174075262}, "825965296RR0001": {"name": "Faith Anglican Church", "designationCode": "C", "categoryCode": "30", "address": "P.O. BOX 91002                703 RUE NOTRE DAME", "city": "EMBRUN", "province": "ON", "country": "CA", "postalCode": "K0A1W1", "twitter": "None", "instagram": "None", "facebook": "None", "youtube": "None", "website": "None", "summary": "None", "logo": "None", "latitude": 45.26751915525238, "longitude": -75.30708418678037}, "847489895RR0001": {"name": "Faith Arise Ministries", "designationCode": "C", "categoryCode": "49", "address": "PO BOX 80038                  2850 LAKESHORE BLVD. W.", "city": "ETOBICOKE", "province": "ON", "country": "CA", "postalCode": "M8V4A1", "twitter": "None", "instagram": "None", "facebook": "None", "youtube": "None", "website": "None", "summary": "None", "logo": "None", "latitude": 43.60150616515655, "longitude": -79.5020460133302}, "706514296RR0001": {"name": "Faith Assembly of God Ministries International", "designationCode": "C", "categoryCode": "39", "address": "304 - 15 LARCH ST", "city": "TORONTO", "province": "ON", "country": "CA", "postalCode": "M5T3J7", "twitter": "None", "instagram": "None", "facebook": "None", "youtube": "None", "website": "None", "summary": "None", "logo": "None", "latitude": 43.65258878296494, "longitude": -79.39673008018369}, "878856061RR0002": {"name": "Faith Associate Reformed Presbyterian Church of Tillsonburg, Ontario", "designationCode": "C", "categoryCode": "37", "address": "55833 EDEN LINE, RR1", "city": "EDEN", "province": "ON", "country": "CA", "postalCode": "N0J1H0", "twitter": "None", "instagram": "None", "facebook": "None", "youtube": "None", "website": "None", "summary": "None", "logo": "None", "latitude": 42.79712843864892, "longitude": -80.78005255091912}, "107372575RR0001": {"name": "Faith Baptist Church of St. Thomas", "designationCode": "C", "categoryCode": "31", "address": "345 FAIRVIEW AVENUE", "city": "ST THOMAS", "province": "ON", "country": "CA", "postalCode": "N5R6M7", "twitter": "None", "instagram": "None", "facebook": "None", "youtube": "None", "website": "None", "summary": "None", "logo": "None", "latitude": 42.75041271681637, "longitude": -81.16677555824036}, "871450698RR0001": {"name": "Faith Beyond Belief", "designationCode": "C", "categoryCode": "39", "address": "939 RUNDLECAIRN WAY NE", "city": "CALGARY", "province": "AB", "country": "CA", "postalCode": "T1Y3A2", "twitter": "None", "instagram": "None", "facebook": "None", "youtube": "None", "website": "None", "summary": "None", "logo": "None", "latitude": 51.07081547100232, "longitude": -113.96105108381903}, "787857523RR0001": {"name": "Faith Bridge Ministries", "designationCode": "C", "categoryCode": "39", "address": "54 ELLIOTTGLEN DR", "city": "AJAX", "province": "ON", "country": "CA", "postalCode": "L1Z0H2", "twitter": "None", "instagram": "None", "facebook": "None", "youtube": "None", "website": "None", "summary": "None", "logo": "None", "latitude": 43.896465114086105, "longitude": -79.02752690689013}, "802306332RR0001": {"name": "Faith Builders Educational Programs - Canada", "designationCode": "C", "categoryCode": "21", "address": "28 NITHVIEW CRT", "city": "NEW HAMBURG", "province": "ON", "country": "CA", "postalCode": "N3A2H4", "twitter": "None", "instagram": "None", "facebook": "None", "youtube": "None", "website": "None", "summary": "None", "logo": "None", "latitude": 43.383485044116895, "longitude": -80.70359124773485}, "721778298RR0001": {"name": "Faith Christian Alliance Church (FCAC)", "designationCode": "C", "categoryCode": "39", "address": "106 BELLEFONTAINE ST", "city": "SCARBOROUGH", "province": "ON", "country": "CA", "postalCode": "M1S4E6", "twitter": "None", "instagram": "None", "facebook": "None", "youtube": "None", "website": "None", "summary": "None", "logo": "None", "latitude": 43.80144475102442, "longitude": -79.29207926227714}, "825177579RR0001": {"name": "Faith Christian Assembly Calgary - Filipino Ministry", "designationCode": "C", "categoryCode": "39", "address": "100 COVE CRES", "city": "CHESTERMERE", "province": "AB", "country": "CA", "postalCode": "T1X1J5", "twitter": "None", "instagram": "None", "facebook": "None", "youtube": "None", "website": "None", "summary": "None", "logo": "None", "latitude": 51.05702753318129, "longitude": -113.81348266763806}, "860951870RR0001": {"name": "Faith Church", "designationCode": "C", "categoryCode": "37", "address": "15 OLIVE AVENUE", "city": "TORONTO", "province": "ON", "country": "CA", "postalCode": "M2N4N4", "twitter": "None", "instagram": "None", "facebook": "None", "youtube": "None", "website": "None", "summary": "None", "logo": "None", "latitude": 43.77888289586856, "longitude": -79.41447576406614}, "107372690RR0001": {"name": "Faith Church of Winnipeg, Inc.", "designationCode": "C", "categoryCode": "31", "address": "386 MCGREGOR STREET", "city": "WINNIPEG", "province": "MB", "country": "CA", "postalCode": "R2W4X5", "twitter": "None", "instagram": "None", "facebook": "None", "youtube": "None", "website": "None", "summary": "None", "logo": "None", "latitude": 49.92423326118061, "longitude": -97.14335054527072}, "853710556RR0001": {"name": "Faith Community Associated Gospel Church Blackfalds", "designationCode": "C", "categoryCode": "39", "address": "BOX 1273", "city": "BLACKFALDS", "province": "AB", "country": "CA", "postalCode": "T0M0J0", "twitter": "None", "instagram": "None", "facebook": "None", "youtube": "None", "website": "None", "summary": "None", "logo": "None", "latitude": 52.37008281578276, "longitude": -113.79281997964283}, "841372899RR0001": {"name": "Faith Community Bible Fellowship", "designationCode": "C", "categoryCode": "39", "address": "3494 ITALIA CRESCENT", "city": "MISSISSAUGA", "province": "ON", "country": "CA", "postalCode": "L5B3T1", "twitter": "None", "instagram": "None", "facebook": "None", "youtube": "None", "website": "None", "summary": "None", "logo": "None", "latitude": 43.57964762946514, "longitude": -79.64271910710389}, "891732661RR0001": {"name": "Faith Community Christian Church (Toronto)", "designationCode": "C", "categoryCode": "31", "address": "MARITOTCHIE JAVIER            337 GLENHOLME AVENUE", "city": "TORONTO", "province": "ON", "country": "CA", "postalCode": "M6E3E4", "twitter": "None", "instagram": "None", "facebook": "None", "youtube": "None", "website": "None", "summary": "None", "logo": "None", "latitude": 43.68726837108314, "longitude": -79.4418772488027}, "888054160RR0001": {"name": "Faith Community Church of Dartmouth", "designationCode": "C", "categoryCode": "39", "address": "17 ROSEWAY CRT", "city": "DARTMOUTH", "province": "NS", "country": "CA", "postalCode": "B2W5P5", "twitter": "None", "instagram": "None", "facebook": "None", "youtube": "None", "website": "None", "summary": "None", "logo": "None", "latitude": 44.684088348058076, "longitude": -63.4855579817068}, "830709408RR0001": {"name": "Faith Community Church Fellowship", "designationCode": "C", "categoryCode": "39", "address": "10405 142 ST NW", "city": "EDMONTON", "province": "AB", "country": "CA", "postalCode": "T5N2P3", "twitter": "None", "instagram": "None", "facebook": "None", "youtube": "None", "website": "None", "summary": "None", "logo": "None", "latitude": 53.54635511518265, "longitude": -113.56571778902445}, "118912567RR0001": {"name": "Faith Community Wesleyan Church", "designationCode": "C", "categoryCode": "39", "address": "PO BOX 303", "city": "ORANGEVILLE", "province": "ON", "country": "CA", "postalCode": "L9W2Z7", "twitter": "None", "instagram": "None", "facebook": "None", "youtube": "None", "website": "None", "summary": "None", "logo": "None", "latitude": 43.92016800000006, "longitude": -80.09314999999994}, "851010835RR0001": {"name": "Faith Contenders Ministries", "designationCode": "C", "categoryCode": "39", "address": "PO BOX 27013 RPO CLAIR", "city": "GUELPH", "province": "ON", "country": "CA", "postalCode": "N1L0C1", "twitter": "None", "instagram": "None", "facebook": "None", "youtube": "None", "website": "None", "summary": "None", "logo": "None", "latitude": 43.506980848646926, "longitude": -80.18017765864278}, "829396159RR0001": {"name": "Faith Evangelical Mission Church Inc.", "designationCode": "C", "categoryCode": "39", "address": "142 HIDDLESTON CRES", "city": "WINNIPEG", "province": "MB", "country": "CA", "postalCode": "R2P0S1", "twitter": "None", "instagram": "None", "facebook": "None", "youtube": "None", "website": "None", "summary": "None", "logo": "None", "latitude": 49.95864306076531, "longitude": -97.17013970664772}, "809625007RR0001": {"name": "Faith Family Baptist Church", "designationCode": "C", "categoryCode": "31", "address": "234 ALBION ROAD               UNIT 1707", "city": "ETOBICOKE", "province": "ON", "country": "CA", "postalCode": "M9W6A5", "twitter": "None", "instagram": "None", "facebook": "None", "youtube": "None", "website": "None", "summary": "None", "logo": "None", "latitude": 43.720598185180535, "longitude": -79.544876778724}, "852972157RR0001": {"name": "Faith Fellowship Christian Assembly", "designationCode": "C", "categoryCode": "39", "address": "11 BRIDLECREEK HEATH SW", "city": "CALGARY", "province": "AB", "country": "CA", "postalCode": "T2Y3N5", "twitter": "None", "instagram": "None", "facebook": "None", "youtube": "None", "website": "None", "summary": "None", "logo": "None", "latitude": 50.8999161268394, "longitude": -114.0980343094811}, "107884033RR0001": {"name": "Faith Fellowship Christian Reformed Church", "designationCode": "C", "categoryCode": "39", "address": "2547 LEPP AVE", "city": "NIAGARA FALLS", "province": "ON", "country": "CA", "postalCode": "L2J2B9", "twitter": "None", "instagram": "None", "facebook": "None", "youtube": "None", "website": "None", "summary": "None", "logo": "None", "latitude": 43.13532311878933, "longitude": -79.11155875287074}, "107797383RR0139": {"name": "Faith Filipino Seventh-day Adventist Church", "designationCode": "C", "categoryCode": "41", "address": "502 BATHURST STREET", "city": "TORONTO", "province": "ON", "country": "CA", "postalCode": "M5S2P9", "twitter": "None", "instagram": "None", "facebook": "None", "youtube": "None", "website": "None", "summary": "None", "logo": "None", "latitude": 43.65684049264241, "longitude": -79.40790785625238}, "834314619RR0001": {"name": "Faith Healing Bible Church", "designationCode": "C", "categoryCode": "39", "address": "2550 FINCH AVENUE WEST        POST OFFICE BOX 72086", "city": "TORONTO", "province": "ON", "country": "CA", "postalCode": "M9M3A6", "twitter": "None", "instagram": "None", "facebook": "None", "youtube": "None", "website": "None", "summary": "None", "logo": "None", "latitude": 43.748294170205554, "longitude": -79.56001893008809}, "829251412RR0001": {"name": "Faith Hope and Charity Evangelistic Ministries (FHCEM)", "designationCode": "C", "categoryCode": "39", "address": "324 CUMBERLAND CT", "city": "OSHAWA", "province": "ON", "country": "CA", "postalCode": "L1H8E7", "twitter": "None", "instagram": "None", "facebook": "None", "youtube": "None", "website": "None", "summary": "None", "logo": "None", "latitude": 43.89754906549718, "longitude": -78.81807951820629}, "776048126RR0001": {"name": "Faith Hope Love Church", "designationCode": "C", "categoryCode": "39", "address": "15110 THRIFT AVE", "city": "WHITE ROCK", "province": "BC", "country": "CA", "postalCode": "V4B2K7", "twitter": "None", "instagram": "None", "facebook": "None", "youtube": "None", "website": "None", "summary": "None", "logo": "None", "latitude": 49.027568481245446, "longitude": -122.80366333236194}, "857879019RR0001": {"name": "Faith In Action World Ministries", "designationCode": "C", "categoryCode": "47", "address": "79 WENDY COURT", "city": "CAMBRIDGE", "province": "ON", "country": "CA", "postalCode": "N1R8A6", "twitter": "None", "instagram": "None", "facebook": "None", "youtube": "None", "website": "None", "summary": "None", "logo": "None", "latitude": 43.37436337996994, "longitude": -80.30041670304104}, "139418206RR0001": {"name": "Faith Infant and Early Education Centre", "designationCode": "C", "categoryCode": "01", "address": "43 CROSBY AVE", "city": "RICHMOND HILL", "province": "ON", "country": "CA", "postalCode": "L4C2R3", "twitter": "None", "instagram": "None", "facebook": "None", "youtube": "None", "website": "None", "summary": "None", "logo": "None", "latitude": 43.880571154624995, "longitude": -79.43707774744638}, "842398737RR0001": {"name": "Faith Life Church Yarmouth", "designationCode": "C", "categoryCode": "39", "address": "1615 HIGHWAY 308              RR 2", "city": "TUSKET", "province": "NS", "country": "CA", "postalCode": "B0W3M0", "twitter": "None", "instagram": "None", "facebook": "None", "youtube": "None", "website": "None", "summary": "None", "logo": "None", "latitude": 43.76904460389825, "longitude": -65.94285558581348}, "720548296RR0001": {"name": "Faith Life Community Ministries Incorporated", "designationCode": "C", "categoryCode": "31", "address": "1246 TROY AVE", "city": "WINNIPEG", "province": "MB", "country": "CA", "postalCode": "R2X1E5", "twitter": "None", "instagram": "None", "facebook": "None", "youtube": "None", "website": "None", "summary": "None", "logo": "None", "latitude": 49.933213042443434, "longitude": -97.16953000626107}, "842287807RR0001": {"name": "Faith Lutheran Brethren Church of Estevan, Saskatchewan", "designationCode": "C", "categoryCode": "32", "address": "PO 1827", "city": "ESTEVAN", "province": "SK", "country": "CA", "postalCode": "S4A2X8", "twitter": "None", "instagram": "None", "facebook": "None", "youtube": "None", "website": "None", "summary": "None", "logo": "None", "latitude": 49.140249000000054, "longitude": -102.99454999999993}, "786849299RR0001": {"name": "Faith Ministries Association Incorporated", "designationCode": "C", "categoryCode": "09", "address": "64 HORNE AVE", "city": "AJAX", "province": "ON", "country": "CA", "postalCode": "L1T4A2", "twitter": "None", "instagram": "None", "facebook": "None", "youtube": "None", "website": "None", "summary": "None", "logo": "None", "latitude": 43.86790397723475, "longitude": -79.06344439759931}, "801434283RR0001": {"name": "Faith Ministry", "designationCode": "C", "categoryCode": "39", "address": "32 MARTINDALE CRES,", "city": "BRAMPTON", "province": "ON", "country": "CA", "postalCode": "L6X2T9", "twitter": "None", "instagram": "None", "facebook": "None", "youtube": "None", "website": "None", "summary": "None", "logo": "None", "latitude": 43.690246576172974, "longitude": -79.78054475881468}, "870179934RR0001": {"name": "Faith Outreach Worship Centre", "designationCode": "C", "categoryCode": "39", "address": "1095 BELLAMY ROAD N", "city": "SCARBOROUGH", "province": "ON", "country": "CA", "postalCode": "M1H3B8", "twitter": "None", "instagram": "None", "facebook": "None", "youtube": "None", "website": "None", "summary": "None", "logo": "None", "latitude": 43.775965382191636, "longitude": -79.24215673711728}, "815853205RR0001": {"name": "Faith Pentecostal Deliverance Ministries", "designationCode": "C", "categoryCode": "39", "address": "365 CH\u00c8VREMONT BOULEVARD", "city": "L'ILE-BIZARD", "province": "QC", "country": "CA", "postalCode": "H9C1S9", "twitter": "None", "instagram": "None", "facebook": "None", "youtube": "None", "website": "None", "summary": "None", "logo": "None", "latitude": 45.492204477667435, "longitude": -73.87998738372085}, "834384448RR0001": {"name": "Faith Restoration Assemble Ministries", "designationCode": "C", "categoryCode": "39", "address": "2-20 MILL WICK DRIVE", "city": "TORONTO", "province": "ON", "country": "CA", "postalCode": "M9L1Y3", "twitter": "None", "instagram": "None", "facebook": "None", "youtube": "None", "website": "None", "summary": "None", "logo": "None", "latitude": 43.75713300000005, "longitude": -79.55931949999993}, "847715406RR0001": {"name": "Faith Revival Center Church of Edmonton", "designationCode": "C", "categoryCode": "39", "address": "8505 142 STREET", "city": "EDMONTON", "province": "AB", "country": "CA", "postalCode": "T5R0M2", "twitter": "None", "instagram": "None", "facebook": "None", "youtube": "None", "website": "None", "summary": "None", "logo": "None", "latitude": 53.51771624562872, "longitude": -113.56562432566818}, "800700197RR0001": {"name": "Faith Revolution Church", "designationCode": "C", "categoryCode": "39", "address": "14 LARKMEAD CRESCENT", "city": "MARKHAM", "province": "ON", "country": "CA", "postalCode": "L6C3C8", "twitter": "None", "instagram": "None", "facebook": "None", "youtube": "None", "website": "None", "summary": "None", "logo": "None", "latitude": 43.893073088550885, "longitude": -79.36455826770148}, "830644134RR0001": {"name": "Faith Sanctuary Mississauga", "designationCode": "C", "categoryCode": "39", "address": "1901 JANE STREET", "city": "TORONTO", "province": "ON", "country": "CA", "postalCode": "M9N3T9", "twitter": "None", "instagram": "None", "facebook": "None", "youtube": "None", "website": "None", "summary": "None", "logo": "None", "latitude": 43.71005529006273, "longitude": -79.50570418922082}, "806660320RR0001": {"name": "Faith Spiritual Pentecostal Church", "designationCode": "C", "categoryCode": "39", "address": "24-7775 120A ST", "city": "SURREY", "province": "BC", "country": "CA", "postalCode": "V3W0T5", "twitter": "None", "instagram": "None", "facebook": "None", "youtube": "None", "website": "None", "summary": "None", "logo": "None", "latitude": 49.14449357729816, "longitude": -122.88756543271383}, "871259248RR0001": {"name": "Faith Tabernacle Apostolic", "designationCode": "C", "categoryCode": "39", "address": "155 MARKHAM ROAD", "city": "SCARBOROUGH", "province": "ON", "country": "CA", "postalCode": "M1M3A1", "twitter": "None", "instagram": "None", "facebook": "None", "youtube": "None", "website": "None", "summary": "None", "logo": "None", "latitude": 43.74163865918396, "longitude": -79.21824848857437}, "859749590RR0001": {"name": "Faith Tabernacle United Pentecostal Church", "designationCode": "C", "categoryCode": "39", "address": "615-2446 BANK ST", "city": "OTTAWA", "province": "ON", "country": "CA", "postalCode": "K1V1A8", "twitter": "None", "instagram": "None", "facebook": "None", "youtube": "None", "website": "None", "summary": "None", "logo": "None", "latitude": 45.353556549483926, "longitude": -75.64679924562871}, "825749989RR0001": {"name": "Faith Testimony Church", "designationCode": "C", "categoryCode": "36", "address": "1760 GOWER DR", "city": "OSHAWA", "province": "ON", "country": "CA", "postalCode": "L1K0L5", "twitter": "None", "instagram": "None", "facebook": "None", "youtube": "None", "website": "None", "summary": "None", "logo": "None", "latitude": 43.94702659172487, "longitude": -78.85538217695755}, "132021908RR0001": {"name": "Faith Trinity United Church", "designationCode": "C", "categoryCode": "44", "address": "1293 SHETLAND ROAD            RR #2", "city": "FLORENCE", "province": "ON", "country": "CA", "postalCode": "N0P1R0", "twitter": "None", "instagram": "None", "facebook": "None", "youtube": "None", "website": "None", "summary": "None", "logo": "None", "latitude": 42.701302026920196, "longitude": -81.97998887506425}, "118912534RR0001": {"name": "Faith United Church", "designationCode": "C", "categoryCode": "44", "address": "POST OFFICE BOX 266", "city": "EDGERTON", "province": "AB", "country": "CA", "postalCode": "T0B1K0", "twitter": "None", "instagram": "None", "facebook": "None", "youtube": "None", "website": "None", "summary": "None", "logo": "None", "latitude": 52.750140000000044, "longitude": -110.45159999999998}, "890706468RR0001": {"name": "Faith United Church", "designationCode": "C", "categoryCode": "44", "address": "PO BOX 784", "city": "KINGSTON", "province": "ON", "country": "CA", "postalCode": "K7L4X6", "twitter": "None", "instagram": "None", "facebook": "None", "youtube": "None", "website": "None", "summary": "None", "logo": "None", "latitude": 44.23153200000006, "longitude": -76.47933049999993}, "821567484RR0001": {"name": "Faith United Milton", "designationCode": "C", "categoryCode": "39", "address": "454-420 MAIN STREET EAST", "city": "MILTON", "province": "ON", "country": "CA", "postalCode": "L9T5G3", "twitter": "None", "instagram": "None", "facebook": "None", "youtube": "None", "website": "None", "summary": "None", "logo": "None", "latitude": 43.51784021896831, "longitude": -79.87805026377768}, "847088986RR0001": {"name": "Faith Victory Church International - \u00c9glise Foi Victoire Internationale", "designationCode": "C", "categoryCode": "39", "address": "109 - 6860 AV FIELDING", "city": "MONTREAL", "province": "QC", "country": "CA", "postalCode": "H4V1P2", "twitter": "None", "instagram": "None", "facebook": "None", "youtube": "None", "website": "None", "summary": "None", "logo": "None", "latitude": 45.465072873708856, "longitude": -73.64508738646215}, "807614201RR0001": {"name": "Faith Walk Community Church", "designationCode": "C", "categoryCode": "39", "address": "84 ST.ANDREWS RIVER RD", "city": "SHUBENACADIE", "province": "NS", "country": "CA", "postalCode": "B0N2H0", "twitter": "None", "instagram": "None", "facebook": "None", "youtube": "None", "website": "None", "summary": "None", "logo": "None", "latitude": 45.07450553231588, "longitude": -63.38430390758262}, "818702862RR0001": {"name": "Faith Word Fellowship Canada", "designationCode": "C", "categoryCode": "39", "address": "41 HOWARD AVENUE", "city": "ST CATHARINES", "province": "ON", "country": "CA", "postalCode": "L2N3W8", "twitter": "None", "instagram": "None", "facebook": "None", "youtube": "None", "website": "None", "summary": "None", "logo": "None", "latitude": 43.196588046627056, "longitude": -79.24668056650677}, "817019086RR0001": {"name": "Faith, Fealty & Creed Society", "designationCode": "C", "categoryCode": "49", "address": "207 314 WEST CORDOVA STREET", "city": "VANCOUVER", "province": "BC", "country": "CA", "postalCode": "V6B1E8", "twitter": "None", "instagram": "None", "facebook": "None", "youtube": "None", "website": "None", "summary": "None", "logo": "None", "latitude": 49.283559295387356, "longitude": -123.10933699663431}, "769681495RR0001": {"name": "Faithful Church", "designationCode": "C", "categoryCode": "39", "address": "410 - 175 BAMBURGH CIR", "city": "SCARBOROUGH", "province": "ON", "country": "CA", "postalCode": "M1W3X8", "twitter": "None", "instagram": "None", "facebook": "None", "youtube": "None", "website": "None", "summary": "None", "logo": "None", "latitude": 43.811442999249266, "longitude": -79.32424751641729}, "836816405RR0001": {"name": "Faithville Apostolic Ministries", "designationCode": "C", "categoryCode": "39", "address": "8 SEA CLIFF CRESCENT", "city": "BRAMPTON", "province": "ON", "country": "CA", "postalCode": "L6T0G4", "twitter": "None", "instagram": "None", "facebook": "None", "youtube": "None", "website": "None", "summary": "None", "logo": "None", "latitude": 43.76473028951446, "longitude": -79.65586848237062}, "835207036RR0001": {"name": "Faithwalk Ministries Inc.", "designationCode": "C", "categoryCode": "46", "address": "3439 CHERRY BAY EAST", "city": "REGINA", "province": "SK", "country": "CA", "postalCode": "S4N7A8", "twitter": "None", "instagram": "None", "facebook": "None", "youtube": "None", "website": "None", "summary": "None", "logo": "None", "latitude": 50.46534467441875, "longitude": -104.53449618119942}, "827987462RR0001": {"name": "Faithwerks Church", "designationCode": "C", "categoryCode": "34", "address": "38006 KING EDWARD MALL PO", "city": "VANCOUVER", "province": "BC", "country": "CA", "postalCode": "V5Z4L9", "twitter": "None", "instagram": "None", "facebook": "None", "youtube": "None", "website": "None", "summary": "None", "logo": "None", "latitude": 49.249051535048615, "longitude": -123.11541268621689}, "845253921RR0001": {"name": "Faithworks 4 U Inc.", "designationCode": "C", "categoryCode": "39", "address": "775 CAMBRIDGE ST", "city": "WINNIPEG", "province": "MB", "country": "CA", "postalCode": "R3M3G3", "twitter": "None", "instagram": "None", "facebook": "None", "youtube": "None", "website": "None", "summary": "None", "logo": "None", "latitude": 49.855212733279465, "longitude": -97.17561242801061}, "840065684RR0001": {"name": "FaithHopeLove Ministry", "designationCode": "C", "categoryCode": "39", "address": "25 CHANNEL NINE COURT", "city": "SCARBOROUGH", "province": "ON", "country": "CA", "postalCode": "M1S4B5", "twitter": "None", "instagram": "None", "facebook": "None", "youtube": "None", "website": "None", "summary": "None", "logo": "None", "latitude": 43.78427104218364, "longitude": -79.25644630656691}, "859390379RR0001": {"name": "Faizan-e-Madina Canada", "designationCode": "C", "categoryCode": "60", "address": "595 ALBION RD", "city": "ETOBICOKE", "province": "ON", "country": "CA", "postalCode": "M9V1A1", "twitter": "None", "instagram": "None", "facebook": "None", "youtube": "None", "website": "None", "summary": "None", "logo": "None", "latitude": 43.73053329946914, "longitude": -79.55432425079326}, "107409633RR0001": {"name": "Falconridge Full Gospel Family Church", "designationCode": "C", "categoryCode": "36", "address": "155 FALCONRIDGE DR NE", "city": "CALGARY", "province": "AB", "country": "CA", "postalCode": "T3J1Z9", "twitter": "None", "instagram": "None", "facebook": "None", "youtube": "None", "website": "None", "summary": "None", "logo": "None", "latitude": 51.09678757507646, "longitude": -113.95247515586573}, "849728738RR0001": {"name": "Falk Family Foundation Inc.", "designationCode": "B", "categoryCode": "03", "address": "BOX 19 GROUP 529 RR 5", "city": "WINNIPEG", "province": "MB", "country": "CA", "postalCode": "R2C2Z2", "twitter": "None", "instagram": "None", "facebook": "None", "youtube": "None", "website": "None", "summary": "None", "logo": "None"}, "741371694RR0001": {"name": "Falkland Gospel Hour Ministry", "designationCode": "C", "categoryCode": "39", "address": "POST OFFICE BOX 352           5678 PONDEROSA ROAD", "city": "FALKLAND", "province": "BC", "country": "CA", "postalCode": "V0E1W0", "twitter": "None", "instagram": "None", "facebook": "None", "youtube": "None", "website": "None", "summary": "None", "logo": "None", "latitude": 50.50129548990112, "longitude": -119.55571243251134}, "842701179RR0001": {"name": "Fall for Dance North Festival Inc.", "designationCode": "C", "categoryCode": "22", "address": "203 - 675 KING ST W", "city": "TORONTO", "province": "ON", "country": "CA", "postalCode": "M5V1M9", "twitter": "None", "instagram": "None", "facebook": "None", "youtube": "None", "website": "None", "summary": "None", "logo": "None", "latitude": 43.64377887480537, "longitude": -79.40320596113457}, "778712927RR0001": {"name": "Falls Food - Onaping Falls Area Foodbank", "designationCode": "C", "categoryCode": "09", "address": "2 HILLSIDE AVE, F", "city": "ONAPING", "province": "ON", "country": "CA", "postalCode": "P0M2R0", "twitter": "None", "instagram": "None", "facebook": "None", "youtube": "None", "website": "None", "summary": "None", "logo": "None", "latitude": 46.619375259507194, "longitude": -81.41773664611355}, "119288918RR1478": {"name": "False Creek Congregation of Jehovah's Witnesses, Vancouver, British Colombia", "designationCode": "C", "categoryCode": "61", "address": "1526 ROBSON ST", "city": "VANCOUVER", "province": "BC", "country": "CA", "postalCode": "V6G1C2", "twitter": "None", "instagram": "None", "facebook": "None", "youtube": "None", "website": "None", "summary": "None", "logo": "None", "latitude": 49.289024704397356, "longitude": -123.1317181078537}, "890421480RR0001": {"name": "Falun Dafa Association of Canada", "designationCode": "C", "categoryCode": "59", "address": "90 BELLEVIEW DR.", "city": "KANATA", "province": "ON", "country": "CA", "postalCode": "K2L1W3", "twitter": "None", "instagram": "None", "facebook": "None", "youtube": "None", "website": "None", "summary": "None", "logo": "None", "latitude": 45.30927299114185, "longitude": -75.88583335535834}, "118912724RR0001": {"name": "Familia (St-J\u00e9rome) inc.", "designationCode": "A", "categoryCode": "03", "address": "2193, BOULEVARD LAFONTAINE", "city": "SAINT-JEROME", "province": "QC", "country": "CA", "postalCode": "J7Y4G3", "twitter": "None", "instagram": "None", "facebook": "None", "youtube": "None", "website": "None", "summary": "None", "logo": "None", "latitude": 45.80400061613493, "longitude": -74.01387819011487}, "836280255RR0001": {"name": "Families for Christ Community", "designationCode": "C", "categoryCode": "49", "address": "9700 THOMAS PLACE", "city": "RICHMOND", "province": "BC", "country": "CA", "postalCode": "V7E5X9", "twitter": "None", "instagram": "None", "facebook": "None", "youtube": "None", "website": "None", "summary": "None", "logo": "None", "latitude": 49.142078999999995, "longitude": -123.16139952441003}, "780924098RR0001": {"name": "Families First Community Cancer Support", "designationCode": "B", "categoryCode": "11", "address": "7 LAZY NOL COURT,", "city": "STITTSVILLE", "province": "ON", "country": "CA", "postalCode": "K2S1T5", "twitter": "None", "instagram": "None", "facebook": "None", "youtube": "None", "website": "None", "summary": "None", "logo": "None", "latitude": 45.277857638092144, "longitude": -75.91265417320665}, "770935724RR0001": {"name": "Families For Addiction Recovery", "designationCode": "C", "categoryCode": "57", "address": "200 - 100 CONSILIUM PL", "city": "SCARBOROUGH", "province": "ON", "country": "CA", "postalCode": "M1H3E3", "twitter": "None", "instagram": "None", "facebook": "None", "youtube": "None", "website": "None", "summary": "None", "logo": "None", "latitude": 43.77723535884944, "longitude": -79.25063863393626}, "856757513RR0001": {"name": "Families Living Well Society", "designationCode": "C", "categoryCode": "09", "address": "10015 149 ST NW", "city": "EDMONTON", "province": "AB", "country": "CA", "postalCode": "T5P4Y4", "twitter": "None", "instagram": "None", "facebook": "None", "youtube": "None", "website": "None", "summary": "None", "logo": "None", "latitude": 53.53956894754458, "longitude": -113.57797628844753}, "809416050RR0001": {"name": "Famille de l'Espoir pour les Nations", "designationCode": "C", "categoryCode": "09", "address": "305-2125 BOULEVARD GRAND", "city": "MONTR\u00c9AL", "province": "QC", "country": "CA", "postalCode": "H4B2W7", "twitter": "None", "instagram": "None", "facebook": "None", "youtube": "None", "website": "None", "summary": "None", "logo": "None", "latitude": 45.464588170436684, "longitude": -73.61871785287684}, "897145942RR0001": {"name": "Famille et petite enfance francophone sud Inc.", "designationCode": "C", "categoryCode": "09", "address": "22 RUE CHURCH                 PIECE T260", "city": "MONCTON", "province": "NB", "country": "CA", "postalCode": "E1C0P7", "twitter": "None", "instagram": "None", "facebook": "None", "youtube": "None", "website": "None", "summary": "None", "logo": "None", "latitude": 46.08913284179702, "longitude": -64.77832395449812}, "107860983RR0001": {"name": "Famille et petite enfance Nord-Est Inc.", "designationCode": "C", "categoryCode": "09", "address": "915 RUE SAINTE-ANNE", "city": "BATHURST", "province": "NB", "country": "CA", "postalCode": "E2A6X1", "twitter": "None", "instagram": "None", "facebook": "None", "youtube": "None", "website": "None", "summary": "None", "logo": "None", "latitude": 47.626722989529995, "longitude": -65.6826797273144}}