{"836395087RR0001": {"name": "Archives Lanark", "designationCode": "C", "categoryCode": "50", "address": "P.O. BOX 512", "city": "PERTH", "province": "ON", "country": "CA", "postalCode": "K7H3K4", "twitter": "None", "instagram": "None", "facebook": "None", "youtube": "None", "website": "None", "summary": "None", "logo": "None", "latitude": 44.89893600000005, "longitude": -76.24831399999994}, "138295324RR0001": {"name": "Archway Counselling Association", "designationCode": "C", "categoryCode": "09", "address": "883 PRINCE STREET", "city": "TRURO", "province": "NS", "country": "CA", "postalCode": "B2N1H2", "twitter": "None", "instagram": "None", "facebook": "None", "youtube": "None", "website": "None", "summary": "None", "logo": "None", "latitude": 45.36444140940029, "longitude": -63.27486049264241}, "815505110RR0001": {"name": "Archwood 55 Plus Inc.", "designationCode": "C", "categoryCode": "56", "address": "BOX 48061 LAKEWOOD POST OUTLET35 LAKEWOOD BLVD", "city": "WINNIPEG", "province": "MB", "country": "CA", "postalCode": "R2J4A3", "twitter": "None", "instagram": "None", "facebook": "None", "youtube": "None", "website": "None", "summary": "None", "logo": "None", "latitude": 49.851379434602556, "longitude": -97.07791124848828}, "119288918RR0103": {"name": "Arcola Congregation of Jehovah's Witnesses, Regina, Saskatchewan", "designationCode": "C", "categoryCode": "61", "address": "505 COLLEGE AVE", "city": "REGINA", "province": "SK", "country": "CA", "postalCode": "S4N0X4", "twitter": "None", "instagram": "None", "facebook": "None", "youtube": "None", "website": "None", "summary": "None", "logo": "None", "latitude": 50.44084051399403, "longitude": -104.58819352553522}, "815578083RR0001": {"name": "Arctic for Christ Ministries", "designationCode": "C", "categoryCode": "39", "address": "B-5057 PINGUA ST.             BOX 11630", "city": "IQALUIT", "province": "NU", "country": "CA", "postalCode": "X0A1H0", "twitter": "None", "instagram": "None", "facebook": "None", "youtube": "None", "website": "None", "summary": "None", "logo": "None", "latitude": 63.75672725681979, "longitude": -68.51763096503969}, "770661528RR0001": {"name": "Arctic Inspiration Prize Charitable Trust", "designationCode": "C", "categoryCode": "05", "address": "55 CIRQUE PL", "city": "WHITEHORSE", "province": "YT", "country": "CA", "postalCode": "Y1A0E5", "twitter": "None", "instagram": "None", "facebook": "None", "youtube": "None", "website": "None", "summary": "None", "logo": "None", "latitude": 60.616562389621954, "longitude": -135.00891467224716}, "823560982RR0001": {"name": "Arctic Paws", "designationCode": "C", "categoryCode": "54", "address": "POST OFFICE BOX 3140", "city": "INUVIK", "province": "NT", "country": "CA", "postalCode": "X0E0T0", "twitter": "None", "instagram": "None", "facebook": "None", "youtube": "None", "website": "None", "summary": "None", "logo": "None", "latitude": 68.36105000000003, "longitude": -133.73492999999996}, "800994204RR0001": {"name": "Arctic Research Foundation", "designationCode": "C", "categoryCode": "21", "address": "201 BRIDGELAND AVENUE", "city": "TORONTO", "province": "ON", "country": "CA", "postalCode": "M6A1Y7", "twitter": "None", "instagram": "None", "facebook": "None", "youtube": "None", "website": "None", "summary": "None", "logo": "None", "latitude": 43.724679896445465, "longitude": -79.46720435899367}, "838587087RR0001": {"name": "Arctic Watch Beluga Foundation", "designationCode": "C", "categoryCode": "29", "address": "363 PRITCHARD ROAD", "city": "ALCOVE", "province": "QC", "country": "CA", "postalCode": "J0X1A0", "twitter": "None", "instagram": "None", "facebook": "None", "youtube": "None", "website": "None", "summary": "None", "logo": "None", "latitude": 45.74025887001481, "longitude": -75.94491285931475}, "106720717RR0001": {"name": "Arden and Community Wesleyan Church", "designationCode": "C", "categoryCode": "39", "address": "PO BOX 82", "city": "ARDEN", "province": "ON", "country": "CA", "postalCode": "K0H1B0", "twitter": "None", "instagram": "None", "facebook": "None", "youtube": "None", "website": "None", "summary": "None", "logo": "None", "latitude": 44.716474292924325, "longitude": -76.92640661111272}, "890234784RR0001": {"name": "Arden Pastoral Charge", "designationCode": "C", "categoryCode": "44", "address": "PO BOX 85", "city": "ARDEN", "province": "ON", "country": "CA", "postalCode": "K0H1B0", "twitter": "None", "instagram": "None", "facebook": "None", "youtube": "None", "website": "None", "summary": "None", "logo": "None", "latitude": 44.716474292924325, "longitude": -76.92640661111272}, "837911437RR0001": {"name": "Ardene Foundation Fondation Ardene", "designationCode": "B", "categoryCode": "03", "address": "2575 PITFIELD AVENUE", "city": "SAINT-LAURENT", "province": "QC", "country": "CA", "postalCode": "H4S1W8", "twitter": "None", "instagram": "None", "facebook": "None", "youtube": "None", "website": "None", "summary": "None", "logo": "None", "latitude": 45.494804270644345, "longitude": -73.74294755782246}, "855748224RR0001": {"name": "Argyle II Historic Trust", "designationCode": "C", "categoryCode": "52", "address": "POST OFFICE BOX 158", "city": "CLEARWATER BAY", "province": "ON", "country": "CA", "postalCode": "P0X1S0", "twitter": "None", "instagram": "None", "facebook": "None", "youtube": "None", "website": "None", "summary": "None", "logo": "None", "latitude": 49.71404627389288, "longitude": -94.81845992336874}, "859778870RR0001": {"name": "Argyle Nursing Station Incorporated", "designationCode": "A", "categoryCode": "13", "address": "11851 HIGHWAY 522", "city": "PORT LORING", "province": "ON", "country": "CA", "postalCode": "P0H1Y0", "twitter": "None", "instagram": "None", "facebook": "None", "youtube": "None", "website": "None", "summary": "None", "logo": "None", "latitude": 45.91647136824344, "longitude": -79.98445460371784}, "785425497RR0001": {"name": "Ari and Naomi Klein Charitable Trust", "designationCode": "B", "categoryCode": "03", "address": "90 RONSON DR", "city": "ETOBICOKE", "province": "ON", "country": "CA", "postalCode": "M9W1B6", "twitter": "None", "instagram": "None", "facebook": "None", "youtube": "None", "website": "None", "summary": "None", "logo": "None", "latitude": 43.69562671749642, "longitude": -79.56699383674709}, "808307490RR0001": {"name": "Ariel's Legacy Foundation", "designationCode": "C", "categoryCode": "11", "address": "258 ADELAIDE ST. E.           #302", "city": "TORONTO", "province": "ON", "country": "CA", "postalCode": "M5A1N1", "twitter": "None", "instagram": "None", "facebook": "None", "youtube": "None", "website": "None", "summary": "None", "logo": "None", "latitude": 43.651733216227015, "longitude": -79.37060967805408}, "813731296RR0001": {"name": "Arion Therapeutic Riding Association", "designationCode": "C", "categoryCode": "56", "address": "2457 SAUCIER RD", "city": "KELOWNA", "province": "BC", "country": "CA", "postalCode": "V1W4B8", "twitter": "None", "instagram": "None", "facebook": "None", "youtube": "None", "website": "None", "summary": "None", "logo": "None", "latitude": 49.829272618346295, "longitude": -119.43428175353304}, "813245636RR0001": {"name": "Arirang Age-Friendly Community Centre", "designationCode": "C", "categoryCode": "09", "address": "205 - 130 DUNDAS ST E", "city": "MISSISSAUGA", "province": "ON", "country": "CA", "postalCode": "L5A3V8", "twitter": "None", "instagram": "None", "facebook": "None", "youtube": "None", "website": "None", "summary": "None", "logo": "None", "latitude": 43.58320238020108, "longitude": -79.61289095732634}, "775251721RR0001": {"name": "Arise & Shine International Church (ASIC)", "designationCode": "C", "categoryCode": "39", "address": "7 REENDERS DR                 POST OFFICE BOX 40111", "city": "WINNIPEG", "province": "MB", "country": "CA", "postalCode": "R2C5K5", "twitter": "None", "instagram": "None", "facebook": "None", "youtube": "None", "website": "None", "summary": "None", "logo": "None", "latitude": 49.90191158996608, "longitude": -97.06444443774494}, "755608494RR0001": {"name": "Arise Ministry", "designationCode": "C", "categoryCode": "59", "address": "20 - 2828 RICHMOND RD", "city": "OTTAWA", "province": "ON", "country": "CA", "postalCode": "K2B8S1", "twitter": "None", "instagram": "None", "facebook": "None", "youtube": "None", "website": "None", "summary": "None", "logo": "None", "latitude": 45.35646541075661, "longitude": -75.79579829736299}, "801007808RR0001": {"name": "Ark of the Lord Temple", "designationCode": "C", "categoryCode": "39", "address": "225-211 BRONSON AVENUE", "city": "OTTAWA", "province": "ON", "country": "CA", "postalCode": "K1R6H5", "twitter": "None", "instagram": "None", "facebook": "None", "youtube": "None", "website": "None", "summary": "None", "logo": "None", "latitude": 45.41349725618897, "longitude": -75.7068905103587}, "758427728RR0001": {"name": "Ark of Christ Victory Church of Calgary", "designationCode": "C", "categoryCode": "39", "address": "PO BOX 65077 RPO NORTH HILL", "city": "CALGARY", "province": "AB", "country": "CA", "postalCode": "T2N4T6", "twitter": "None", "instagram": "None", "facebook": "None", "youtube": "None", "website": "None", "summary": "None", "logo": "None", "latitude": 51.065150000000074, "longitude": -114.10340999999994}, "809403447RR0001": {"name": "Ark of God Bible Ministries Prophetic Centre", "designationCode": "C", "categoryCode": "39", "address": "105-30 EPPLEWORTH ROAD", "city": "TORONTO", "province": "ON", "country": "CA", "postalCode": "M1K3G9", "twitter": "None", "instagram": "None", "facebook": "None", "youtube": "None", "website": "None", "summary": "None", "logo": "None", "latitude": 43.72674074770618, "longitude": -79.26321746655891}, "762651891RR0001": {"name": "Ark of God Healing Ministries", "designationCode": "C", "categoryCode": "39", "address": "15 MASSEY STREET,", "city": "BRAMPTON", "province": "ON", "country": "CA", "postalCode": "L6S2V6", "twitter": "None", "instagram": "None", "facebook": "None", "youtube": "None", "website": "None", "summary": "None", "logo": "None", "latitude": 43.73869988369217, "longitude": -79.74069165670244}, "806283909RR0001": {"name": "Arlin Foundation", "designationCode": "B", "categoryCode": "05", "address": "2924 240 STREET", "city": "LANGLEY", "province": "BC", "country": "CA", "postalCode": "V2Z1N3", "twitter": "None", "instagram": "None", "facebook": "None", "youtube": "None", "website": "None", "summary": "None", "logo": "None", "latitude": 49.054193916180964, "longitude": -122.55940804273192}, "815729322RR0001": {"name": "Arlington Street Foundation Scholarship Society", "designationCode": "C", "categoryCode": "21", "address": "400 - 718 8 AVE SW", "city": "CALGARY", "province": "AB", "country": "CA", "postalCode": "T2P1H3", "twitter": "None", "instagram": "None", "facebook": "None", "youtube": "None", "website": "None", "summary": "None", "logo": "None", "latitude": 51.045981442148886, "longitude": -114.07746163627445}, "848453460RR0001": {"name": "Arm\u00e9e des rachet\u00e9s", "designationCode": "C", "categoryCode": "36", "address": "11039 AVENUE GARIEPY", "city": "MONTREAL NORD", "province": "QC", "country": "CA", "postalCode": "H1H4C8", "twitter": "None", "instagram": "None", "facebook": "None", "youtube": "None", "website": "None", "summary": "None", "logo": "None", "latitude": 45.59179791202602, "longitude": -73.64029981582908}, "813572963RR0001": {"name": "Arman Trust / Fiducie Arman", "designationCode": "C", "categoryCode": "60", "address": "545 RUE CARDINAL", "city": "SAINT-LAURENT", "province": "QC", "country": "CA", "postalCode": "H4L3C5", "twitter": "None", "instagram": "None", "facebook": "None", "youtube": "None", "website": "None", "summary": "None", "logo": "None", "latitude": 45.50738104414554, "longitude": -73.67572432956331}, "833304421RR0001": {"name": "Armenian Family Support Services Inc.", "designationCode": "C", "categoryCode": "09", "address": "PH1 - 330 HIGHWAY 7 E", "city": "RICHMOND HILL", "province": "ON", "country": "CA", "postalCode": "L4B3P8", "twitter": "None", "instagram": "None", "facebook": "None", "youtube": "None", "website": "None", "summary": "None", "logo": "None", "latitude": 43.84222203087208, "longitude": -79.3922446880171}, "118923697RR0001": {"name": "Armenian Medical Association of Qu\u00e9bec / Association m\u00e9dicale armenienne du Qu\u00e9bec", "designationCode": "C", "categoryCode": "13", "address": "1610 - 1350 RUE SHERBROOKE O", "city": "MONTREAL", "province": "QC", "country": "CA", "postalCode": "H3G1J1", "twitter": "None", "instagram": "None", "facebook": "None", "youtube": "None", "website": "None", "summary": "None", "logo": "None", "latitude": 45.49849279679926, "longitude": -73.57986198775457}, "856893227RR0001": {"name": "Armin & Denise Martens Foundation Inc.", "designationCode": "B", "categoryCode": "03", "address": "2826 HENDERSON HIGHWAY", "city": "EAST ST. PAUL", "province": "MB", "country": "CA", "postalCode": "R2E0C6", "twitter": "None", "instagram": "None", "facebook": "None", "youtube": "None", "website": "None", "summary": "None", "logo": "None", "latitude": 49.9780745909183, "longitude": -97.0531042051783}, "800325359RR0001": {"name": "Armstrong Spallumcheen Medical Equipment Loan Cupboard Society", "designationCode": "C", "categoryCode": "11", "address": "BOX 88", "city": "ARMSTRONG", "province": "BC", "country": "CA", "postalCode": "V0E1B0", "twitter": "None", "instagram": "None", "facebook": "None", "youtube": "None", "website": "None", "summary": "None", "logo": "None", "latitude": 50.44798500000006, "longitude": -119.19492799999993}, "833534852RR0001": {"name": "Arnes Lutheran Pioneer Memorial Church", "designationCode": "C", "categoryCode": "32", "address": "20003 ARNES ROAD              BOX 41", "city": "ARNES", "province": "MB", "country": "CA", "postalCode": "R0C0C0", "twitter": "None", "instagram": "None", "facebook": "None", "youtube": "None", "website": "None", "summary": "None", "logo": "None", "latitude": 50.802203307482266, "longitude": -96.99390616343318}, "839031150RR0001": {"name": "Arnprior and District Breast Cancer Support Group Inc.", "designationCode": "A", "categoryCode": "11", "address": "P.O. BOX 255", "city": "ARNPRIOR", "province": "ON", "country": "CA", "postalCode": "K7S3H6", "twitter": "None", "instagram": "None", "facebook": "None", "youtube": "None", "website": "None", "summary": "None", "logo": "None", "latitude": 45.43563300000005, "longitude": -76.35842449999993}, "106722978RR0001": {"name": "Arnprior Regional Health", "designationCode": "C", "categoryCode": "10", "address": "350 JOHN ST N", "city": "ARNPRIOR", "province": "ON", "country": "CA", "postalCode": "K7S2P6", "twitter": "None", "instagram": "None", "facebook": "None", "youtube": "None", "website": "None", "summary": "None", "logo": "None", "latitude": 45.44095003467163, "longitude": -76.35223024113647}, "845624808RR0001": {"name": "Arnprior Regional Health Auxiliary", "designationCode": "C", "categoryCode": "19", "address": "350 JOHN STREET NORTH", "city": "ARNPRIOR", "province": "ON", "country": "CA", "postalCode": "K7S2P6", "twitter": "None", "instagram": "None", "facebook": "None", "youtube": "None", "website": "None", "summary": "None", "logo": "None", "latitude": 45.44095003467163, "longitude": -76.35223024113647}, "809427388RR0001": {"name": "Arpana Canada", "designationCode": "C", "categoryCode": "11", "address": "7 SCARLETT DRIVE", "city": "BRAMPTON", "province": "ON", "country": "CA", "postalCode": "L6Y3S9", "twitter": "None", "instagram": "None", "facebook": "None", "youtube": "None", "website": "None", "summary": "None", "logo": "None", "latitude": 43.64938678544643, "longitude": -79.74066218246881}, "106896020RR0001": {"name": "Arrimage Estrie", "designationCode": "C", "categoryCode": "11", "address": "204-6 RUE WELLINGTON S", "city": "SHERBROOKE", "province": "QC", "country": "CA", "postalCode": "J1H5C7", "twitter": "None", "instagram": "None", "facebook": "None", "youtube": "None", "website": "None", "summary": "None", "logo": "None", "latitude": 45.39120650041028, "longitude": -71.8844237857729}, "893314369RR0001": {"name": "Arrow Lakes District Arts Council Society", "designationCode": "C", "categoryCode": "22", "address": "BOX 895", "city": "NAKUSP", "province": "BC", "country": "CA", "postalCode": "V0G1R0", "twitter": "None", "instagram": "None", "facebook": "None", "youtube": "None", "website": "None", "summary": "None", "logo": "None", "latitude": 50.23888800000006, "longitude": -117.80203399999994}, "895145647RR0001": {"name": "Arrow Lakes Health Care Auxiliary Society", "designationCode": "C", "categoryCode": "19", "address": "BOX 519", "city": "NAKUSP", "province": "BC", "country": "CA", "postalCode": "V0G1R0", "twitter": "None", "instagram": "None", "facebook": "None", "youtube": "None", "website": "None", "summary": "None", "logo": "None", "latitude": 50.23888800000006, "longitude": -117.80203399999994}, "890847346RR0001": {"name": "Arrowsmith Health Care Foundation Society", "designationCode": "A", "categoryCode": "03", "address": "266 MOILLIET ST", "city": "PARKSVILLE", "province": "BC", "country": "CA", "postalCode": "V9P1M9", "twitter": "None", "instagram": "None", "facebook": "None", "youtube": "None", "website": "None", "summary": "None", "logo": "None", "latitude": 49.316097798482325, "longitude": -124.32361906477898}, "890486442RR0001": {"name": "Arrowsmith Independent School Society", "designationCode": "C", "categoryCode": "20", "address": "861 HILLIERS RD", "city": "QUALICUM BEACH", "province": "BC", "country": "CA", "postalCode": "V9K1X5", "twitter": "None", "instagram": "None", "facebook": "None", "youtube": "None", "website": "None", "summary": "None", "logo": "None", "latitude": 49.310189520671116, "longitude": -124.48650391421639}, "778051722RR0001": {"name": "Art at Heart Inc.", "designationCode": "C", "categoryCode": "11", "address": "17 SIR MODESTO CRT", "city": "MAPLE", "province": "ON", "country": "CA", "postalCode": "L6A0E2", "twitter": "None", "instagram": "None", "facebook": "None", "youtube": "None", "website": "None", "summary": "None", "logo": "None", "latitude": 43.87290770413755, "longitude": -79.47801012949378}, "888937778RR0001": {"name": "Art en Beauce la collection", "designationCode": "C", "categoryCode": "50", "address": "250, 18 I\u00c8ME RUE", "city": "SAINT-GEORGES", "province": "QC", "country": "CA", "postalCode": "G5Y4S9", "twitter": "None", "instagram": "None", "facebook": "None", "youtube": "None", "website": "None", "summary": "None", "logo": "None", "latitude": 46.11688043715723, "longitude": -70.67380220445467}, "808016059RR0001": {"name": "Art for Cancer Foundation", "designationCode": "C", "categoryCode": "11", "address": "91 MILLER ST", "city": "TORONTO", "province": "ON", "country": "CA", "postalCode": "M6N2Z8", "twitter": "None", "instagram": "None", "facebook": "None", "youtube": "None", "website": "None", "summary": "None", "logo": "None", "latitude": 43.66947269914591, "longitude": -79.46023752189988}, "132743527RR0001": {"name": "Art of Living Foundation/Fondation l'Art de Vivre", "designationCode": "C", "categoryCode": "20", "address": "13 CHEMIN DE L'INFINITE", "city": "ST-MATHIEU DU PARC", "province": "QC", "country": "CA", "postalCode": "G0X1N0", "twitter": "None", "instagram": "None", "facebook": "None", "youtube": "None", "website": "None", "summary": "None", "logo": "None", "latitude": 46.54973411824106, "longitude": -72.93747078322473}, "848982658RR0001": {"name": "Art with a Heart Inc.", "designationCode": "C", "categoryCode": "22", "address": "209 DUNDAS STREET E.          LOWER LEVEL UNITS 1 & 2", "city": "WHITBY", "province": "ON", "country": "CA", "postalCode": "L1N7H8", "twitter": "None", "instagram": "None", "facebook": "None", "youtube": "None", "website": "None", "summary": "None", "logo": "None", "latitude": 43.88007300000005, "longitude": -78.94094299999993}, "136019635RR0001": {"name": "Art Dealers Association of Canada Foundation / Fondation de l'Association des marchands d'art du Canada", "designationCode": "C", "categoryCode": "22", "address": "393 - 401 RICHMOND ST W", "city": "TORONTO", "province": "ON", "country": "CA", "postalCode": "M5V3A8", "twitter": "None", "instagram": "None", "facebook": "None", "youtube": "None", "website": "None", "summary": "None", "logo": "None", "latitude": 43.64792255983254, "longitude": -79.39538964100468}, "119230902RR0001": {"name": "Art Gallery of Alberta Society", "designationCode": "C", "categoryCode": "22", "address": "2 SIR WINSTON CHURCHILL SQ NW", "city": "EDMONTON", "province": "AB", "country": "CA", "postalCode": "T5J2C1", "twitter": "None", "instagram": "None", "facebook": "None", "youtube": "None", "website": "None", "summary": "None", "logo": "None", "latitude": 53.54435670899742, "longitude": -113.4907989279822}, "819737750RR0001": {"name": "Art Gallery of Bancroft Inc", "designationCode": "C", "categoryCode": "50", "address": "10 FLINT AVE                  PO  BOX 398", "city": "BANCROFT", "province": "ON", "country": "CA", "postalCode": "K0L1C0", "twitter": "None", "instagram": "None", "facebook": "None", "youtube": "None", "website": "None", "summary": "None", "logo": "None", "latitude": 45.05729298216513, "longitude": -77.85279806886753}, "106818925RR0001": {"name": "Art Gallery of Burlington", "designationCode": "C", "categoryCode": "22", "address": "1333 LAKESHORE RD", "city": "BURLINGTON", "province": "ON", "country": "CA", "postalCode": "L7S1A9", "twitter": "None", "instagram": "None", "facebook": "None", "youtube": "None", "website": "None", "summary": "None", "logo": "None", "latitude": 43.32050625512111, "longitude": -79.80061752778559}, "890621378RR0001": {"name": "Art Gallery of Burlington Foundation", "designationCode": "A", "categoryCode": "53", "address": "1333 LAKESHORE ROAD", "city": "BURLINGTON", "province": "ON", "country": "CA", "postalCode": "L7S1A9", "twitter": "None", "instagram": "None", "facebook": "None", "youtube": "None", "website": "None", "summary": "None", "logo": "None"}, "119243491RR0001": {"name": "Art Gallery of Guelph", "designationCode": "C", "categoryCode": "50", "address": "358 GORDON STREET", "city": "GUELPH", "province": "ON", "country": "CA", "postalCode": "N1G1Y1", "twitter": "None", "instagram": "None", "facebook": "None", "youtube": "None", "website": "None", "summary": "None", "logo": "None", "latitude": 43.53268687318926, "longitude": -80.2332262962378}, "839591559RR0001": {"name": "Art Saving Life Foundation", "designationCode": "C", "categoryCode": "11", "address": "27 MERCIER", "city": "L'ILE BIZARD", "province": "QC", "country": "CA", "postalCode": "H9E1H2", "twitter": "None", "instagram": "None", "facebook": "None", "youtube": "None", "website": "None", "summary": "None", "logo": "None", "latitude": 45.483794497085825, "longitude": -73.87522728628315}, "119218501RR0001": {"name": "Art Song Foundation of Canada", "designationCode": "C", "categoryCode": "22", "address": "704-31 TICHESTER ROAD", "city": "TORONTO", "province": "ON", "country": "CA", "postalCode": "M5P3L8", "twitter": "None", "instagram": "None", "facebook": "None", "youtube": "None", "website": "None", "summary": "None", "logo": "None", "latitude": 43.68545177655964, "longitude": -79.41887598237062}, "821964806RR0001": {"name": "Art Souterrain", "designationCode": "C", "categoryCode": "22", "address": "2020, RUE WILLIAM", "city": "MONTREAL", "province": "QC", "country": "CA", "postalCode": "H3J1R8", "twitter": "None", "instagram": "None", "facebook": "None", "youtube": "None", "website": "None", "summary": "None", "logo": "None", "latitude": 45.48581862337687, "longitude": -73.56850096851498}, "803435643RR0001": {"name": "Art Takes Action for Charity", "designationCode": "B", "categoryCode": "22", "address": "70 OLD SHEPPARD AVENUE        UNIT 310", "city": "NORTH YORK", "province": "ON", "country": "CA", "postalCode": "M2J3L6", "twitter": "None", "instagram": "None", "facebook": "None", "youtube": "None", "website": "None", "summary": "None", "logo": "None", "latitude": 43.778023143516485, "longitude": -79.33639775465974}, "803846724RR0001": {"name": "Art With Impact Canada", "designationCode": "C", "categoryCode": "20", "address": "60 MILL ST", "city": "ORANGEVILLE", "province": "ON", "country": "CA", "postalCode": "L9W2M7", "twitter": "None", "instagram": "None", "facebook": "None", "youtube": "None", "website": "None", "summary": "None", "logo": "None", "latitude": 43.91653099832657, "longitude": -80.09423585821428}, "122871270RR0001": {"name": "Art-Official Inc.", "designationCode": "C", "categoryCode": "22", "address": "1490 DUNDAS STREET WEST", "city": "TORONTO", "province": "ON", "country": "CA", "postalCode": "M6K1T5", "twitter": "None", "instagram": "None", "facebook": "None", "youtube": "None", "website": "None", "summary": "None", "logo": "None", "latitude": 43.64967450043268, "longitude": -79.43180274271452}, "860767094RR0001": {"name": "Artbarn School", "designationCode": "C", "categoryCode": "22", "address": "250 EGLINGTON AVE. WEST", "city": "TORONTO", "province": "ON", "country": "CA", "postalCode": "M4R1A7", "twitter": "None", "instagram": "None", "facebook": "None", "youtube": "None", "website": "None", "summary": "None", "logo": "None", "latitude": 43.705136209013666, "longitude": -79.40616965251886}, "842452583RR0001": {"name": "Artbound", "designationCode": "A", "categoryCode": "03", "address": "664A WELLINGTON ST. W.", "city": "TORONTO", "province": "ON", "country": "CA", "postalCode": "M5V1G4", "twitter": "None", "instagram": "None", "facebook": "None", "youtube": "None", "website": "None", "summary": "None", "logo": "None", "latitude": 43.641935703083014, "longitude": -79.40585827601126}, "108173253RR0001": {"name": "Artemis Place Society", "designationCode": "C", "categoryCode": "59", "address": "3020 RICHMOND RD", "city": "VICTORIA", "province": "BC", "country": "CA", "postalCode": "V8R4V1", "twitter": "None", "instagram": "None", "facebook": "None", "youtube": "None", "website": "None", "summary": "None", "logo": "None", "latitude": 48.44514162031853, "longitude": -123.3268017674417}, "760660894RR0001": {"name": "Artesian Performing Arts Inc.", "designationCode": "C", "categoryCode": "22", "address": "2627 13TH AVE", "city": "REGINA", "province": "SK", "country": "CA", "postalCode": "S4T1N2", "twitter": "None", "instagram": "None", "facebook": "None", "youtube": "None", "website": "None", "summary": "None", "logo": "None", "latitude": 50.445492517889164, "longitude": -104.61919402553522}, "858682651RR0001": {"name": "Arthouse for Children and Youth", "designationCode": "C", "categoryCode": "22", "address": "115 GEORGE STREET, 522", "city": "OAKVILLE", "province": "ON", "country": "CA", "postalCode": "L6J0A2", "twitter": "None", "instagram": "None", "facebook": "None", "youtube": "None", "website": "None", "summary": "None", "logo": "None", "latitude": 43.44604425174555, "longitude": -79.66877844864109}, "806646303RR0001": {"name": "Arthur and Sandra Irving Foundation", "designationCode": "B", "categoryCode": "03", "address": "P.O. BOX 20059 BRUNSWICK SQ.", "city": "SAINT JOHN", "province": "NB", "country": "CA", "postalCode": "E2L5B2", "twitter": "None", "instagram": "None", "facebook": "None", "youtube": "None", "website": "None", "summary": "None", "logo": "None", "latitude": 45.28015277223757, "longitude": -66.05321408822462}, "842776239RR0001": {"name": "Arthur Christian School", "designationCode": "C", "categoryCode": "20", "address": "161 ELIZA STREET              BOX 340", "city": "ARTHUR", "province": "ON", "country": "CA", "postalCode": "N0G1A0", "twitter": "None", "instagram": "None", "facebook": "None", "youtube": "None", "website": "None", "summary": "None", "logo": "None", "latitude": 43.8298554316173, "longitude": -80.53247277713655}, "119101269RR0001": {"name": "Arthur Circle WMS", "designationCode": "C", "categoryCode": "47", "address": "284 MARY ST.", "city": "GODERICH", "province": "ON", "country": "CA", "postalCode": "N7A3B2", "twitter": "None", "instagram": "None", "facebook": "None", "youtube": "None", "website": "None", "summary": "None", "logo": "None", "latitude": 43.73507923284678, "longitude": -81.69859053846139}, "811587179RR0001": {"name": "Arthur Irving Academy Foundation", "designationCode": "B", "categoryCode": "23", "address": "PO BOX 20059 RPO BRUNSWICK SQ", "city": "SAINT JOHN", "province": "NB", "country": "CA", "postalCode": "E2L5B2", "twitter": "None", "instagram": "None", "facebook": "None", "youtube": "None", "website": "None", "summary": "None", "logo": "None", "latitude": 45.28015277223757, "longitude": -66.05321408822462}, "806645909RR0001": {"name": "Arthur L. Irving Family Foundation", "designationCode": "B", "categoryCode": "03", "address": "POST OFFICE BOX 20059         BRUNSWICK SQUARE", "city": "SAINT JOHN", "province": "NB", "country": "CA", "postalCode": "E2L5B2", "twitter": "None", "instagram": "None", "facebook": "None", "youtube": "None", "website": "None", "summary": "None", "logo": "None", "latitude": 45.27306008050087, "longitude": -66.06129006939226}, "837818434RR0001": {"name": "Arthur Mennonite Fellowship", "designationCode": "C", "categoryCode": "39", "address": "7249 WELLINGTON ROAD 8        RR 2", "city": "ALMA", "province": "ON", "country": "CA", "postalCode": "N0B1A0", "twitter": "None", "instagram": "None", "facebook": "None", "youtube": "None", "website": "None", "summary": "None", "logo": "None", "latitude": 43.704891334573134, "longitude": -80.54758160564994}, "817037765RR0001": {"name": "Artistic Development Support Group", "designationCode": "C", "categoryCode": "11", "address": "27 NAPANEE STREET", "city": "RICHMOND HILL", "province": "ON", "country": "CA", "postalCode": "L4E0X3", "twitter": "None", "instagram": "None", "facebook": "None", "youtube": "None", "website": "None", "summary": "None", "logo": "None", "latitude": 43.908316649863224, "longitude": -79.47070716616759}, "804490506RR0001": {"name": "Artistri Sud", "designationCode": "C", "categoryCode": "09", "address": "832 RUE SAINT-FERDINAND", "city": "MONTREAL", "province": "QC", "country": "CA", "postalCode": "H4C2T4", "twitter": "None", "instagram": "None", "facebook": "None", "youtube": "None", "website": "None", "summary": "None", "logo": "None", "latitude": 45.478057684142264, "longitude": -73.5891350126377}, "860891761RR0001": {"name": "Artists for Conservation International Foundation", "designationCode": "C", "categoryCode": "50", "address": "3936 BRAEMAR PLACE", "city": "NORTH VANCOUVER", "province": "BC", "country": "CA", "postalCode": "V7N4M8", "twitter": "None", "instagram": "None", "facebook": "None", "youtube": "None", "website": "None", "summary": "None", "logo": "None", "latitude": 49.34576910794062, "longitude": -123.06244515846281}, "822962205RR0001": {"name": "Artists for Peace and Justice Canada", "designationCode": "C", "categoryCode": "20", "address": "1202-390 BAY ST", "city": "TORONTO", "province": "ON", "country": "CA", "postalCode": "M5H2Y2", "twitter": "None", "instagram": "None", "facebook": "None", "youtube": "None", "website": "None", "summary": "None", "logo": "None", "latitude": 43.651353688585644, "longitude": -79.38143494243734}, "882394711RR0001": {"name": "Artists in Healthcare Manitoba Inc.", "designationCode": "C", "categoryCode": "11", "address": "2-1325 MARKHAM ROAD", "city": "WINNIPEG", "province": "MB", "country": "CA", "postalCode": "R3T4J6", "twitter": "None", "instagram": "None", "facebook": "None", "youtube": "None", "website": "None", "summary": "None", "logo": "None", "latitude": 49.808486817863916, "longitude": -97.15533616785393}, "796294528RR0001": {"name": "Arts and Culture Centre of Sussex Inc.", "designationCode": "C", "categoryCode": "22", "address": "12 MAPLE AVE", "city": "SUSSEX", "province": "NB", "country": "CA", "postalCode": "E4E2N5", "twitter": "None", "instagram": "None", "facebook": "None", "youtube": "None", "website": "None", "summary": "None", "logo": "None", "latitude": 45.723699501817684, "longitude": -65.51018063116722}, "817021868RR0001": {"name": "Arts for Health and Learning", "designationCode": "C", "categoryCode": "11", "address": "5005 COUNTRY ROAD 43          RURAL ROUTE 5", "city": "PERTH", "province": "ON", "country": "CA", "postalCode": "K7H3C7", "twitter": "None", "instagram": "None", "facebook": "None", "youtube": "None", "website": "None", "summary": "None", "logo": "None", "latitude": 44.89228806618477, "longitude": -76.1196965471346}, "852990159RR0001": {"name": "Arts on the Ave Edmonton Society", "designationCode": "C", "categoryCode": "22", "address": "9351 118 AVE NW", "city": "EDMONTON", "province": "AB", "country": "CA", "postalCode": "T5G0N3", "twitter": "None", "instagram": "None", "facebook": "None", "youtube": "None", "website": "None", "summary": "None", "logo": "None", "latitude": 53.57035949956732, "longitude": -113.4854505}, "823563572RR0001": {"name": "Arts Centre for Edson Society", "designationCode": "A", "categoryCode": "53", "address": "1402 EDSON DRIVE", "city": "EDSON", "province": "AB", "country": "CA", "postalCode": "T7E1H6", "twitter": "None", "instagram": "None", "facebook": "None", "youtube": "None", "website": "None", "summary": "None", "logo": "None", "latitude": 53.590860261180616, "longitude": -116.44112388568274}, "118790708RR0001": {"name": "Arts Council - Windsor and Region", "designationCode": "C", "categoryCode": "22", "address": "1942 WYANDOTTE ST E", "city": "WINDSOR", "province": "ON", "country": "CA", "postalCode": "N8Y1E4", "twitter": "None", "instagram": "None", "facebook": "None", "youtube": "None", "website": "None", "summary": "None", "logo": "None", "latitude": 42.322843538461406, "longitude": -83.01286179629514}, "821241536RR0001": {"name": "Arts Council for the South Shuswap Society", "designationCode": "C", "categoryCode": "22", "address": "PO BOX 12", "city": "BLIND BAY", "province": "BC", "country": "CA", "postalCode": "V0E1H0", "twitter": "None", "instagram": "None", "facebook": "None", "youtube": "None", "website": "None", "summary": "None", "logo": "None", "latitude": 50.88160596480947, "longitude": -119.42391639552882}, "844217034RR0001": {"name": "Arts Healing Hearts", "designationCode": "C", "categoryCode": "09", "address": "27 ELKWOOD DRIVE", "city": "TORONTO", "province": "ON", "country": "CA", "postalCode": "M1C2C2", "twitter": "None", "instagram": "None", "facebook": "None", "youtube": "None", "website": "None", "summary": "None", "logo": "None", "latitude": 43.784188114894185, "longitude": -79.14297157464377}, "836539718RR0001": {"name": "Arts Health Network Canada", "designationCode": "C", "categoryCode": "19", "address": "1800 - 510 GEORGIA ST W", "city": "VANCOUVER", "province": "BC", "country": "CA", "postalCode": "V6B0M3", "twitter": "None", "instagram": "None", "facebook": "None", "youtube": "None", "website": "None", "summary": "None", "logo": "None", "latitude": 49.281267759207665, "longitude": -123.11633309804196}, "118852300RR0001": {"name": "Arts Umbrella Association", "designationCode": "C", "categoryCode": "22", "address": "1286 CARTWRIGHTST.", "city": "VANCOUVER", "province": "BC", "country": "CA", "postalCode": "V6H3R8", "twitter": "None", "instagram": "None", "facebook": "None", "youtube": "None", "website": "None", "summary": "None", "logo": "None", "latitude": 49.26972974323414, "longitude": -123.13361756968077}, "851620351RR0001": {"name": "Artsbuild Ontario Charitable Organization", "designationCode": "A", "categoryCode": "23", "address": "44 GAUKEL ST", "city": "KITCHENER", "province": "ON", "country": "CA", "postalCode": "N2G4P3", "twitter": "None", "instagram": "None", "facebook": "None", "youtube": "None", "website": "None", "summary": "None", "logo": "None", "latitude": 43.449793155433056, "longitude": -80.49327263116722}, "864335435RR0001": {"name": "Artswell", "designationCode": "C", "categoryCode": "11", "address": "224-211 BRONSON AVE", "city": "OTTAWA", "province": "ON", "country": "CA", "postalCode": "K1R6H4", "twitter": "None", "instagram": "None", "facebook": "None", "youtube": "None", "website": "None", "summary": "None", "logo": "None", "latitude": 45.41349725618897, "longitude": -75.7068905103587}, "844019422RR0001": {"name": "Ash Family Charitable Foundation", "designationCode": "B", "categoryCode": "03", "address": "200 - 15127 100 AVE", "city": "SURREY", "province": "BC", "country": "CA", "postalCode": "V3R0N9", "twitter": "None", "instagram": "None", "facebook": "None", "youtube": "None", "website": "None", "summary": "None", "logo": "None", "latitude": 49.1842764893242, "longitude": -122.80312282944774}, "812768257RR0001": {"name": "Ashreigny Charitable Foundation", "designationCode": "A", "categoryCode": "03", "address": "PO BOX 5580", "city": "HIGH RIVER", "province": "AB", "country": "CA", "postalCode": "T1V1M6", "twitter": "None", "instagram": "None", "facebook": "None", "youtube": "None", "website": "None", "summary": "None", "logo": "None", "latitude": 50.57803500000006, "longitude": -113.85914299999993}, "131474165RR0001": {"name": "Ashworth Children's Centre Inc.", "designationCode": "C", "categoryCode": "01", "address": "164 SOUTHGLEN BLVD.", "city": "WINNIPEG", "province": "MB", "country": "CA", "postalCode": "R2N3J3", "twitter": "None", "instagram": "None", "facebook": "None", "youtube": "None", "website": "None", "summary": "None", "logo": "None", "latitude": 49.818018457552014, "longitude": -97.08992816387038}, "828933440RR0001": {"name": "Asian Canadian Cancer Fellowship Association", "designationCode": "C", "categoryCode": "11", "address": "203 - 1001 AUSTIN AVE", "city": "COQUITLAM", "province": "BC", "country": "CA", "postalCode": "V3K3N9", "twitter": "None", "instagram": "None", "facebook": "None", "youtube": "None", "website": "None", "summary": "None", "logo": "None", "latitude": 49.249019460470755, "longitude": -122.86722166763806}, "118973056RR0001": {"name": "Asian Canadian Studies Society", "designationCode": "C", "categoryCode": "21", "address": "1836 TRUTCH ST", "city": "VANCOUVER", "province": "BC", "country": "CA", "postalCode": "V6K4G3", "twitter": "None", "instagram": "None", "facebook": "None", "youtube": "None", "website": "None", "summary": "None", "logo": "None", "latitude": 49.269671077990665, "longitude": -123.17566145501773}, "709977698RR0001": {"name": "Asian Church of Christ", "designationCode": "C", "categoryCode": "36", "address": "328 54TH AVE E", "city": "VANCOUVER", "province": "BC", "country": "CA", "postalCode": "V5X1L2", "twitter": "None", "instagram": "None", "facebook": "None", "youtube": "None", "website": "None", "summary": "None", "logo": "None", "latitude": 49.22098254674262, "longitude": -123.0991139701656}, "814966362RR0001": {"name": "Ask Network Canada", "designationCode": "C", "categoryCode": "39", "address": "17 MYRAND AVE", "city": "OTTAWA", "province": "ON", "country": "CA", "postalCode": "K1N5N7", "twitter": "None", "instagram": "None", "facebook": "None", "youtube": "None", "website": "None", "summary": "None", "logo": "None", "latitude": 45.434020315857744, "longitude": -75.6829614543539}, "840330153RR0001": {"name": "Asociacion de Mujeres Chilenas de Ontario/Association of Chilean Women of Ontario", "designationCode": "C", "categoryCode": "09", "address": "PO BOX 11584 RPO THE EAST MALL", "city": "ETOBICOKE", "province": "ON", "country": "CA", "postalCode": "M9B6L1", "twitter": "None", "instagram": "None", "facebook": "None", "youtube": "None", "website": "None", "summary": "None", "logo": "None", "latitude": 43.65049829793293, "longitude": -79.56206315634076}, "845533454RR0001": {"name": "Aspen Alliance Church", "designationCode": "C", "categoryCode": "39", "address": "230 SIENNA PARK BAY SW", "city": "CALGARY", "province": "AB", "country": "CA", "postalCode": "T3H4T1", "twitter": "None", "instagram": "None", "facebook": "None", "youtube": "None", "website": "None", "summary": "None", "logo": "None", "latitude": 51.0276193705062, "longitude": -114.18185101912992}, "119288918RR1360": {"name": "Aspen Cove Congregation of Jehovah's Witnesses, Aspen Cove, Newfoundland", "designationCode": "C", "categoryCode": "61", "address": "LADLE COVE", "city": "LADLE COVE", "province": "NL", "country": "CA", "postalCode": "A0G2Y0", "twitter": "None", "instagram": "None", "facebook": "None", "youtube": "None", "website": "None", "summary": "None", "logo": "None", "latitude": 49.47052000000008, "longitude": -54.057349999999985}, "881720510RR0001": {"name": "Aspen Foundation for Labour Education", "designationCode": "C", "categoryCode": "21", "address": "11 BONIN PLACE", "city": "LEDUC", "province": "AB", "country": "CA", "postalCode": "T9E6H6", "twitter": "None", "instagram": "None", "facebook": "None", "youtube": "None", "website": "None", "summary": "None", "logo": "None", "latitude": 53.26313761613493, "longitude": -113.58050581669447}, "850219213RR0001": {"name": "Asphodel Norwood Firefighters Association", "designationCode": "C", "categoryCode": "59", "address": "P.O. BOX 95, 37 ALMA STREET", "city": "NORWOOD", "province": "ON", "country": "CA", "postalCode": "K0L2V0", "twitter": "None", "instagram": "None", "facebook": "None", "youtube": "None", "website": "None", "summary": "None", "logo": "None", "latitude": 44.38101365411691, "longitude": -77.97457296840702}, "892138041RR0001": {"name": "Asphodel Norwood Ministerial Association", "designationCode": "C", "categoryCode": "49", "address": "BOX 413", "city": "NORWOOD", "province": "ON", "country": "CA", "postalCode": "K0L2V0", "twitter": "None", "instagram": "None", "facebook": "None", "youtube": "None", "website": "None", "summary": "None", "logo": "None", "latitude": 44.38304000000005, "longitude": -77.97911999999997}, "853664530RR0001": {"name": "Aspiral Youth Partners Association", "designationCode": "C", "categoryCode": "59", "address": "451 SHUSWAP ST.S W", "city": "SALMON ARM", "province": "BC", "country": "CA", "postalCode": "V1E4H9", "twitter": "None", "instagram": "None", "facebook": "None", "youtube": "None", "website": "None", "summary": "None", "logo": "None", "latitude": 50.696572754365306, "longitude": -119.28522027129138}}