{"100987213RR0001": {"name": "CENTRE DE LA PETITE ENFANCE CLAIR-SOLEIL DE MASCOUCHE INC.", "designationCode": "C", "categoryCode": "20", "address": "215, CHEMIN DES ANGLAIS", "city": "MASCOUCHE", "province": "QC", "country": "CA", "postalCode": "J7L3P1", "twitter": "None", "instagram": "None", "facebook": "None", "youtube": "None", "website": "None", "summary": "None", "logo": "None", "latitude": 45.73003229615092, "longitude": -73.65623360952715}, "101944536RR0001": {"name": "CENTRE DE LA PETITE ENFANCE CLIN D'OEIL INC.", "designationCode": "C", "categoryCode": "01", "address": "91 RUE TURNBULL", "city": "LAVALTRIE", "province": "QC", "country": "CA", "postalCode": "J5T2W3", "twitter": "None", "instagram": "None", "facebook": "None", "youtube": "None", "website": "None", "summary": "None", "logo": "None", "latitude": 45.87888753093092, "longitude": -73.28680482765873}, "107413841RR0001": {"name": "CENTRE DE LA PETITE ENFANCE COMMUNAUTAIRE LES TROTTINETTES", "designationCode": "C", "categoryCode": "01", "address": "4400 BOUL LASALLE", "city": "VERDUN", "province": "QC", "country": "CA", "postalCode": "H4G2A8", "twitter": "None", "instagram": "None", "facebook": "None", "youtube": "None", "website": "None", "summary": "None", "logo": "None", "latitude": 45.45986239716661, "longitude": -73.56314139823448}, "138458542RR0001": {"name": "CENTRE DE LA PETITE ENFANCE COUP DE POUCE INC.", "designationCode": "C", "categoryCode": "01", "address": "110 RUE NELLIGAN", "city": "GATINEAU", "province": "QC", "country": "CA", "postalCode": "J8T5Z7", "twitter": "None", "instagram": "None", "facebook": "None", "youtube": "None", "website": "None", "summary": "None", "logo": "None", "latitude": 45.480568546771266, "longitude": -75.69501640227384}, "107413973RR0001": {"name": "CENTRE DE LA PETITE ENFANCE COURI-COURETTE", "designationCode": "C", "categoryCode": "20", "address": "399 RUE DU CHARRON", "city": "SAINT-AUGUSTIN-DE-DESMAURES", "province": "QC", "country": "CA", "postalCode": "G3A2T6", "twitter": "None", "instagram": "None", "facebook": "None", "youtube": "None", "website": "None", "summary": "None", "logo": "None", "latitude": 46.73995347573419, "longitude": -71.45237179534283}, "107588840RR0001": {"name": "CENTRE DE LA PETITE ENFANCE CRAYONS DE COULEUR INC.", "designationCode": "C", "categoryCode": "01", "address": "1145 RUE RACINE", "city": "VALCOURT", "province": "QC", "country": "CA", "postalCode": "J0E2L0", "twitter": "None", "instagram": "None", "facebook": "None", "youtube": "None", "website": "None", "summary": "None", "logo": "None", "latitude": 45.495722495672176, "longitude": -72.30494858228981}, "101944650RR0001": {"name": "CENTRE DE LA PETITE ENFANCE CROCUS", "designationCode": "C", "categoryCode": "01", "address": "3745 CH QUEEN-MARY", "city": "MONTREAL", "province": "QC", "country": "CA", "postalCode": "H3V1A7", "twitter": "None", "instagram": "None", "facebook": "None", "youtube": "None", "website": "None", "summary": "None", "logo": "None", "latitude": 45.494426805561275, "longitude": -73.61966675000734}, "867315574RR0001": {"name": "CENTRE DE LA PETITE ENFANCE DE BOUCHERVILLE", "designationCode": "C", "categoryCode": "01", "address": "656, RUE JACQUES-CARTIER", "city": "BOUCHERVILLE", "province": "QC", "country": "CA", "postalCode": "J4B5L7", "twitter": "None", "instagram": "None", "facebook": "None", "youtube": "None", "website": "None", "summary": "None", "logo": "None", "latitude": 45.602218666035725, "longitude": -73.43258375124311}, "867298010RR0001": {"name": "CENTRE DE LA PETITE ENFANCE DE FORMATION HEBRAIQUE", "designationCode": "C", "categoryCode": "01", "address": "2, HOPE DRIVE", "city": "DOLLARD-DES-ORMEAUX", "province": "QC", "country": "CA", "postalCode": "H9A2V5", "twitter": "None", "instagram": "None", "facebook": "None", "youtube": "None", "website": "None", "summary": "None", "logo": "None", "latitude": 45.491995928386004, "longitude": -73.82076050706912}, "119245827RR0001": {"name": "CENTRE DE LA PETITE ENFANCE DE JOUR DE MONTREAL", "designationCode": "C", "categoryCode": "01", "address": "1435 DRUMMOND 4TH FLOOR", "city": "MONTREAL", "province": "QC", "country": "CA", "postalCode": "H3G1W3", "twitter": "None", "instagram": "None", "facebook": "None", "youtube": "None", "website": "None", "summary": "None", "logo": "None", "latitude": 45.49910007940431, "longitude": -73.5751696086331}, "100882893RR0001": {"name": "CENTRE DE LA PETITE ENFANCE DE L'\u00ceLE DES SOEURS", "designationCode": "C", "categoryCode": "20", "address": "550, CHEMIN DU GOLF           SUITE 201", "city": "VERDUN", "province": "QC", "country": "CA", "postalCode": "H3E1A8", "twitter": "None", "instagram": "None", "facebook": "None", "youtube": "None", "website": "None", "summary": "None", "logo": "None", "latitude": 45.466135435512435, "longitude": -73.55110718901834}, "101945632RR0001": {"name": "CENTRE DE LA PETITE ENFANCE DE L'ANSE AUX LIEVRES INC.", "designationCode": "C", "categoryCode": "20", "address": "330 RUE DE LA CROIX-ROUGE", "city": "QUEBEC", "province": "QC", "country": "CA", "postalCode": "G1K2L5", "twitter": "None", "instagram": "None", "facebook": "None", "youtube": "None", "website": "None", "summary": "None", "logo": "None", "latitude": 46.819859866235696, "longitude": -71.23038638138357}, "138976295RR0001": {"name": "CENTRE DE LA PETITE ENFANCE DE LA BAIE", "designationCode": "C", "categoryCode": "01", "address": "101 AVENUE GRAND PRE", "city": "BONAVENTURE", "province": "QC", "country": "CA", "postalCode": "G0C1E0", "twitter": "None", "instagram": "None", "facebook": "None", "youtube": "None", "website": "None", "summary": "None", "logo": "None", "latitude": 48.04566210825774, "longitude": -65.49202533210213}, "142658954RR0001": {"name": "CENTRE DE LA PETITE ENFANCE DE LA CHENILLE AU PAPILLON INC", "designationCode": "C", "categoryCode": "20", "address": "2646, LAGUEUX RTE", "city": "LEVIS", "province": "QC", "country": "CA", "postalCode": "G6J1A4", "twitter": "None", "instagram": "None", "facebook": "None", "youtube": "None", "website": "None", "summary": "None", "logo": "None", "latitude": 46.65936658508844, "longitude": -71.32337212375232}, "107589459RR0001": {"name": "CENTRE DE LA PETITE ENFANCE DE LA PETITE-NATION", "designationCode": "C", "categoryCode": "01", "address": "381 RUE PAPINEAU", "city": "PAPINEAUVILLE", "province": "QC", "country": "CA", "postalCode": "J0V1R0", "twitter": "None", "instagram": "None", "facebook": "None", "youtube": "None", "website": "None", "summary": "None", "logo": "None", "latitude": 45.616532943620776, "longitude": -75.02821717733292}, "107414393RR0001": {"name": "CENTRE DE LA PETITE ENFANCE DE MCGILL/MCGILL CHILDCARE CENTRE", "designationCode": "C", "categoryCode": "56", "address": "3491 95 PEEL ST.", "city": "MONTREAL", "province": "QC", "country": "CA", "postalCode": "H3A1W7", "twitter": "None", "instagram": "None", "facebook": "None", "youtube": "None", "website": "None", "summary": "None", "logo": "None", "latitude": 45.50239500000005, "longitude": -73.57750549999993}, "867955759RR0001": {"name": "CENTRE DE LA PETITE ENFANCE DE MONTREAL-NORD", "designationCode": "C", "categoryCode": "01", "address": "4875 BOUL. LEGER", "city": "MONTREAL-NORD", "province": "QC", "country": "CA", "postalCode": "H1G6P8", "twitter": "None", "instagram": "None", "facebook": "None", "youtube": "None", "website": "None", "summary": "None", "logo": "None", "latitude": 45.60436598779499, "longitude": -73.6364534905936}, "101946523RR0001": {"name": "CENTRE DE LA PETITE ENFANCE DE POINTE-ST-CHARLES / POINTE ST-CHARLES EARLY CHILDHOOD CENTER", "designationCode": "C", "categoryCode": "01", "address": "255, RUE ASH", "city": "MONTREAL", "province": "QC", "country": "CA", "postalCode": "H3K2R1", "twitter": "None", "instagram": "None", "facebook": "None", "youtube": "None", "website": "None", "summary": "None", "logo": "None", "latitude": 45.47820970748445, "longitude": -73.55226600164478}, "132562521RR0001": {"name": "CENTRE DE LA PETITE ENFANCE DE SAINT-LAMBERT", "designationCode": "C", "categoryCode": "20", "address": "50 AVENUE STE-HELENE", "city": "SAINT-LAMBERT", "province": "QC", "country": "CA", "postalCode": "J4R1S2", "twitter": "None", "instagram": "None", "facebook": "None", "youtube": "None", "website": "None", "summary": "None", "logo": "None", "latitude": 45.49747506108244, "longitude": -73.49877795931691}, "101944817RR0001": {"name": "CENTRE DE LA PETITE ENFANCE DE SAINT-LUC", "designationCode": "C", "categoryCode": "01", "address": "1459 RUE BERNIER", "city": "SAINT-JEAN-SUR-RICHELIEU", "province": "QC", "country": "CA", "postalCode": "J2W1G1", "twitter": "None", "instagram": "None", "facebook": "None", "youtube": "None", "website": "None", "summary": "None", "logo": "None", "latitude": 45.34981826972164, "longitude": -73.29695726305654}, "107414294RR0001": {"name": "CENTRE DE LA PETITE ENFANCE DES AMIS DES PRAIRIES", "designationCode": "C", "categoryCode": "01", "address": "71, RANG STE-JULIE", "city": "NOTRE-DAME-DES-PRAIRIES", "province": "QC", "country": "CA", "postalCode": "J6E1M5", "twitter": "None", "instagram": "None", "facebook": "None", "youtube": "None", "website": "None", "summary": "None", "logo": "None", "latitude": 46.05127033498766, "longitude": -73.43102002596791}, "118936004RR0001": {"name": "CENTRE DE LA PETITE ENFANCE DES HAUTES-PLAINES", "designationCode": "C", "categoryCode": "20", "address": "475 BOUL DES HAUTES-PLAINES", "city": "HULL", "province": "QC", "country": "CA", "postalCode": "J8Z2H8", "twitter": "None", "instagram": "None", "facebook": "None", "youtube": "None", "website": "None", "summary": "None", "logo": "None", "latitude": 45.47182742157666, "longitude": -75.7623227153903}, "107588998RR0001": {"name": "CENTRE DE LA PETITE ENFANCE DES RIRES", "designationCode": "C", "categoryCode": "20", "address": "720 BOUL DR GERVAIS", "city": "MONT-TREMBLANT", "province": "QC", "country": "CA", "postalCode": "J8E2T3", "twitter": "None", "instagram": "None", "facebook": "None", "youtube": "None", "website": "None", "summary": "None", "logo": "None", "latitude": 46.12258500000006, "longitude": -74.57608249999993}, "101944866RR0001": {"name": "CENTRE DE LA PETITE ENFANCE DOLLARD INC.", "designationCode": "C", "categoryCode": "20", "address": "12000 DE SALABERRY BLVD", "city": "DOLLARD-DES-ORMEAUX", "province": "QC", "country": "CA", "postalCode": "H9B0A5", "twitter": "None", "instagram": "None", "facebook": "None", "youtube": "None", "website": "None", "summary": "None", "logo": "None", "latitude": 45.48237408833999, "longitude": -73.80979661009209}, "101944882RR0001": {"name": "CENTRE DE LA PETITE ENFANCE DORVAL", "designationCode": "C", "categoryCode": "01", "address": "865 CH BORD DU LAC LAKESHORE", "city": "DORVAL", "province": "QC", "country": "CA", "postalCode": "H9S2C7", "twitter": "None", "instagram": "None", "facebook": "None", "youtube": "None", "website": "None", "summary": "None", "logo": "None", "latitude": 45.43878443551245, "longitude": -73.74229288496159}, "866689979RR0001": {"name": "CENTRE DE LA PETITE ENFANCE DOUX REVEIL", "designationCode": "C", "categoryCode": "01", "address": "11 PLACE MAURIAC", "city": "ST-LIBOIRE", "province": "QC", "country": "CA", "postalCode": "J0H1R0", "twitter": "None", "instagram": "None", "facebook": "None", "youtube": "None", "website": "None", "summary": "None", "logo": "None", "latitude": 45.64914709521601, "longitude": -72.75956588784712}, "107414377RR0001": {"name": "CENTRE DE LA PETITE ENFANCE DU BOIS JOLI INC.", "designationCode": "C", "categoryCode": "20", "address": "1200, DES RIVIERES RTE", "city": "LEVIS", "province": "QC", "country": "CA", "postalCode": "G7A2V4", "twitter": "None", "instagram": "None", "facebook": "None", "youtube": "None", "website": "None", "summary": "None", "logo": "None", "latitude": 46.7220641920481, "longitude": -71.29805724011838}, "133984047RR0001": {"name": "CENTRE DE LA PETITE ENFANCE DU CAMPUS/CAMPUS EARLY CHILDHOOD CENTRE", "designationCode": "C", "categoryCode": "01", "address": "1 MAPLE", "city": "STE ANNE DE BELLEVUE", "province": "QC", "country": "CA", "postalCode": "H9X2E3", "twitter": "None", "instagram": "None", "facebook": "None", "youtube": "None", "website": "None", "summary": "None", "logo": "None", "latitude": 45.403014614490154, "longitude": -73.94456196332762}, "107414385RR0001": {"name": "CENTRE DE LA PETITE ENFANCE DU CARREFOUR INC.", "designationCode": "C", "categoryCode": "01", "address": "2355 PROVENCALE", "city": "MONTREAL", "province": "QC", "country": "CA", "postalCode": "H2K4P9", "twitter": "None", "instagram": "None", "facebook": "None", "youtube": "None", "website": "None", "summary": "None", "logo": "None", "latitude": 45.529571461567265, "longitude": -73.5510470012694}, "101944981RR0001": {"name": "CENTRE DE LA PETITE ENFANCE DU MOUILLEPIED INC.", "designationCode": "C", "categoryCode": "01", "address": "266 ST-DENIS", "city": "SAINT-LAMBERT", "province": "QC", "country": "CA", "postalCode": "J4P2G3", "twitter": "None", "instagram": "None", "facebook": "None", "youtube": "None", "website": "None", "summary": "None", "logo": "None", "latitude": 45.4992604565756, "longitude": -73.50905216472387}, "101944999RR0001": {"name": "CENTRE DE LA PETITE ENFANCE DU PASSE-TEMPS", "designationCode": "C", "categoryCode": "20", "address": "1725 BOUL GOUIN E", "city": "MONTREAL", "province": "QC", "country": "CA", "postalCode": "H2C3H6", "twitter": "None", "instagram": "None", "facebook": "None", "youtube": "None", "website": "None", "summary": "None", "logo": "None", "latitude": 45.56786355816823, "longitude": -73.66097388588429}, "138906284RR0001": {"name": "CENTRE DE LA PETITE ENFANCE DU PIC (CPE DU PIC)", "designationCode": "C", "categoryCode": "01", "address": "2435, BOUL. LE CORBUSIER", "city": "LAVAL", "province": "QC", "country": "CA", "postalCode": "H7S1Z4", "twitter": "None", "instagram": "None", "facebook": "None", "youtube": "None", "website": "None", "summary": "None", "logo": "None", "latitude": 45.57363367972751, "longitude": -73.74204502784384}, "102935954RR0001": {"name": "CENTRE DE LA PETITE ENFANCE DU QUARTIER OUEST", "designationCode": "C", "categoryCode": "20", "address": "4171 AV MADISON", "city": "MONTREAL", "province": "QC", "country": "CA", "postalCode": "H4B2V1", "twitter": "None", "instagram": "None", "facebook": "None", "youtube": "None", "website": "None", "summary": "None", "logo": "None", "latitude": 45.467185210398625, "longitude": -73.62815236689953}, "119001972RR0001": {"name": "CENTRE DE LA PETITE ENFANCE DU VILLAGE DU BIC", "designationCode": "C", "categoryCode": "20", "address": "74 RUE STE-CECILE-DU-BIC", "city": "RIMOUSKI", "province": "QC", "country": "CA", "postalCode": "G0L1B0", "twitter": "None", "instagram": "None", "facebook": "None", "youtube": "None", "website": "None", "summary": "None", "logo": "None", "latitude": 48.3762677729816, "longitude": -68.69783741745037}, "101945020RR0001": {"name": "CENTRE DE LA PETITE ENFANCE DU VILLAGE INC.", "designationCode": "C", "categoryCode": "20", "address": "985 DE LA RIVIERE", "city": "CAP-ROUGE", "province": "QC", "country": "CA", "postalCode": "G1Y1Z9", "twitter": "None", "instagram": "None", "facebook": "None", "youtube": "None", "website": "None", "summary": "None", "logo": "None", "latitude": 46.76192237999859, "longitude": -71.35968493014634}, "107414476RR0001": {"name": "CENTRE DE LA PETITE ENFANCE DULUTH INC.", "designationCode": "A", "categoryCode": "20", "address": "3820 RUE SAINT-DOMINIQUE", "city": "MONTREAL", "province": "QC", "country": "CA", "postalCode": "H2W2A3", "twitter": "None", "instagram": "None", "facebook": "None", "youtube": "None", "website": "None", "summary": "None", "logo": "None", "latitude": 45.516092826245114, "longitude": -73.5760241759766}, "118935816RR0001": {"name": "CENTRE DE LA PETITE ENFANCE ENTRE AMIS INC.", "designationCode": "C", "categoryCode": "01", "address": "33 RUE SAINT-JACQUES S", "city": "COATICOOK", "province": "QC", "country": "CA", "postalCode": "J1A2N6", "twitter": "None", "instagram": "None", "facebook": "None", "youtube": "None", "website": "None", "summary": "None", "logo": "None", "latitude": 45.131831633360264, "longitude": -71.79687410234337}, "107415010RR0001": {"name": "CENTRE DE LA PETITE ENFANCE FANFOU", "designationCode": "C", "categoryCode": "20", "address": "1690 AV D'ASSISE", "city": "QUEBEC", "province": "QC", "country": "CA", "postalCode": "G1L5A6", "twitter": "None", "instagram": "None", "facebook": "None", "youtube": "None", "website": "None", "summary": "None", "logo": "None", "latitude": 46.828329726066116, "longitude": -71.2393483211092}, "107415069RR0001": {"name": "CENTRE DE LA PETITE ENFANCE FLEUR DE POMMIER", "designationCode": "C", "categoryCode": "01", "address": "1915 CHEMIN OKA", "city": "OKA", "province": "QC", "country": "CA", "postalCode": "J0N1E0", "twitter": "None", "instagram": "None", "facebook": "None", "youtube": "None", "website": "None", "summary": "None", "logo": "None", "latitude": 45.489078899272755, "longitude": -74.03818153609546}, "107415077RR0001": {"name": "CENTRE DE LA PETITE ENFANCE FLEUR DE SOLEIL", "designationCode": "C", "categoryCode": "01", "address": "2081 RUE LUPIEN", "city": "PLESSISVILLE", "province": "QC", "country": "CA", "postalCode": "G6L5S8", "twitter": "None", "instagram": "None", "facebook": "None", "youtube": "None", "website": "None", "summary": "None", "logo": "None", "latitude": 46.22558720457026, "longitude": -71.77143730241197}, "101945285RR0001": {"name": "CENTRE DE LA PETITE ENFANCE FRISSON DE COLLINE", "designationCode": "C", "categoryCode": "01", "address": "475 AV BLOOMFIELD", "city": "OUTREMONT", "province": "QC", "country": "CA", "postalCode": "H2V3R9", "twitter": "None", "instagram": "None", "facebook": "None", "youtube": "None", "website": "None", "summary": "None", "logo": "None", "latitude": 45.51943236750512, "longitude": -73.60578278931291}, "101946861RR0001": {"name": "CENTRE DE LA PETITE ENFANCE GAMINVILLE INC.", "designationCode": "C", "categoryCode": "01", "address": "2287 A ALADIN", "city": "VIMONT LAVAL", "province": "QC", "country": "CA", "postalCode": "H7K2T6", "twitter": "None", "instagram": "None", "facebook": "None", "youtube": "None", "website": "None", "summary": "None", "logo": "None", "latitude": 45.61924408661764, "longitude": -73.72943556621831}, "101945293RR0001": {"name": "CENTRE DE LA PETITE ENFANCE GARI-GATOU INC.", "designationCode": "C", "categoryCode": "20", "address": "2126 BURMA", "city": "JONQUIERE", "province": "QC", "country": "CA", "postalCode": "G7S2X6", "twitter": "None", "instagram": "None", "facebook": "None", "youtube": "None", "website": "None", "summary": "None", "logo": "None", "latitude": 48.41751102276528, "longitude": -71.18500069516385}, "121329056RR0001": {"name": "CENTRE DE LA PETITE ENFANCE GENESIS 87 INC.", "designationCode": "C", "categoryCode": "01", "address": "1841 TERRASSE ELGIN", "city": "MONTR\u00c9AL", "province": "QC", "country": "CA", "postalCode": "H3J1E8", "twitter": "None", "instagram": "None", "facebook": "None", "youtube": "None", "website": "None", "summary": "None", "logo": "None", "latitude": 45.48994566749384, "longitude": -73.57308962793591}, "107415283RR0001": {"name": "CENTRE DE LA PETITE ENFANCE GRIPETTE", "designationCode": "C", "categoryCode": "20", "address": "355 RUE DE MONSEIGNEUR-SIGNAY", "city": "NICOLET", "province": "QC", "country": "CA", "postalCode": "J3T1E1", "twitter": "None", "instagram": "None", "facebook": "None", "youtube": "None", "website": "None", "summary": "None", "logo": "None", "latitude": 46.22630346462569, "longitude": -72.61252063102299}, "891303323RR0001": {"name": "CENTRE DE LA PETITE ENFANCE HIPPO PLUS", "designationCode": "C", "categoryCode": "20", "address": "799 RUE ARDOUIN", "city": "BEAUPORT", "province": "QC", "country": "CA", "postalCode": "G1C7N1", "twitter": "None", "instagram": "None", "facebook": "None", "youtube": "None", "website": "None", "summary": "None", "logo": "None", "latitude": 46.88333947489746, "longitude": -71.18533297599399}, "135343713RR0001": {"name": "CENTRE DE LA PETITE ENFANCE IMAGEMO DE L'INSTITUT UNIVERSITAIRE DE GERIATRIE DE SHERBROOKE", "designationCode": "C", "categoryCode": "01", "address": "980 RUE BELVEDERE S", "city": "SHERBROOKE", "province": "QC", "country": "CA", "postalCode": "J1H4C3", "twitter": "None", "instagram": "None", "facebook": "None", "youtube": "None", "website": "None", "summary": "None", "logo": "None", "latitude": 45.39148401165676, "longitude": -71.89602450525146}, "107589210RR0001": {"name": "CENTRE DE LA PETITE ENFANCE JARDIN BLEU, QUEBEC", "designationCode": "C", "categoryCode": "01", "address": "1750 BOUL BENOIT XV", "city": "QUEBEC", "province": "QC", "country": "CA", "postalCode": "G1L2Z6", "twitter": "None", "instagram": "None", "facebook": "None", "youtube": "None", "website": "None", "summary": "None", "logo": "None", "latitude": 46.83123467167743, "longitude": -71.23420884606752}, "107415366RR0001": {"name": "CENTRE DE LA PETITE ENFANCE JARDIN DE FANFAN", "designationCode": "C", "categoryCode": "01", "address": "431 RUE DU MOULIN", "city": "MAGOG", "province": "QC", "country": "CA", "postalCode": "J1X4A1", "twitter": "None", "instagram": "None", "facebook": "None", "youtube": "None", "website": "None", "summary": "None", "logo": "None", "latitude": 45.27226060283339, "longitude": -72.1592204740894}, "102935988RR0001": {"name": "CENTRE DE LA PETITE ENFANCE JARDIN DE FRUITS INC.", "designationCode": "C", "categoryCode": "01", "address": "4988 PLACE DE LA SAVANE", "city": "MONTREAL", "province": "QC", "country": "CA", "postalCode": "H4P1Z6", "twitter": "None", "instagram": "None", "facebook": "None", "youtube": "None", "website": "None", "summary": "None", "logo": "None", "latitude": 45.499052127935926, "longitude": -73.65367324634985}, "119002012RR0001": {"name": "CENTRE DE LA PETITE ENFANCE JOLIBOIS", "designationCode": "C", "categoryCode": "20", "address": "50 RUE PRINCIPALE", "city": "ST-APOLLINAIRE", "province": "QC", "country": "CA", "postalCode": "G0S2E0", "twitter": "None", "instagram": "None", "facebook": "None", "youtube": "None", "website": "None", "summary": "None", "logo": "None", "latitude": 46.617296194586935, "longitude": -71.50303897336826}, "101945384RR0001": {"name": "CENTRE DE LA PETITE ENFANCE JULIE-SOLEIL", "designationCode": "C", "categoryCode": "01", "address": "375 MARIE CURIE", "city": "SAINTE JULIE", "province": "QC", "country": "CA", "postalCode": "J3E1A4", "twitter": "None", "instagram": "None", "facebook": "None", "youtube": "None", "website": "None", "summary": "None", "logo": "None", "latitude": 45.581670417450376, "longitude": -73.33949583954663}, "107415507RR0001": {"name": "CENTRE DE LA PETITE ENFANCE KALEIDOSCOPE CHILD CARE CENTRE", "designationCode": "C", "categoryCode": "01", "address": "1725 CHEMIN FAIRVIEW", "city": "HINCHINBROOKE", "province": "QC", "country": "CA", "postalCode": "J0S1H0", "twitter": "None", "instagram": "None", "facebook": "None", "youtube": "None", "website": "None", "summary": "None", "logo": "None", "latitude": 45.08182351595594, "longitude": -74.17373498747786}, "101944577RR0001": {"name": "CENTRE DE LA PETITE ENFANCE KATERI INC.", "designationCode": "C", "categoryCode": "01", "address": "9 CH SAINT-FRANCOIS-XAVIER", "city": "CANDIAC", "province": "QC", "country": "CA", "postalCode": "J5R1A1", "twitter": "None", "instagram": "None", "facebook": "None", "youtube": "None", "website": "None", "summary": "None", "logo": "None", "latitude": 45.397176540077524, "longitude": -73.52877580887552}, "101945616RR0001": {"name": "CENTRE DE LA PETITE ENFANCE L'AMIBULLE", "designationCode": "C", "categoryCode": "29", "address": "7015 DES SEMAILLES", "city": "ST-HYACINTHE", "province": "QC", "country": "CA", "postalCode": "J2R1B4", "twitter": "None", "instagram": "None", "facebook": "None", "youtube": "None", "website": "None", "summary": "None", "logo": "None", "latitude": 45.64316852120741, "longitude": -72.99534458534825}, "130917867RR0001": {"name": "CENTRE DE LA PETITE ENFANCE L'APPRENTI-SAGE", "designationCode": "C", "categoryCode": "20", "address": "495 RUE DES FALAISES", "city": "MONT-SAINT-HILAIRE", "province": "QC", "country": "CA", "postalCode": "J3H5R7", "twitter": "None", "instagram": "None", "facebook": "None", "youtube": "None", "website": "None", "summary": "None", "logo": "None", "latitude": 45.56459845409411, "longitude": -73.18293503603813}, "130404833RR0001": {"name": "CENTRE DE LA PETITE ENFANCE L'AQUARELLE", "designationCode": "C", "categoryCode": "20", "address": "66, RUE ST-GERARD", "city": "ST-DAMIEN  BELLECHASSE", "province": "QC", "country": "CA", "postalCode": "G0R2Y0", "twitter": "None", "instagram": "None", "facebook": "None", "youtube": "None", "website": "None", "summary": "None", "logo": "None", "latitude": 46.628582345519256, "longitude": -70.6665596614343}, "107416224RR0001": {"name": "CENTRE DE LA PETITE ENFANCE L'ARC-EN-CIEL INC.", "designationCode": "C", "categoryCode": "99", "address": "83 RUE MONT-MARIE", "city": "L\u00c9VIS", "province": "QC", "country": "CA", "postalCode": "G6V8Y9", "twitter": "None", "instagram": "None", "facebook": "None", "youtube": "None", "website": "None", "summary": "None", "logo": "None", "latitude": 46.81268567167745, "longitude": -71.17637570500294}, "100075472RR0001": {"name": "CENTRE DE LA PETITE ENFANCE L'AURORE BOREALE", "designationCode": "C", "categoryCode": "01", "address": "426, LA SALLE", "city": "RIMOUSKI", "province": "QC", "country": "CA", "postalCode": "G5L3V7", "twitter": "None", "instagram": "None", "facebook": "None", "youtube": "None", "website": "None", "summary": "None", "logo": "None", "latitude": 48.443011140775184, "longitude": -68.55066831643467}, "101945830RR0001": {"name": "CENTRE DE LA PETITE ENFANCE L'ELEPHANT BLEU", "designationCode": "C", "categoryCode": "01", "address": "2715 SHERBROOKE EST", "city": "MONTREAL", "province": "QC", "country": "CA", "postalCode": "H2K1G7", "twitter": "None", "instagram": "None", "facebook": "None", "youtube": "None", "website": "None", "summary": "None", "logo": "None", "latitude": 45.538306742166256, "longitude": -73.56013159411947}, "107416984RR0001": {"name": "CENTRE DE LA PETITE ENFANCE L'ESCALE INC.", "designationCode": "C", "categoryCode": "20", "address": "94, RUE DE LA FABRIQUE", "city": "SAINTE-CLAIRE", "province": "QC", "country": "CA", "postalCode": "G0R2V0", "twitter": "None", "instagram": "None", "facebook": "None", "youtube": "None", "website": "None", "summary": "None", "logo": "None", "latitude": 46.600535820128265, "longitude": -70.8641683835193}, "861637684RR0001": {"name": "CENTRE DE LA PETITE ENFANCE L'ILE AUX TRESORS", "designationCode": "C", "categoryCode": "01", "address": "1211 VIRGINIE ROY", "city": "NOTRE-DAME DE L'ILE PERROT", "province": "QC", "country": "CA", "postalCode": "J7V9A1", "twitter": "None", "instagram": "None", "facebook": "None", "youtube": "None", "website": "None", "summary": "None", "logo": "None", "latitude": 45.385143980528866, "longitude": -73.93047313977557}, "892835471RR0001": {"name": "CENTRE DE LA PETITE ENFANCE L'OISEAU D'OR", "designationCode": "C", "categoryCode": "20", "address": "5, RUE CHARLOTTE", "city": "SHERBROOKE", "province": "QC", "country": "CA", "postalCode": "J1M2J9", "twitter": "None", "instagram": "None", "facebook": "None", "youtube": "None", "website": "None", "summary": "None", "logo": "None", "latitude": 45.37366564749853, "longitude": -71.86177139534895}, "118935642RR0001": {"name": "CENTRE DE LA PETITE ENFANCE LA BARBOUILLE INC.", "designationCode": "C", "categoryCode": "01", "address": "500 DES CAPUCINES", "city": "STE-ADELE", "province": "QC", "country": "CA", "postalCode": "J8B1W5", "twitter": "None", "instagram": "None", "facebook": "None", "youtube": "None", "website": "None", "summary": "None", "logo": "None", "latitude": 45.95631247489748, "longitude": -74.13578127254891}, "107415564RR0001": {"name": "CENTRE DE LA PETITE ENFANCE LA BOITE A SOLEIL", "designationCode": "C", "categoryCode": "01", "address": "1160 RUE DENAULT", "city": "CHAMBLY", "province": "QC", "country": "CA", "postalCode": "J3L2T9", "twitter": "None", "instagram": "None", "facebook": "None", "youtube": "None", "website": "None", "summary": "None", "logo": "None", "latitude": 45.44139767638063, "longitude": -73.29844946655892}, "869959049RR0001": {"name": "CENTRE DE LA PETITE ENFANCE LA BOUGEOTTE", "designationCode": "C", "categoryCode": "01", "address": "1040 AVE BELV\u00c9D\u00c8RE            LOCAL 105", "city": "QU\u00c9BEC", "province": "QC", "country": "CA", "postalCode": "G1S3G3", "twitter": "None", "instagram": "None", "facebook": "None", "youtube": "None", "website": "None", "summary": "None", "logo": "None", "latitude": 46.79633028585047, "longitude": -71.23855425261092}, "107415630RR0001": {"name": "CENTRE DE LA PETITE ENFANCE LA BUTTE A MOINEAUX", "designationCode": "C", "categoryCode": "01", "address": "324 RUE ST SAUVEUR", "city": "QU\u00c9BEC", "province": "QC", "country": "CA", "postalCode": "G1N2X4", "twitter": "None", "instagram": "None", "facebook": "None", "youtube": "None", "website": "None", "summary": "None", "logo": "None", "latitude": 46.80861757923142, "longitude": -71.24167856454487}, "101945467RR0001": {"name": "CENTRE DE LA PETITE ENFANCE LA CABOTINE", "designationCode": "C", "categoryCode": "20", "address": "20 RUE ST-CHARLES BORROMEE SUD", "city": "JOLIETTE", "province": "QC", "country": "CA", "postalCode": "J6E4T1", "twitter": "None", "instagram": "None", "facebook": "None", "youtube": "None", "website": "None", "summary": "None", "logo": "None", "latitude": 46.02611159006534, "longitude": -73.4378227121386}, "107415655RR0001": {"name": "CENTRE DE LA PETITE ENFANCE LA CACHE-CACHE", "designationCode": "C", "categoryCode": "01", "address": "250 RUE COLBERT", "city": "CHICOUTIMI", "province": "QC", "country": "CA", "postalCode": "G7G1L7", "twitter": "None", "instagram": "None", "facebook": "None", "youtube": "None", "website": "None", "summary": "None", "logo": "None", "latitude": 48.4422565889836, "longitude": -71.05621850683798}, "132409962RR0001": {"name": "CENTRE DE LA PETITE ENFANCE LA CAMPINOISE", "designationCode": "C", "categoryCode": "01", "address": "185, RUE HEBERT", "city": "SALABERRY-DE-VALLEYFIELD", "province": "QC", "country": "CA", "postalCode": "J6S6T7", "twitter": "None", "instagram": "None", "facebook": "None", "youtube": "None", "website": "None", "summary": "None", "logo": "None", "latitude": 45.258625464365885, "longitude": -74.11677494324539}, "101945491RR0001": {"name": "CENTRE DE LA PETITE ENFANCE LA CHENILLE INC.", "designationCode": "C", "categoryCode": "01", "address": "398, RUE GIGUERE", "city": "SAINT-DONAT", "province": "QC", "country": "CA", "postalCode": "J0T2C0", "twitter": "None", "instagram": "None", "facebook": "None", "youtube": "None", "website": "None", "summary": "None", "logo": "None", "latitude": 46.32122654844471, "longitude": -74.22336984681732}, "886465590RR0001": {"name": "CENTRE DE LA PETITE ENFANCE LA CIBOULETTE DE GATINEAU", "designationCode": "C", "categoryCode": "01", "address": "155 RUE VIANNEY", "city": "GATINEAU", "province": "QC", "country": "CA", "postalCode": "J8P4A4", "twitter": "None", "instagram": "None", "facebook": "None", "youtube": "None", "website": "None", "summary": "None", "logo": "None", "latitude": 45.4821174893242, "longitude": -75.65036372745108}, "129743969RR0001": {"name": "CENTRE DE LA PETITE ENFANCE LA CLE DES CHAMPS INC.", "designationCode": "C", "categoryCode": "20", "address": "385 RUE SAINT-ZEPHIRIN", "city": "LA TUQUE", "province": "QC", "country": "CA", "postalCode": "G9X1X7", "twitter": "None", "instagram": "None", "facebook": "None", "youtube": "None", "website": "None", "summary": "None", "logo": "None", "latitude": 47.43116554731953, "longitude": -72.78080316180969}, "107415705RR0001": {"name": "CENTRE DE LA PETITE ENFANCE LA CULBUTE", "designationCode": "C", "categoryCode": "20", "address": "1450, RUE DU PERE-MARQUETTE", "city": "TROIS-RIVIERES", "province": "QC", "country": "CA", "postalCode": "G8Z4N5", "twitter": "None", "instagram": "None", "facebook": "None", "youtube": "None", "website": "None", "summary": "None", "logo": "None", "latitude": 46.348133363321516, "longitude": -72.57224655193582}, "129998381RR0001": {"name": "CENTRE DE LA PETITE ENFANCE LA FOURMILI\u00c8RE", "designationCode": "C", "categoryCode": "01", "address": "566, RUE PANET", "city": "MONT-LAURIER", "province": "QC", "country": "CA", "postalCode": "J9L3A1", "twitter": "None", "instagram": "None", "facebook": "None", "youtube": "None", "website": "None", "summary": "None", "logo": "None", "latitude": 46.55475216792652, "longitude": -75.48821864218975}, "107415176RR0001": {"name": "CENTRE DE LA PETITE ENFANCE LA GALIJODE INC.", "designationCode": "C", "categoryCode": "20", "address": "6315 13IEME AVE", "city": "MONTR\u00c9AL", "province": "QC", "country": "CA", "postalCode": "H1X2Y6", "twitter": "None", "instagram": "None", "facebook": "None", "youtube": "None", "website": "None", "summary": "None", "logo": "None", "latitude": 45.55553487763266, "longitude": -73.58228581069318}, "133604470RR0001": {"name": "CENTRE DE LA PETITE ENFANCE LA GATINERIE", "designationCode": "C", "categoryCode": "01", "address": "32 RUE DE L'ACADIE", "city": "GATINEAU", "province": "QC", "country": "CA", "postalCode": "J8T6G8", "twitter": "None", "instagram": "None", "facebook": "None", "youtube": "None", "website": "None", "summary": "None", "logo": "None", "latitude": 45.486571449939156, "longitude": -75.70536358104907}, "101945558RR0001": {"name": "CENTRE DE LA PETITE ENFANCE LA GOELETTE ENCHANTEE INC.", "designationCode": "C", "categoryCode": "01", "address": "66, RUE RACINE", "city": "BAIE-SAINT-PAUL", "province": "QC", "country": "CA", "postalCode": "G3Z2R1", "twitter": "None", "instagram": "None", "facebook": "None", "youtube": "None", "website": "None", "summary": "None", "logo": "None", "latitude": 47.4386804011764, "longitude": -70.51451611691432}, "862067287RR0001": {"name": "CENTRE DE LA PETITE ENFANCE LA GRANDE OURSE", "designationCode": "C", "categoryCode": "01", "address": "2600, RUE PRINCIPALE", "city": "SAINTE-JULIE", "province": "QC", "country": "CA", "postalCode": "J3E2H6", "twitter": "None", "instagram": "None", "facebook": "None", "youtube": "None", "website": "None", "summary": "None", "logo": "None", "latitude": 45.58045224588851, "longitude": -73.35703427252025}, "866777519RR0001": {"name": "CENTRE DE LA PETITE ENFANCE LA GROSSE MAISON", "designationCode": "C", "categoryCode": "01", "address": "150-14115 RUE PRINCE-ARTHUR", "city": "MONTREAL", "province": "QC", "country": "CA", "postalCode": "H1A1A8", "twitter": "None", "instagram": "None", "facebook": "None", "youtube": "None", "website": "None", "summary": "None", "logo": "None", "latitude": 45.67149856953654, "longitude": -73.50907747258886}, "126429778RR0001": {"name": "CENTRE DE LA PETITE ENFANCE LA JARDINIERE INC", "designationCode": "C", "categoryCode": "01", "address": "3001, 12E AVENUE NORD", "city": "SHERBROOKE", "province": "QC", "country": "CA", "postalCode": "J1H5N4", "twitter": "None", "instagram": "None", "facebook": "None", "youtube": "None", "website": "None", "summary": "None", "logo": "None", "latitude": 45.44612968765278, "longitude": -71.86449888198075}, "101945566RR0001": {"name": "CENTRE DE LA PETITE ENFANCE LA JOYEUSE EQUIPEE", "designationCode": "C", "categoryCode": "01", "address": "1035 RUE MARCEL", "city": "ST-JEROME", "province": "QC", "country": "CA", "postalCode": "J5L1Z7", "twitter": "None", "instagram": "None", "facebook": "None", "youtube": "None", "website": "None", "summary": "None", "logo": "None", "latitude": 45.75544811933758, "longitude": -74.02712552599657}, "133177295RR0001": {"name": "CENTRE DE LA PETITE ENFANCE LA LIBELLULE INC", "designationCode": "C", "categoryCode": "01", "address": "8061 BD. DU CENTRE-HOSPITALIER", "city": "CHARNY", "province": "QC", "country": "CA", "postalCode": "G6X1L3", "twitter": "None", "instagram": "None", "facebook": "None", "youtube": "None", "website": "None", "summary": "None", "logo": "None", "latitude": 46.7217279982979, "longitude": -71.27007909166663}, "118935527RR0001": {"name": "CENTRE DE LA PETITE ENFANCE LA MAISON DES PETITS CASTORS", "designationCode": "C", "categoryCode": "20", "address": "30 CH. RIVERMEAD", "city": "GATINEAU", "province": "QC", "country": "CA", "postalCode": "J9J2W8", "twitter": "None", "instagram": "None", "facebook": "None", "youtube": "None", "website": "None", "summary": "None", "logo": "None", "latitude": 45.41003853344109, "longitude": -75.79421185030841}, "107415929RR0001": {"name": "CENTRE DE LA PETITE ENFANCE LA MARMAILLE", "designationCode": "C", "categoryCode": "01", "address": "4125, BOUL. DE LA CONCORDE EST", "city": "LAVAL", "province": "QC", "country": "CA", "postalCode": "H7E5A5", "twitter": "None", "instagram": "None", "facebook": "None", "youtube": "None", "website": "None", "summary": "None", "logo": "None", "latitude": 45.60197982707292, "longitude": -73.65437120694757}, "143479244RR0001": {"name": "CENTRE DE LA PETITE ENFANCE LA MARMICELLE", "designationCode": "C", "categoryCode": "01", "address": "5500 RUE DAVID", "city": "SAINT-HUBERT", "province": "QC", "country": "CA", "postalCode": "J3Z1H8", "twitter": "None", "instagram": "None", "facebook": "None", "youtube": "None", "website": "None", "summary": "None", "logo": "None", "latitude": 45.460012988603054, "longitude": -73.41892822150713}, "102954369RR0001": {"name": "CENTRE DE LA PETITE ENFANCE LA MERE SCHTROUMPH", "designationCode": "C", "categoryCode": "01", "address": "235, BOULEVARD MONCHAMP", "city": "ST-CONSTANT", "province": "QC", "country": "CA", "postalCode": "J5A2R6", "twitter": "None", "instagram": "None", "facebook": "None", "youtube": "None", "website": "None", "summary": "None", "logo": "None", "latitude": 45.37539635997462, "longitude": -73.58443093842664}, "107415994RR0001": {"name": "CENTRE DE LA PETITE ENFANCE LA PELUCHE", "designationCode": "C", "categoryCode": "20", "address": "10900 RUE DES MONTAGNARDS", "city": "BEAUPR\u00c9", "province": "QC", "country": "CA", "postalCode": "G0A1E0", "twitter": "None", "instagram": "None", "facebook": "None", "youtube": "None", "website": "None", "summary": "None", "logo": "None", "latitude": 47.041105011396965, "longitude": -70.90107671720796}, "107416018RR0001": {"name": "CENTRE DE LA PETITE ENFANCE LA PETITE BOTTINE INC.", "designationCode": "C", "categoryCode": "01", "address": "700 RUE PRINCIPALE", "city": "LAC-DROLET", "province": "QC", "country": "CA", "postalCode": "G0Y1C0", "twitter": "None", "instagram": "None", "facebook": "None", "youtube": "None", "website": "None", "summary": "None", "logo": "None", "latitude": 45.719101035547205, "longitude": -70.84974029167884}, "107416083RR0001": {"name": "CENTRE DE LA PETITE ENFANCE LA PETITE GRENOUILLE (1985)", "designationCode": "C", "categoryCode": "01", "address": "198 RUE SAINT-JOSEPH", "city": "LEVIS", "province": "QC", "country": "CA", "postalCode": "G6V1C9", "twitter": "None", "instagram": "None", "facebook": "None", "youtube": "None", "website": "None", "summary": "None", "logo": "None", "latitude": 46.82369425780507, "longitude": -71.16871581634868}, "107589319RR0001": {"name": "CENTRE DE LA PETITE ENFANCE LA PETITE MARINE INC.", "designationCode": "C", "categoryCode": "20", "address": "328 BOUL. FISET", "city": "SOREL-TRACY", "province": "QC", "country": "CA", "postalCode": "J3P3R2", "twitter": "None", "instagram": "None", "facebook": "None", "youtube": "None", "website": "None", "summary": "None", "logo": "None", "latitude": 46.03683742602008, "longitude": -73.0947988795659}, "107414617RR0001": {"name": "CENTRE DE LA PETITE ENFANCE LA PETITE SEMENCE", "designationCode": "C", "categoryCode": "01", "address": "1450, NOBERT", "city": "LONGUEUIL", "province": "QC", "country": "CA", "postalCode": "J4K5H8", "twitter": "None", "instagram": "None", "facebook": "None", "youtube": "None", "website": "None", "summary": "None", "logo": "None", "latitude": 45.50619864002538, "longitude": -73.4847419266839}, "107416109RR0001": {"name": "CENTRE DE LA PETITE ENFANCE LA PIROUETTE", "designationCode": "C", "categoryCode": "01", "address": "3200 RUE STE EMILIE", "city": "JONQUIERE", "province": "QC", "country": "CA", "postalCode": "G7S5Y2", "twitter": "None", "instagram": "None", "facebook": "None", "youtube": "None", "website": "None", "summary": "None", "logo": "None", "latitude": 48.41402226787438, "longitude": -71.20584732526414}, "139573695RR0001": {"name": "CENTRE DE LA PETITE ENFANCE LA PRAIRIE", "designationCode": "C", "categoryCode": "01", "address": "1000 RUE DES TULIPES", "city": "LA PRAIRIE", "province": "QC", "country": "CA", "postalCode": "J5R5W1", "twitter": "None", "instagram": "None", "facebook": "None", "youtube": "None", "website": "None", "summary": "None", "logo": "None", "latitude": 45.41502808684879, "longitude": -73.46322590657302}, "101945715RR0001": {"name": "CENTRE DE LA PETITE ENFANCE LA REL\u00c8VE INC.", "designationCode": "C", "categoryCode": "01", "address": "3, PLACE DU SOUVENIR          C.P. 422, SUCC. ST-MARTIN", "city": "LAVAL", "province": "QC", "country": "CA", "postalCode": "H7V1W7", "twitter": "None", "instagram": "None", "facebook": "None", "youtube": "None", "website": "None", "summary": "None", "logo": "None", "latitude": 45.55192326582652, "longitude": -73.74439970809095}, "102936051RR0001": {"name": "CENTRE DE LA PETITE ENFANCE LA RITOURNELLE", "designationCode": "C", "categoryCode": "20", "address": "3545 CHEMIN ROYAL", "city": "BEAUPORT", "province": "QC", "country": "CA", "postalCode": "G1E1X1", "twitter": "None", "instagram": "None", "facebook": "None", "youtube": "None", "website": "None", "summary": "None", "logo": "None", "latitude": 46.853903723844404, "longitude": -71.20398062476193}, "101945731RR0001": {"name": "CENTRE DE LA PETITE ENFANCE LA RUCHE", "designationCode": "C", "categoryCode": "20", "address": "2555 RUE LECLAIRE", "city": "MONTREAL", "province": "QC", "country": "CA", "postalCode": "H1V3A8", "twitter": "None", "instagram": "None", "facebook": "None", "youtube": "None", "website": "None", "summary": "None", "logo": "None", "latitude": 45.55964385541567, "longitude": -73.54453495377697}, "107416299RR0001": {"name": "CENTRE DE LA PETITE ENFANCE LA SALOPETTE INC.", "designationCode": "C", "categoryCode": "20", "address": "705, AV. ALBERT-ROUSSEAU", "city": "LEVIS", "province": "QC", "country": "CA", "postalCode": "G6J1Z6", "twitter": "None", "instagram": "None", "facebook": "None", "youtube": "None", "website": "None", "summary": "None", "logo": "None", "latitude": 46.65474855816825, "longitude": -71.3120579242597}, "101945756RR0001": {"name": "CENTRE DE LA PETITE ENFANCE LA TOUPIE", "designationCode": "C", "categoryCode": "20", "address": "1910 RUE PLAISANCE", "city": "TERREBONNE", "province": "QC", "country": "CA", "postalCode": "J6X4A2", "twitter": "None", "instagram": "None", "facebook": "None", "youtube": "None", "website": "None", "summary": "None", "logo": "None", "latitude": 45.7214129686364, "longitude": -73.68100980838459}, "107418550RR0001": {"name": "CENTRE DE LA PETITE ENFANCE LE BALUCHON INC.", "designationCode": "C", "categoryCode": "01", "address": "100 RUE BEDARD", "city": "GATINEAU", "province": "QC", "country": "CA", "postalCode": "J8Y6A3", "twitter": "None", "instagram": "None", "facebook": "None", "youtube": "None", "website": "None", "summary": "None", "logo": "None", "latitude": 45.45398921065842, "longitude": -75.75177159628385}}