{"118954817RR0001": {"name": "HEADFORD UNITED CHURCH", "designationCode": "C", "categoryCode": "44", "address": "75 SOUTHDALE DR", "city": "MARKHAM", "province": "ON", "country": "CA", "postalCode": "L3P1J9", "twitter": "None", "instagram": "None", "facebook": "None", "youtube": "None", "website": "None", "summary": "None", "logo": "None", "latitude": 43.86679213737097, "longitude": -79.2800219239426}, "894125798RR0001": {"name": "HEADINGLEY HISTORICAL SOCIETY INC.", "designationCode": "C", "categoryCode": "50", "address": "5353 PORTAGE AVE", "city": "HEADINGLEY", "province": "MB", "country": "CA", "postalCode": "R4H1J9", "twitter": "None", "instagram": "None", "facebook": "None", "youtube": "None", "website": "None", "summary": "None", "logo": "None", "latitude": 49.87602387361516, "longitude": -97.40338445396665}, "896281334RR0001": {"name": "HEADINGLEY SENIORS' SERVICES INC.", "designationCode": "C", "categoryCode": "01", "address": "5353 PORTAGE AVE", "city": "HEADINGLEY", "province": "MB", "country": "CA", "postalCode": "R4H1J9", "twitter": "None", "instagram": "None", "facebook": "None", "youtube": "None", "website": "None", "summary": "None", "logo": "None", "latitude": 49.87602387361516, "longitude": -97.40338445396665}, "133763193RR0001": {"name": "HEADON ACRES RETIREMENT COMMUNITY INCORPORATED", "designationCode": "C", "categoryCode": "09", "address": "3160 WOODBURN, RR#1", "city": "BURLINGTON", "province": "ON", "country": "CA", "postalCode": "L0R1C0", "twitter": "None", "instagram": "None", "facebook": "None", "youtube": "None", "website": "None", "summary": "None", "logo": "None", "latitude": 43.105862356656424, "longitude": -79.75746537653613}, "134960723RR0001": {"name": "HEADWATERS HEALTH CARE AUXILIARY (ORANGEVILLE)", "designationCode": "A", "categoryCode": "15", "address": "100 ROLLING HILLS DR", "city": "ORANGEVILLE", "province": "ON", "country": "CA", "postalCode": "L9W4X9", "twitter": "None", "instagram": "None", "facebook": "None", "youtube": "None", "website": "None", "summary": "None", "logo": "None", "latitude": 43.92077624905459, "longitude": -80.07234521123837}, "135460392RR0001": {"name": "HEADWATERS HEALTH CARE CENTRE", "designationCode": "C", "categoryCode": "10", "address": "100 ROLLING HILLS DRIVE", "city": "ORANGEVILLE", "province": "ON", "country": "CA", "postalCode": "L9W4X9", "twitter": "None", "instagram": "None", "facebook": "None", "youtube": "None", "website": "None", "summary": "None", "logo": "None", "latitude": 43.92077624905459, "longitude": -80.07234521123837}, "888697794RR0001": {"name": "HEADWATERS HEALTH CARE FOUNDATION", "designationCode": "A", "categoryCode": "13", "address": "100 ROLLING HILLS DR", "city": "ORANGEVILLE", "province": "ON", "country": "CA", "postalCode": "L9W4X9", "twitter": "None", "instagram": "None", "facebook": "None", "youtube": "None", "website": "None", "summary": "None", "logo": "None", "latitude": 43.92077624905459, "longitude": -80.07234521123837}, "723688925RR0001": {"name": "HEADWAY CHRISTIAN CHURCH COG EDMONTON", "designationCode": "C", "categoryCode": "39", "address": "304 - 10730 104 ST NW", "city": "EDMONTON", "province": "AB", "country": "CA", "postalCode": "T5H2W5", "twitter": "None", "instagram": "None", "facebook": "None", "youtube": "None", "website": "None", "summary": "None", "logo": "None", "latitude": 53.55238461226844, "longitude": -113.49927875093749}, "846075018RR0001": {"name": "HEALAURA EDUCATION SOCIETY", "designationCode": "C", "categoryCode": "09", "address": "10208 HADDRELL AVE", "city": "SUMMERLAND", "province": "BC", "country": "CA", "postalCode": "V0H1Z8", "twitter": "None", "instagram": "None", "facebook": "None", "youtube": "None", "website": "None", "summary": "None", "logo": "None", "latitude": 49.589844285299485, "longitude": -119.69838587252359}, "898691555RR0001": {"name": "HEALING HEARTS MINISTRIES INC.", "designationCode": "C", "categoryCode": "39", "address": "BOX 12", "city": "REGINA", "province": "SK", "country": "CA", "postalCode": "S4P2Z5", "twitter": "None", "instagram": "None", "facebook": "None", "youtube": "None", "website": "None", "summary": "None", "logo": "None", "latitude": 50.448246000000054, "longitude": -104.59517299999993}, "855209722RR0001": {"name": "HEALING SPIRITS REPATRIATION COMMITTEE", "designationCode": "C", "categoryCode": "59", "address": "1420C WEIWAIKUM RD", "city": "CAMPBELL RIVER", "province": "BC", "country": "CA", "postalCode": "V9W5W8", "twitter": "None", "instagram": "None", "facebook": "None", "youtube": "None", "website": "None", "summary": "None", "logo": "None", "latitude": 50.03147018662979, "longitude": -125.25180778774188}, "831078928RR0001": {"name": "HEALTH & EDUCATION FOR LESS PRIVILEGED ASSOCIATION", "designationCode": "C", "categoryCode": "09", "address": "3243 BOULTON ROAD NW", "city": "CALGARY", "province": "AB", "country": "CA", "postalCode": "T2L1M2", "twitter": "None", "instagram": "None", "facebook": "None", "youtube": "None", "website": "None", "summary": "None", "logo": "None", "latitude": 51.09129128919734, "longitude": -114.13456908702167}, "130828791RR0001": {"name": "HEALTH AND HOME CARE SOCIETY OF BRITISH COLUMBIA", "designationCode": "C", "categoryCode": "11", "address": "204-3077 GRANVILLE ST         (AT 15TH AVE)", "city": "VANCOUVER", "province": "BC", "country": "CA", "postalCode": "V6H3J9", "twitter": "None", "instagram": "None", "facebook": "None", "youtube": "None", "website": "None", "summary": "None", "logo": "None", "latitude": 49.25800799999999, "longitude": -123.13878299999999}, "810140749RR0001": {"name": "HEALTH ARTS SOCIETY", "designationCode": "C", "categoryCode": "22", "address": "1254 7TH AVE W", "city": "VANCOUVER", "province": "BC", "country": "CA", "postalCode": "V6H1B6", "twitter": "None", "instagram": "None", "facebook": "None", "youtube": "None", "website": "None", "summary": "None", "logo": "None", "latitude": 49.26522451399404, "longitude": -123.13264444463039}, "892363847RR0001": {"name": "HEALTH EDUCATION & LIVELIHOOD PROJECT INTERNATIONAL INC", "designationCode": "C", "categoryCode": "09", "address": "PO BOX 181  STN MAIN", "city": "WEYBURN", "province": "SK", "country": "CA", "postalCode": "S4H2J9", "twitter": "None", "instagram": "None", "facebook": "None", "youtube": "None", "website": "None", "summary": "None", "logo": "None", "latitude": 49.66802700000005, "longitude": -103.85818999999994}, "861946333RR0001": {"name": "HEALTH FOR HUMANITY SERVICE SOCIETY", "designationCode": "C", "categoryCode": "10", "address": "PO BOX 77028                  RPO KINGSWAY KNIGHT", "city": "VANCOUVER", "province": "BC", "country": "CA", "postalCode": "V5V5E7", "twitter": "None", "instagram": "None", "facebook": "None", "youtube": "None", "website": "None", "summary": "None", "logo": "None", "latitude": 49.253295654221134, "longitude": -123.08253861306673}, "890725971RR0001": {"name": "HEALTH LEAGUE OF CANADA", "designationCode": "C", "categoryCode": "11", "address": "28 MCCULLA AVE", "city": "BRAMPTON", "province": "ON", "country": "CA", "postalCode": "L6V1L7", "twitter": "None", "instagram": "None", "facebook": "None", "youtube": "None", "website": "None", "summary": "None", "logo": "None", "latitude": 43.698675425212, "longitude": -79.75937290937163}, "130490857RR0001": {"name": "HEALTH NEXUS", "designationCode": "C", "categoryCode": "11", "address": "301-180  DUNDAS ST W", "city": "TORONTO", "province": "ON", "country": "CA", "postalCode": "M5G1Z8", "twitter": "None", "instagram": "None", "facebook": "None", "youtube": "None", "website": "None", "summary": "None", "logo": "None", "latitude": 43.65505800000001, "longitude": -79.38679049999999}, "861752889RR0001": {"name": "HEALTH OUTREACH", "designationCode": "C", "categoryCode": "11", "address": "117 QUEEN STREET SOUTH        UNIT 2", "city": "MISSISSAUGA", "province": "ON", "country": "CA", "postalCode": "L5M6B5", "twitter": "None", "instagram": "None", "facebook": "None", "youtube": "None", "website": "None", "summary": "None", "logo": "None", "latitude": 43.583873227595305, "longitude": -79.71665551497497}, "804660017RR0001": {"name": "HEALTH REACH CANADA INC.", "designationCode": "C", "categoryCode": "09", "address": "124 CANTERVILLE ROAD S.W.", "city": "CALGARY", "province": "AB", "country": "CA", "postalCode": "T2W4R3", "twitter": "None", "instagram": "None", "facebook": "None", "youtube": "None", "website": "None", "summary": "None", "logo": "None", "latitude": 50.94169694532289, "longitude": -114.092299671793}, "118954999RR0001": {"name": "HEALTH SCIENCES CENTRE EMPLOYEE DONATION FUND", "designationCode": "B", "categoryCode": "75", "address": "791 NOTRE DAME AVE", "city": "WINNIPEG", "province": "MB", "country": "CA", "postalCode": "R3E0M1", "twitter": "None", "instagram": "None", "facebook": "None", "youtube": "None", "website": "None", "summary": "None", "logo": "None", "latitude": 49.90300194644805, "longitude": -97.16394128613892}, "118955012RR0001": {"name": "HEALTH SCIENCES CENTRE FOUNDATION INC.", "designationCode": "A", "categoryCode": "13", "address": "PW112 - 700 WILLIAM AVENUE", "city": "WINNIPEG", "province": "MB", "country": "CA", "postalCode": "R3E0Z3", "twitter": "None", "instagram": "None", "facebook": "None", "youtube": "None", "website": "None", "summary": "None", "logo": "None", "latitude": 49.90473450000001, "longitude": -97.157457}, "119158483RR0001": {"name": "HEALTH SERVICES FOUNDATION OF THE SOUTH SHORE", "designationCode": "A", "categoryCode": "13", "address": "P.O. BOX 492", "city": "BRIDGEWATER", "province": "NS", "country": "CA", "postalCode": "B4V2X6", "twitter": "None", "instagram": "None", "facebook": "None", "youtube": "None", "website": "None", "summary": "None", "logo": "None", "latitude": 44.38048200000006, "longitude": -64.52305099999994}, "878110519RR0001": {"name": "HEALTH TEAMS INTERNATIONAL (CANADA), INC./\u00c9QUIPES DE SANT\u00c9 INTERNATIONALES (CANADA) INC.", "designationCode": "C", "categoryCode": "11", "address": "414-1335 CARLING AVE", "city": "OTTAWA", "province": "ON", "country": "CA", "postalCode": "K1Z8N8", "twitter": "None", "instagram": "None", "facebook": "None", "youtube": "None", "website": "None", "summary": "None", "logo": "None", "latitude": 45.385492502394584, "longitude": -75.73570339081863}, "861373306RR0001": {"name": "HEALTH TECHNOLOGY ASSESSMENT INTERNATIONAL SOCIETY", "designationCode": "C", "categoryCode": "13", "address": "10405 JASPER AVENUE           SUITE 1200", "city": "EDMONTON", "province": "AB", "country": "CA", "postalCode": "T5J3N4", "twitter": "None", "instagram": "None", "facebook": "None", "youtube": "None", "website": "None", "summary": "None", "logo": "None", "latitude": 53.540504999999996, "longitude": -113.499963}, "129950051RR0001": {"name": "HEALTHBRIDGE FOUNDATION OF CANADA", "designationCode": "C", "categoryCode": "11", "address": "1004-1 NICHOLAS ST", "city": "OTTAWA", "province": "ON", "country": "CA", "postalCode": "K1N7B7", "twitter": "None", "instagram": "None", "facebook": "None", "youtube": "None", "website": "None", "summary": "None", "logo": "None", "latitude": 45.42176342184898, "longitude": -75.68497111848781}, "864936125RR0001": {"name": "HEALTHY FAMILIES HEALTHY FUTURES", "designationCode": "C", "categoryCode": "09", "address": "203 10011 106TH ST", "city": "WESTLOCK", "province": "AB", "country": "CA", "postalCode": "T7P2K3", "twitter": "None", "instagram": "None", "facebook": "None", "youtube": "None", "website": "None", "summary": "None", "logo": "None", "latitude": 54.15534322840337, "longitude": -113.86021058032793}, "896759347RR0001": {"name": "HEALTHY HEARTS CARDIAC REHABILITATION PROGRAM", "designationCode": "C", "categoryCode": "11", "address": "190 SUNCOAST DR E", "city": "GODERICH", "province": "ON", "country": "CA", "postalCode": "N7A4N4", "twitter": "None", "instagram": "None", "facebook": "None", "youtube": "None", "website": "None", "summary": "None", "logo": "None", "latitude": 43.73153458548468, "longitude": -81.70081321058802}, "835477274RR0001": {"name": "HEALTHY MINDS NETWORK CO-OPERATIVE LIMITED", "designationCode": "C", "categoryCode": "11", "address": "45 ALDERNEY DR                SUITE 200", "city": "DARTMOUTH", "province": "NS", "country": "CA", "postalCode": "B2Y2N6", "twitter": "None", "instagram": "None", "facebook": "None", "youtube": "None", "website": "None", "summary": "None", "logo": "None", "latitude": 44.66510530339292, "longitude": -63.56945518549857}, "834704140RR0001": {"name": "HEALTHY SMILES SOCIETY", "designationCode": "C", "categoryCode": "11", "address": "11316 9 AVE NW", "city": "EDMONTON", "province": "AB", "country": "CA", "postalCode": "T6J6W4", "twitter": "None", "instagram": "None", "facebook": "None", "youtube": "None", "website": "None", "summary": "None", "logo": "None", "latitude": 53.43909351154119, "longitude": -113.526252}, "867787137RR0001": {"name": "HEAR THE MUSIC MINISTRIES", "designationCode": "C", "categoryCode": "49", "address": "5201 19TH STREET", "city": "VERNON", "province": "BC", "country": "CA", "postalCode": "V1T9N1", "twitter": "None", "instagram": "None", "facebook": "None", "youtube": "None", "website": "None", "summary": "None", "logo": "None", "latitude": 50.28473700000001, "longitude": -119.25774745640271}, "847345477RR0001": {"name": "HEARING HEARTS MINISTRIES", "designationCode": "C", "categoryCode": "47", "address": "PO BOX 575", "city": "TERRACE", "province": "BC", "country": "CA", "postalCode": "V8G4B5", "twitter": "None", "instagram": "None", "facebook": "None", "youtube": "None", "website": "None", "summary": "None", "logo": "None", "latitude": 54.51590400000006, "longitude": -128.60321299999993}, "139138408RR0001": {"name": "HEART & HOME", "designationCode": "C", "categoryCode": "47", "address": "833-4445 CALGARY TRAIL NW", "city": "EDMONTON", "province": "AB", "country": "CA", "postalCode": "T6H5R7", "twitter": "None", "instagram": "None", "facebook": "None", "youtube": "None", "website": "None", "summary": "None", "logo": "None", "latitude": 53.48582391128899, "longitude": -113.49489419362304}, "118818343RR0001": {"name": "HEART AND STROKE FOUNDATION OF BRITISH COLUMBIA AND YUKON", "designationCode": "C", "categoryCode": "11", "address": "1212 WEST BROADWAY", "city": "VANCOUVER", "province": "BC", "country": "CA", "postalCode": "V6H3V2", "twitter": "None", "instagram": "None", "facebook": "None", "youtube": "None", "website": "None", "summary": "None", "logo": "None", "latitude": 49.26342849567218, "longitude": -123.13192436081135}, "106846942RR0001": {"name": "HEART AND STROKE FOUNDATION OF CANADA / FONDATION DES MALADIES DU COEUR ET DE L'AVC DU CANADA", "designationCode": "C", "categoryCode": "11", "address": "110 - 1525 CARLING AVE", "city": "OTTAWA", "province": "ON", "country": "CA", "postalCode": "K1Z8R9", "twitter": "None", "instagram": "None", "facebook": "None", "youtube": "None", "website": "None", "summary": "None", "logo": "None", "latitude": 45.38198222929743, "longitude": -75.7437751592126}, "119063444RR0001": {"name": "HEART AND STROKE FOUNDATION OF NOVA SCOTIA", "designationCode": "C", "categoryCode": "11", "address": "5657 SPRING GARDEN ROAD,      BOX 245", "city": "HALIFAX", "province": "NS", "country": "CA", "postalCode": "B3J3R4", "twitter": "None", "instagram": "None", "facebook": "None", "youtube": "None", "website": "None", "summary": "None", "logo": "None", "latitude": 44.64263317294686, "longitude": -63.57850782405205}, "107472839RR0001": {"name": "HEART AND STROKE FOUNDATION OF ONTARIO", "designationCode": "C", "categoryCode": "11", "address": "2300 YONGE STREET             SUITE 1300", "city": "TORONTO", "province": "ON", "country": "CA", "postalCode": "M4P1E4", "twitter": "None", "instagram": "None", "facebook": "None", "youtube": "None", "website": "None", "summary": "None", "logo": "None", "latitude": 43.70721096779967, "longitude": -79.39846036808203}, "131341844RR0001": {"name": "HEART AND STROKE FOUNDATION OF PRINCE EDWARD ISLAND", "designationCode": "C", "categoryCode": "11", "address": "P.O. BOX 279", "city": "CHARLOTTETOWN", "province": "PE", "country": "CA", "postalCode": "C1A7K4", "twitter": "None", "instagram": "None", "facebook": "None", "youtube": "None", "website": "None", "summary": "None", "logo": "None", "latitude": 46.23659700000006, "longitude": -63.12815449999994}, "889076261RR0001": {"name": "HEART BEATS CHILDREN'S SOCIETY OF CALGARY", "designationCode": "C", "categoryCode": "11", "address": "BOX 30233,                    CHINOOK POSTAL OUTLET", "city": "CALGARY", "province": "AB", "country": "CA", "postalCode": "T2H2V9", "twitter": "None", "instagram": "None", "facebook": "None", "youtube": "None", "website": "None", "summary": "None", "logo": "None", "latitude": 51.04531500000006, "longitude": -114.06301099999993}, "898937818RR0001": {"name": "HEART DEFECTS SOCIETY OF WINDSOR AND ESSEX COUNTY", "designationCode": "B", "categoryCode": "11", "address": "1479 TECUMSEN RD E", "city": "WINDSOR", "province": "ON", "country": "CA", "postalCode": "N8W1C2", "twitter": "None", "instagram": "None", "facebook": "None", "youtube": "None", "website": "None", "summary": "None", "logo": "None", "latitude": 42.300485780454764, "longitude": -83.00395458451152}, "859163560RR0001": {"name": "HEART FOR AFRICA (CANADA)", "designationCode": "C", "categoryCode": "09", "address": "1500 WEST GEORGIA ST.         SUITE 1250  P.O. BOX 62", "city": "VANCOUVER", "province": "BC", "country": "CA", "postalCode": "V6G2Z6", "twitter": "None", "instagram": "None", "facebook": "None", "youtube": "None", "website": "None", "summary": "None", "logo": "None", "latitude": 49.2900638104334, "longitude": -123.12989899362336}, "804913077RR0001": {"name": "HEART FOR AFRICA FOUNDATION", "designationCode": "A", "categoryCode": "03", "address": "1250-1500 WEST GEORGIA ST,    BOX 62", "city": "VANCOUVER", "province": "BC", "country": "CA", "postalCode": "V6G2Z6", "twitter": "None", "instagram": "None", "facebook": "None", "youtube": "None", "website": "None", "summary": "None", "logo": "None", "latitude": 49.290187500000016, "longitude": -123.130035}, "813775277RR0001": {"name": "HEART LAKE BAPTIST CHURCH", "designationCode": "C", "categoryCode": "31", "address": "10245 KENNEDY RD N", "city": "BRAMPTON", "province": "ON", "country": "CA", "postalCode": "L6Z0C5", "twitter": "None", "instagram": "None", "facebook": "None", "youtube": "None", "website": "None", "summary": "None", "logo": "None", "latitude": 43.720739483524476, "longitude": -79.783155093341}, "107473274RR0001": {"name": "HEART LAKE COMMUNITY PRESBYTERIAN CHURCH", "designationCode": "C", "categoryCode": "37", "address": "25 RUTH AVE", "city": "BRAMPTON", "province": "ON", "country": "CA", "postalCode": "L6Z3X3", "twitter": "None", "instagram": "None", "facebook": "None", "youtube": "None", "website": "None", "summary": "None", "logo": "None", "latitude": 43.72193474551315, "longitude": -79.78739012617557}, "119288918RR0541": {"name": "HEART LAKE CONGREGATION OF JEHOVAH'S WITNESSES", "designationCode": "C", "categoryCode": "61", "address": "360 CONESTOGA DRIVE", "city": "BRAMPTON", "province": "ON", "country": "CA", "postalCode": "L6Z2S9", "twitter": "None", "instagram": "None", "facebook": "None", "youtube": "None", "website": "None", "summary": "None", "logo": "None", "latitude": 43.71318276931761, "longitude": -79.78031826732612}, "107473282RR0001": {"name": "HEART LAKE UNITED CHURCH MINISTRY", "designationCode": "C", "categoryCode": "44", "address": "85 SANDALWOOD PKY E", "city": "BRAMPTON", "province": "ON", "country": "CA", "postalCode": "L6Z4S3", "twitter": "None", "instagram": "None", "facebook": "None", "youtube": "None", "website": "None", "summary": "None", "logo": "None", "latitude": 43.72202919285616, "longitude": -79.79834081369428}, "865967517RR0001": {"name": "HEART LINKS LAZOS DE CORAZON", "designationCode": "C", "categoryCode": "01", "address": "201 KING ST", "city": "LONDON", "province": "ON", "country": "CA", "postalCode": "N6A1C9", "twitter": "None", "instagram": "None", "facebook": "None", "youtube": "None", "website": "None", "summary": "None", "logo": "None", "latitude": 42.98290806797868, "longitude": -81.24760251067582}, "107473316RR0001": {"name": "HEART NIAGARA INC.", "designationCode": "C", "categoryCode": "11", "address": "4635B QUEEN ST", "city": "NIAGARA FALLS", "province": "ON", "country": "CA", "postalCode": "L2E2L7", "twitter": "None", "instagram": "None", "facebook": "None", "youtube": "None", "website": "None", "summary": "None", "logo": "None", "latitude": 43.10668526795352, "longitude": -79.07015523204647}, "865904205RR0001": {"name": "HEART NOTES CHOIR INC.", "designationCode": "C", "categoryCode": "22", "address": "21 BONAVISTA ST.", "city": "ST JOHN'S", "province": "NL", "country": "CA", "postalCode": "A1E2N5", "twitter": "None", "instagram": "None", "facebook": "None", "youtube": "None", "website": "None", "summary": "None", "logo": "None", "latitude": 47.52799943989854, "longitude": -52.76873133276597}, "865290704RR0001": {"name": "HEART OF COMPASSION CARE INTERNATIONAL INCORPORATED", "designationCode": "C", "categoryCode": "47", "address": "1103 - 1900 LAKE SHORE BLVD W", "city": "TORONTO", "province": "ON", "country": "CA", "postalCode": "M6S1A4", "twitter": "None", "instagram": "None", "facebook": "None", "youtube": "None", "website": "None", "summary": "None", "logo": "None", "latitude": 43.636115184364755, "longitude": -79.46603023740938}, "895507549RR0001": {"name": "HEART OF THE PEACE RECREATION SOCIETY", "designationCode": "C", "categoryCode": "56", "address": "BOX 51", "city": "FAIRVIEW", "province": "AB", "country": "CA", "postalCode": "T0H1L0", "twitter": "None", "instagram": "None", "facebook": "None", "youtube": "None", "website": "None", "summary": "None", "logo": "None", "latitude": 56.06862000000007, "longitude": -118.39200999999997}, "866973423RR0001": {"name": "HEART TO HEART INTERNATIONAL CANADA INC.", "designationCode": "C", "categoryCode": "47", "address": "26 SPRINGWOOD BAY", "city": "STEINBACH", "province": "MB", "country": "CA", "postalCode": "R5G2E8", "twitter": "None", "instagram": "None", "facebook": "None", "youtube": "None", "website": "None", "summary": "None", "logo": "None", "latitude": 49.5123295087503, "longitude": -96.68764678304305}, "858814288RR0001": {"name": "HEART TO HEART MINISTRY ASSOCIATION", "designationCode": "B", "categoryCode": "47", "address": "1882 MUNROE ST                RR2", "city": "WESTVILLE", "province": "NS", "country": "CA", "postalCode": "B0K2A0", "twitter": "None", "instagram": "None", "facebook": "None", "youtube": "None", "website": "None", "summary": "None", "logo": "None", "latitude": 45.549272943389646, "longitude": -62.71860459726479}, "854744539RR0001": {"name": "HEART TO HEART SOCIETY OF DRUMHELLER", "designationCode": "C", "categoryCode": "11", "address": "BOX 162", "city": "DRUMHELLER", "province": "AB", "country": "CA", "postalCode": "T0J0Y0", "twitter": "None", "instagram": "None", "facebook": "None", "youtube": "None", "website": "None", "summary": "None", "logo": "None", "latitude": 51.46154700000005, "longitude": -112.70878099999993}, "890594591RR0001": {"name": "HEART TO HEART SUPPORT SOCIETY", "designationCode": "C", "categoryCode": "11", "address": "PO BOX 5242 STN A", "city": "CALGARY", "province": "AB", "country": "CA", "postalCode": "T2H2K6", "twitter": "None", "instagram": "None", "facebook": "None", "youtube": "None", "website": "None", "summary": "None", "logo": "None", "latitude": 51.00307800000006, "longitude": -114.07153849999993}, "860225457RR0001": {"name": "HEART TRANSPLANT HOME SOCIETY", "designationCode": "C", "categoryCode": "11", "address": "6010 TRAPP AVE", "city": "BURNABY", "province": "BC", "country": "CA", "postalCode": "V3N2V4", "twitter": "None", "instagram": "None", "facebook": "None", "youtube": "None", "website": "None", "summary": "None", "logo": "None", "latitude": 49.19273610597872, "longitude": -122.9628989277804}, "118955269RR0001": {"name": "HEART VALLEY CHURCH OF GOD IN CHRIST MENNONITE", "designationCode": "C", "categoryCode": "34", "address": "RR #1", "city": "WANHAM", "province": "AB", "country": "CA", "postalCode": "T0H3P0", "twitter": "None", "instagram": "None", "facebook": "None", "youtube": "None", "website": "None", "summary": "None", "logo": "None", "latitude": 55.73760865254202, "longitude": -118.38467213552443}, "869529149RR0001": {"name": "HEART 4 CHILDREN", "designationCode": "C", "categoryCode": "11", "address": "17G IMPERIAL CRESCENT", "city": "DEVON", "province": "AB", "country": "CA", "postalCode": "T9G1K3", "twitter": "None", "instagram": "None", "facebook": "None", "youtube": "None", "website": "None", "summary": "None", "logo": "None", "latitude": 53.36116635982788, "longitude": -113.73080525474427}, "131984213RR0001": {"name": "HEARTBEAT EDUCATIONAL SOCIETY", "designationCode": "C", "categoryCode": "11", "address": "PO BOX 98889                  150-351 ABBOTT STREET", "city": "VANCOUVER", "province": "BC", "country": "CA", "postalCode": "V6B0M4", "twitter": "None", "instagram": "None", "facebook": "None", "youtube": "None", "website": "None", "summary": "None", "logo": "None", "latitude": 49.28235266362736, "longitude": -123.1070871778516}, "893193185RR0001": {"name": "HEARTBEAT MINISTRIES", "designationCode": "C", "categoryCode": "39", "address": "95 LOGGEN ROAD", "city": "LOWER SACKVILLE", "province": "NS", "country": "CA", "postalCode": "B4E1V8", "twitter": "None", "instagram": "None", "facebook": "None", "youtube": "None", "website": "None", "summary": "None", "logo": "None", "latitude": 44.788414022217005, "longitude": -63.69910430215311}, "853055341RR0001": {"name": "HEARTBEAT MINISTRIES CANADA", "designationCode": "B", "categoryCode": "47", "address": "12 - 4911 CEDAR LANE", "city": "OSOYOOS", "province": "BC", "country": "CA", "postalCode": "V0H1V3", "twitter": "None", "instagram": "None", "facebook": "None", "youtube": "None", "website": "None", "summary": "None", "logo": "None", "latitude": 49.029689580767226, "longitude": -119.4394567899253}, "892808478RR0001": {"name": "HEARTH PLACE CANCER SUPPORT CENTRE", "designationCode": "C", "categoryCode": "11", "address": "86 COLBORNE STREET WEST", "city": "OSHAWA", "province": "ON", "country": "CA", "postalCode": "L1G1L7", "twitter": "None", "instagram": "None", "facebook": "None", "youtube": "None", "website": "None", "summary": "None", "logo": "None", "latitude": 43.90027412519462, "longitude": -78.86824614821967}, "132155011RR0001": {"name": "HEARTHOUSE HOSPICE INC.", "designationCode": "C", "categoryCode": "11", "address": "1-855 MATHESON BLVD E", "city": "MISSISSAUGA", "province": "ON", "country": "CA", "postalCode": "L4W4L6", "twitter": "None", "instagram": "None", "facebook": "None", "youtube": "None", "website": "None", "summary": "None", "logo": "None", "latitude": 43.631170182007466, "longitude": -79.64579952464118}, "139481717RR0001": {"name": "HEARTHSTONE, COMMUNITY GROUP, INC.", "designationCode": "C", "categoryCode": "09", "address": "209 SUPERIOR AVE", "city": "SELKIRK", "province": "MB", "country": "CA", "postalCode": "R1A0Z7", "twitter": "None", "instagram": "None", "facebook": "None", "youtube": "None", "website": "None", "summary": "None", "logo": "None", "latitude": 50.144609697843926, "longitude": -96.86883621138881}, "119293025RR0009": {"name": "HEARTLAND ALLIANCE CHURCH OF THE CHRISTIAN AND MISSIONARY ALLIANCE", "designationCode": "C", "categoryCode": "39", "address": "53105 21 HWY", "city": "SHERWOOD PARK", "province": "AB", "country": "CA", "postalCode": "T8A4T7", "twitter": "None", "instagram": "None", "facebook": "None", "youtube": "None", "website": "None", "summary": "None", "logo": "None", "latitude": 53.56761041182558, "longitude": -113.24544603907367}, "871529327RR0001": {"name": "HEARTLAND CHRISTIAN CHURCH, INC.", "designationCode": "C", "categoryCode": "39", "address": "1344 ERIN ST", "city": "WINNIPEG", "province": "MB", "country": "CA", "postalCode": "R3E2S6", "twitter": "None", "instagram": "None", "facebook": "None", "youtube": "None", "website": "None", "summary": "None", "logo": "None", "latitude": 49.89973729447746, "longitude": -97.18398236583167}, "857622583RR0001": {"name": "HEARTLAND CHRISTIAN COMMUNITY CHURCH OF PINCHER CREEK", "designationCode": "B", "categoryCode": "39", "address": "BOX 2576", "city": "PINCHER CREEK", "province": "AB", "country": "CA", "postalCode": "T0K1W0", "twitter": "None", "instagram": "None", "facebook": "None", "youtube": "None", "website": "None", "summary": "None", "logo": "None", "latitude": 49.48739000000006, "longitude": -113.9366800732874}, "875453326RR0001": {"name": "HEARTLAND COMMUNITY CHURCH", "designationCode": "C", "categoryCode": "39", "address": "PO BOX 1462", "city": "CLINTON", "province": "ON", "country": "CA", "postalCode": "N0M1L0", "twitter": "None", "instagram": "None", "facebook": "None", "youtube": "None", "website": "None", "summary": "None", "logo": "None", "latitude": 43.617650000000026, "longitude": -81.53971999999999}, "139375992RR0001": {"name": "HEARTLAND FELLOWSHIP", "designationCode": "C", "categoryCode": "39", "address": "50950 HACK-BROWN RD", "city": "CHILLIWACK", "province": "BC", "country": "CA", "postalCode": "V4Z1K9", "twitter": "None", "instagram": "None", "facebook": "None", "youtube": "None", "website": "None", "summary": "None", "logo": "None", "latitude": 49.160016427917135, "longitude": -121.80962725525286}, "889209268RR0001": {"name": "HEARTLAND FOREST MINISTRIES", "designationCode": "C", "categoryCode": "09", "address": "8215 HEARTLAND FOREST RD", "city": "NIAGARA FALLS", "province": "ON", "country": "CA", "postalCode": "L2H0L5", "twitter": "None", "instagram": "None", "facebook": "None", "youtube": "None", "website": "None", "summary": "None", "logo": "None", "latitude": 43.05683174934811, "longitude": -79.13199678831243}, "885642801RR0001": {"name": "HEARTLAND FOREST NATURE EXPERIENCE", "designationCode": "C", "categoryCode": "52", "address": "8215 HEARTLAND FOREST RD", "city": "NIAGARA FALLS", "province": "ON", "country": "CA", "postalCode": "L2H0L5", "twitter": "None", "instagram": "None", "facebook": "None", "youtube": "None", "website": "None", "summary": "None", "logo": "None", "latitude": 43.05683174934811, "longitude": -79.13199678831243}, "878986520RR0001": {"name": "HEARTLAND VICTIM SERVICES UNIT SOCIETY", "designationCode": "C", "categoryCode": "09", "address": "BOX 1298", "city": "STETTLER", "province": "AB", "country": "CA", "postalCode": "T0C2L0", "twitter": "None", "instagram": "None", "facebook": "None", "youtube": "None", "website": "None", "summary": "None", "logo": "None", "latitude": 52.32597900000006, "longitude": -112.70698099999993}, "877840348RR0001": {"name": "HEARTLAND YOUTH CENTER SOCIETY", "designationCode": "C", "categoryCode": "22", "address": "BOX 876", "city": "STETTLER", "province": "AB", "country": "CA", "postalCode": "T0C2L0", "twitter": "None", "instagram": "None", "facebook": "None", "youtube": "None", "website": "None", "summary": "None", "logo": "None", "latitude": 52.32597900000006, "longitude": -112.70698099999993}, "857466429RR0001": {"name": "HEARTLAND, A CHURCH CONNECTED", "designationCode": "C", "categoryCode": "36", "address": "145 TRADERS BOULEVARD         UNIT 9", "city": "MISSISSAUGA", "province": "ON", "country": "CA", "postalCode": "L4Z3L3", "twitter": "None", "instagram": "None", "facebook": "None", "youtube": "None", "website": "None", "summary": "None", "logo": "None", "latitude": 43.625830073027664, "longitude": -79.67106369392309}, "811582139RR0001": {"name": "HEARTS & HAMMERS SOCIETY", "designationCode": "C", "categoryCode": "09", "address": "1200-1015 4TH ST SW", "city": "CALGARY", "province": "AB", "country": "CA", "postalCode": "T2R1J4", "twitter": "None", "instagram": "None", "facebook": "None", "youtube": "None", "website": "None", "summary": "None", "logo": "None", "latitude": 51.042865500000005, "longitude": -114.07157099999999}, "862267788RR0001": {"name": "HEARTS AND HANDS FOUNDATION FOR HUMANITARIAN ASSISTANCE", "designationCode": "C", "categoryCode": "09", "address": "PO BOX 8729 STN MAIN", "city": "CANMORE", "province": "AB", "country": "CA", "postalCode": "T1W0B9", "twitter": "None", "instagram": "None", "facebook": "None", "youtube": "None", "website": "None", "summary": "None", "logo": "None", "latitude": 51.08922900000002, "longitude": -115.35869075104875}, "868391061RR0001": {"name": "HEARTS CONTENT PASTORAL CHARGE", "designationCode": "C", "categoryCode": "44", "address": "PO BOX 89", "city": "WINTERTON", "province": "NL", "country": "CA", "postalCode": "A0B3M0", "twitter": "None", "instagram": "None", "facebook": "None", "youtube": "None", "website": "None", "summary": "None", "logo": "None", "latitude": 47.96659000000005, "longitude": -53.33137999999997}, "866443880RR0001": {"name": "HEARTS OF GOLD FOUNDATION", "designationCode": "A", "categoryCode": "03", "address": "1638 MARINE DR SE", "city": "VANCOUVER", "province": "BC", "country": "CA", "postalCode": "V5P2R6", "twitter": "None", "instagram": "None", "facebook": "None", "youtube": "None", "website": "None", "summary": "None", "logo": "None", "latitude": 49.21095856089658, "longitude": -123.07288243910342}, "857398689RR0001": {"name": "HEARTS ON NOSES A MINI PIG SANCTUARY", "designationCode": "C", "categoryCode": "54", "address": "30471 DEWDNEY TRUNK RD", "city": "MISSION", "province": "BC", "country": "CA", "postalCode": "V4S1C3", "twitter": "None", "instagram": "None", "facebook": "None", "youtube": "None", "website": "None", "summary": "None", "logo": "None", "latitude": 49.21998446162458, "longitude": -122.38080537774825}, "888011715RR0001": {"name": "HEARTS TOGETHER FOR HAITI", "designationCode": "C", "categoryCode": "09", "address": "1400 CABANA ROAD WEST", "city": "WINDSOR", "province": "ON", "country": "CA", "postalCode": "N9G1C4", "twitter": "None", "instagram": "None", "facebook": "None", "youtube": "None", "website": "None", "summary": "None", "logo": "None", "latitude": 42.254339254024586, "longitude": -83.01962852250546}, "893420661RR0001": {"name": "HEARTWOOD CENTRE FOR COMMUNITY YOUTH DEVELOPMENT", "designationCode": "C", "categoryCode": "59", "address": "5516 SPRING GARDEN ROAD       SUITE 202", "city": "HALIFAX", "province": "NS", "country": "CA", "postalCode": "B3J1G6", "twitter": "None", "instagram": "None", "facebook": "None", "youtube": "None", "website": "None", "summary": "None", "logo": "None", "latitude": 44.64288100637664, "longitude": -63.57740502178431}, "879671618RR0001": {"name": "HEARTWOOD HOUSE: AU COEUR DE LA VIE", "designationCode": "C", "categoryCode": "59", "address": "404 MCARTHUR BLVD", "city": "OTTAWA", "province": "ON", "country": "CA", "postalCode": "K1K1G8", "twitter": "None", "instagram": "None", "facebook": "None", "youtube": "None", "website": "None", "summary": "None", "logo": "None", "latitude": 45.43209152120739, "longitude": -75.64884963765944}, "866004419RR0001": {"name": "HEARTWOOD PLACE", "designationCode": "C", "categoryCode": "09", "address": "1 - 36 CORYDON PL", "city": "CAMBRIDGE", "province": "ON", "country": "CA", "postalCode": "N1R7L5", "twitter": "None", "instagram": "None", "facebook": "None", "youtube": "None", "website": "None", "summary": "None", "logo": "None", "latitude": 43.40018880293158, "longitude": -80.31295665854879}, "108084120RR0001": {"name": "HEATH AND FERNDALE CHILD CARE PROGRAM", "designationCode": "C", "categoryCode": "01", "address": "23 FERNDALE AVE.", "city": "TORONTO", "province": "ON", "country": "CA", "postalCode": "M4T2B4", "twitter": "None", "instagram": "None", "facebook": "None", "youtube": "None", "website": "None", "summary": "None", "logo": "None", "latitude": 43.68957853150785, "longitude": -79.39184689422376}, "892950445RR0001": {"name": "HEATHCLIFF FOUNDATION", "designationCode": "B", "categoryCode": "03", "address": "BOX 49273 BENTALL CENTRE", "city": "VANCOUVER", "province": "BC", "country": "CA", "postalCode": "V7X1L3", "twitter": "None", "instagram": "None", "facebook": "None", "youtube": "None", "website": "None", "summary": "None", "logo": "None", "latitude": 49.286055733749365, "longitude": -123.11861287615625}, "118955285RR0001": {"name": "HEATHER BIBLE CHAPEL", "designationCode": "C", "categoryCode": "39", "address": "777 W. 68TH AVENUE", "city": "VANCOUVER B. C.", "province": "BC", "country": "CA", "postalCode": "V6P2T8", "twitter": "None", "instagram": "None", "facebook": "None", "youtube": "None", "website": "None", "summary": "None", "logo": "None", "latitude": 49.21032246768412, "longitude": -123.12365358090484}, "886289792RR0001": {"name": "HEATHER CLUB 60", "designationCode": "C", "categoryCode": "56", "address": "444 HEATHERTON VILLAEG ROAD", "city": "HEATHERTON", "province": "NS", "country": "CA", "postalCode": "B0H1R0", "twitter": "None", "instagram": "None", "facebook": "None", "youtube": "None", "website": "None", "summary": "None", "logo": "None", "latitude": 45.58825263777502, "longitude": -61.789588800854105}, "887767465RR0001": {"name": "HEATHER HERITAGE SOCIETY", "designationCode": "C", "categoryCode": "52", "address": "715-456 MOBERLY RD", "city": "VANCOUVER", "province": "BC", "country": "CA", "postalCode": "V5Z4L7", "twitter": "None", "instagram": "None", "facebook": "None", "youtube": "None", "website": "None", "summary": "None", "logo": "None", "latitude": 49.26851408938761, "longitude": -123.11782025849756}, "747946499RR0001": {"name": "HEATHER L. MAIN MEMORIAL SCHOLARSHIP FUND", "designationCode": "C", "categoryCode": "21", "address": "301-250 CONSUMERS ROAD", "city": "WILLOWDALE", "province": "ON", "country": "CA", "postalCode": "M2J4V6", "twitter": "None", "instagram": "None", "facebook": "None", "youtube": "None", "website": "None", "summary": "None", "logo": "None", "latitude": 43.77169564169881, "longitude": -79.33155892527024}, "815762471RR0001": {"name": "HEATHER RYAN & L. DAVID DUBE FOUNDATION INC.", "designationCode": "B", "categoryCode": "03", "address": "1171 - 8TH STREET EAST", "city": "SASKATOON", "province": "SK", "country": "CA", "postalCode": "S7H0S3", "twitter": "None", "instagram": "None", "facebook": "None", "youtube": "None", "website": "None", "summary": "None", "logo": "None", "latitude": 52.11490800434586, "longitude": -106.64224585900537}, "897557096RR0001": {"name": "HEATHERTON COMMUNITY SMALL OPTIONS HOMES SOCIETY", "designationCode": "C", "categoryCode": "01", "address": "P.O. BOX 37", "city": "HEATHERTON, ANTIGONISH CO.", "province": "NS", "country": "CA", "postalCode": "B0H1R0", "twitter": "None", "instagram": "None", "facebook": "None", "youtube": "None", "website": "None", "summary": "None", "logo": "None", "latitude": 45.58789000000007, "longitude": -61.79284999999999}, "875800112RR0001": {"name": "HEAVEN BRIDGE CHURCH", "designationCode": "C", "categoryCode": "39", "address": "#603-4538 KINGSWAY", "city": "BURNABY", "province": "BC", "country": "CA", "postalCode": "V5H4T9", "twitter": "None", "instagram": "None", "facebook": "None", "youtube": "None", "website": "None", "summary": "None", "logo": "None", "latitude": 49.22981502810101, "longitude": -123.00385538511698}, "858069545RR0001": {"name": "HEAVEN'S GATE GOSPEL CHURCH INC.", "designationCode": "C", "categoryCode": "39", "address": "4 PAUL RD", "city": "SEELEYS COVE", "province": "NB", "country": "CA", "postalCode": "E5H2E6", "twitter": "None", "instagram": "None", "facebook": "None", "youtube": "None", "website": "None", "summary": "None", "logo": "None", "latitude": 45.08778430164516, "longitude": -66.65785547468957}, "865553655RR0001": {"name": "HEAVENLY CREATURES INC.", "designationCode": "C", "categoryCode": "54", "address": "P.O. BOX 882, STATION C       354 WATER STREET", "city": "ST. JOHN'S", "province": "NL", "country": "CA", "postalCode": "A1C1C4", "twitter": "None", "instagram": "None", "facebook": "None", "youtube": "None", "website": "None", "summary": "None", "logo": "None", "latitude": 47.5601708551272, "longitude": -52.71111728547508}, "832225346RR0001": {"name": "HEAVENLY GATE PRESBYTERIAN CHURCH", "designationCode": "C", "categoryCode": "37", "address": "731 BLOOR ST WEST 2ND FLOOR", "city": "TORONTO", "province": "ON", "country": "CA", "postalCode": "M6G1L5", "twitter": "None", "instagram": "None", "facebook": "None", "youtube": "None", "website": "None", "summary": "None", "logo": "None", "latitude": 43.66351756534701, "longitude": -79.41821718525624}, "890865967RR0001": {"name": "HEAVENLY MELODY GOSPEL MINISTRY", "designationCode": "C", "categoryCode": "49", "address": "18 COLONIAL CRESCENT", "city": "RICHMOND HILL", "province": "ON", "country": "CA", "postalCode": "L4E3W1", "twitter": "None", "instagram": "None", "facebook": "None", "youtube": "None", "website": "None", "summary": "None", "logo": "None", "latitude": 43.939909420537454, "longitude": -79.4450276281088}, "118955343RR0001": {"name": "HEBBS CROSS FIRE DEPT.", "designationCode": "C", "categoryCode": "59", "address": "77 CAMPERDOWN ROAD", "city": "HEBBS CROSS", "province": "NS", "country": "CA", "postalCode": "B4V0W8", "twitter": "None", "instagram": "None", "facebook": "None", "youtube": "None", "website": "None", "summary": "None", "logo": "None", "latitude": 44.30185629695897, "longitude": -64.5670004584802}, "132583170RR0001": {"name": "HEBBVILLE FIRE DEPARTMENT", "designationCode": "C", "categoryCode": "59", "address": "15584 HWY 3", "city": "HEBBVILLE", "province": "NS", "country": "CA", "postalCode": "B4V6Z7", "twitter": "None", "instagram": "None", "facebook": "None", "youtube": "None", "website": "None", "summary": "None", "logo": "None", "latitude": 44.34378921409875, "longitude": -64.54515770052399}, "135242014RR0001": {"name": "HEBERGEMENT D'URGENCE LANAUDIERE", "designationCode": "C", "categoryCode": "01", "address": "864 BOUL MANSEAU", "city": "JOLIETTE", "province": "QC", "country": "CA", "postalCode": "J6E3G3", "twitter": "None", "instagram": "None", "facebook": "None", "youtube": "None", "website": "None", "summary": "None", "logo": "None", "latitude": 46.02043496032652, "longitude": -73.44659667335087}, "141441808RR0001": {"name": "HEBERGEMENT D'URGENCE VIOLENCE CONJUGALE, VAUDREUIL-SOULANGES", "designationCode": "C", "categoryCode": "01", "address": "CP 115", "city": "VAUDREUIL-DORION", "province": "QC", "country": "CA", "postalCode": "J7V5W1", "twitter": "None", "instagram": "None", "facebook": "None", "youtube": "None", "website": "None", "summary": "None", "logo": "None", "latitude": 45.405609000000055, "longitude": -74.03397199999993}}