{"119218741RR0001": {"name": "CANADIAN CELIAC ASSOCIATION OTTAWA CHAPTER", "designationCode": "C", "categoryCode": "11", "address": "PO BOX 39035 BILLINGS PO", "city": "OTTAWA", "province": "ON", "country": "CA", "postalCode": "K1H1A1", "twitter": "None", "instagram": "None", "facebook": "None", "youtube": "None", "website": "None", "summary": "None", "logo": "None", "latitude": 45.39469319128281, "longitude": -75.65836460262778}, "890745540RR0001": {"name": "CANADIAN CELIAC ASSOCIATION/ASSOCIATION CANADIENNE DE LA MALADIE COELIAQUE, ST JOHN'S CHAPTER", "designationCode": "C", "categoryCode": "11", "address": "38 EAST MEADOWS AVE", "city": "ST. JOHN'S", "province": "NL", "country": "CA", "postalCode": "A1A3M5", "twitter": "None", "instagram": "None", "facebook": "None", "youtube": "None", "website": "None", "summary": "None", "logo": "None"}, "106844244RR0001": {"name": "CANADIAN CELIAC ASSOCIATION/L'ASSOCIATION CANADIENNE DE LA MALADIE COELIAQUE", "designationCode": "C", "categoryCode": "11", "address": "5025 ORBITOR DRIVE            BUILDING 1 SUITE 400", "city": "MISSISSAUGA", "province": "ON", "country": "CA", "postalCode": "L4W4Y5", "twitter": "None", "instagram": "None", "facebook": "None", "youtube": "None", "website": "None", "summary": "None", "logo": "None", "latitude": 43.65635742951932, "longitude": -79.59918061647305}, "898872734RR0001": {"name": "CANADIAN CELIAC ASSOCIATION/L'ASSOCIATION CANADIENNE DE LA MALADIE COELIAQUE VICTORIA CHAPTER", "designationCode": "C", "categoryCode": "11", "address": "320 NIAGARA ST", "city": "VICTORIA", "province": "BC", "country": "CA", "postalCode": "V8V1G6", "twitter": "None", "instagram": "None", "facebook": "None", "youtube": "None", "website": "None", "summary": "None", "logo": "None", "latitude": 48.41560128310917, "longitude": -123.37923968913391}, "118842046RR0001": {"name": "CANADIAN CELIAC ASSOCIATION, HAMILTON CHAPTER", "designationCode": "C", "categoryCode": "11", "address": "P.O. BOX 66580 POSTAL OUTLET", "city": "DUNDAS", "province": "ON", "country": "CA", "postalCode": "L9H6Y6", "twitter": "None", "instagram": "None", "facebook": "None", "youtube": "None", "website": "None", "summary": "None", "logo": "None", "latitude": 43.26394200000006, "longitude": -79.95243049999993}, "118829936RR0001": {"name": "CANADIAN CELIAC ASSOCIATION, KELOWNA CHAPTER", "designationCode": "C", "categoryCode": "11", "address": "380 - 1260 RAYMER AVE", "city": "KELOWNA", "province": "BC", "country": "CA", "postalCode": "V1W3S7", "twitter": "None", "instagram": "None", "facebook": "None", "youtube": "None", "website": "None", "summary": "None", "logo": "None", "latitude": 49.86505904770806, "longitude": -119.47306259364052}, "890710049RR0001": {"name": "CANADIAN CELIAC ASSOCIATION, ST CATHARINES CHAPTER", "designationCode": "C", "categoryCode": "11", "address": "PO BOX 91", "city": "FENWICK", "province": "ON", "country": "CA", "postalCode": "L0S1C0", "twitter": "None", "instagram": "None", "facebook": "None", "youtube": "None", "website": "None", "summary": "None", "logo": "None", "latitude": 43.027120000000025, "longitude": -79.35452999999995}, "118829985RR0001": {"name": "CANADIAN CELIAC ASSOCIATION, THUNDER BAY CHAPTER", "designationCode": "C", "categoryCode": "11", "address": "228 MUNRO STREET", "city": "THUNDER BAY", "province": "ON", "country": "CA", "postalCode": "P7A2N2", "twitter": "None", "instagram": "None", "facebook": "None", "youtube": "None", "website": "None", "summary": "None", "logo": "None", "latitude": 48.44730813656293, "longitude": -89.20374171813158}, "874837602RR0001": {"name": "CANADIAN CENTRAL AMERICAN RELIEF EFFORT INC.", "designationCode": "C", "categoryCode": "02", "address": "1101 GRANDEUR CRESCENT", "city": "OAKVILLE", "province": "ON", "country": "CA", "postalCode": "L6H4B4", "twitter": "None", "instagram": "None", "facebook": "None", "youtube": "None", "website": "None", "summary": "None", "logo": "None", "latitude": 43.48516955813959, "longitude": -79.69936010822907}, "890472442RR0001": {"name": "CANADIAN CENTRE FOR ABUSE AWARENESS", "designationCode": "C", "categoryCode": "09", "address": "PO BOX 28529 RPO SHOPPING CTR", "city": "AURORA", "province": "ON", "country": "CA", "postalCode": "L4G6S6", "twitter": "None", "instagram": "None", "facebook": "None", "youtube": "None", "website": "None", "summary": "None", "logo": "None", "latitude": 44.00671200000005, "longitude": -79.44972199999994}, "118830009RR0001": {"name": "CANADIAN CENTRE FOR ARCHITECTURE / CENTRE CANADIEN D'ARCHITECTURE", "designationCode": "C", "categoryCode": "21", "address": "1920 BAILE STREET", "city": "MONTREAL", "province": "QC", "country": "CA", "postalCode": "H3H2S6", "twitter": "None", "instagram": "None", "facebook": "None", "youtube": "None", "website": "None", "summary": "None", "logo": "None", "latitude": 45.49199641020836, "longitude": -73.57874333568016}, "106913627RR0001": {"name": "CANADIAN CENTRE FOR CHILD PROTECTION INC.", "designationCode": "C", "categoryCode": "59", "address": "615 ACADEMY ROAD", "city": "WINNIPEG", "province": "MB", "country": "CA", "postalCode": "R3N0E7", "twitter": "None", "instagram": "None", "facebook": "None", "youtube": "None", "website": "None", "summary": "None", "logo": "None", "latitude": 49.874409508799886, "longitude": -97.19985005966879}, "121621932RR0001": {"name": "CANADIAN CENTRE FOR ETHICS & CORPORATE POLICY", "designationCode": "C", "categoryCode": "20", "address": "1801-1 YONGE ST", "city": "TORONTO", "province": "ON", "country": "CA", "postalCode": "M5E1W7", "twitter": "None", "instagram": "None", "facebook": "None", "youtube": "None", "website": "None", "summary": "None", "logo": "None", "latitude": 43.64545122998886, "longitude": -79.37634527541341}, "841335870RR0001": {"name": "CANADIAN CENTRE FOR HOME EDUCATION", "designationCode": "C", "categoryCode": "25", "address": "32B, 980 ADELAIDE ST SOUTH", "city": "LONDON", "province": "ON", "country": "CA", "postalCode": "N6E1R3", "twitter": "None", "instagram": "None", "facebook": "None", "youtube": "None", "website": "None", "summary": "None", "logo": "None", "latitude": 42.94036756923187, "longitude": -81.21156035965923}, "865759088RR0001": {"name": "CANADIAN CENTRE FOR INTERNATIONAL JUSTICE (CCIJ)/LE CENTRE CANADIEN POUR LA JUSTICE INTERNATIONALE (CCJI)", "designationCode": "C", "categoryCode": "59", "address": "312 LAURIER AVE. E", "city": "OTTAWA", "province": "ON", "country": "CA", "postalCode": "K1N1H9", "twitter": "None", "instagram": "None", "facebook": "None", "youtube": "None", "website": "None", "summary": "None", "logo": "None", "latitude": 45.427022625281545, "longitude": -75.67874986591859}, "890413867RR0001": {"name": "CANADIAN CENTRE FOR JEWISH COMMUNITY STUDIES CENTRE CANADIEN POUR L'ETUDE DE LA COM JUIVE", "designationCode": "C", "categoryCode": "21", "address": "414-855 SHERBROOKE ST W", "city": "MONTREAL", "province": "QC", "country": "CA", "postalCode": "H3A2T7", "twitter": "None", "instagram": "None", "facebook": "None", "youtube": "None", "website": "None", "summary": "None", "logo": "None", "latitude": 45.50336352079986, "longitude": -73.57516776057521}, "118830066RR0001": {"name": "CANADIAN CENTRE FOR OCCUPATIONAL HEALTH AND SAFETY", "designationCode": "C", "categoryCode": "11", "address": "135 HUNTER STREET EAST", "city": "HAMILTON", "province": "ON", "country": "CA", "postalCode": "L8N1M5", "twitter": "None", "instagram": "None", "facebook": "None", "youtube": "None", "website": "None", "summary": "None", "logo": "None", "latitude": 43.25230500141364, "longitude": -79.8652429114491}, "133327908RR0001": {"name": "CANADIAN CENTRE FOR TORTURE VICTIMS (TORONTO) INC", "designationCode": "C", "categoryCode": "59", "address": "194 JARVIS ST 2ND FLR", "city": "TORONTO", "province": "ON", "country": "CA", "postalCode": "M5B2B7", "twitter": "None", "instagram": "None", "facebook": "None", "youtube": "None", "website": "None", "summary": "None", "logo": "None", "latitude": 43.656596989728236, "longitude": -79.37441596990581}, "888338399RR0001": {"name": "CANADIAN CENTRE FOR WOMEN'S EDUCATION AND DEVELOPMENT (ONTARIO)", "designationCode": "C", "categoryCode": "01", "address": "2296 EGLINTON AVE E SUITE # 4", "city": "TORONTO", "province": "ON", "country": "CA", "postalCode": "M1K2M2", "twitter": "None", "instagram": "None", "facebook": "None", "youtube": "None", "website": "None", "summary": "None", "logo": "None", "latitude": 43.73051616573348, "longitude": -79.27553734958728}, "890535347RR0001": {"name": "CANADIAN CENTRE FOR WORLD MISSION", "designationCode": "C", "categoryCode": "47", "address": "PO BOX 25 STN MAIN", "city": "STOUFFVILLE", "province": "ON", "country": "CA", "postalCode": "L4A7Z4", "twitter": "None", "instagram": "None", "facebook": "None", "youtube": "None", "website": "None", "summary": "None", "logo": "None", "latitude": 43.97028268018356, "longitude": -79.251601854151}, "899185367RR0001": {"name": "CANADIAN CENTRE ON DISABILITY STUDIES INCORPORATED", "designationCode": "C", "categoryCode": "21", "address": "10 - 226 OSBORNE ST N", "city": "WINNIPEG", "province": "MB", "country": "CA", "postalCode": "R3C1V4", "twitter": "None", "instagram": "None", "facebook": "None", "youtube": "None", "website": "None", "summary": "None", "logo": "None", "latitude": 49.88607326161377, "longitude": -97.14992719955416}, "122328750RR0001": {"name": "CANADIAN CENTRE ON SUBSTANCE ABUSE", "designationCode": "C", "categoryCode": "11", "address": "500 - 75 ALBERT ST", "city": "OTTAWA", "province": "ON", "country": "CA", "postalCode": "K1P5E7", "twitter": "None", "instagram": "None", "facebook": "None", "youtube": "None", "website": "None", "summary": "None", "logo": "None", "latitude": 45.42209635250147, "longitude": -75.69529427228912}, "807718143RR0001": {"name": "CANADIAN CHALLENGE FOUNDATION", "designationCode": "C", "categoryCode": "59", "address": "38563 - 126 WEST 3RD STREET", "city": "NORTH VANCOUVER", "province": "BC", "country": "CA", "postalCode": "V7M1E8", "twitter": "None", "instagram": "None", "facebook": "None", "youtube": "None", "website": "None", "summary": "None", "logo": "None", "latitude": 49.31388929810004, "longitude": -123.07790661936914}, "892391160RR0001": {"name": "CANADIAN CHAMBER ACADEMY", "designationCode": "C", "categoryCode": "22", "address": "PO BOX 1828", "city": "NIAGARA-ON-THE-LAKE", "province": "ON", "country": "CA", "postalCode": "L0S1J0", "twitter": "None", "instagram": "None", "facebook": "None", "youtube": "None", "website": "None", "summary": "None", "logo": "None", "latitude": 43.23448500000005, "longitude": -79.16177149999993}, "857809883RR0001": {"name": "CANADIAN CHAMBER CHOIR INC. - CHOEUR DE CHAMBRE DU CANADA INC.", "designationCode": "C", "categoryCode": "22", "address": "239 ST. JAMES ST W", "city": "SAINT JOHN", "province": "NB", "country": "CA", "postalCode": "E2M2E7", "twitter": "None", "instagram": "None", "facebook": "None", "youtube": "None", "website": "None", "summary": "None", "logo": "None", "latitude": 45.254914176038326, "longitude": -66.06865652204463}, "890579394RR0001": {"name": "CANADIAN CHAPTER OF BATTEN'S DISEASE SUPPORT AND RESEARCH ASSOCIATION", "designationCode": "C", "categoryCode": "11", "address": "17 BELL ST", "city": "REGINA", "province": "SK", "country": "CA", "postalCode": "S4S4B7", "twitter": "None", "instagram": "None", "facebook": "None", "youtube": "None", "website": "None", "summary": "None", "logo": "None"}, "844677872RR0001": {"name": "CANADIAN CHAPTER OF THE NATIONAL NIEMANN PICK DISEASE FOUNDATION", "designationCode": "C", "categoryCode": "19", "address": "PO BOX 302", "city": "DURHAM", "province": "ON", "country": "CA", "postalCode": "N0G1R0", "twitter": "None", "instagram": "None", "facebook": "None", "youtube": "None", "website": "None", "summary": "None", "logo": "None", "latitude": 44.125520383994086, "longitude": -81.21636506037191}, "893672261RR0001": {"name": "CANADIAN CHARITABLE GIVING FOUNDATION", "designationCode": "A", "categoryCode": "03", "address": "415 - 220 DUNCAN MILL RD", "city": "NORTH YORK", "province": "ON", "country": "CA", "postalCode": "M3B3J5", "twitter": "None", "instagram": "None", "facebook": "None", "youtube": "None", "website": "None", "summary": "None", "logo": "None", "latitude": 43.76198319862531, "longitude": -79.35361230904856}, "891131542RR0001": {"name": "CANADIAN CHAROLAIS YOUTH SCHOLARSHIP FUND", "designationCode": "C", "categoryCode": "21", "address": "2320 41 AVE NE", "city": "CALGARY", "province": "AB", "country": "CA", "postalCode": "T2E6W8", "twitter": "None", "instagram": "None", "facebook": "None", "youtube": "None", "website": "None", "summary": "None", "logo": "None", "latitude": 51.08992149653754, "longitude": -114.0056325}, "891720641RR0001": {"name": "CANADIAN CHESTNUT COUNCIL", "designationCode": "C", "categoryCode": "52", "address": "89 KERTLAND ST", "city": "ELORA", "province": "ON", "country": "CA", "postalCode": "N0B1S0", "twitter": "None", "instagram": "None", "facebook": "None", "youtube": "None", "website": "None", "summary": "None", "logo": "None", "latitude": 43.6875043513763, "longitude": -80.4223963030758}, "863993887RR0001": {"name": "CANADIAN CHIHUAHUA RESCUE & TRANSPORT", "designationCode": "C", "categoryCode": "54", "address": "5899 LESLIE STREET            P.O.BOX 23555", "city": "TORONTO", "province": "ON", "country": "CA", "postalCode": "M2H3R9", "twitter": "None", "instagram": "None", "facebook": "None", "youtube": "None", "website": "None", "summary": "None", "logo": "None", "latitude": 43.798824480531266, "longitude": -79.3700311708217}, "140876632RR0001": {"name": "CANADIAN CHILD ABUSE ASSOCIATION", "designationCode": "C", "categoryCode": "57", "address": "PO BOX 42066 ACADIA POSTAL OUT", "city": "CALGARY", "province": "AB", "country": "CA", "postalCode": "T2J7A6", "twitter": "None", "instagram": "None", "facebook": "None", "youtube": "None", "website": "None", "summary": "None", "logo": "None", "latitude": 50.950543233522495, "longitude": -114.04170474088329}, "106844335RR0001": {"name": "CANADIAN CHILD CARE FEDERATION/FEDERATION CANADIENNE DES SERVICES DE GARDE A L'ENFANCE", "designationCode": "C", "categoryCode": "09", "address": "600-700 INDUSTRIAL AVE", "city": "OTTAWA", "province": "ON", "country": "CA", "postalCode": "K1G0Y9", "twitter": "None", "instagram": "None", "facebook": "None", "youtube": "None", "website": "None", "summary": "None", "logo": "None", "latitude": 45.41026990697704, "longitude": -75.63894734098893}, "129782538RR0001": {"name": "CANADIAN CHILDREN'S OPERA COMPANY", "designationCode": "C", "categoryCode": "22", "address": "227 FRONT ST E", "city": "TORONTO", "province": "ON", "country": "CA", "postalCode": "M5A1E8", "twitter": "None", "instagram": "None", "facebook": "None", "youtube": "None", "website": "None", "summary": "None", "logo": "None", "latitude": 43.650919834843435, "longitude": -79.36542553774024}, "874718950RR0001": {"name": "CANADIAN CHILDREN'S OPTIMIST FOUNDATION / FONDATION OPTIMISTE DES ENFANTS CANADIENS", "designationCode": "C", "categoryCode": "29", "address": "5205 BOUL METROPOLITAIN EST   BUREAU 200", "city": "MONTREAL", "province": "QC", "country": "CA", "postalCode": "H1R1Z7", "twitter": "None", "instagram": "None", "facebook": "None", "youtube": "None", "website": "None", "summary": "None", "logo": "None"}, "852516962RR0001": {"name": "CANADIAN CHILDREN'S SHELTER OF HOPE FOUNDATION", "designationCode": "C", "categoryCode": "01", "address": "87 LAVINIA AVENUE", "city": "TORONTO", "province": "ON", "country": "CA", "postalCode": "M6S3H9", "twitter": "None", "instagram": "None", "facebook": "None", "youtube": "None", "website": "None", "summary": "None", "logo": "None", "latitude": 43.64701153872121, "longitude": -79.47783691644076}, "766191498RR0001": {"name": "CANADIAN CHINESE SOCIETY FOR THE ARTS", "designationCode": "C", "categoryCode": "22", "address": "24 SUNDRIDGE DRIVE,", "city": "SCARBOROUGH", "province": "ON", "country": "CA", "postalCode": "M1L2J5", "twitter": "None", "instagram": "None", "facebook": "None", "youtube": "None", "website": "None", "summary": "None", "logo": "None", "latitude": 43.72144551875454, "longitude": -79.29669066180968}, "118853613RR0001": {"name": "CANADIAN CHIROPRACTIC RESEARCH FOUNDATION/LA FONDATION CANADIENNE POUR LA RECHERCHE EN CHIROPRATIQUE", "designationCode": "C", "categoryCode": "11", "address": "186 SPADINA AVENUE SUITE 6", "city": "TORONTO", "province": "ON", "country": "CA", "postalCode": "M5T3B2", "twitter": "None", "instagram": "None", "facebook": "None", "youtube": "None", "website": "None", "summary": "None", "logo": "None", "latitude": 43.649704247013695, "longitude": -79.39687684805806}, "118830173RR0001": {"name": "CANADIAN CHRISTADELPHIAN BIBLE SCHOOL", "designationCode": "C", "categoryCode": "49", "address": "2454 WHITEHORN DR", "city": "BURLINGTON", "province": "ON", "country": "CA", "postalCode": "L7L7M9", "twitter": "None", "instagram": "None", "facebook": "None", "youtube": "None", "website": "None", "summary": "None", "logo": "None", "latitude": 43.4113705434244, "longitude": -79.79553422745109}, "861374668RR0001": {"name": "CANADIAN CHRISTIAN ASHRAM FUND", "designationCode": "C", "categoryCode": "49", "address": "239 BESSBOROUGH STREET", "city": "FREDERICTON", "province": "NB", "country": "CA", "postalCode": "E3B2Y5", "twitter": "None", "instagram": "None", "facebook": "None", "youtube": "None", "website": "None", "summary": "None", "logo": "None", "latitude": 45.94753437414156, "longitude": -66.66124262225176}, "889647947RR0001": {"name": "CANADIAN CHRISTIAN ASSOCIATION", "designationCode": "C", "categoryCode": "09", "address": "55 VILLAGE CENTRE PLACE       SUITE 304", "city": "MISSISSAUGA", "province": "ON", "country": "CA", "postalCode": "L4Z1V9", "twitter": "None", "instagram": "None", "facebook": "None", "youtube": "None", "website": "None", "summary": "None", "logo": "None", "latitude": 43.60066448211083, "longitude": -79.64123283680534}, "118830207RR0001": {"name": "CANADIAN CHRISTIAN EDUCATION FOUNDATION INCORPORATED", "designationCode": "C", "categoryCode": "23", "address": "PO BOX 47646 RPO CENTRE MALL", "city": "HAMILTON", "province": "ON", "country": "CA", "postalCode": "L8H7S7", "twitter": "None", "instagram": "None", "facebook": "None", "youtube": "None", "website": "None", "summary": "None", "logo": "None", "latitude": 43.25093997388791, "longitude": -79.81053008223152}, "867545964RR0001": {"name": "CANADIAN CHRISTIAN GRACE BROADCASTING ASSOCIATION", "designationCode": "C", "categoryCode": "47", "address": "3601 VICTORIA PARK AVE        UNIT 201A", "city": "SCARBOROUGH", "province": "ON", "country": "CA", "postalCode": "M1W3Y3", "twitter": "None", "instagram": "None", "facebook": "None", "youtube": "None", "website": "None", "summary": "None", "logo": "None", "latitude": 43.80355286539899, "longitude": -79.33606142169224}, "804275949RR0001": {"name": "CANADIAN CHRISTIAN RELIEF AND DEVELOPMENT ASSOCIATION", "designationCode": "C", "categoryCode": "99", "address": "1 - 425 ELGIN ST", "city": "OTTAWA", "province": "ON", "country": "CA", "postalCode": "K2P1N5", "twitter": "None", "instagram": "None", "facebook": "None", "youtube": "None", "website": "None", "summary": "None", "logo": "None", "latitude": 45.41331999140165, "longitude": -75.68638725546779}, "885438135RR0001": {"name": "CANADIAN CHURCH OF GOD", "designationCode": "C", "categoryCode": "39", "address": "124 WILLOWLANDING CRT", "city": "WELLAND", "province": "ON", "country": "CA", "postalCode": "L3C7L7", "twitter": "None", "instagram": "None", "facebook": "None", "youtube": "None", "website": "None", "summary": "None", "logo": "None", "latitude": 43.018024275639576, "longitude": -79.24279569285676}, "892491648RR0001": {"name": "CANADIAN CHURCH OF GOD IN CHRIST", "designationCode": "C", "categoryCode": "39", "address": "795 MCDOUGALL ST", "city": "WINDSOR", "province": "ON", "country": "CA", "postalCode": "N9A1L7", "twitter": "None", "instagram": "None", "facebook": "None", "youtube": "None", "website": "None", "summary": "None", "logo": "None", "latitude": 42.313438949477806, "longitude": -83.03117800002866}, "107422586RR0001": {"name": "CANADIAN CHURCH OF GOD MINISTRIES", "designationCode": "C", "categoryCode": "39", "address": "102 - 4909B 48 ST", "city": "CAMROSE", "province": "AB", "country": "CA", "postalCode": "T4V1L7", "twitter": "None", "instagram": "None", "facebook": "None", "youtube": "None", "website": "None", "summary": "None", "logo": "None", "latitude": 53.0205737468026, "longitude": -112.82214149133272}, "130700289RR0001": {"name": "CANADIAN CHURCHES FORUM FOR GLOBAL MINISTRIES", "designationCode": "C", "categoryCode": "47", "address": "47 QUEEN'S PARK CRES EAST", "city": "TORONTO", "province": "ON", "country": "CA", "postalCode": "M5S2C3", "twitter": "None", "instagram": "None", "facebook": "None", "youtube": "None", "website": "None", "summary": "None", "logo": "None", "latitude": 43.66464755704306, "longitude": -79.3910169669343}, "865640098RR0001": {"name": "CANADIAN CHURCHES OF CHRIST HISTORICAL SOCIETY", "designationCode": "C", "categoryCode": "50", "address": "156 SUNSET BEACH RD           RR 2", "city": "IRON BRIDGE", "province": "ON", "country": "CA", "postalCode": "P0R1H0", "twitter": "None", "instagram": "None", "facebook": "None", "youtube": "None", "website": "None", "summary": "None", "logo": "None", "latitude": 46.289115585210304, "longitude": -83.27113510266301}, "106844384RR0001": {"name": "CANADIAN CIVIL LIBERTIES EDUCATION TRUST", "designationCode": "C", "categoryCode": "21", "address": "210-215 SPADINA AVE", "city": "TORONTO", "province": "ON", "country": "CA", "postalCode": "M5T2C7", "twitter": "None", "instagram": "None", "facebook": "None", "youtube": "None", "website": "None", "summary": "None", "logo": "None", "latitude": 43.65063316348313, "longitude": -79.39697013165816}, "825540743RR0001": {"name": "CANADIAN CO-PARENTING CENTRES", "designationCode": "C", "categoryCode": "59", "address": "70 6A ST NE", "city": "CALGARY", "province": "AB", "country": "CA", "postalCode": "T2E4A3", "twitter": "None", "instagram": "None", "facebook": "None", "youtube": "None", "website": "None", "summary": "None", "logo": "None", "latitude": 51.05223698834325, "longitude": -114.0469263918865}, "871653309RR0001": {"name": "CANADIAN COALITION FOR AFRICAN ASSISTANCE", "designationCode": "B", "categoryCode": "11", "address": "4275 INNES ROAD               SUITE 112", "city": "OTTAWA", "province": "ON", "country": "CA", "postalCode": "K1C1T1", "twitter": "None", "instagram": "None", "facebook": "None", "youtube": "None", "website": "None", "summary": "None", "logo": "None", "latitude": 45.45847484295084, "longitude": -75.49585601433981}, "868865304RR0001": {"name": "CANADIAN COALITION FOR GLOBAL HEALTH RESEARCH/COALITION CANADIENNE POUR LA RECHERCHE EN SANTE MONDIALE", "designationCode": "C", "categoryCode": "11", "address": "46 CREMONA CRES", "city": "NEPEAN", "province": "ON", "country": "CA", "postalCode": "K2G1A1", "twitter": "None", "instagram": "None", "facebook": "None", "youtube": "None", "website": "None", "summary": "None", "logo": "None", "latitude": 45.32753245432524, "longitude": -75.77059161697164}, "867685620RR0001": {"name": "CANADIAN COAST GUARD AUXILIARY (CENTRAL & ARCTIC) INC.", "designationCode": "C", "categoryCode": "59", "address": "208 - 305 MILNER AVE", "city": "SCARBOROUGH", "province": "ON", "country": "CA", "postalCode": "M1B3V4", "twitter": "None", "instagram": "None", "facebook": "None", "youtube": "None", "website": "None", "summary": "None", "logo": "None", "latitude": 43.7897168198398, "longitude": -79.23615702954594}, "889973996RR0001": {"name": "CANADIAN COAST GUARD AUXILIARY (MARITIMES) INC.", "designationCode": "C", "categoryCode": "59", "address": "301 - 800 WINDMILL RD", "city": "DARTMOUTH", "province": "NS", "country": "CA", "postalCode": "B3B1L1", "twitter": "None", "instagram": "None", "facebook": "None", "youtube": "None", "website": "None", "summary": "None", "logo": "None", "latitude": 44.71410671629573, "longitude": -63.630533927719505}, "887788669RR0001": {"name": "CANADIAN COAST GUARD AUXILIARY (NEWFOUNDLAND AND LABRADOR) INC.", "designationCode": "C", "categoryCode": "59", "address": "P.O. BOX 938, STATION C", "city": "ST. JOHN'S", "province": "NL", "country": "CA", "postalCode": "A1C5M3", "twitter": "None", "instagram": "None", "facebook": "None", "youtube": "None", "website": "None", "summary": "None", "logo": "None", "latitude": 47.56082100000006, "longitude": -52.71219349999993}, "106863137RR0001": {"name": "CANADIAN COAST GUARD AUXILIARY (PACIFIC) INC.", "designationCode": "C", "categoryCode": "56", "address": "6040 EAST SOOKE ROAD", "city": "SOOKE", "province": "BC", "country": "CA", "postalCode": "V9Z0Z7", "twitter": "None", "instagram": "None", "facebook": "None", "youtube": "None", "website": "None", "summary": "None", "logo": "None", "latitude": 48.36218630021727, "longitude": -123.66751338309264}, "881747562RR0001": {"name": "CANADIAN COAST GUARD NEWFOUNDLAND REGION ALUMNI ASSOCIATION INC.", "designationCode": "C", "categoryCode": "03", "address": "P.O. BOX 39011", "city": "ST. JOHN'S", "province": "NL", "country": "CA", "postalCode": "A1E5Y7", "twitter": "None", "instagram": "None", "facebook": "None", "youtube": "None", "website": "None", "summary": "None", "logo": "None", "latitude": 47.56082100000006, "longitude": -52.71219349999993}, "888731205RR0001": {"name": "CANADIAN COASTAL FORCES TRUST", "designationCode": "C", "categoryCode": "52", "address": "167 WESTWOOD AVENUE", "city": "TORONTO", "province": "ON", "country": "CA", "postalCode": "M4K2B2", "twitter": "None", "instagram": "None", "facebook": "None", "youtube": "None", "website": "None", "summary": "None", "logo": "None", "latitude": 43.686251802094866, "longitude": -79.34958604065443}, "118830280RR0001": {"name": "CANADIAN COLLEGE OF MEDICAL GENETICISTS - COLLEGE CANADIEN DE GENETICIENS MEDICAUX", "designationCode": "C", "categoryCode": "11", "address": "4 CATARAQUI STREET            SUITE 310", "city": "KINGSTON", "province": "ON", "country": "CA", "postalCode": "K7K1Z7", "twitter": "None", "instagram": "None", "facebook": "None", "youtube": "None", "website": "None", "summary": "None", "logo": "None", "latitude": 44.24212966720539, "longitude": -76.48075587884475}, "886971191RR0001": {"name": "CANADIAN COLLEGE OF NEUROPSYCHOPHARMACOLOGY", "designationCode": "C", "categoryCode": "11", "address": "62 ARCH ST. QUEEN'S UNIV.     DEPT PSYCHOLOGY", "city": "KINGSTON", "province": "ON", "country": "CA", "postalCode": "K7L3N6", "twitter": "None", "instagram": "None", "facebook": "None", "youtube": "None", "website": "None", "summary": "None", "logo": "None", "latitude": 44.22786000000008, "longitude": -76.49562999999995}, "891613242RR0001": {"name": "CANADIAN COMMITTEE OF THE BIBLE STUDY HOUR (RADIO PROGRAM),", "designationCode": "C", "categoryCode": "47", "address": "PO BOX 24087 RPO JOSEPHINE", "city": "NORTH BAY", "province": "ON", "country": "CA", "postalCode": "P1B0C7", "twitter": "None", "instagram": "None", "facebook": "None", "youtube": "None", "website": "None", "summary": "None", "logo": "None", "latitude": 46.33339006114486, "longitude": -79.46773717100396}, "134069368RR0001": {"name": "CANADIAN COMMUNICATION ASSOCIATION", "designationCode": "C", "categoryCode": "21", "address": "1125 COLONEL BY DR.", "city": "OTTAWA", "province": "ON", "country": "CA", "postalCode": "K1S5B6", "twitter": "None", "instagram": "None", "facebook": "None", "youtube": "None", "website": "None", "summary": "None", "logo": "None", "latitude": 45.38847501361867, "longitude": -75.70004668749007}, "106844517RR0001": {"name": "CANADIAN COMMUNICATIONS FOUNDATION-FONDATION DES COMMUNICATIONS CANADIENNES", "designationCode": "A", "categoryCode": "23", "address": "502 KAREN DRIVE", "city": "BURLINGTON", "province": "ON", "country": "CA", "postalCode": "L7R3J1", "twitter": "None", "instagram": "None", "facebook": "None", "youtube": "None", "website": "None", "summary": "None", "logo": "None", "latitude": 43.338433966962945, "longitude": -79.78862772191115}, "855944245RR0001": {"name": "CANADIAN COMPASS ROSE SOCIETY INC.", "designationCode": "C", "categoryCode": "49", "address": "135 ADELAIDE STREET EAST", "city": "TORONTO", "province": "ON", "country": "CA", "postalCode": "M5C1L8", "twitter": "None", "instagram": "None", "facebook": "None", "youtube": "None", "website": "None", "summary": "None", "logo": "None", "latitude": 43.651317845951944, "longitude": -79.37416675353457}, "132521402RR0001": {"name": "CANADIAN CONFERENCE OF CATHOLIC CURSILLOS", "designationCode": "C", "categoryCode": "49", "address": "PO BOX 23066                  SHOPPERS WESTEND PO", "city": "VERNON", "province": "BC", "country": "CA", "postalCode": "V1T9L8", "twitter": "None", "instagram": "None", "facebook": "None", "youtube": "None", "website": "None", "summary": "None", "logo": "None", "latitude": 50.26567200000005, "longitude": -119.27378149999993}, "118830363RR0001": {"name": "CANADIAN CONFERENCE OF MENNONITE BRETHREN CHURCH OF NORTH AMERICA", "designationCode": "C", "categoryCode": "34", "address": "1310 TAYLOR AVE", "city": "WINNIPEG", "province": "MB", "country": "CA", "postalCode": "R3M3Z6", "twitter": "None", "instagram": "None", "facebook": "None", "youtube": "None", "website": "None", "summary": "None", "logo": "None", "latitude": 49.85163670716732, "longitude": -97.17385596987715}, "118830371RR0001": {"name": "CANADIAN CONFERENCE OF THE ARTS/CONFERENCE CANADIENNE DES ARTS", "designationCode": "C", "categoryCode": "81", "address": "121 BLOOR STREET EAST         7TH FLOOR", "city": "TORONTO", "province": "ON", "country": "CA", "postalCode": "M4W3M5", "twitter": "None", "instagram": "None", "facebook": "None", "youtube": "None", "website": "None", "summary": "None", "logo": "None", "latitude": 43.6708208892321, "longitude": -79.38395640714994}, "866176654RR0001": {"name": "CANADIAN CONSTITUTION FOUNDATION", "designationCode": "C", "categoryCode": "59", "address": "#240, 1830-52ND ST SE", "city": "CALGARY", "province": "AB", "country": "CA", "postalCode": "T2B1N1", "twitter": "None", "instagram": "None", "facebook": "None", "youtube": "None", "website": "None", "summary": "None", "logo": "None", "latitude": 51.036723922009344, "longitude": -113.95827784413427}, "888661832RR0001": {"name": "CANADIAN CORD BLOOD FOUNDATION", "designationCode": "C", "categoryCode": "11", "address": "13589 25TH AVE", "city": "SURREY", "province": "BC", "country": "CA", "postalCode": "V4P1Z7", "twitter": "None", "instagram": "None", "facebook": "None", "youtube": "None", "website": "None", "summary": "None", "logo": "None", "latitude": 49.04776245657561, "longitude": -122.84580307660568}, "118830413RR0001": {"name": "CANADIAN CORPORATION FOR STUDIES IN RELIGION/CORPORATION CANADIENNE DES SCIENCES RELIGIEUSES", "designationCode": "C", "categoryCode": "21", "address": "P.O. BOX 5000", "city": "ANTIGONISH", "province": "NS", "country": "CA", "postalCode": "B2G2W5", "twitter": "None", "instagram": "None", "facebook": "None", "youtube": "None", "website": "None", "summary": "None", "logo": "None", "latitude": 45.62219400000005, "longitude": -61.99427149999994}, "133740316RR0001": {"name": "CANADIAN COSMETIC, TOILETRY AND FRAGRANCE ASSOCIATION FOUNDATION/LA FONDATION DE L'ASSOCIATION CANADIENNE DES COSM\u00c9TIQUES, PRODUITS DE TOILETTE ET PARFUMS", "designationCode": "C", "categoryCode": "09", "address": "102-420 BRITANNIA ROAD EAST", "city": "MISSISSAUGA", "province": "ON", "country": "CA", "postalCode": "L4Z3L5", "twitter": "None", "instagram": "None", "facebook": "None", "youtube": "None", "website": "None", "summary": "None", "logo": "None", "latitude": 43.63368716287754, "longitude": -79.66696609916939}, "119218865RR0001": {"name": "CANADIAN COUNCIL FOR ABORIGINAL BUSINESS/LE CONSEIL CANADIEN POUR LE COMMERCE AUTOCHTONE", "designationCode": "C", "categoryCode": "59", "address": "310 - 2 BERKELEY ST", "city": "TORONTO", "province": "ON", "country": "CA", "postalCode": "M5A4J5", "twitter": "None", "instagram": "None", "facebook": "None", "youtube": "None", "website": "None", "summary": "None", "logo": "None", "latitude": 43.65028973965612, "longitude": -79.36362342411547}, "118830439RR0001": {"name": "CANADIAN COUNCIL FOR INTERNATIONAL CO-OPERATION CONSEIL CANADIEN POUR LA COOP\u00c9RATION INTERNATIONALE", "designationCode": "C", "categoryCode": "09", "address": "39 MCARTHUR AVE", "city": "OTTAWA", "province": "ON", "country": "CA", "postalCode": "K1L8L7", "twitter": "None", "instagram": "None", "facebook": "None", "youtube": "None", "website": "None", "summary": "None", "logo": "None", "latitude": 45.4309004787926, "longitude": -75.66676355551384}, "118830454RR0001": {"name": "CANADIAN COUNCIL FOR ISRAEL", "designationCode": "A", "categoryCode": "01", "address": "6351 DE VIMY", "city": "MONTREAL", "province": "QC", "country": "CA", "postalCode": "H3S2R5", "twitter": "None", "instagram": "None", "facebook": "None", "youtube": "None", "website": "None", "summary": "None", "logo": "None", "latitude": 45.51483616654155, "longitude": -73.62373002441004}, "124146846RR0001": {"name": "CANADIAN COUNCIL FOR REFORM JUDAISM", "designationCode": "C", "categoryCode": "49", "address": "3845 BATHURST ST              STE 301", "city": "TORONTO", "province": "ON", "country": "CA", "postalCode": "M3H3N2", "twitter": "None", "instagram": "None", "facebook": "None", "youtube": "None", "website": "None", "summary": "None", "logo": "None", "latitude": 43.74047087039064, "longitude": -79.43473796055765}, "118830470RR0001": {"name": "CANADIAN COUNCIL FOR REFUGEES/CONSEIL CANADIEN POUR LES R\u00c9FUGI\u00c9S", "designationCode": "C", "categoryCode": "09", "address": "6839A RUE DROLET #301", "city": "MONTR\u00c9AL", "province": "QC", "country": "CA", "postalCode": "H2S2T1", "twitter": "None", "instagram": "None", "facebook": "None", "youtube": "None", "website": "None", "summary": "None", "logo": "None", "latitude": 45.53598767224107, "longitude": -73.6115378120771}, "118830629RR0001": {"name": "CANADIAN COUNCIL FOR TOBACCO CONTROL/CONSEIL CANADIEN POUR LE CONTROLE DU TABAC", "designationCode": "C", "categoryCode": "59", "address": "404 - 1525 CARLING AVE", "city": "OTTAWA", "province": "ON", "country": "CA", "postalCode": "K1Z8R9", "twitter": "None", "instagram": "None", "facebook": "None", "youtube": "None", "website": "None", "summary": "None", "logo": "None", "latitude": 45.38198222929743, "longitude": -75.7437751592126}, "131025074RR0001": {"name": "CANADIAN COUNCIL OF ARCHIVES/CONSEIL CANADIEN DES ARCHIVES", "designationCode": "C", "categoryCode": "21", "address": "1912 - 130 ALBERT ST", "city": "OTTAWA", "province": "ON", "country": "CA", "postalCode": "K1P5G4", "twitter": "None", "instagram": "None", "facebook": "None", "youtube": "None", "website": "None", "summary": "None", "logo": "None", "latitude": 45.42076882295, "longitude": -75.69835894262502}, "106844863RR0001": {"name": "CANADIAN COUNCIL OF CHRISTIAN CHARITIES", "designationCode": "C", "categoryCode": "49", "address": "1-43 HOWARD AVE", "city": "ELMIRA", "province": "ON", "country": "CA", "postalCode": "N3B2C9", "twitter": "None", "instagram": "None", "facebook": "None", "youtube": "None", "website": "None", "summary": "None", "logo": "None", "latitude": 43.58994858486241, "longitude": -80.55811335442041}, "891659773RR0001": {"name": "CANADIAN COUNCIL OF DR GRAHAM'S HOMES", "designationCode": "C", "categoryCode": "09", "address": "P.O. BOX 2325", "city": "ST MARYS", "province": "ON", "country": "CA", "postalCode": "N4X1A2", "twitter": "None", "instagram": "None", "facebook": "None", "youtube": "None", "website": "None", "summary": "None", "logo": "None", "latitude": 43.25948700000005, "longitude": -81.14143399999993}, "888267440RR0001": {"name": "CANADIAN COUNCIL OF HINDUS (1985)", "designationCode": "C", "categoryCode": "49", "address": "270 EXPORT BLVD", "city": "MISSISSAUGA", "province": "ON", "country": "CA", "postalCode": "L5S1Y9", "twitter": "None", "instagram": "None", "facebook": "None", "youtube": "None", "website": "None", "summary": "None", "logo": "None", "latitude": 43.652025780397466, "longitude": -79.70262207080688}, "866435043RR0001": {"name": "CANADIAN COUNCIL OF JEWISH COMMUNITY CENTRES AND YM-YWHA'S", "designationCode": "C", "categoryCode": "03", "address": "950 WEST 41ST AVENUE", "city": "VANCOUVER", "province": "BC", "country": "CA", "postalCode": "V5Z2N7", "twitter": "None", "instagram": "None", "facebook": "None", "youtube": "None", "website": "None", "summary": "None", "logo": "None", "latitude": 49.23387050620376, "longitude": -123.12594479822836}, "890888134RR0001": {"name": "CANADIAN COUNCIL OF THE BLIND ALBERTA DIVISION", "designationCode": "C", "categoryCode": "11", "address": "7 - 11 STREET NORTHEAST", "city": "CALGARY", "province": "AB", "country": "CA", "postalCode": "T2E4Z2", "twitter": "None", "instagram": "None", "facebook": "None", "youtube": "None", "website": "None", "summary": "None", "logo": "None", "latitude": 51.04877274271453, "longitude": -114.03671561200865}, "118830595RR0001": {"name": "CANADIAN COUNCIL ON INTERNATIONAL LAW - CONSEIL CANADIEN DE DROIT INTERNATIONAL", "designationCode": "C", "categoryCode": "59", "address": "275 BAY STREET", "city": "OTTAWA", "province": "ON", "country": "CA", "postalCode": "K1R5Z5", "twitter": "None", "instagram": "None", "facebook": "None", "youtube": "None", "website": "None", "summary": "None", "logo": "None", "latitude": 45.41478919178831, "longitude": -75.70361757242206}, "892134586RR0001": {"name": "CANADIAN COUNCIL ON MULTICULTURAL HEALTH INC", "designationCode": "C", "categoryCode": "11", "address": "12075 75A AVE", "city": "SURREY", "province": "BC", "country": "CA", "postalCode": "V3W1S8", "twitter": "None", "instagram": "None", "facebook": "None", "youtube": "None", "website": "None", "summary": "None", "logo": "None", "latitude": 49.14017217236994, "longitude": -122.88801776074793}, "118830611RR0001": {"name": "CANADIAN COUNCIL ON REHABILITATION AND WORK/CONSEIL CAN DE LA READAPTATION ET DU TRAVAIL", "designationCode": "C", "categoryCode": "11", "address": "105 - 477 MOUNT PLEASANT RD", "city": "TORONTO", "province": "ON", "country": "CA", "postalCode": "M4S2L9", "twitter": "None", "instagram": "None", "facebook": "None", "youtube": "None", "website": "None", "summary": "None", "logo": "None", "latitude": 43.70084943326208, "longitude": -79.38711932425453}, "118830637RR0001": {"name": "CANADIAN COVENANT HEIGHTS CHRISTIAN CAMPING ASSOCIATION, INCORPORATED", "designationCode": "C", "categoryCode": "56", "address": "POST OFFICE BOX 424", "city": "NORQUAY", "province": "SK", "country": "CA", "postalCode": "S0A2V0", "twitter": "None", "instagram": "None", "facebook": "None", "youtube": "None", "website": "None", "summary": "None", "logo": "None", "latitude": 51.88199000000003, "longitude": -102.08761999999996}, "106844996RR0001": {"name": "CANADIAN CRAFTS FEDERATION - FEDERATION CANADIENNE DES METIERS D'ART", "designationCode": "C", "categoryCode": "22", "address": "PO BOX 1231", "city": "FREDERICTON", "province": "NB", "country": "CA", "postalCode": "E3B5C8", "twitter": "None", "instagram": "None", "facebook": "None", "youtube": "None", "website": "None", "summary": "None", "logo": "None", "latitude": 45.96062100000006, "longitude": -66.63911299999994}, "892604489RR0001": {"name": "CANADIAN CREDIT MANAGEMENT FOUNDATION / FONDATION CANADIENNEDE LA GERANCE DU CREDIT", "designationCode": "B", "categoryCode": "21", "address": "PH1-2855 BLOOR ST WEST", "city": "TORONTO", "province": "ON", "country": "CA", "postalCode": "M8X3A1", "twitter": "None", "instagram": "None", "facebook": "None", "youtube": "None", "website": "None", "summary": "None", "logo": "None", "latitude": 43.649765907553984, "longitude": -79.50043474242607}, "863995841RR0001": {"name": "CANADIAN CRIME VICTIMS FOUNDATION", "designationCode": "C", "categoryCode": "59", "address": "1046 LOCKWOOD CIRCLE", "city": "NEWMARKET", "province": "ON", "country": "CA", "postalCode": "L3X1M2", "twitter": "None", "instagram": "None", "facebook": "None", "youtube": "None", "website": "None", "summary": "None", "logo": "None", "latitude": 44.03454854177961, "longitude": -79.4297514998271}, "118830660RR0001": {"name": "CANADIAN CRIMINAL JUSTICE ASSOCIATION / ASSOCIATION CANADIENNE DE JUSTICE PENALE", "designationCode": "C", "categoryCode": "59", "address": "320 PARKDALE AVE.             SUITE 101", "city": "OTTAWA", "province": "ON", "country": "CA", "postalCode": "K1Y4X9", "twitter": "None", "instagram": "None", "facebook": "None", "youtube": "None", "website": "None", "summary": "None", "logo": "None", "latitude": 45.40275529196731, "longitude": -75.73035139179959}, "129814570RR0001": {"name": "CANADIAN CROSSROADS INTERNATIONAL CARREFOUR CANADIEN INTERNATIONAL", "designationCode": "C", "categoryCode": "21", "address": "49 BATHURST STREET            SUITE 201", "city": "TORONTO", "province": "ON", "country": "CA", "postalCode": "M5V2P2", "twitter": "None", "instagram": "None", "facebook": "None", "youtube": "None", "website": "None", "summary": "None", "logo": "None", "latitude": 43.64270783152521, "longitude": -79.40170555897629}, "118830702RR0001": {"name": "CANADIAN CULTURAL SOCIETY OF THE DEAF INC.", "designationCode": "C", "categoryCode": "22", "address": "15 MILL ST", "city": "TORONTO", "province": "ON", "country": "CA", "postalCode": "M5A3R6", "twitter": "None", "instagram": "None", "facebook": "None", "youtube": "None", "website": "None", "summary": "None", "logo": "None", "latitude": 43.6503288420568, "longitude": -79.36141790285076}, "859244634RR0001": {"name": "CANADIAN DANCE ASSEMBLY/L'ASSEMBLEE CANADIENNE DE LA DANSE", "designationCode": "C", "categoryCode": "81", "address": "2 - 476 PARLIAMENT ST", "city": "TORONTO", "province": "ON", "country": "CA", "postalCode": "M4X1P2", "twitter": "None", "instagram": "None", "facebook": "None", "youtube": "None", "website": "None", "summary": "None", "logo": "None", "latitude": 43.66447262891686, "longitude": -79.3680932184487}, "832075519RR0002": {"name": "CANADIAN DEAFBLIND AND RUBELLA ASSOCIATION-NEW BRUNSWICK/PRINCE EDWARD ISLAND CHAPTER", "designationCode": "C", "categoryCode": "11", "address": "H - 495B PROSPECT ST", "city": "FREDERICTON", "province": "NB", "country": "CA", "postalCode": "E3B9M4", "twitter": "None", "instagram": "None", "facebook": "None", "youtube": "None", "website": "None", "summary": "None", "logo": "None", "latitude": 45.96360834242664, "longitude": -66.70621663095353}, "119218956RR0002": {"name": "CANADIAN DEAFBLIND ASSOCIATION", "designationCode": "C", "categoryCode": "11", "address": "14 - 1860 APPLEBY LINE", "city": "BURLINGTON", "province": "ON", "country": "CA", "postalCode": "L7L7H7", "twitter": "None", "instagram": "None", "facebook": "None", "youtube": "None", "website": "None", "summary": "None", "logo": "None", "latitude": 43.391682727393764, "longitude": -79.78735189572338}, "132004151RR0001": {"name": "CANADIAN DEAFNESS RESEARCH AND TRAINING INSTITUTE INSTITUT CANADIEN DE RECHERCHE ET DE FORMATION SUR LA SURDITE", "designationCode": "C", "categoryCode": "11", "address": "2300 RENE LEVESQUE WEST       SUITE 237", "city": "MONTREAL", "province": "QC", "country": "CA", "postalCode": "H3H2R5", "twitter": "None", "instagram": "None", "facebook": "None", "youtube": "None", "website": "None", "summary": "None", "logo": "None", "latitude": 45.4883134726471, "longitude": -73.58219016804209}, "889096178RR0001": {"name": "CANADIAN DEMOLAY FOUNDATION", "designationCode": "C", "categoryCode": "59", "address": "102 - 5677 99 ST NW", "city": "EDMONTON", "province": "AB", "country": "CA", "postalCode": "T6E3N8", "twitter": "None", "instagram": "None", "facebook": "None", "youtube": "None", "website": "None", "summary": "None", "logo": "None", "latitude": 53.49212044463039, "longitude": -113.48606582393742}, "118830736RR0001": {"name": "CANADIAN DERMATOLOGY FOUNDATION", "designationCode": "A", "categoryCode": "13", "address": "425 - 1385 BANK ST", "city": "OTTAWA", "province": "ON", "country": "CA", "postalCode": "K1H8N4", "twitter": "None", "instagram": "None", "facebook": "None", "youtube": "None", "website": "None", "summary": "None", "logo": "None", "latitude": 45.38426016431984, "longitude": -75.6721058810378}}