{"817901424RR0001": {"name": "Sundre Hospital & Care Centre Auxiliary Society", "designationCode": "C", "categoryCode": "19", "address": "P.O. BOX 2309", "city": "SUNDRE", "province": "AB", "country": "CA", "postalCode": "T0M1X0", "twitter": "None", "instagram": "None", "facebook": "None", "youtube": "None", "website": "None", "summary": "None", "logo": "None", "latitude": 51.797180000000026, "longitude": -114.64119999999997}, "132156266RR0001": {"name": "Sundre Municipal Library", "designationCode": "C", "categoryCode": "50", "address": "POST OFFICE BOX 539", "city": "SUNDRE", "province": "AB", "country": "CA", "postalCode": "T0M1X0", "twitter": "None", "instagram": "None", "facebook": "None", "youtube": "None", "website": "None", "summary": "None", "logo": "None", "latitude": 51.797180000000026, "longitude": -114.64119999999997}, "873817712RR0001": {"name": "Sungam Church of Vancouver", "designationCode": "C", "categoryCode": "39", "address": "1328 LEMAX AVE", "city": "COQUITLAM", "province": "BC", "country": "CA", "postalCode": "V3J2C2", "twitter": "None", "instagram": "None", "facebook": "None", "youtube": "None", "website": "None", "summary": "None", "logo": "None", "latitude": 49.25260251067581, "longitude": -122.8558905}, "769585324RR0001": {"name": "Sunny Days Group Program", "designationCode": "B", "categoryCode": "09", "address": "PO BOX 70", "city": "BRIGHTON", "province": "ON", "country": "CA", "postalCode": "K0K1H0", "twitter": "None", "instagram": "None", "facebook": "None", "youtube": "None", "website": "None", "summary": "None", "logo": "None", "latitude": 44.04197993003085, "longitude": -77.73788995224774}, "749600920RR0001": {"name": "Sunny Hill Property Trust", "designationCode": "C", "categoryCode": "15", "address": "1800 - 510 GEORGIA ST W", "city": "VANCOUVER", "province": "BC", "country": "CA", "postalCode": "V6B0M3", "twitter": "None", "instagram": "None", "facebook": "None", "youtube": "None", "website": "None", "summary": "None", "logo": "None", "latitude": 49.281267759207665, "longitude": -123.11633309804196}, "852777515RR0001": {"name": "Sunnybrook Research Academy", "designationCode": "C", "categoryCode": "11", "address": "2075 BAYVIEW AVENUE           ROOM S-132", "city": "TORONTO", "province": "ON", "country": "CA", "postalCode": "M4N3M5", "twitter": "None", "instagram": "None", "facebook": "None", "youtube": "None", "website": "None", "summary": "None", "logo": "None", "latitude": 43.72146646433722, "longitude": -79.37898625976698}, "813563665RR0001": {"name": "Sunnybrook Research Institute", "designationCode": "C", "categoryCode": "11", "address": "2075 BAYVIEW AVENUE,          ROOM S-132", "city": "TORONTO", "province": "ON", "country": "CA", "postalCode": "M4N3M5", "twitter": "None", "instagram": "None", "facebook": "None", "youtube": "None", "website": "None", "summary": "None", "logo": "None", "latitude": 43.72146646433722, "longitude": -79.37898625976698}, "861064517RR0001": {"name": "Sunnyside Cemetary Inc.", "designationCode": "C", "categoryCode": "59", "address": "P.O. BOX 159", "city": "BREDENBURY", "province": "SK", "country": "CA", "postalCode": "S0A0H0", "twitter": "None", "instagram": "None", "facebook": "None", "youtube": "None", "website": "None", "summary": "None", "logo": "None", "latitude": 50.93959000000007, "longitude": -102.05053999999996}, "108051905RR0001": {"name": "Sunnyside Garden Daycare Centre of Toronto", "designationCode": "C", "categoryCode": "01", "address": "225 GARDEN AVENUE", "city": "TORONTO", "province": "ON", "country": "CA", "postalCode": "M6R1H9", "twitter": "None", "instagram": "None", "facebook": "None", "youtube": "None", "website": "None", "summary": "None", "logo": "None", "latitude": 43.643438823734954, "longitude": -79.44916832194592}, "829439215RR0001": {"name": "Sunray Meditation Society of Canada", "designationCode": "C", "categoryCode": "49", "address": "146 RIDGE RD W", "city": "GRIMSBY", "province": "ON", "country": "CA", "postalCode": "L3M4E7", "twitter": "None", "instagram": "None", "facebook": "None", "youtube": "None", "website": "None", "summary": "None", "logo": "None", "latitude": 43.18470914435319, "longitude": -79.57528191947053}, "119288918RR1703": {"name": "Sunridge Iloko Congregation of Jehovah's Witnesses, Calgary, Alberta", "designationCode": "C", "categoryCode": "61", "address": "2900 14 AVE NE", "city": "CALGARY", "province": "AB", "country": "CA", "postalCode": "T2A6J4", "twitter": "None", "instagram": "None", "facebook": "None", "youtube": "None", "website": "None", "summary": "None", "logo": "None", "latitude": 51.06510652596792, "longitude": -113.99202008381903}, "834251712RR0001": {"name": "Sunrise of Life (SOL) Ltd.", "designationCode": "C", "categoryCode": "09", "address": "BOX 351", "city": "COALDALE", "province": "AB", "country": "CA", "postalCode": "T1M1M4", "twitter": "None", "instagram": "None", "facebook": "None", "youtube": "None", "website": "None", "summary": "None", "logo": "None", "latitude": 49.73194500000005, "longitude": -112.60066399999994}, "847524469RR0001": {"name": "Sunrise Centre", "designationCode": "C", "categoryCode": "20", "address": "2724 22 ST", "city": "COALDALE", "province": "AB", "country": "CA", "postalCode": "T1M0A5", "twitter": "None", "instagram": "None", "facebook": "None", "youtube": "None", "website": "None", "summary": "None", "logo": "None", "latitude": 49.71800581626179, "longitude": -112.62874821648681}, "813539434RR0001": {"name": "Sunrise Partnership for Agriculture Development and Education (SPADE) Inc.", "designationCode": "C", "categoryCode": "20", "address": "343A CONNELL ST", "city": "WOODSTOCK", "province": "NB", "country": "CA", "postalCode": "E7M5G5", "twitter": "None", "instagram": "None", "facebook": "None", "youtube": "None", "website": "None", "summary": "None", "logo": "None", "latitude": 46.16638319136681, "longitude": -67.59614217156087}, "865734107RR0001": {"name": "Sunrise Performing Arts Centre of Excellence (the \"SPACE\") Inc.", "designationCode": "C", "categoryCode": "22", "address": "573 MAIN STREET               BOX 285", "city": "OAKBANK", "province": "MB", "country": "CA", "postalCode": "R0E1J0", "twitter": "None", "instagram": "None", "facebook": "None", "youtube": "None", "website": "None", "summary": "None", "logo": "None", "latitude": 49.93924400128846, "longitude": -96.84236188373792}, "829061399RR0001": {"name": "Sunrise Potato Systems Institute", "designationCode": "C", "categoryCode": "21", "address": "5546 COUNTY ROAD 15", "city": "ALLISTON", "province": "ON", "country": "CA", "postalCode": "L9R1V3", "twitter": "None", "instagram": "None", "facebook": "None", "youtube": "None", "website": "None", "summary": "None", "logo": "None", "latitude": 44.17910417673362, "longitude": -79.88574543048041}, "814133427RR0001": {"name": "Sunset Area Victim Crisis Assistance and Referral Service", "designationCode": "C", "categoryCode": "09", "address": "18 - 308 SECOND ST S", "city": "KENORA", "province": "ON", "country": "CA", "postalCode": "P9N1G4", "twitter": "None", "instagram": "None", "facebook": "None", "youtube": "None", "website": "None", "summary": "None", "logo": "None", "latitude": 49.76585907470108, "longitude": -94.4889658607827}, "108052432RR0001": {"name": "Sunset Church Inc.", "designationCode": "C", "categoryCode": "36", "address": "429 CLEMENTS DR", "city": "FREDERICTON", "province": "NB", "country": "CA", "postalCode": "E3G7J1", "twitter": "None", "instagram": "None", "facebook": "None", "youtube": "None", "website": "None", "summary": "None", "logo": "None", "latitude": 45.97812248211082, "longitude": -66.70826489217495}, "118780428RR0001": {"name": "Sunset Point Christian Camp Foundation", "designationCode": "C", "categoryCode": "56", "address": "4810 MACTAGGART CREST", "city": "EDMONTON", "province": "AB", "country": "CA", "postalCode": "T6R0J6", "twitter": "None", "instagram": "None", "facebook": "None", "youtube": "None", "website": "None", "summary": "None", "logo": "None", "latitude": 53.4376615100989, "longitude": -113.5585918082117}, "812832277RR0001": {"name": "Sunshine Coast Astronomy Club", "designationCode": "C", "categoryCode": "50", "address": "5755 TRAIL AVE", "city": "SECHELT", "province": "BC", "country": "CA", "postalCode": "V0N3A6", "twitter": "None", "instagram": "None", "facebook": "None", "youtube": "None", "website": "None", "summary": "None", "logo": "None", "latitude": 49.48142321645817, "longitude": -123.76385113134012}, "846608099RR0001": {"name": "Sunshine Coast Crime Stoppers Society", "designationCode": "C", "categoryCode": "59", "address": "5800 TEREDO STREET            BOX 188", "city": "SECHELT", "province": "BC", "country": "CA", "postalCode": "V0N3A0", "twitter": "None", "instagram": "None", "facebook": "None", "youtube": "None", "website": "None", "summary": "None", "logo": "None", "latitude": 49.47080105798909, "longitude": -123.76398922417069}, "132360033RR0001": {"name": "Sunshine Coast Healthcare Auxiliary Society", "designationCode": "C", "categoryCode": "19", "address": "PO BOX 917", "city": "SECHELT", "province": "BC", "country": "CA", "postalCode": "V0N3A0", "twitter": "None", "instagram": "None", "facebook": "None", "youtube": "None", "website": "None", "summary": "None", "logo": "None", "latitude": 49.473460000000046, "longitude": -123.75460999999996}, "832261374RR0001": {"name": "Sunshine Coast Jewish Burial Society", "designationCode": "C", "categoryCode": "59", "address": "3-699 DOUGALL ROAD", "city": "GIBSONS", "province": "BC", "country": "CA", "postalCode": "V0N1V8", "twitter": "None", "instagram": "None", "facebook": "None", "youtube": "None", "website": "None", "summary": "None", "logo": "None", "latitude": 49.39666091035258, "longitude": -123.50844105828381}, "820993822RR0001": {"name": "Sunshine Cruises for Kids", "designationCode": "C", "categoryCode": "09", "address": "91 PARK AVE", "city": "ST CATHARINES", "province": "ON", "country": "CA", "postalCode": "L2P1R8", "twitter": "None", "instagram": "None", "facebook": "None", "youtube": "None", "website": "None", "summary": "None", "logo": "None", "latitude": 43.14726888481738, "longitude": -79.20903763200396}, "843752627RR0001": {"name": "Sunshine Fund for Kids and Causes", "designationCode": "A", "categoryCode": "13", "address": "938 WEST 28TH AVENUE", "city": "VANCOUVER", "province": "BC", "country": "CA", "postalCode": "V5Z4H4", "twitter": "None", "instagram": "None", "facebook": "None", "youtube": "None", "website": "None", "summary": "None", "logo": "None", "latitude": 49.24622028331057, "longitude": -123.12595853978019}, "119288918RR1596": {"name": "Sunshine Hills Congregation of Jehovah's Witnesses, Surrey, British Columbia", "designationCode": "C", "categoryCode": "61", "address": "13095 60 AVE", "city": "SURREY", "province": "BC", "country": "CA", "postalCode": "V3X2L6", "twitter": "None", "instagram": "None", "facebook": "None", "youtube": "None", "website": "None", "summary": "None", "logo": "None", "latitude": 49.11189548211084, "longitude": -122.86006136081136}, "134271261RR0001": {"name": "Sunshine House Inc.", "designationCode": "C", "categoryCode": "11", "address": "646 LOGAN AVENUE", "city": "WINNIPEG", "province": "MB", "country": "CA", "postalCode": "R3A0S7", "twitter": "None", "instagram": "None", "facebook": "None", "youtube": "None", "website": "None", "summary": "None", "logo": "None", "latitude": 49.907845028016716, "longitude": -97.15242957175823}, "852623842RR0001": {"name": "Sunyata Buddhist Meditation Association of Ontario", "designationCode": "C", "categoryCode": "35", "address": "31 GLENDALE ROAD", "city": "THORNHILL", "province": "ON", "country": "CA", "postalCode": "L3T6Y3", "twitter": "None", "instagram": "None", "facebook": "None", "youtube": "None", "website": "None", "summary": "None", "logo": "None", "latitude": 43.8316619003406, "longitude": -79.36985579058232}, "888290590RR0001": {"name": "Superannuated Teachers of Sask Weyburn Chapter", "designationCode": "C", "categoryCode": "21", "address": "750 ELM CRESCENT", "city": "WEYBURN", "province": "SK", "country": "CA", "postalCode": "S4H0S7", "twitter": "None", "instagram": "None", "facebook": "None", "youtube": "None", "website": "None", "summary": "None", "logo": "None", "latitude": 49.67393347489746, "longitude": -103.85423108381903}, "892321365RR0001": {"name": "Superior Collegiate & Vocational Institute", "designationCode": "C", "categoryCode": "22", "address": "333 NORTH HIGH STREET", "city": "THUNDER BAY", "province": "ON", "country": "CA", "postalCode": "P7A5S3", "twitter": "None", "instagram": "None", "facebook": "None", "youtube": "None", "website": "None", "summary": "None", "logo": "None"}, "833887201RR0001": {"name": "Superior Family Health Team", "designationCode": "C", "categoryCode": "11", "address": "300 - 765 QUEEN ST E", "city": "SAULT STE. MARIE", "province": "ON", "country": "CA", "postalCode": "P6A2A8", "twitter": "None", "instagram": "None", "facebook": "None", "youtube": "None", "website": "None", "summary": "None", "logo": "None", "latitude": 46.50711112626248, "longitude": -84.32618898072585}, "118800523RR0001": {"name": "Superior Heights C. & V.S.", "designationCode": "C", "categoryCode": "21", "address": "750 NORTH ST", "city": "SAULT STE. MARIE", "province": "ON", "country": "CA", "postalCode": "P6B2C5", "twitter": "None", "instagram": "None", "facebook": "None", "youtube": "None", "website": "None", "summary": "None", "logo": "None", "latitude": 46.54017888536563, "longitude": -84.33473276470131}, "888229929RR0001": {"name": "Supernatural Kingdom Life Ministries", "designationCode": "C", "categoryCode": "39", "address": "2550 MITCHELL CRESCENT", "city": "METCALFE", "province": "ON", "country": "CA", "postalCode": "K0A2P0", "twitter": "None", "instagram": "None", "facebook": "None", "youtube": "None", "website": "None", "summary": "None", "logo": "None", "latitude": 45.22517912236736, "longitude": -75.50545514305512}, "839850641RR0001": {"name": "Support for Memory Loss Foundation", "designationCode": "C", "categoryCode": "11", "address": "29 NEVADA AVENUE", "city": "TORONTO", "province": "ON", "country": "CA", "postalCode": "M2M3N9", "twitter": "None", "instagram": "None", "facebook": "None", "youtube": "None", "website": "None", "summary": "None", "logo": "None", "latitude": 43.80020470858095, "longitude": -79.39909485411758}, "752346122RR0001": {"name": "Support Ontario Youth", "designationCode": "C", "categoryCode": "21", "address": "93 SKYWAY AVENUE, SUITE 109", "city": "ETOBICOKE", "province": "ON", "country": "CA", "postalCode": "M9W6N6", "twitter": "None", "instagram": "None", "facebook": "None", "youtube": "None", "website": "None", "summary": "None", "logo": "None", "latitude": 43.68512100392379, "longitude": -79.58397527604096}, "837211937RR0001": {"name": "Support People of Today (SPOT) Charitable Services Inc.", "designationCode": "C", "categoryCode": "09", "address": "5 MILL RD", "city": "PETITCODIAC", "province": "NB", "country": "CA", "postalCode": "E4Z4M8", "twitter": "None", "instagram": "None", "facebook": "None", "youtube": "None", "website": "None", "summary": "None", "logo": "None", "latitude": 45.92617279874798, "longitude": -65.18548573359658}, "827501867RR0001": {"name": "Support Through Housing Team Society (STHT)", "designationCode": "C", "categoryCode": "09", "address": "1 C.A. KNIGHT WAY", "city": "FORT MCMURRAY", "province": "AB", "country": "CA", "postalCode": "T9H5C5", "twitter": "None", "instagram": "None", "facebook": "None", "youtube": "None", "website": "None", "summary": "None", "logo": "None", "latitude": 56.73095700000006, "longitude": -111.38965549999993}, "801007402RR0001": {"name": "Support. Education. Togo.", "designationCode": "B", "categoryCode": "21", "address": "989 MAITLAND ST", "city": "LONDON", "province": "ON", "country": "CA", "postalCode": "N5Y2X5", "twitter": "None", "instagram": "None", "facebook": "None", "youtube": "None", "website": "None", "summary": "None", "logo": "None", "latitude": 43.00728704495361, "longitude": -81.24724416781095}, "853176295RR0001": {"name": "Supporting Women's Alternatives Network (SWAN Vancouver) Society", "designationCode": "C", "categoryCode": "59", "address": "1101 SEYMOUR ST", "city": "VANCOUVER", "province": "BC", "country": "CA", "postalCode": "V6B0R1", "twitter": "None", "instagram": "None", "facebook": "None", "youtube": "None", "website": "None", "summary": "None", "logo": "None", "latitude": 49.27759612210218, "longitude": -123.12373406611005}, "850831553RR0001": {"name": "Supportive Housing of Waterloo", "designationCode": "C", "categoryCode": "09", "address": "362 ERB STREET WEST", "city": "WATERLOO", "province": "ON", "country": "CA", "postalCode": "N2L1W6", "twitter": "None", "instagram": "None", "facebook": "None", "youtube": "None", "website": "None", "summary": "None", "logo": "None", "latitude": 43.45461469167275, "longitude": -80.5474603117028}, "802544221RR0001": {"name": "Supportons-Lait", "designationCode": "C", "categoryCode": "11", "address": "20 RUE ALEXIS-BERNARD", "city": "CARLETON", "province": "QC", "country": "CA", "postalCode": "G0C1J0", "twitter": "None", "instagram": "None", "facebook": "None", "youtube": "None", "website": "None", "summary": "None", "logo": "None", "latitude": 48.10508792561604, "longitude": -66.12355281054896}, "824903306RR0001": {"name": "SupportWorks Incorporated", "designationCode": "C", "categoryCode": "11", "address": "223 12TH AVENUE SW", "city": "CALGARY", "province": "AB", "country": "CA", "postalCode": "T2R0G9", "twitter": "None", "instagram": "None", "facebook": "None", "youtube": "None", "website": "None", "summary": "None", "logo": "None", "latitude": 51.04147448845882, "longitude": -114.0671642216227}, "823178322RR0001": {"name": "Supreme Court Advocacy Institute - Institut de Plaidoirie Devant la Cour Supr\u00eame", "designationCode": "C", "categoryCode": "29", "address": "1 QUEEN STREET EAST           SUITE 1910, BOX 69", "city": "TORONTO", "province": "ON", "country": "CA", "postalCode": "M5C2W5", "twitter": "None", "instagram": "None", "facebook": "None", "youtube": "None", "website": "None", "summary": "None", "logo": "None", "latitude": 43.6525107399159, "longitude": -79.3787267993249}, "119103513RR0001": {"name": "Surpassing Our Survival (S.O.S.) Society Sexual Violence Prevention and Counselling Services", "designationCode": "C", "categoryCode": "09", "address": "193 QUEBEC ST", "city": "PRINCE GEORGE", "province": "BC", "country": "CA", "postalCode": "V2L1W1", "twitter": "None", "instagram": "None", "facebook": "None", "youtube": "None", "website": "None", "summary": "None", "logo": "None", "latitude": 53.91825102997864, "longitude": -122.74504135403068}, "823379300RR0001": {"name": "Surrey Central City Church", "designationCode": "C", "categoryCode": "39", "address": "SUITE #491 7360 137 ST", "city": "SURREY", "province": "BC", "country": "CA", "postalCode": "V3W1A3", "twitter": "None", "instagram": "None", "facebook": "None", "youtube": "None", "website": "None", "summary": "None", "logo": "None", "latitude": 49.13640159256161, "longitude": -122.84278054994526}, "813123361RR0001": {"name": "Surrey Christian Evangelical Church", "designationCode": "C", "categoryCode": "39", "address": "10627 168 ST", "city": "SURREY", "province": "BC", "country": "CA", "postalCode": "V4N1M5", "twitter": "None", "instagram": "None", "facebook": "None", "youtube": "None", "website": "None", "summary": "None", "logo": "None", "latitude": 49.19557458090483, "longitude": -122.75654553387378}, "854921715RR0001": {"name": "Surrey Christian School Society", "designationCode": "C", "categoryCode": "20", "address": "8930 162 STREET", "city": "SURREY", "province": "BC", "country": "CA", "postalCode": "V4N3G1", "twitter": "None", "instagram": "None", "facebook": "None", "youtube": "None", "website": "None", "summary": "None", "logo": "None", "latitude": 49.16487599999999, "longitude": -122.77316901330155}, "795281328RR0001": {"name": "Surrey Community Cat Coalition Foundation", "designationCode": "C", "categoryCode": "54", "address": "4-10050 137A ST", "city": "SURREY", "province": "BC", "country": "CA", "postalCode": "V3T5M6", "twitter": "None", "instagram": "None", "facebook": "None", "youtube": "None", "website": "None", "summary": "None", "logo": "None", "latitude": 49.185378000000014, "longitude": -122.84173843669586}, "800303711RR0001": {"name": "Surrey Heritage Society", "designationCode": "C", "categoryCode": "50", "address": "5748 176 ST", "city": "SURREY", "province": "BC", "country": "CA", "postalCode": "V3S4C8", "twitter": "None", "instagram": "None", "facebook": "None", "youtube": "None", "website": "None", "summary": "None", "logo": "None", "latitude": 49.10683541909515, "longitude": -122.73493002441003}, "852296953RR0001": {"name": "Surrey Homelessness and Housing Society", "designationCode": "B", "categoryCode": "59", "address": "13450 104 AVENUE", "city": "SURREY", "province": "BC", "country": "CA", "postalCode": "V3T1V8", "twitter": "None", "instagram": "None", "facebook": "None", "youtube": "None", "website": "None", "summary": "None", "logo": "None", "latitude": 49.19155402075814, "longitude": -122.84935517837974}, "891268740RR0001": {"name": "Surrey Hospital & Outpatient Centre Foundation", "designationCode": "A", "categoryCode": "03", "address": "13750 96TH AVE", "city": "SURREY", "province": "BC", "country": "CA", "postalCode": "V3V1Z2", "twitter": "None", "instagram": "None", "facebook": "None", "youtube": "None", "website": "None", "summary": "None", "logo": "None", "latitude": 49.17699149956731, "longitude": -122.84243027699232}, "850434283RR0001": {"name": "Surrey Methodist Community Church", "designationCode": "C", "categoryCode": "44", "address": "12371 96 AVE", "city": "SURREY", "province": "BC", "country": "CA", "postalCode": "V3V1W9", "twitter": "None", "instagram": "None", "facebook": "None", "youtube": "None", "website": "None", "summary": "None", "logo": "None", "latitude": 49.17719346768412, "longitude": -122.88005002553523}, "828806836RR0001": {"name": "Surrey Valley Baptist Church Inc.", "designationCode": "C", "categoryCode": "31", "address": "P.O. BOX 3052", "city": "HILLSBOROUGH", "province": "NB", "country": "CA", "postalCode": "E4H4W5", "twitter": "None", "instagram": "None", "facebook": "None", "youtube": "None", "website": "None", "summary": "None", "logo": "None", "latitude": 45.92715900000006, "longitude": -64.64866399999994}, "896615663RR0001": {"name": "Surrey Vineyard Christian Fellowship Association", "designationCode": "C", "categoryCode": "39", "address": "6747 192 ST DIVERS", "city": "SURREY", "province": "BC", "country": "CA", "postalCode": "V4N6A3", "twitter": "None", "instagram": "None", "facebook": "None", "youtube": "None", "website": "None", "summary": "None", "logo": "None", "latitude": 49.12610906563769, "longitude": -122.69098709593099}, "802441436RR0001": {"name": "Sursum Corda Christian Male Chorus", "designationCode": "C", "categoryCode": "49", "address": "5378 BRIGDEN RD", "city": "SARNIA", "province": "ON", "country": "CA", "postalCode": "N7T7H3", "twitter": "None", "instagram": "None", "facebook": "None", "youtube": "None", "website": "None", "summary": "None", "logo": "None", "latitude": 42.957242046627044, "longitude": -82.27761406780577}, "817166846RR0001": {"name": "Survivors Abreast of Peterborough Inc.", "designationCode": "C", "categoryCode": "11", "address": "216-171A RINK STREET", "city": "PETERBOROUGH", "province": "ON", "country": "CA", "postalCode": "K9J2J6", "twitter": "None", "instagram": "None", "facebook": "None", "youtube": "None", "website": "None", "summary": "None", "logo": "None", "latitude": 44.29577609281283, "longitude": -78.3198995972033}, "788986123RR0001": {"name": "Surya Foundation", "designationCode": "B", "categoryCode": "03", "address": "1400 CORNWALL ROAD            SUITE 3", "city": "OAKVILLE", "province": "ON", "country": "CA", "postalCode": "L6J7W5", "twitter": "None", "instagram": "None", "facebook": "None", "youtube": "None", "website": "None", "summary": "None", "logo": "None", "latitude": 43.475274911737564, "longitude": -79.66234894878532}, "845243666RR0001": {"name": "Susan and Gregory Guichon Foundation", "designationCode": "B", "categoryCode": "03", "address": "210 INGLEWOOD DRIVE", "city": "TORONTO", "province": "ON", "country": "CA", "postalCode": "M4T1H9", "twitter": "None", "instagram": "None", "facebook": "None", "youtube": "None", "website": "None", "summary": "None", "logo": "None", "latitude": 43.688999809308214, "longitude": -79.3801542053783}, "830561320RR0001": {"name": "Sussex and Area Seniors' Centre Inc.", "designationCode": "C", "categoryCode": "56", "address": "50 PERRY ST", "city": "SUSSEX", "province": "NB", "country": "CA", "postalCode": "E4E2N7", "twitter": "None", "instagram": "None", "facebook": "None", "youtube": "None", "website": "None", "summary": "None", "logo": "None", "latitude": 45.72478739013409, "longitude": -65.50151313564018}, "808577746RR0001": {"name": "Sustainable East African Education and Development Society (S.E.E.D.S.) of Alberta", "designationCode": "C", "categoryCode": "09", "address": "1919 108 ST NW", "city": "EDMONTON", "province": "AB", "country": "CA", "postalCode": "T6J5V4", "twitter": "None", "instagram": "None", "facebook": "None", "youtube": "None", "website": "None", "summary": "None", "logo": "None", "latitude": 53.450345378296504, "longitude": -113.50697819369289}, "129779583RR0001": {"name": "Sustainable Food Edmonton", "designationCode": "C", "categoryCode": "11", "address": "PO BOX 34183 KINGSWAY MALL", "city": "EDMONTON", "province": "AB", "country": "CA", "postalCode": "T5G3G4", "twitter": "None", "instagram": "None", "facebook": "None", "youtube": "None", "website": "None", "summary": "None", "logo": "None", "latitude": 53.56275000000005, "longitude": -113.50697999999994}, "841394935RR0001": {"name": "Sustainable Peace Inc.", "designationCode": "C", "categoryCode": "09", "address": "28 ANNAN DRIVE", "city": "SCARBOROUGH", "province": "ON", "country": "CA", "postalCode": "M1L4L4", "twitter": "None", "instagram": "None", "facebook": "None", "youtube": "None", "website": "None", "summary": "None", "logo": "None", "latitude": 43.711714351924556, "longitude": -79.27342706913251}, "834843799RR0001": {"name": "Sustainable Thinking and Expression on Public Space (STEPS) Initiative", "designationCode": "C", "categoryCode": "22", "address": "33-39 QUEENS QUAY EAST        LEVEL 1", "city": "TORONTO", "province": "ON", "country": "CA", "postalCode": "M5E0A4", "twitter": "None", "instagram": "None", "facebook": "None", "youtube": "None", "website": "None", "summary": "None", "logo": "None", "latitude": 43.642887531874976, "longitude": -79.3718174043751}, "836294686RR0001": {"name": "Suubi Education Foundation", "designationCode": "C", "categoryCode": "09", "address": "1250-1500 GEORGIA W ST        PO BOX 62", "city": "VANCOUVER", "province": "BC", "country": "CA", "postalCode": "V6G2Z6", "twitter": "None", "instagram": "None", "facebook": "None", "youtube": "None", "website": "None", "summary": "None", "logo": "None", "latitude": 49.29013479542975, "longitude": -123.1300069287031}, "872521109RR0001": {"name": "Suzart Productions", "designationCode": "C", "categoryCode": "22", "address": "823 FOREST ST", "city": "OTTAWA", "province": "ON", "country": "CA", "postalCode": "K2B5P8", "twitter": "None", "instagram": "None", "facebook": "None", "youtube": "None", "website": "None", "summary": "None", "logo": "None", "latitude": 45.36165198641002, "longitude": -75.78773317176433}, "874034374RR0001": {"name": "Suzuki Charter School Society", "designationCode": "C", "categoryCode": "20", "address": "10720 54 ST NW", "city": "EDMONTON", "province": "AB", "country": "CA", "postalCode": "T6A2H9", "twitter": "None", "instagram": "None", "facebook": "None", "youtube": "None", "website": "None", "summary": "None", "logo": "None", "latitude": 53.55520200000001, "longitude": -113.42172976767189}, "119207066RR0001": {"name": "Suzuki Music Winnipeg Inc.", "designationCode": "C", "categoryCode": "22", "address": "103 BRIDGEWAY CRES", "city": "WINNIPEG", "province": "MB", "country": "CA", "postalCode": "R3X1Y3", "twitter": "None", "instagram": "None", "facebook": "None", "youtube": "None", "website": "None", "summary": "None", "logo": "None", "latitude": 49.83414650848279, "longitude": -97.0816121846036}, "119288918RR1675": {"name": "Swahili Centre Congregation of Jehovah's Witnesses,Montreal,Quebec", "designationCode": "C", "categoryCode": "61", "address": "2567 RUE ONTARIO E", "city": "MONTREAL", "province": "QC", "country": "CA", "postalCode": "H2K1W6", "twitter": "None", "instagram": "None", "facebook": "None", "youtube": "None", "website": "None", "summary": "None", "logo": "None", "latitude": 45.53326957092151, "longitude": -73.55244527534754}, "803527019RR0001": {"name": "Swallowtail Keepers Society Incorporated", "designationCode": "C", "categoryCode": "52", "address": "50 LIGHTHOUSE ROAD", "city": "GRAND MANAN", "province": "NB", "country": "CA", "postalCode": "E5G2A2", "twitter": "None", "instagram": "None", "facebook": "None", "youtube": "None", "website": "None", "summary": "None", "logo": "None", "latitude": 44.765024641768434, "longitude": -66.73935927718257}, "833678774RR0001": {"name": "Swan Hills Hospital Foundation", "designationCode": "A", "categoryCode": "13", "address": "POST OFFICE BOX 383", "city": "SWAN HILLS", "province": "AB", "country": "CA", "postalCode": "T0G2C0", "twitter": "None", "instagram": "None", "facebook": "None", "youtube": "None", "website": "None", "summary": "None", "logo": "None", "latitude": 54.714681020755066, "longitude": -115.4092085988938}, "843460783RR0001": {"name": "Swan Lake Watershed Conservation District", "designationCode": "C", "categoryCode": "59", "address": "559 4TH AVE NORTH             BOX 1858", "city": "SWAN RIVER", "province": "MB", "country": "CA", "postalCode": "R0L1Z0", "twitter": "None", "instagram": "None", "facebook": "None", "youtube": "None", "website": "None", "summary": "None", "logo": "None", "latitude": 52.111161514362614, "longitude": -101.27365040301933}, "120711577RR0001": {"name": "Swan Valley Animal Protection League Incorporated", "designationCode": "C", "categoryCode": "54", "address": "P.O. BOX 2735", "city": "SWAN RIVER", "province": "MB", "country": "CA", "postalCode": "R0L1Z0", "twitter": "None", "instagram": "None", "facebook": "None", "youtube": "None", "website": "None", "summary": "None", "logo": "None", "latitude": 52.11672730414978, "longitude": -101.25989472758229}, "820634376RR0001": {"name": "Swan Valley Bible Fellowship", "designationCode": "C", "categoryCode": "39", "address": "PO BOX 328", "city": "SWAN RIVER", "province": "MB", "country": "CA", "postalCode": "R0L1Z0", "twitter": "None", "instagram": "None", "facebook": "None", "youtube": "None", "website": "None", "summary": "None", "logo": "None", "latitude": 52.11672730414978, "longitude": -101.25989472758229}, "814863882RR0001": {"name": "Swan Valley Communities that Care Inc.", "designationCode": "C", "categoryCode": "09", "address": "POST OFFICE BOX 96", "city": "SWAN  RIVER", "province": "MB", "country": "CA", "postalCode": "R0L1Z0", "twitter": "None", "instagram": "None", "facebook": "None", "youtube": "None", "website": "None", "summary": "None", "logo": "None", "latitude": 52.11672730414978, "longitude": -101.25989472758229}, "804320018RR0001": {"name": "Swedish Canadian Residents Foundation", "designationCode": "A", "categoryCode": "03", "address": "7230 HALIFAX ST", "city": "BURNABY", "province": "BC", "country": "CA", "postalCode": "V5A0B2", "twitter": "None", "instagram": "None", "facebook": "None", "youtube": "None", "website": "None", "summary": "None", "logo": "None", "latitude": 49.26793253952925, "longitude": -122.9518212485429}, "836462796RR0001": {"name": "Sweet Caroline Foundation Inc.", "designationCode": "C", "categoryCode": "11", "address": "28 SIMONE ST", "city": "ROTHESAY", "province": "NB", "country": "CA", "postalCode": "E2S1A5", "twitter": "None", "instagram": "None", "facebook": "None", "youtube": "None", "website": "None", "summary": "None", "logo": "None", "latitude": 45.389822905129776, "longitude": -65.93870041095816}, "822385035RR0001": {"name": "Sweet Charity Medical Assistance Dogs", "designationCode": "C", "categoryCode": "11", "address": "65 CEDAR POINTE DRIVE         SUITE 466", "city": "BARRIE", "province": "ON", "country": "CA", "postalCode": "L4N9R3", "twitter": "None", "instagram": "None", "facebook": "None", "youtube": "None", "website": "None", "summary": "None", "logo": "None", "latitude": 44.38389599999999, "longitude": -79.71144208477132}, "850874389RR0001": {"name": "Sweetwater Music Festival", "designationCode": "C", "categoryCode": "22", "address": "GAVILLER & COMPANY CHARTERED  945-3RD AVE. E., SUITE 201", "city": "P.O. BOX 460 OWEN SOUND", "province": "ON", "country": "CA", "postalCode": "N4K5P7", "twitter": "None", "instagram": "None", "facebook": "None", "youtube": "None", "website": "None", "summary": "None", "logo": "None", "latitude": 44.566916590421215, "longitude": -80.94117156576903}, "805125887RR0001": {"name": "Swift Care Ontario", "designationCode": "C", "categoryCode": "54", "address": "PO BOX 2012", "city": "KOMOKA", "province": "ON", "country": "CA", "postalCode": "N0L1R0", "twitter": "None", "instagram": "None", "facebook": "None", "youtube": "None", "website": "None", "summary": "None", "logo": "None", "latitude": 42.971594889155234, "longitude": -81.46740015745547}, "805814803RR0001": {"name": "Swift Current Community Youth Initiative Inc.", "designationCode": "C", "categoryCode": "56", "address": "55 1ST AVE NE", "city": "SWIFT CURRENT", "province": "SK", "country": "CA", "postalCode": "S9H2A9", "twitter": "None", "instagram": "None", "facebook": "None", "youtube": "None", "website": "None", "summary": "None", "logo": "None", "latitude": 50.282689018501515, "longitude": -107.79851854692465}, "820670495RR0001": {"name": "Swiftsure Foundation", "designationCode": "B", "categoryCode": "03", "address": "101 EVERGREEN PLAZA S.W.", "city": "CALGARY", "province": "AB", "country": "CA", "postalCode": "T2Y5B2", "twitter": "None", "instagram": "None", "facebook": "None", "youtube": "None", "website": "None", "summary": "None", "logo": "None", "latitude": 50.92076549235396, "longitude": -114.10070223411618}, "862622750RR0001": {"name": "Swim Drink Fish Canada", "designationCode": "C", "categoryCode": "52", "address": "379 ADELAIDE STREET WEST      WEST BASEMENT UNIT", "city": "TORONTO", "province": "ON", "country": "CA", "postalCode": "M5V1S4", "twitter": "None", "instagram": "None", "facebook": "None", "youtube": "None", "website": "None", "summary": "None", "logo": "None", "latitude": 43.64658185648353, "longitude": -79.39624479641071}, "119288918RR0139": {"name": "Sydney Congregation of Jehovah's Witnesses, Sydney, Nova Scotia", "designationCode": "C", "categoryCode": "61", "address": "256 HILLSIDE ROAD", "city": "ALBERT BRIDGE", "province": "NS", "country": "CA", "postalCode": "B1K3L2", "twitter": "None", "instagram": "None", "facebook": "None", "youtube": "None", "website": "None", "summary": "None", "logo": "None", "latitude": 46.02679242772217, "longitude": -60.08036533542035}, "811282557RR0001": {"name": "Sydney Credit Union Charitable Foundation", "designationCode": "A", "categoryCode": "03", "address": "PO BOX 1386", "city": "SYDNEY", "province": "NS", "country": "CA", "postalCode": "B1P6K3", "twitter": "None", "instagram": "None", "facebook": "None", "youtube": "None", "website": "None", "summary": "None", "logo": "None", "latitude": 46.137372000000056, "longitude": -60.19552249999994}, "809360035RR0001": {"name": "Sydney Wood Purple Butterfly of Hope Foundation", "designationCode": "B", "categoryCode": "03", "address": "62 PIANO DRIVE", "city": "HAMILTON", "province": "ON", "country": "CA", "postalCode": "L9B2R3", "twitter": "None", "instagram": "None", "facebook": "None", "youtube": "None", "website": "None", "summary": "None", "logo": "None", "latitude": 43.197720621155256, "longitude": -79.8864758884527}, "855171658RR0001": {"name": "Sylvan Adams Family Foundation Fondation familiale Sylvan Adams", "designationCode": "B", "categoryCode": "03", "address": "4141 SHERBROOKE STREET WEST   SUITE 400", "city": "WESTMOUNT", "province": "QC", "country": "CA", "postalCode": "H3Z1B8", "twitter": "None", "instagram": "None", "facebook": "None", "youtube": "None", "website": "None", "summary": "None", "logo": "None", "latitude": 45.48821831530948, "longitude": -73.59152922595052}, "820234912RR0001": {"name": "Sylvan Lake & Area Serenity Pet Shelter Society", "designationCode": "C", "categoryCode": "54", "address": "PO BOX 835", "city": "RIMBEY", "province": "AB", "country": "CA", "postalCode": "T0C2J0", "twitter": "None", "instagram": "None", "facebook": "None", "youtube": "None", "website": "None", "summary": "None", "logo": "None", "latitude": 52.63970000000006, "longitude": -114.23827999999997}, "833000961RR0001": {"name": "Sylvan Lake Municipal Library", "designationCode": "C", "categoryCode": "50", "address": "4715 50 AVE", "city": "SYLVAN LAKE", "province": "AB", "country": "CA", "postalCode": "T4S1A2", "twitter": "None", "instagram": "None", "facebook": "None", "youtube": "None", "website": "None", "summary": "None", "logo": "None", "latitude": 52.30868502801673, "longitude": -114.0935026286284}, "119288918RR1452": {"name": "Sylvan Lake, Alberta, Congregation of Jehovah's Witnesses", "designationCode": "C", "categoryCode": "61", "address": "4743 - 47 STREET", "city": "SYLVAN LAKE", "province": "AB", "country": "CA", "postalCode": "T4S1M8", "twitter": "None", "instagram": "None", "facebook": "None", "youtube": "None", "website": "None", "summary": "None", "logo": "None", "latitude": 52.306190025535216, "longitude": -114.09208908627187}, "828649384RR0001": {"name": "Sylvia R. Yonke Family Foundation", "designationCode": "B", "categoryCode": "03", "address": "29 BAY BERRY LANE", "city": "NIAGARA ON THE LAKE", "province": "ON", "country": "CA", "postalCode": "L0S1J0", "twitter": "None", "instagram": "None", "facebook": "None", "youtube": "None", "website": "None", "summary": "None", "logo": "None", "latitude": 43.25334569357733, "longitude": -79.08886940163868}, "810085373RR0001": {"name": "Symes Foundation", "designationCode": "B", "categoryCode": "03", "address": "PO BOX 5120", "city": "SOUTH PORCUPINE", "province": "ON", "country": "CA", "postalCode": "P0N1H0", "twitter": "None", "instagram": "None", "facebook": "None", "youtube": "None", "website": "None", "summary": "None", "logo": "None", "latitude": 48.48521000000005, "longitude": -81.20909999999998}, "801170515RR0001": {"name": "Symphony Church", "designationCode": "C", "categoryCode": "39", "address": "16 - 2495 DAVIES AVE", "city": "PORT COQUITLAM", "province": "BC", "country": "CA", "postalCode": "V3C0B2", "twitter": "None", "instagram": "None", "facebook": "None", "youtube": "None", "website": "None", "summary": "None", "logo": "None", "latitude": 49.268047588808656, "longitude": -122.78224192669632}, "830838280RR0001": {"name": "Syn.ap.tic: Spinal Cord Injury and Neuro Rehabilitation Centre", "designationCode": "C", "categoryCode": "11", "address": "305 - 6940 FISHER RD SE", "city": "CALGARY", "province": "AB", "country": "CA", "postalCode": "T2H0W3", "twitter": "None", "instagram": "None", "facebook": "None", "youtube": "None", "website": "None", "summary": "None", "logo": "None", "latitude": 50.99266487705575, "longitude": -114.06810348303446}, "769313727RR0001": {"name": "Synapse Scholarship Association", "designationCode": "C", "categoryCode": "21", "address": "4 YOUNG CRT", "city": "ORANGEVILLE", "province": "ON", "country": "CA", "postalCode": "L9W0A8", "twitter": "None", "instagram": "None", "facebook": "None", "youtube": "None", "website": "None", "summary": "None", "logo": "None", "latitude": 43.89288638522141, "longitude": -80.1218084168448}, "876008806RR0001": {"name": "Synergy Collective Society", "designationCode": "A", "categoryCode": "03", "address": "1461 MOUNT GARDNER ROAD", "city": "BOWEN ISLAND", "province": "BC", "country": "CA", "postalCode": "V0N1G1", "twitter": "None", "instagram": "None", "facebook": "None", "youtube": "None", "website": "None", "summary": "None", "logo": "None", "latitude": 49.39962830223907, "longitude": -123.36800958286675}, "818415192RR0001": {"name": "Synestheatre Society", "designationCode": "C", "categoryCode": "22", "address": "724 CONNAUGHT ROAD", "city": "VICTORIA", "province": "BC", "country": "CA", "postalCode": "V9A2Z2", "twitter": "None", "instagram": "None", "facebook": "None", "youtube": "None", "website": "None", "summary": "None", "logo": "None", "latitude": 48.4383468809509, "longitude": -123.39222146099033}, "809945561RR0001": {"name": "Syria-Antigonish Families Embrace (SAFE) Society", "designationCode": "C", "categoryCode": "99", "address": "219 MAIN STREET, 204 KIRK     PLACE", "city": "ANTIGONISH", "province": "NS", "country": "CA", "postalCode": "B2G2C1", "twitter": "None", "instagram": "None", "facebook": "None", "youtube": "None", "website": "None", "summary": "None", "logo": "None", "latitude": 45.62257164888353, "longitude": -61.989608630301845}, "805889631RR0001": {"name": "Syrian Kids Foundation", "designationCode": "C", "categoryCode": "20", "address": "108 - 3550 RUE DE LA MONTAGNE", "city": "MONTREAL", "province": "QC", "country": "CA", "postalCode": "H3G2A6", "twitter": "None", "instagram": "None", "facebook": "None", "youtube": "None", "website": "None", "summary": "None", "logo": "None", "latitude": 45.50080146790111, "longitude": -73.58108108259229}, "757966320RR0002": {"name": "Syro Malabar Catholic Community", "designationCode": "C", "categoryCode": "38", "address": "219 18 AVENUE SW", "city": "CALGARY", "province": "AB", "country": "CA", "postalCode": "T2S0C2", "twitter": "None", "instagram": "None", "facebook": "None", "youtube": "None", "website": "None", "summary": "None", "logo": "None", "latitude": 51.03700852063048, "longitude": -114.06625199999999}, "143288520RR0001": {"name": "Syst\u00e8me D / Dominique Porte", "designationCode": "C", "categoryCode": "22", "address": "3505, RUE DEROCHER", "city": "MONTR\u00c9AL", "province": "QC", "country": "CA", "postalCode": "H2X2E7", "twitter": "None", "instagram": "None", "facebook": "None", "youtube": "None", "website": "None", "summary": "None", "logo": "None", "latitude": 45.5083281704367, "longitude": -73.57485996223109}}