{"132410671RR0291": {"name": "SOCIETY OF ST VINCENT DE PAUL, NATIVITY OF OUR LORD CONFERENCE, ETOBICOKE", "designationCode": "C", "categoryCode": "09", "address": "480 RATHBURN RD", "city": "ETOBICOKE", "province": "ON", "country": "CA", "postalCode": "M9C3S8", "twitter": "None", "instagram": "None", "facebook": "None", "youtube": "None", "website": "None", "summary": "None", "logo": "None", "latitude": 43.65220706027438, "longitude": -79.57620039635854}, "132410671RR0015": {"name": "SOCIETY OF ST VINCENT DE PAUL, OUR LADY MOUNT CARMEL CONFERENCE, WINDSOR", "designationCode": "C", "categoryCode": "09", "address": "4401 MT ROYAL DRIVE", "city": "WINDSOR", "province": "ON", "country": "CA", "postalCode": "N9G2C5", "twitter": "None", "instagram": "None", "facebook": "None", "youtube": "None", "website": "None", "summary": "None", "logo": "None", "latitude": 42.24372424811021, "longitude": -83.01038244523596}, "132410671RR0207": {"name": "SOCIETY OF ST VINCENT DE PAUL, OUR LADY OF FATIMA CONFERENCE, COQUITLAM BRITISH COLUMBIA", "designationCode": "C", "categoryCode": "09", "address": "315 WALKER ST", "city": "COQUITLAM", "province": "BC", "country": "CA", "postalCode": "V3K4C7", "twitter": "None", "instagram": "None", "facebook": "None", "youtube": "None", "website": "None", "summary": "None", "logo": "None", "latitude": 49.241680566449475, "longitude": -122.87781225209227}, "132410671RR0182": {"name": "SOCIETY OF ST VINCENT DE PAUL, OUR LADY OF SORROWS CONFERENCE, TORONTO", "designationCode": "C", "categoryCode": "09", "address": "3055 BLOOR STREET WEST", "city": "TORONTO", "province": "ON", "country": "CA", "postalCode": "M8X1C6", "twitter": "None", "instagram": "None", "facebook": "None", "youtube": "None", "website": "None", "summary": "None", "logo": "None", "latitude": 43.64692586759203, "longitude": -79.51301575255361}, "132410671RR0021": {"name": "SOCIETY OF ST VINCENT DE PAUL, PARISH OF ATONEMENT CONFERENCE, WINDSOR", "designationCode": "C", "categoryCode": "09", "address": "2940 FOREST GLADE DR.", "city": "WINDSOR", "province": "ON", "country": "CA", "postalCode": "N8R1L5", "twitter": "None", "instagram": "None", "facebook": "None", "youtube": "None", "website": "None", "summary": "None", "logo": "None", "latitude": 42.30965081738697, "longitude": -82.91582634127833}, "132410671RR0186": {"name": "SOCIETY OF ST VINCENT DE PAUL, SAINT ANN CONFERENCE IN PENTANG", "designationCode": "C", "categoryCode": "09", "address": "28 ROBERT STREET WEST", "city": "PENETANGUISHENE", "province": "ON", "country": "CA", "postalCode": "L9M1N2", "twitter": "None", "instagram": "None", "facebook": "None", "youtube": "None", "website": "None", "summary": "None", "logo": "None", "latitude": 44.76765636841474, "longitude": -79.9362614152683}, "132410671RR0122": {"name": "SOCIETY OF ST VINCENT DE PAUL, SAINT JOHN OF THE CROSS CONF", "designationCode": "C", "categoryCode": "09", "address": "6890 GLEN ERIN DRIVE", "city": "MISSISSAUGA", "province": "ON", "country": "CA", "postalCode": "L5N2E1", "twitter": "None", "instagram": "None", "facebook": "None", "youtube": "None", "website": "None", "summary": "None", "logo": "None", "latitude": 43.591178276126946, "longitude": -79.76279803903832}, "132410671RR0020": {"name": "SOCIETY OF ST VINCENT DE PAUL, SAINT JOHN VIANNEY CONFERENCE, BARRIE", "designationCode": "C", "categoryCode": "09", "address": "13 BALDWIN LANE", "city": "BARRIE", "province": "ON", "country": "CA", "postalCode": "L4N2W1", "twitter": "None", "instagram": "None", "facebook": "None", "youtube": "None", "website": "None", "summary": "None", "logo": "None", "latitude": 44.36781447792722, "longitude": -79.69105358381903}, "132410671RR0123": {"name": "SOCIETY OF ST VINCENT DE PAUL, SAINT MARGUERET'S CONFERENCE MIDLAND", "designationCode": "C", "categoryCode": "09", "address": "589 HUGEL AVE", "city": "MIDLAND", "province": "ON", "country": "CA", "postalCode": "L4R1W3", "twitter": "None", "instagram": "None", "facebook": "None", "youtube": "None", "website": "None", "summary": "None", "logo": "None", "latitude": 44.74839910861633, "longitude": -79.88894476583098}, "132410671RR0053": {"name": "SOCIETY OF ST VINCENT DE PAUL, ST ALFRED'S CONFERENCE, ST CATHARINES", "designationCode": "C", "categoryCode": "09", "address": "272 VINE ST.", "city": "ST.CATHARINES", "province": "ON", "country": "CA", "postalCode": "L2M4T3", "twitter": "None", "instagram": "None", "facebook": "None", "youtube": "None", "website": "None", "summary": "None", "logo": "None", "latitude": 43.1799390313636, "longitude": -79.230545863524}, "132410671RR0089": {"name": "SOCIETY OF ST VINCENT DE PAUL, ST AMBROSE CONFERENCE, CAMBRIDGE", "designationCode": "C", "categoryCode": "09", "address": "210 SOUTH ST", "city": "CAMBRIDGE", "province": "ON", "country": "CA", "postalCode": "N1R2P4", "twitter": "None", "instagram": "None", "facebook": "None", "youtube": "None", "website": "None", "summary": "None", "logo": "None", "latitude": 43.35321327451082, "longitude": -80.29688662406943}, "132410671RR0014": {"name": "SOCIETY OF ST VINCENT DE PAUL, ST ANNE'S CONFERENCE", "designationCode": "C", "categoryCode": "09", "address": "268 EAST AVE", "city": "KITCHENER", "province": "ON", "country": "CA", "postalCode": "N2H1Z4", "twitter": "None", "instagram": "None", "facebook": "None", "youtube": "None", "website": "None", "summary": "None", "logo": "None", "latitude": 43.450165517369584, "longitude": -80.47120498439078}, "132410671RR0223": {"name": "SOCIETY OF ST VINCENT DE PAUL, ST ANTHONY DANIEL CONFERENCE,KITCHENER", "designationCode": "C", "categoryCode": "09", "address": "29 MIDLAND DRIVE", "city": "KITCHENER", "province": "ON", "country": "CA", "postalCode": "N2A2A9", "twitter": "None", "instagram": "None", "facebook": "None", "youtube": "None", "website": "None", "summary": "None", "logo": "None", "latitude": 43.44917209489887, "longitude": -80.4480123138376}, "132410671RR0222": {"name": "SOCIETY OF ST VINCENT DE PAUL, ST ANTHONY'S CONFERENCE, DARTMOUTH", "designationCode": "C", "categoryCode": "09", "address": "29 FARRELL STREET", "city": "DARTMOUTH", "province": "NS", "country": "CA", "postalCode": "B3A4B2", "twitter": "None", "instagram": "None", "facebook": "None", "youtube": "None", "website": "None", "summary": "None", "logo": "None", "latitude": 44.6782996408621, "longitude": -63.58921178908177}, "132410671RR0032": {"name": "SOCIETY OF ST VINCENT DE PAUL, ST CECILIAS CONFERENCE", "designationCode": "C", "categoryCode": "09", "address": "321 - 90 AVE SE", "city": "CALGARY", "province": "AB", "country": "CA", "postalCode": "T2J0A1", "twitter": "None", "instagram": "None", "facebook": "None", "youtube": "None", "website": "None", "summary": "None", "logo": "None", "latitude": 50.97224153231589, "longitude": -114.06081141618097}, "132410671RR0174": {"name": "SOCIETY OF ST VINCENT DE PAUL, ST CLEMENT'S CONFERENCE, CAMBRIDGE", "designationCode": "C", "categoryCode": "09", "address": "745 DUKE ST.", "city": "CAMBRIDGE", "province": "ON", "country": "CA", "postalCode": "N3H3T7", "twitter": "None", "instagram": "None", "facebook": "None", "youtube": "None", "website": "None", "summary": "None", "logo": "None", "latitude": 43.396368693057724, "longitude": -80.35683765387516}, "132410671RR0269": {"name": "SOCIETY OF ST VINCENT DE PAUL, ST FRANCIS OF ASSISI CONFER", "designationCode": "C", "categoryCode": "09", "address": "2473 THORN LODGE DRIVE", "city": "MISSISSAUGA", "province": "ON", "country": "CA", "postalCode": "L5K1K8", "twitter": "None", "instagram": "None", "facebook": "None", "youtube": "None", "website": "None", "summary": "None", "logo": "None", "latitude": 43.52693322234386, "longitude": -79.67252376371943}, "132410671RR0171": {"name": "SOCIETY OF ST VINCENT DE PAUL, ST FRANCIS OF ASSISI CONFERENCE KITCHENER", "designationCode": "C", "categoryCode": "09", "address": "49 BLUERIDGE AVENUE", "city": "KITCHENER", "province": "ON", "country": "CA", "postalCode": "N2M4E2", "twitter": "None", "instagram": "None", "facebook": "None", "youtube": "None", "website": "None", "summary": "None", "logo": "None", "latitude": 43.432913285850475, "longitude": -80.5067611263198}, "132410671RR0143": {"name": "SOCIETY OF ST VINCENT DE PAUL, ST GABRIEL CONFERENCE", "designationCode": "C", "categoryCode": "09", "address": "36 MEDALIST ROAD", "city": "TORONTO", "province": "ON", "country": "CA", "postalCode": "M2P1Y5", "twitter": "None", "instagram": "None", "facebook": "None", "youtube": "None", "website": "None", "summary": "None", "logo": "None", "latitude": 43.75300764920062, "longitude": -79.39355987356463}, "132410671RR0147": {"name": "SOCIETY OF ST VINCENT DE PAUL, ST HELEN'S CONFERENCE, TORONTO", "designationCode": "C", "categoryCode": "09", "address": "1680 DUNDAS ST. WEST", "city": "TORONTO", "province": "ON", "country": "CA", "postalCode": "M6K1V3", "twitter": "None", "instagram": "None", "facebook": "None", "youtube": "None", "website": "None", "summary": "None", "logo": "None", "latitude": 43.650067449939165, "longitude": -79.43780022147847}, "132410671RR0181": {"name": "SOCIETY OF ST VINCENT DE PAUL, ST JOHN THE BAPTIST CONFERENCE, SPRINGHILL (N S)", "designationCode": "C", "categoryCode": "09", "address": "PO BOX 497", "city": "SPRINGHILL", "province": "NS", "country": "CA", "postalCode": "B0M1X0", "twitter": "None", "instagram": "None", "facebook": "None", "youtube": "None", "website": "None", "summary": "None", "logo": "None", "latitude": 45.65057000000007, "longitude": -64.05729999999994}, "132410671RR0048": {"name": "SOCIETY OF ST VINCENT DE PAUL, ST JOSEPH'S CONFERENCE, GRIMSBY", "designationCode": "C", "categoryCode": "09", "address": "135 LIVINGSTON AVE", "city": "GRIMSBY", "province": "ON", "country": "CA", "postalCode": "L3M5J6", "twitter": "None", "instagram": "None", "facebook": "None", "youtube": "None", "website": "None", "summary": "None", "logo": "None", "latitude": 43.1979727504475, "longitude": -79.57910663226374}, "132410671RR0119": {"name": "SOCIETY OF ST VINCENT DE PAUL, ST JOSEPH'S CONFERENCE, GUELPH", "designationCode": "C", "categoryCode": "09", "address": "409 PAISLEY ROAD", "city": "GUELPH", "province": "ON", "country": "CA", "postalCode": "N1H2R4", "twitter": "None", "instagram": "None", "facebook": "None", "youtube": "None", "website": "None", "summary": "None", "logo": "None", "latitude": 43.53748940634187, "longitude": -80.26749801875455}, "132410671RR0092": {"name": "SOCIETY OF ST VINCENT DE PAUL, ST JOSEPH'S CONFERENCE, KITCHNER ONTARIO", "designationCode": "C", "categoryCode": "09", "address": "148 MADISON AVE SOUTH", "city": "KITCHENER", "province": "ON", "country": "CA", "postalCode": "N2G3M6", "twitter": "None", "instagram": "None", "facebook": "None", "youtube": "None", "website": "None", "summary": "None", "logo": "None", "latitude": 43.442616519851086, "longitude": -80.48584714475723}, "132410671RR0111": {"name": "SOCIETY OF ST VINCENT DE PAUL, ST MARK'S CONFERENCE", "designationCode": "C", "categoryCode": "09", "address": "55 DRIFTWOOD DRIVE", "city": "KITCHENER", "province": "ON", "country": "CA", "postalCode": "N2N3A2", "twitter": "None", "instagram": "None", "facebook": "None", "youtube": "None", "website": "None", "summary": "None", "logo": "None", "latitude": 43.417145850943605, "longitude": -80.53422423071105}, "132410671RR0142": {"name": "SOCIETY OF ST VINCENT DE PAUL, ST MARYS' CONFERENCE, HALIFAX", "designationCode": "C", "categoryCode": "09", "address": "1531 GRAFTON ST.", "city": "HALIFAX", "province": "NS", "country": "CA", "postalCode": "B3J2B9", "twitter": "None", "instagram": "None", "facebook": "None", "youtube": "None", "website": "None", "summary": "None", "logo": "None", "latitude": 44.64439061139251, "longitude": -63.57409284393179}, "132410671RR0090": {"name": "SOCIETY OF ST VINCENT DE PAUL, ST MICHAEL'S CONFERENCE,", "designationCode": "C", "categoryCode": "09", "address": "240 HEMLOCK ST.", "city": "WATERLOO", "province": "ON", "country": "CA", "postalCode": "N2L3R5", "twitter": "None", "instagram": "None", "facebook": "None", "youtube": "None", "website": "None", "summary": "None", "logo": "None", "latitude": 43.47486822398864, "longitude": -80.53112541476732}, "132410671RR0339": {"name": "SOCIETY OF ST VINCENT DE PAUL, ST PATRICK'S CONFERENCE", "designationCode": "C", "categoryCode": "09", "address": "3 PARK AVENUE", "city": "CARBONEAR", "province": "NL", "country": "CA", "postalCode": "A1Y1A3", "twitter": "None", "instagram": "None", "facebook": "None", "youtube": "None", "website": "None", "summary": "None", "logo": "None", "latitude": 47.729178994301094, "longitude": -53.22271380993348}, "132410671RR0241": {"name": "SOCIETY OF ST VINCENT DE PAUL, ST PATRICK'S CONFERENCE MER", "designationCode": "C", "categoryCode": "09", "address": "27 PARKDALE DR", "city": "THOROLD", "province": "ON", "country": "CA", "postalCode": "L2V2N5", "twitter": "None", "instagram": "None", "facebook": "None", "youtube": "None", "website": "None", "summary": "None", "logo": "None", "latitude": 43.12443538190317, "longitude": -79.21328113200394}, "132410671RR0008": {"name": "SOCIETY OF ST VINCENT DE PAUL, ST PATRICK'S PARISH CONFERENCE, HALIFAX", "designationCode": "C", "categoryCode": "09", "address": "2267 BRUNSWICK ST", "city": "HALIFAX", "province": "NS", "country": "CA", "postalCode": "B3K2Y9", "twitter": "None", "instagram": "None", "facebook": "None", "youtube": "None", "website": "None", "summary": "None", "logo": "None", "latitude": 44.65417780711517, "longitude": -63.58340535607948}, "132410671RR0130": {"name": "SOCIETY OF ST VINCENT DE PAUL, ST PETER'S CONFERENCE, NEW WESTMINSTER, B C", "designationCode": "C", "categoryCode": "09", "address": "330 ROYAL AVE", "city": "NEW WESTMINSTER", "province": "BC", "country": "CA", "postalCode": "V3L1H8", "twitter": "None", "instagram": "None", "facebook": "None", "youtube": "None", "website": "None", "summary": "None", "logo": "None", "latitude": 49.20719808823379, "longitude": -122.90808745389256}, "132410671RR0028": {"name": "SOCIETY OF ST VINCENT DE PAUL, ST PIUS X CONFERENCE, KELOWNA BRITISH COLUMBIA", "designationCode": "C", "categoryCode": "09", "address": "1077 FULLER AVE", "city": "KELOWNA", "province": "BC", "country": "CA", "postalCode": "V1Y6X6", "twitter": "None", "instagram": "None", "facebook": "None", "youtube": "None", "website": "None", "summary": "None", "logo": "None", "latitude": 49.89022446047074, "longitude": -119.47761063918864}, "132410671RR0056": {"name": "SOCIETY OF ST VINCENT DE PAUL, ST THERESA'S CONFERENCE, HALIFAX", "designationCode": "C", "categoryCode": "09", "address": "6351 NORTH ST", "city": "HALIFAX", "province": "NS", "country": "CA", "postalCode": "B3L1P7", "twitter": "None", "instagram": "None", "facebook": "None", "youtube": "None", "website": "None", "summary": "None", "logo": "None", "latitude": 44.65006955233986, "longitude": -63.601427957152524}, "132410671RR0145": {"name": "SOCIETY OF ST VINCENT DE PAUL, ST VINCENT DE PAUL CONFERENCE, WINDSOR", "designationCode": "C", "categoryCode": "09", "address": "1991 NORMAN ROAD", "city": "WINDSOR", "province": "ON", "country": "CA", "postalCode": "N8T1S1", "twitter": "None", "instagram": "None", "facebook": "None", "youtube": "None", "website": "None", "summary": "None", "logo": "None", "latitude": 42.30974490562074, "longitude": -82.9673289711752}, "132410671RR0259": {"name": "SOCIETY OF ST VINCENT DE PAUL, ST-CHARLES GARNIER CONFERENCE", "designationCode": "C", "categoryCode": "09", "address": "3645 BENVOULIN RD", "city": "KELOWNA", "province": "BC", "country": "CA", "postalCode": "V1W4M7", "twitter": "None", "instagram": "None", "facebook": "None", "youtube": "None", "website": "None", "summary": "None", "logo": "None", "latitude": 49.851220138194854, "longitude": -119.4672633614483}, "891475840RR0001": {"name": "SOCIETY OF ST VINCENT DE PAUL, ST-CLEMENT CHURCH CONFERENCE, MCGREGOR", "designationCode": "C", "categoryCode": "09", "address": "PO BOX 40", "city": "MCGREGOR", "province": "ON", "country": "CA", "postalCode": "N0R1J0", "twitter": "None", "instagram": "None", "facebook": "None", "youtube": "None", "website": "None", "summary": "None", "logo": "None", "latitude": 42.140879999999996, "longitude": -82.9742265}, "119155067RR0001": {"name": "SOCIETY OF ST. JOHN THE EVANGELIST IN CANADA INC.", "designationCode": "C", "categoryCode": "30", "address": "130 KING ST. WEST 20TH FLOOR  BOX 430 STN FIRST CANADIAN PL", "city": "TORONTO", "province": "ON", "country": "CA", "postalCode": "M5X1K1", "twitter": "None", "instagram": "None", "facebook": "None", "youtube": "None", "website": "None", "summary": "None", "logo": "None", "latitude": 43.64826932503962, "longitude": -79.38190945606182}, "119155083RR0001": {"name": "SOCIETY OF ST. PIUS X INC.", "designationCode": "C", "categoryCode": "38", "address": "480 MCKENZIE STREET", "city": "WINNIPEG", "province": "MB", "country": "CA", "postalCode": "R2W5B9", "twitter": "None", "instagram": "None", "facebook": "None", "youtube": "None", "website": "None", "summary": "None", "logo": "None", "latitude": 49.927744319464416, "longitude": -97.14380805248408}, "132410671RR0267": {"name": "SOCIETY OF ST. VINCENT DE PAUL - ST. LUKES CONFERENCE", "designationCode": "C", "categoryCode": "09", "address": "39 GREEN LANE                 ST LUKE CONFERENCE", "city": "THORNHILL", "province": "ON", "country": "CA", "postalCode": "L3T6K5", "twitter": "None", "instagram": "None", "facebook": "None", "youtube": "None", "website": "None", "summary": "None", "logo": "None", "latitude": 43.821969772087584, "longitude": -79.39795490186981}, "132410671RR0460": {"name": "SOCIETY OF ST. VINCENT DE PAUL - ST. PATRICK'S CONFERENCE", "designationCode": "C", "categoryCode": "09", "address": "196 KENWOOD AVENUE", "city": "BURLINGTON", "province": "ON", "country": "CA", "postalCode": "L7L4L8", "twitter": "None", "instagram": "None", "facebook": "None", "youtube": "None", "website": "None", "summary": "None", "logo": "None", "latitude": 43.369254190922945, "longitude": -79.73623043704164}, "132410671RR0265": {"name": "SOCIETY OF ST. VINCENT DE PAUL BLESSED SACRAMENT CONFERENCE", "designationCode": "C", "categoryCode": "09", "address": "24 CHERITAN AVENUE", "city": "TORONTO", "province": "ON", "country": "CA", "postalCode": "M4R1S4", "twitter": "None", "instagram": "None", "facebook": "None", "youtube": "None", "website": "None", "summary": "None", "logo": "None", "latitude": 43.723012409400305, "longitude": -79.40282558687746}, "132410671RR0375": {"name": "SOCIETY OF ST. VINCENT DE PAUL OF CANADA, ST. JAMES CONFERENCE", "designationCode": "C", "categoryCode": "09", "address": "SITE 7, BOX 41, RR#2", "city": "OKOTOKS", "province": "AB", "country": "CA", "postalCode": "T1S1A2", "twitter": "None", "instagram": "None", "facebook": "None", "youtube": "None", "website": "None", "summary": "None", "logo": "None", "latitude": 50.72589600000006, "longitude": -113.97494149999994}, "119204295RR0001": {"name": "SOCIETY OF ST. VINCENT DE PAUL OF VANCOUVER ISLAND", "designationCode": "C", "categoryCode": "09", "address": "4353 WEST SAANICH RD", "city": "VICTORIA", "province": "BC", "country": "CA", "postalCode": "V8Z3E8", "twitter": "None", "instagram": "None", "facebook": "None", "youtube": "None", "website": "None", "summary": "None", "logo": "None"}, "119155299RR0001": {"name": "SOCIETY OF ST. VINCENT DE PAUL PARTICULAR COUNCIL OF KENT", "designationCode": "C", "categoryCode": "09", "address": "80 KING STREET EAST", "city": "CHATHAM", "province": "ON", "country": "CA", "postalCode": "N7M3M8", "twitter": "None", "instagram": "None", "facebook": "None", "youtube": "None", "website": "None", "summary": "None", "logo": "None", "latitude": 42.405448904235755, "longitude": -82.17771722799934}, "132410671RR0456": {"name": "SOCIETY OF ST. VINCENT DE PAUL ST JOSEPH'S/ST. PATRICK'S CONFERENCE- PORT ELGIN, ON", "designationCode": "C", "categoryCode": "09", "address": "920 WELLINGTON ST.            PO BOX 429", "city": "PORT ELGIN", "province": "ON", "country": "CA", "postalCode": "N0H2C0", "twitter": "None", "instagram": "None", "facebook": "None", "youtube": "None", "website": "None", "summary": "None", "logo": "None", "latitude": 44.44164266002067, "longitude": -81.37981840553381}, "119155356RR0001": {"name": "SOCIETY OF ST. VINCENT DE PAUL ST. ANDREWS CHURCH CONFERENCE", "designationCode": "C", "categoryCode": "09", "address": "1 FALLONS LANE", "city": "LONDON", "province": "ON", "country": "CA", "postalCode": "N5V5C1", "twitter": "None", "instagram": "None", "facebook": "None", "youtube": "None", "website": "None", "summary": "None", "logo": "None", "latitude": 43.024437587829745, "longitude": -81.2019511529802}, "119155380RR0001": {"name": "SOCIETY OF ST. VINCENT DE PAUL ST. ANTHONY'S CONFERENCE VANCOUVER, BC", "designationCode": "C", "categoryCode": "09", "address": "#304 - 1445 WEST 72ND AVENUE", "city": "VANCOUVER", "province": "BC", "country": "CA", "postalCode": "V6P3C7", "twitter": "None", "instagram": "None", "facebook": "None", "youtube": "None", "website": "None", "summary": "None", "logo": "None", "latitude": 49.20584252207278, "longitude": -123.13886269025909}, "132410671RR0405": {"name": "SOCIETY OF ST. VINCENT DE PAUL ST. FRANCIS OF ASSISI PRINCE ALBERT", "designationCode": "C", "categoryCode": "09", "address": "160 - 12TH STREET EAST", "city": "PRINCE ALBERT", "province": "SK", "country": "CA", "postalCode": "S6V1B6", "twitter": "None", "instagram": "None", "facebook": "None", "youtube": "None", "website": "None", "summary": "None", "logo": "None", "latitude": 53.20216948600597, "longitude": -105.7494915}, "132410671RR0461": {"name": "SOCIETY OF ST. VINCENT DE PAUL- HOLY TRINITY / OUR LADY OF FATIMA CONFERENCE", "designationCode": "C", "categoryCode": "09", "address": "1525 - 45TH STREET S.E.", "city": "CALGARY", "province": "AB", "country": "CA", "postalCode": "T2A1N3", "twitter": "None", "instagram": "None", "facebook": "None", "youtube": "None", "website": "None", "summary": "None", "logo": "None", "latitude": 51.040171341104525, "longitude": -113.968606619222}, "132410671RR0426": {"name": "SOCIETY OF ST. VINCENT DE PAUL-ST. JOHN'S CONFERENCE GUELPH ON", "designationCode": "C", "categoryCode": "09", "address": "45 VICTORIA ROAD NORTH", "city": "GUELPH", "province": "ON", "country": "CA", "postalCode": "N1E5G9", "twitter": "None", "instagram": "None", "facebook": "None", "youtube": "None", "website": "None", "summary": "None", "logo": "None", "latitude": 43.55888230088277, "longitude": -80.23355564928754}, "874514920RR0001": {"name": "SOCIETY OF ST. VINCENT DE PAUL, HURONIA CENTRAL COUNCIL", "designationCode": "C", "categoryCode": "46", "address": "27 WALLWINS WAY", "city": "BARRIE", "province": "ON", "country": "CA", "postalCode": "L4N8M1", "twitter": "None", "instagram": "None", "facebook": "None", "youtube": "None", "website": "None", "summary": "None", "logo": "None", "latitude": 44.37164641271853, "longitude": -79.66584776380634}, "119155190RR0001": {"name": "SOCIETY OF ST. VINCENT DE PAUL, MARY, QUEEN OF THE WORLD CONFERENCE", "designationCode": "C", "categoryCode": "38", "address": "P. O. BOX 370", "city": "MOUNT PEARL", "province": "NL", "country": "CA", "postalCode": "A1N2C4", "twitter": "None", "instagram": "None", "facebook": "None", "youtube": "None", "website": "None", "summary": "None", "logo": "None", "latitude": 47.51892600000005, "longitude": -52.81489249999993}, "132410671RR0458": {"name": "SOCIETY OF ST. VINCENT DE PAUL, ST MARY'S CONFERENCE LINDSAY", "designationCode": "C", "categoryCode": "09", "address": "40 RUSSELL STREET EAST", "city": "LINDSAY", "province": "ON", "country": "CA", "postalCode": "K9V2A4", "twitter": "None", "instagram": "None", "facebook": "None", "youtube": "None", "website": "None", "summary": "None", "logo": "None"}, "132410671RR0447": {"name": "SOCIETY OF ST. VINCENT DE PAUL, ST. AIDAN CONFERENCE", "designationCode": "C", "categoryCode": "09", "address": "3501 FINCH AVE. EAST", "city": "SCARBOROUGH", "province": "ON", "country": "CA", "postalCode": "M1W2S2", "twitter": "None", "instagram": "None", "facebook": "None", "youtube": "None", "website": "None", "summary": "None", "logo": "None", "latitude": 43.797928823158024, "longitude": -79.31043690616899}, "132410671RR0176": {"name": "SOCIETY OF ST. VINCENT DE PAUL, ST. ANNE'S CONFERENCE, TECUMSEH, ONTARIO", "designationCode": "C", "categoryCode": "09", "address": "12233 TECUMSEH RD.", "city": "TECUMSEH", "province": "ON", "country": "CA", "postalCode": "N8N1M3", "twitter": "None", "instagram": "None", "facebook": "None", "youtube": "None", "website": "None", "summary": "None", "logo": "None", "latitude": 42.31171573292884, "longitude": -82.88691498749607}, "889501516RR0001": {"name": "SOCIETY OF ST. VINCENT DE PAUL, ST. FRANCIS, ST. JAMES, SACRED HEART CONFERENCE", "designationCode": "C", "categoryCode": "09", "address": "205 COLEMAN STREET", "city": "BELLEVILLE", "province": "ON", "country": "CA", "postalCode": "K8P3H8", "twitter": "None", "instagram": "None", "facebook": "None", "youtube": "None", "website": "None", "summary": "None", "logo": "None", "latitude": 44.16353085290551, "longitude": -77.38619960724812}, "132410671RR0007": {"name": "SOCIETY OF ST. VINCENT DE PAUL, ST. JOHN THE BAPTIST CONFERENCE KITCHENER", "designationCode": "C", "categoryCode": "09", "address": "85 STRANGE ST", "city": "KITCHENER", "province": "ON", "country": "CA", "postalCode": "N2G1R4", "twitter": "None", "instagram": "None", "facebook": "None", "youtube": "None", "website": "None", "summary": "None", "logo": "None", "latitude": 43.44862128169553, "longitude": -80.50836635876253}, "119155505RR0001": {"name": "SOCIETY OF ST. VINCENT DE PAUL, ST. JOSEPH THE WORKER CONFERENCE, RICHMOND B.C.", "designationCode": "C", "categoryCode": "09", "address": "4451 WILLIAMS ROAD", "city": "RICHMOND", "province": "BC", "country": "CA", "postalCode": "V7E1J7", "twitter": "None", "instagram": "None", "facebook": "None", "youtube": "None", "website": "None", "summary": "None", "logo": "None", "latitude": 49.14117212823991, "longitude": -123.17559046540576}, "893385765RR0001": {"name": "SOCIETY OF ST. VINCENT DE PAUL, ST. MICHAEL'S PARISH CONFERENCE", "designationCode": "C", "categoryCode": "09", "address": "1920 WILDWOOD AVE", "city": "BRIGHTS GROVE", "province": "ON", "country": "CA", "postalCode": "N0N1C0", "twitter": "None", "instagram": "None", "facebook": "None", "youtube": "None", "website": "None", "summary": "None", "logo": "None", "latitude": 43.02743968905208, "longitude": -82.2629183932616}, "132410671RR0121": {"name": "SOCIETY OF ST. VINCENT DE PAUL, ST. PAUL'S PARISH CONFERENCE, DARTMOUTH", "designationCode": "C", "categoryCode": "09", "address": "199 WINDMILL RD", "city": "DARTMOUTH", "province": "NS", "country": "CA", "postalCode": "B3A1G1", "twitter": "None", "instagram": "None", "facebook": "None", "youtube": "None", "website": "None", "summary": "None", "logo": "None", "latitude": 44.67128795141106, "longitude": -63.58575117958328}, "119155133RR0002": {"name": "SOCIETY OF ST. VINCENT DE PAUL, TORONTO CENTRAL COUNCIL", "designationCode": "C", "categoryCode": "09", "address": "240 CHURCH ST", "city": "TORONTO", "province": "ON", "country": "CA", "postalCode": "M5B1Z2", "twitter": "None", "instagram": "None", "facebook": "None", "youtube": "None", "website": "None", "summary": "None", "logo": "None", "latitude": 43.65587032638932, "longitude": -79.37690597810011}, "132410671RR0357": {"name": "SOCIETY OF ST.VINCENT DE PAUL- SAINT LEONARD CONFERENCE", "designationCode": "C", "categoryCode": "09", "address": "11 - 557 THOMPSON STREET", "city": "NEW WATERFORD", "province": "NS", "country": "CA", "postalCode": "B1H4C2", "twitter": "None", "instagram": "None", "facebook": "None", "youtube": "None", "website": "None", "summary": "None", "logo": "None", "latitude": 46.243536468741205, "longitude": -60.08197942663426}, "132410671RR0371": {"name": "SOCIETY OF ST.VINCENT DE PAUL-CALGARY SOUTH PARTICULAR COUNCIL", "designationCode": "C", "categoryCode": "09", "address": "308-84 AVENUE SE", "city": "CALGARY", "province": "AB", "country": "CA", "postalCode": "T2H1N4", "twitter": "None", "instagram": "None", "facebook": "None", "youtube": "None", "website": "None", "summary": "None", "logo": "None", "latitude": 50.977835913071786, "longitude": -114.06387751268778}, "132410671RR0287": {"name": "SOCIETY OF ST-VINCENT DE PAUL - ST-THOMAS MORE CONFERENCE", "designationCode": "C", "categoryCode": "09", "address": "1 DORMINGTON DRIVE", "city": "SCARBOROUGH", "province": "ON", "country": "CA", "postalCode": "M1G3M9", "twitter": "None", "instagram": "None", "facebook": "None", "youtube": "None", "website": "None", "summary": "None", "logo": "None", "latitude": 43.77786013933287, "longitude": -79.22664584843345}, "132410671RR0065": {"name": "SOCIETY OF ST-VINCENT DE PAUL ST FRANCIS DE SALES CONFERENCE", "designationCode": "C", "categoryCode": "09", "address": "68 STRICKLAND DRIVE", "city": "AJAX", "province": "ON", "country": "CA", "postalCode": "L1T4A3", "twitter": "None", "instagram": "None", "facebook": "None", "youtube": "None", "website": "None", "summary": "None", "logo": "None", "latitude": 43.86824579713185, "longitude": -79.06335215557728}, "132410671RR0067": {"name": "SOCIETY OF ST-VINCENT DE PAUL-HOLY CROSS CONFERENCE", "designationCode": "C", "categoryCode": "09", "address": "291 COSBURN AVE", "city": "TORONTO", "province": "ON", "country": "CA", "postalCode": "M4J2S3", "twitter": "None", "instagram": "None", "facebook": "None", "youtube": "None", "website": "None", "summary": "None", "logo": "None", "latitude": 43.691270900340605, "longitude": -79.34101490285076}, "132410671RR0168": {"name": "SOCIETY OF ST-VINCENT DE PAUL-TORONTO EAST PARTICULAR COUNCIL", "designationCode": "C", "categoryCode": "09", "address": "337 SPRINGDALE BLVD", "city": "EAST YORK", "province": "ON", "country": "CA", "postalCode": "M4C2A3", "twitter": "None", "instagram": "None", "facebook": "None", "youtube": "None", "website": "None", "summary": "None", "logo": "None", "latitude": 43.689438860378665, "longitude": -79.31534397945644}, "132410671RR0031": {"name": "SOCIETY OF ST-VINCENT DE PAUL, ST JOSEPH CONFERENCE, STREETSVILLE", "designationCode": "C", "categoryCode": "09", "address": "5440 DURIE RD", "city": "MISSISSAUGA", "province": "ON", "country": "CA", "postalCode": "L5M2J5", "twitter": "None", "instagram": "None", "facebook": "None", "youtube": "None", "website": "None", "summary": "None", "logo": "None", "latitude": 43.58129700940641, "longitude": -79.70216528939888}, "129341723RR0001": {"name": "SOCIETY OF THE AUXILIARY TO ST. MICHAEL'S HEALTH CENTRE", "designationCode": "C", "categoryCode": "13", "address": "1400 9 AVENUE SOUTH", "city": "LETHBRIDGE", "province": "AB", "country": "CA", "postalCode": "T1J4V5", "twitter": "None", "instagram": "None", "facebook": "None", "youtube": "None", "website": "None", "summary": "None", "logo": "None", "latitude": 49.68662154227055, "longitude": -112.822461}, "869089276RR0001": {"name": "SOCIETY OF THE BETHEL REFORMED CHURCH OF ABBOTSFORD", "designationCode": "C", "categoryCode": "39", "address": "3260 GLADWIN ROAD", "city": "ABBOTSFORD", "province": "BC", "country": "CA", "postalCode": "V2S7B4", "twitter": "None", "instagram": "None", "facebook": "None", "youtube": "None", "website": "None", "summary": "None", "logo": "None", "latitude": 49.06142117044766, "longitude": -122.31599843727987}, "887329431RR0001": {"name": "SOCIETY OF THE BLESSED TRINITY", "designationCode": "C", "categoryCode": "20", "address": "RR #1", "city": "PORT HOOD", "province": "NS", "country": "CA", "postalCode": "B0E2W0", "twitter": "None", "instagram": "None", "facebook": "None", "youtube": "None", "website": "None", "summary": "None", "logo": "None", "latitude": 46.00703400000006, "longitude": -61.52639299999993}, "119155646RR0001": {"name": "SOCIETY OF THE CATHOLIC APOSTOLATE", "designationCode": "C", "categoryCode": "49", "address": "608 WILLOW BROOK DR. S.E.", "city": "CALGARY", "province": "AB", "country": "CA", "postalCode": "T2J1N8", "twitter": "None", "instagram": "None", "facebook": "None", "youtube": "None", "website": "None", "summary": "None", "logo": "None", "latitude": 50.95853350375091, "longitude": -114.05279258381903}, "887765287RR0001": {"name": "SOCIETY OF THE FRIENDS OF THE PINCHER CREEK LIBRARY", "designationCode": "C", "categoryCode": "50", "address": "P O BOX 913", "city": "PINCHER CREEK", "province": "AB", "country": "CA", "postalCode": "T0K1W0", "twitter": "None", "instagram": "None", "facebook": "None", "youtube": "None", "website": "None", "summary": "None", "logo": "None", "latitude": 49.48739000000006, "longitude": -113.9366800732874}, "871215117RR0001": {"name": "SOCIETY OF THE LETHBRIDGE COMMUNITY NETWORK", "designationCode": "C", "categoryCode": "59", "address": "200 427 5 ST S", "city": "LETHBRIDGE", "province": "AB", "country": "CA", "postalCode": "T1J2B6", "twitter": "None", "instagram": "None", "facebook": "None", "youtube": "None", "website": "None", "summary": "None", "logo": "None", "latitude": 49.693869638887165, "longitude": -112.84005130135061}, "119155661RR0001": {"name": "SOCIETY OF THE SACRED HEART (CANADA)-SOCI\u00c9T\u00c9 DU SACR\u00c9-COEUR (CANADA)", "designationCode": "C", "categoryCode": "46", "address": "PO BOX 867 STN MAIN", "city": "ROCKLAND", "province": "ON", "country": "CA", "postalCode": "K4K1L5", "twitter": "None", "instagram": "None", "facebook": "None", "youtube": "None", "website": "None", "summary": "None", "logo": "None", "latitude": 45.54602700000005, "longitude": -75.29304049999993}, "132410671RR0022": {"name": "SOCIETY ST VINCENT DE PAUL, ST AGNES CONFERENCE, WATERLOO", "designationCode": "C", "categoryCode": "09", "address": "75 BLUEVALE ST N", "city": "WATERLOO", "province": "ON", "country": "CA", "postalCode": "N2J3R7", "twitter": "None", "instagram": "None", "facebook": "None", "youtube": "None", "website": "None", "summary": "None", "logo": "None", "latitude": 43.4755396078537, "longitude": -80.50062367251415}, "899705016RR0001": {"name": "SOCIETY 2000, INC.", "designationCode": "C", "categoryCode": "59", "address": "P.O. BOX 4                    287 TACHE AVENUE", "city": "WINNIPEG", "province": "MB", "country": "CA", "postalCode": "R2H3B8", "twitter": "None", "instagram": "None", "facebook": "None", "youtube": "None", "website": "None", "summary": "None", "logo": "None", "latitude": 49.88083228642739, "longitude": -97.12339376369077}, "892667163RR0001": {"name": "SOCRATES HELLENIC SCHOOL OF MISSISSAUGA AND DISTRICT", "designationCode": "C", "categoryCode": "20", "address": "PO BOX 77231 RPO COURTNEY PARK", "city": "MISSISSAUGA", "province": "ON", "country": "CA", "postalCode": "L5T2P4", "twitter": "None", "instagram": "None", "facebook": "None", "youtube": "None", "website": "None", "summary": "None", "logo": "None", "latitude": 43.65422542611203, "longitude": -79.67147617870677}, "879079119RR0001": {"name": "SODEXO FOUNDATION / FONDATION SODEXO", "designationCode": "B", "categoryCode": "09", "address": "5420 NORTH SERVICE RD", "city": "BURLINGTON", "province": "ON", "country": "CA", "postalCode": "L7L6C7", "twitter": "None", "instagram": "None", "facebook": "None", "youtube": "None", "website": "None", "summary": "None", "logo": "None", "latitude": 43.39458142971273, "longitude": -79.75970659218717}, "888012036RR0001": {"name": "SOEURS DE CHARITE DE SAINTE-MARIE", "designationCode": "C", "categoryCode": "38", "address": "3530 EST, BOUL. GOUIN", "city": "MONTREAL NORD", "province": "QC", "country": "CA", "postalCode": "H1H1B7", "twitter": "None", "instagram": "None", "facebook": "None", "youtube": "None", "website": "None", "summary": "None", "logo": "None", "latitude": 45.591237086012065, "longitude": -73.64970919366422}, "107508772RR0001": {"name": "SOEURS DE L'INSTITUT JEANNE D'ARC", "designationCode": "C", "categoryCode": "46", "address": "424 MONTREAL RD", "city": "OTTAWA", "province": "ON", "country": "CA", "postalCode": "K1K0V3", "twitter": "None", "instagram": "None", "facebook": "None", "youtube": "None", "website": "None", "summary": "None", "logo": "None", "latitude": 45.44016627168355, "longitude": -75.64961242864578}, "858534373RR0001": {"name": "SOEURS DE LA CHARIT\u00c9 DE SAINT-LOUIS DU QU\u00c9BEC", "designationCode": "C", "categoryCode": "09", "address": "4025, AV. DES CHUTES", "city": "LEVIS", "province": "QC", "country": "CA", "postalCode": "G6X1B8", "twitter": "None", "instagram": "None", "facebook": "None", "youtube": "None", "website": "None", "summary": "None", "logo": "None", "latitude": 46.717050593946574, "longitude": -71.27615534635596}, "119017598RR0001": {"name": "SOEURS DE LA CHARITE DE NOTRE DAME D'EVRON", "designationCode": "C", "categoryCode": "46", "address": "8537 - 89TH ST NW", "city": "EDMONTON", "province": "AB", "country": "CA", "postalCode": "T6C3K4", "twitter": "None", "instagram": "None", "facebook": "None", "youtube": "None", "website": "None", "summary": "None", "logo": "None", "latitude": 53.52214533527612, "longitude": -113.46384678902444}, "107621203RR0001": {"name": "SOEURS DE LA CHARITE DE SAINT-HYACINTHE", "designationCode": "C", "categoryCode": "46", "address": "16470, BOURDAGES SUD", "city": "ST-HYACINTHE", "province": "QC", "country": "CA", "postalCode": "J2T4J8", "twitter": "None", "instagram": "None", "facebook": "None", "youtube": "None", "website": "None", "summary": "None", "logo": "None", "latitude": 45.616190349211905, "longitude": -72.9427241230025}, "866096084RR0001": {"name": "SOEURS DE LA CHARITE DE SAINT-LOUIS/SISTERS OF CHARITY OF SAINT LOUIS", "designationCode": "C", "categoryCode": "46", "address": "ECONOME GENERALE              5169 AVENUE MACDONALD", "city": "MONTREAL", "province": "QC", "country": "CA", "postalCode": "H3X2V9", "twitter": "None", "instagram": "None", "facebook": "None", "youtube": "None", "website": "None", "summary": "None", "logo": "None", "latitude": 45.481130275895815, "longitude": -73.63353955285945}, "129988002RR0001": {"name": "SOEURS DE LA PRESENTATION DE MARIE DU QUEBEC", "designationCode": "C", "categoryCode": "46", "address": "3600 RUE BELANGER", "city": "MONTREAL", "province": "QC", "country": "CA", "postalCode": "H1X1B1", "twitter": "None", "instagram": "None", "facebook": "None", "youtube": "None", "website": "None", "summary": "None", "logo": "None", "latitude": 45.56027561835664, "longitude": -73.5913483305156}, "132537697RR0001": {"name": "SOEURS DE LA PROVIDENCE SISTERS OF PROVIDENCE HERMANAS DE LAPROVIDENCIA", "designationCode": "C", "categoryCode": "46", "address": "12055 RUE GRENET", "city": "MONTR\u00c9AL", "province": "QC", "country": "CA", "postalCode": "H4J2J5", "twitter": "None", "instagram": "None", "facebook": "None", "youtube": "None", "website": "None", "summary": "None", "logo": "None", "latitude": 45.528534048617615, "longitude": -73.71426693502242}, "861296580RR0001": {"name": "SOEURS DE LA PROVIDENCE, PROVINCE EMILIE-GAMELIN", "designationCode": "C", "categoryCode": "46", "address": "12227 RUE GRENET", "city": "MONTREAL", "province": "QC", "country": "CA", "postalCode": "H4J0A2", "twitter": "None", "instagram": "None", "facebook": "None", "youtube": "None", "website": "None", "summary": "None", "logo": "None", "latitude": 45.529911110796554, "longitude": -73.71643498493904}, "119155778RR0001": {"name": "SOEURS DE NOTRE-DAME DES DOULEURS (MONTREAL)", "designationCode": "C", "categoryCode": "46", "address": "6770 AVE HENRI-JULIEN", "city": "MONTREAL", "province": "QC", "country": "CA", "postalCode": "H2S2V4", "twitter": "None", "instagram": "None", "facebook": "None", "youtube": "None", "website": "None", "summary": "None", "logo": "None", "latitude": 45.53488177849287, "longitude": -73.6104941697442}, "119155786RR0001": {"name": "SOEURS DE NOTRE-DAME DU SOURIRE", "designationCode": "C", "categoryCode": "46", "address": "5655 RUE DE SALABERRY", "city": "MONTREAL", "province": "QC", "country": "CA", "postalCode": "H4J1J5", "twitter": "None", "instagram": "None", "facebook": "None", "youtube": "None", "website": "None", "summary": "None", "logo": "None", "latitude": 45.528873699753234, "longitude": -73.71145253699511}, "129260519RR0001": {"name": "SOEURS DE SAINT-PAUL-DE-CHARTRES", "designationCode": "C", "categoryCode": "46", "address": "253, RUE DU DOMAINE ST-PAUL", "city": "STE-ANNE DES MONTS", "province": "QC", "country": "CA", "postalCode": "G4V2G3", "twitter": "None", "instagram": "None", "facebook": "None", "youtube": "None", "website": "None", "summary": "None", "logo": "None", "latitude": 49.11740248765076, "longitude": -66.48007596932888}, "131081515RR0001": {"name": "SOEURS DE SAINTE-CROIX", "designationCode": "C", "categoryCode": "09", "address": "905 RUE BASILE-MOREAU", "city": "SAINT-LAURENT", "province": "QC", "country": "CA", "postalCode": "H4L4A1", "twitter": "None", "instagram": "None", "facebook": "None", "youtube": "None", "website": "None", "summary": "None", "logo": "None", "latitude": 45.51541700750182, "longitude": -73.67714713639002}, "119017796RR0001": {"name": "SOEURS DE SAINTE-CROIX - REGION DU QUEBEC", "designationCode": "C", "categoryCode": "46", "address": "850 BOUL COTE-VERTU", "city": "SAINT LAURENT", "province": "QC", "country": "CA", "postalCode": "H4L1Y4", "twitter": "None", "instagram": "None", "facebook": "None", "youtube": "None", "website": "None", "summary": "None", "logo": "None", "latitude": 45.51904283732494, "longitude": -73.6750227477635}, "119155844RR0001": {"name": "SOEURS DU SAUVEUR AND OR SISTERS OF THE SAVIOUR", "designationCode": "C", "categoryCode": "46", "address": "151 DESPINS STREET", "city": "WINNIPEG", "province": "MB", "country": "CA", "postalCode": "R2H0L7", "twitter": "None", "instagram": "None", "facebook": "None", "youtube": "None", "website": "None", "summary": "None", "logo": "None", "latitude": 49.88715546047076, "longitude": -97.12240419470248}, "119155851RR0001": {"name": "SOEURS FRANCISCAINES MISSIONNAIRES DE L'IMMACUL\u00c9E-CONCEPTION", "designationCode": "C", "categoryCode": "46", "address": "900, BOULEVARD COTE-VERTU", "city": "SAINT-LAURENT", "province": "QC", "country": "CA", "postalCode": "H4L4T9", "twitter": "None", "instagram": "None", "facebook": "None", "youtube": "None", "website": "None", "summary": "None", "logo": "None", "latitude": 45.51667897916799, "longitude": -73.6746147693176}, "107992091RR0001": {"name": "SOEURS MISSIONNAIRES DE NOTRE-DAME DES ANGES", "designationCode": "C", "categoryCode": "46", "address": "323 RUE QUEEN", "city": "SHERBROOKE", "province": "QC", "country": "CA", "postalCode": "J1M1K8", "twitter": "None", "instagram": "None", "facebook": "None", "youtube": "None", "website": "None", "summary": "None", "logo": "None", "latitude": 45.37929236551455, "longitude": -71.86950585910832}, "131695082RR0001": {"name": "SOEURS MISSIONNAIRES DE NOTRE-DAME DES APOTRES (MONTREAL)", "designationCode": "C", "categoryCode": "46", "address": "10485 PLACE PRIEUR", "city": "MONTREAL", "province": "QC", "country": "CA", "postalCode": "H3L3L3", "twitter": "None", "instagram": "None", "facebook": "None", "youtube": "None", "website": "None", "summary": "None", "logo": "None", "latitude": 45.54144950346246, "longitude": -73.6724527041089}, "119017978RR0001": {"name": "SOEURS MISSIONNAIRES DU SAINT-ESPRIT-DISTRICT DU CANADA", "designationCode": "C", "categoryCode": "46", "address": "5655 RUE SALABERRY", "city": "MONTREAL", "province": "QC", "country": "CA", "postalCode": "H4J1J5", "twitter": "None", "instagram": "None", "facebook": "None", "youtube": "None", "website": "None", "summary": "None", "logo": "None", "latitude": 45.528873699753234, "longitude": -73.71145253699511}, "132527870RR0001": {"name": "SOFIA HOUSE INC", "designationCode": "C", "categoryCode": "09", "address": "BOX 37125", "city": "REGINA", "province": "SK", "country": "CA", "postalCode": "S4S7K4", "twitter": "None", "instagram": "None", "facebook": "None", "youtube": "None", "website": "None", "summary": "None", "logo": "None", "latitude": 50.448246000000054, "longitude": -104.59517299999993}, "891609067RR0001": {"name": "SOGN FAMILY FOUNDATION INCORPORATED", "designationCode": "B", "categoryCode": "21", "address": "BOX 1508", "city": "SHAUNAVON", "province": "SK", "country": "CA", "postalCode": "S0N2M0", "twitter": "None", "instagram": "None", "facebook": "None", "youtube": "None", "website": "None", "summary": "None", "logo": "None", "latitude": 49.64645000000007, "longitude": -108.41961999999995}}