{"891634032RR0001": {"name": "LAKE MELVILLE MINISTERIAL ASSOCIATION INC", "designationCode": "C", "categoryCode": "47", "address": "PO BOX 1785                   STATION B", "city": "HAPPY VALLEY-GOOSE BAY", "province": "NL", "country": "CA", "postalCode": "A0P1E0", "twitter": "None", "instagram": "None", "facebook": "None", "youtube": "None", "website": "None", "summary": "None", "logo": "None", "latitude": 53.29581900000005, "longitude": -60.29593999999993}, "119002814RR0001": {"name": "LAKE NUTIMIK BAPTIST CAMP INC.", "designationCode": "C", "categoryCode": "49", "address": "PO BOX 35040 RPO HENDERSON", "city": "WINNIPEG", "province": "MB", "country": "CA", "postalCode": "R2K4J9", "twitter": "None", "instagram": "None", "facebook": "None", "youtube": "None", "website": "None", "summary": "None", "logo": "None", "latitude": 49.91757891330441, "longitude": -97.11332657224632}, "119002897RR0001": {"name": "LAKE O'HARA TRAILS CLUB", "designationCode": "C", "categoryCode": "56", "address": "BOX 98", "city": "LAKE LOUISE", "province": "AB", "country": "CA", "postalCode": "T0L1E0", "twitter": "None", "instagram": "None", "facebook": "None", "youtube": "None", "website": "None", "summary": "None", "logo": "None", "latitude": 51.418323000000015, "longitude": -116.19129149999999}, "130337777RR0002": {"name": "LAKE OF BAYS ANGLICAN PARISH", "designationCode": "C", "categoryCode": "30", "address": "RR1", "city": "BAYSVILLE", "province": "ON", "country": "CA", "postalCode": "P0B1A0", "twitter": "None", "instagram": "None", "facebook": "None", "youtube": "None", "website": "None", "summary": "None", "logo": "None", "latitude": 45.150649922985714, "longitude": -79.11215748074642}, "107591307RR0001": {"name": "LAKE OF BAYS HERITAGE FOUNDATION", "designationCode": "C", "categoryCode": "52", "address": "1461 DURHAM ST", "city": "OAKVILLE", "province": "ON", "country": "CA", "postalCode": "L6J2P4", "twitter": "None", "instagram": "None", "facebook": "None", "youtube": "None", "website": "None", "summary": "None", "logo": "None", "latitude": 43.473861805730195, "longitude": -79.65669395588311}, "864297221RR0001": {"name": "LAKE OF BAYS MARINE MUSEUM & NAVIGATION SOCIETY", "designationCode": "C", "categoryCode": "50", "address": "PO BOX 158", "city": "DORSET", "province": "ON", "country": "CA", "postalCode": "P0A1E0", "twitter": "None", "instagram": "None", "facebook": "None", "youtube": "None", "website": "None", "summary": "None", "logo": "None", "latitude": 45.23997000000003, "longitude": -78.89584999999994}, "107591315RR0001": {"name": "LAKE OF BAYS MISSION CHURCH", "designationCode": "C", "categoryCode": "39", "address": "1009 SEA BREEZE RD", "city": "DWIGHT", "province": "ON", "country": "CA", "postalCode": "P0A1H0", "twitter": "None", "instagram": "None", "facebook": "None", "youtube": "None", "website": "None", "summary": "None", "logo": "None", "latitude": 45.258990000000054, "longitude": -79.05489649999993}, "119002855RR0001": {"name": "LAKE OF BAYS PASTORAL CHARGE", "designationCode": "C", "categoryCode": "44", "address": "PO BOX 213", "city": "DORSET", "province": "ON", "country": "CA", "postalCode": "P0A1E0", "twitter": "None", "instagram": "None", "facebook": "None", "youtube": "None", "website": "None", "summary": "None", "logo": "None", "latitude": 45.23997000000003, "longitude": -78.89584999999994}, "898955513RR0001": {"name": "LAKE OF THE PRAIRIES CONSERVATION DISTRICT", "designationCode": "C", "categoryCode": "52", "address": "BOX 31", "city": "INGLIS", "province": "MB", "country": "CA", "postalCode": "R0J0X0", "twitter": "None", "instagram": "None", "facebook": "None", "youtube": "None", "website": "None", "summary": "None", "logo": "None", "latitude": 50.94838000000004, "longitude": -101.25137999999998}, "107591331RR0001": {"name": "LAKE OF THE WOODS ADULT LEARNING LINE", "designationCode": "C", "categoryCode": "11", "address": "SUITE 203-115 CHIPMAN STREET", "city": "KENORA", "province": "ON", "country": "CA", "postalCode": "P9N1V7", "twitter": "None", "instagram": "None", "facebook": "None", "youtube": "None", "website": "None", "summary": "None", "logo": "None", "latitude": 49.76597967193724, "longitude": -94.48835237717131}, "867960353RR0001": {"name": "LAKE OF THE WOODS CONCERT GROUP", "designationCode": "C", "categoryCode": "22", "address": "SITE 1 COMP 55 RR 1", "city": "KEEWATIN", "province": "ON", "country": "CA", "postalCode": "P0X1C0", "twitter": "None", "instagram": "None", "facebook": "None", "youtube": "None", "website": "None", "summary": "None", "logo": "None", "latitude": 49.75863000000005, "longitude": -94.54708249999993}, "107591372RR0001": {"name": "LAKE OF THE WOODS DISTRICT HOSPITAL", "designationCode": "C", "categoryCode": "10", "address": "21 SYLVAN ST W", "city": "KENORA", "province": "ON", "country": "CA", "postalCode": "P9N3W7", "twitter": "None", "instagram": "None", "facebook": "None", "youtube": "None", "website": "None", "summary": "None", "logo": "None", "latitude": 49.76749699417164, "longitude": -94.49931133236194}, "891167827RR0001": {"name": "LAKE OF THE WOODS DISTRICT HOSPITAL AUXILIARY", "designationCode": "C", "categoryCode": "19", "address": "21 SYLVAN STREET WEST", "city": "KENORA", "province": "ON", "country": "CA", "postalCode": "P9N3W7", "twitter": "None", "instagram": "None", "facebook": "None", "youtube": "None", "website": "None", "summary": "None", "logo": "None", "latitude": 49.76749699417164, "longitude": -94.49931133236194}, "137105243RR0001": {"name": "LAKE OF THE WOODS DISTRICT HOSPITAL FOUNDATION", "designationCode": "A", "categoryCode": "13", "address": "21 SYLVAN ST. W.", "city": "KENORA", "province": "ON", "country": "CA", "postalCode": "P9N3W7", "twitter": "None", "instagram": "None", "facebook": "None", "youtube": "None", "website": "None", "summary": "None", "logo": "None", "latitude": 49.76749699417164, "longitude": -94.49931133236194}, "119002871RR0001": {"name": "LAKE OF THE WOODS HISTORICAL SOCIETY", "designationCode": "C", "categoryCode": "50", "address": "P.O.BOX 720                   1116 OTTAWA STREET", "city": "KEEWATIN", "province": "ON", "country": "CA", "postalCode": "P0X1C0", "twitter": "None", "instagram": "None", "facebook": "None", "youtube": "None", "website": "None", "summary": "None", "logo": "None", "latitude": 49.76114951096429, "longitude": -94.55861177699232}, "119002889RR0001": {"name": "LAKE OF THE WOODS MUSEUM", "designationCode": "C", "categoryCode": "50", "address": "PO BOX 497", "city": "KENORA", "province": "ON", "country": "CA", "postalCode": "P9N3X5", "twitter": "None", "instagram": "None", "facebook": "None", "youtube": "None", "website": "None", "summary": "None", "logo": "None", "latitude": 49.77125700000006, "longitude": -94.48912249999994}, "890532781RR0001": {"name": "LAKE OF THE WOODS RAILROADERS MUSEUM", "designationCode": "C", "categoryCode": "50", "address": "BOX 832", "city": "KENORA", "province": "ON", "country": "CA", "postalCode": "P9N4B5", "twitter": "None", "instagram": "None", "facebook": "None", "youtube": "None", "website": "None", "summary": "None", "logo": "None", "latitude": 49.77125700000006, "longitude": -94.48912249999994}, "899770358RR0001": {"name": "LAKE OF THE WOODS SEARCH AND RESCUE INC.", "designationCode": "C", "categoryCode": "59", "address": "PO BOX 384", "city": "KENORA", "province": "ON", "country": "CA", "postalCode": "P9N3X4", "twitter": "None", "instagram": "None", "facebook": "None", "youtube": "None", "website": "None", "summary": "None", "logo": "None", "latitude": 49.77125700000006, "longitude": -94.48912249999994}, "841606346RR0001": {"name": "LAKE OF THE WOODS WATER SUSTAINABILITY FOUNDATION", "designationCode": "C", "categoryCode": "52", "address": "214 MAIN STREET SOUTH", "city": "KENORA", "province": "ON", "country": "CA", "postalCode": "P9N1T2", "twitter": "None", "instagram": "None", "facebook": "None", "youtube": "None", "website": "None", "summary": "None", "logo": "None", "latitude": 49.766036657510504, "longitude": -94.49121174522469}, "890974413RR0001": {"name": "LAKE OLIVA CEMETRY", "designationCode": "C", "categoryCode": "59", "address": "BOX 246", "city": "VIKING", "province": "AB", "country": "CA", "postalCode": "T0B4N0", "twitter": "None", "instagram": "None", "facebook": "None", "youtube": "None", "website": "None", "summary": "None", "logo": "None", "latitude": 53.10014000000007, "longitude": -111.76843999999994}, "119002905RR0001": {"name": "LAKE PARK BAPTIST CHURCH INC.", "designationCode": "C", "categoryCode": "31", "address": "RR #1", "city": "BIRCH HILLS", "province": "SK", "country": "CA", "postalCode": "S0J0G0", "twitter": "None", "instagram": "None", "facebook": "None", "youtube": "None", "website": "None", "summary": "None", "logo": "None", "latitude": 52.984162695515, "longitude": -105.43592784775751}, "119002921RR0001": {"name": "LAKE PARK ZION LUTHERAN CHURCH", "designationCode": "C", "categoryCode": "32", "address": "RR#1", "city": "BIRCH HILLS", "province": "SK", "country": "CA", "postalCode": "S0J0G0", "twitter": "None", "instagram": "None", "facebook": "None", "youtube": "None", "website": "None", "summary": "None", "logo": "None", "latitude": 56.325968466910076, "longitude": -103.2432009425047}, "888532793RR0001": {"name": "LAKE PAUL & LAKE GEORGE COMMUNITY CLUB", "designationCode": "C", "categoryCode": "56", "address": "3020 AYLESFORD RD", "city": "AYLESFORD", "province": "NS", "country": "CA", "postalCode": "B0P1C0", "twitter": "None", "instagram": "None", "facebook": "None", "youtube": "None", "website": "None", "summary": "None", "logo": "None", "latitude": 44.852124289485815, "longitude": -64.6768844976054}, "133080531RR0001": {"name": "LAKE RIDGE COMMUNITY SUPPORT SERVICES", "designationCode": "C", "categoryCode": "09", "address": "900 HOPKINS ST.               UNIT 8", "city": "WHITBY", "province": "ON", "country": "CA", "postalCode": "L1H1P9", "twitter": "None", "instagram": "None", "facebook": "None", "youtube": "None", "website": "None", "summary": "None", "logo": "None", "latitude": 43.875229885336985, "longitude": -78.91943569856898}, "119002954RR0001": {"name": "LAKE SCUGOG HISTORICAL SOCIETY", "designationCode": "C", "categoryCode": "52", "address": "32 PERRYVIEW DR.", "city": "PORT PERRY", "province": "ON", "country": "CA", "postalCode": "L9L1T5", "twitter": "None", "instagram": "None", "facebook": "None", "youtube": "None", "website": "None", "summary": "None", "logo": "None", "latitude": 44.08930982347515, "longitude": -78.9441028615325}, "119002970RR0001": {"name": "LAKE SHEBANDOWAN FIRE PROTECTION TEAM", "designationCode": "C", "categoryCode": "59", "address": "PO BOX 52", "city": "SHEBANDOWAN", "province": "ON", "country": "CA", "postalCode": "P0T2T0", "twitter": "None", "instagram": "None", "facebook": "None", "youtube": "None", "website": "None", "summary": "None", "logo": "None", "latitude": 48.62350847430792, "longitude": -90.05639304276039}, "119003309RR0001": {"name": "LAKE SIMCOE REGION CONSERVATION AUTHORITY", "designationCode": "C", "categoryCode": "59", "address": "120 BAYVIEW PKY", "city": "NEWMARKET", "province": "ON", "country": "CA", "postalCode": "L3Y3W3", "twitter": "None", "instagram": "None", "facebook": "None", "youtube": "None", "website": "None", "summary": "None", "logo": "None", "latitude": 44.06414558283807, "longitude": -79.4567889057067}, "119003317RR0001": {"name": "LAKE SIMCOE REGION CONSERVATION FOUNDATION", "designationCode": "A", "categoryCode": "53", "address": "120 BAYVIEW PKY", "city": "NEWMARKET", "province": "ON", "country": "CA", "postalCode": "L3Y3W3", "twitter": "None", "instagram": "None", "facebook": "None", "youtube": "None", "website": "None", "summary": "None", "logo": "None", "latitude": 44.06414558283807, "longitude": -79.4567889057067}, "140784380RR0001": {"name": "LAKE ST PETER WORD OF LIFE OUTREACH, INC", "designationCode": "C", "categoryCode": "39", "address": "2016 HWY 127                  PO BOX 132", "city": "LAKE ST PETER", "province": "ON", "country": "CA", "postalCode": "K0L2K0", "twitter": "None", "instagram": "None", "facebook": "None", "youtube": "None", "website": "None", "summary": "None", "logo": "None", "latitude": 45.30741331914046, "longitude": -78.03751105774732}, "862494036RR0001": {"name": "LAKE SUPERIOR CENTRE FOR REGENERATIVE MEDICINE INC.", "designationCode": "C", "categoryCode": "11", "address": "290 MUNRO STREET              SUITE 2000", "city": "THUNDER BAY", "province": "ON", "country": "CA", "postalCode": "P7A7T1", "twitter": "None", "instagram": "None", "facebook": "None", "youtube": "None", "website": "None", "summary": "None", "logo": "None", "latitude": 48.44881111492283, "longitude": -89.20550198441944}, "862724275RR0001": {"name": "LAKE SUPERIOR WATERSHED CONSERVANCY", "designationCode": "C", "categoryCode": "52", "address": "285 WILSON ST .", "city": "SAULT ST MARIE", "province": "ON", "country": "CA", "postalCode": "P6B2K6", "twitter": "None", "instagram": "None", "facebook": "None", "youtube": "None", "website": "None", "summary": "None", "logo": "None", "latitude": 46.51808438773156, "longitude": -84.33146338516313}, "890152861RR0001": {"name": "LAKE VALLEY UNITED CHURCH", "designationCode": "C", "categoryCode": "44", "address": "PO BOX 103", "city": "CRAIK", "province": "SK", "country": "CA", "postalCode": "S0G0V0", "twitter": "None", "instagram": "None", "facebook": "None", "youtube": "None", "website": "None", "summary": "None", "logo": "None", "latitude": 51.047450000000026, "longitude": -105.82258999999999}, "119003382RR0001": {"name": "LAKE VAUGHAN VOLUNTEER FIRE DEPARTMENT", "designationCode": "C", "categoryCode": "59", "address": "PO BOX 176", "city": "TUSKET", "province": "NS", "country": "CA", "postalCode": "B0W3M0", "twitter": "None", "instagram": "None", "facebook": "None", "youtube": "None", "website": "None", "summary": "None", "logo": "None", "latitude": 43.92724200000005, "longitude": -65.89714399999993}, "879127405RR0001": {"name": "LAKE VERNON ENVIRONMENTAL ASSOCIATION", "designationCode": "C", "categoryCode": "52", "address": "291 HOODSTOWN RD", "city": "HUNTSVILLE", "province": "ON", "country": "CA", "postalCode": "P1H2J2", "twitter": "None", "instagram": "None", "facebook": "None", "youtube": "None", "website": "None", "summary": "None", "logo": "None", "latitude": 45.36271009827442, "longitude": -79.34477258110732}, "119003440RR0001": {"name": "LAKE VIEW CEMETERY", "designationCode": "C", "categoryCode": "59", "address": "P.O.BOX 1 9186 PEPPERELL ST.", "city": "ST.PETER'S", "province": "NS", "country": "CA", "postalCode": "B0E3B0", "twitter": "None", "instagram": "None", "facebook": "None", "youtube": "None", "website": "None", "summary": "None", "logo": "None", "latitude": 45.66290174277185, "longitude": -60.877668634138736}, "856117486RR0001": {"name": "LAKE VIEW CEMETERY ASSOCIATION", "designationCode": "C", "categoryCode": "59", "address": "60 EAST SIDE, P.O.BOX 7, MOD.3", "city": "GRAND RIVER", "province": "NS", "country": "CA", "postalCode": "B0E1M0", "twitter": "None", "instagram": "None", "facebook": "None", "youtube": "None", "website": "None", "summary": "None", "logo": "None", "latitude": 45.640536000000054, "longitude": -60.65998999999994}, "107592529RR0001": {"name": "LAKE WINDERMERE ALLIANCE CHURCH", "designationCode": "C", "categoryCode": "39", "address": "BOX 280", "city": "INVERMERE", "province": "BC", "country": "CA", "postalCode": "V0A1K0", "twitter": "None", "instagram": "None", "facebook": "None", "youtube": "None", "website": "None", "summary": "None", "logo": "None", "latitude": 50.50916700000006, "longitude": -116.03037049999993}, "856128970RR0001": {"name": "LAKE WINDERMERE DISTRICT LIONS FOUNDATION", "designationCode": "A", "categoryCode": "03", "address": "LIONS HALL 651 HWY 93/95      BOX 213", "city": "INVERMERE", "province": "BC", "country": "CA", "postalCode": "V0A1K0", "twitter": "None", "instagram": "None", "facebook": "None", "youtube": "None", "website": "None", "summary": "None", "logo": "None", "latitude": 50.510376017680734, "longitude": -115.99612808199504}, "830107272RR0001": {"name": "LAKE WINNIPEG FOUNDATION INC.", "designationCode": "C", "categoryCode": "55", "address": "300-207 FORT ST", "city": "WINNIPEG", "province": "MB", "country": "CA", "postalCode": "R3C1E2", "twitter": "None", "instagram": "None", "facebook": "None", "youtube": "None", "website": "None", "summary": "None", "logo": "None", "latitude": 49.8918426386404, "longitude": -97.1380482877837}, "119003739RR0001": {"name": "LAKE WINNIPEG MISSION CAMP SOCIETY (CAMP ARNES)", "designationCode": "C", "categoryCode": "56", "address": "PO BOX 28009                  RPO NORTH KILDONAN", "city": "WINNIPEG", "province": "MB", "country": "CA", "postalCode": "R2G4E9", "twitter": "None", "instagram": "None", "facebook": "None", "youtube": "None", "website": "None", "summary": "None", "logo": "None", "latitude": 49.94719606344961, "longitude": -97.09581701586241}, "119002434RR0001": {"name": "LAKECITY EMPLOYMENT SERVICES ASSOCIATION", "designationCode": "C", "categoryCode": "09", "address": "DIRECTOR                      386 WINDMILL ROAD", "city": "DARTMOUTH", "province": "NS", "country": "CA", "postalCode": "B3A1J5", "twitter": "None", "instagram": "None", "facebook": "None", "youtube": "None", "website": "None", "summary": "None", "logo": "None", "latitude": 44.68209538747176, "longitude": -63.59676057198938}, "128710191RR0001": {"name": "LAKEDELL AGRICULTURAL SOCIETY", "designationCode": "C", "categoryCode": "56", "address": "BOX 166 RR 2", "city": "WESTEROSE", "province": "AB", "country": "CA", "postalCode": "T0C2V0", "twitter": "None", "instagram": "None", "facebook": "None", "youtube": "None", "website": "None", "summary": "None", "logo": "None", "latitude": 52.95977000000005, "longitude": -114.02483999999998}, "864356688RR0001": {"name": "LAKEDELL AREA COMMUNITY LIBRARY SOCIETY", "designationCode": "C", "categoryCode": "50", "address": "603 -2ND AVENUE", "city": "MA-ME-O BEACH", "province": "AB", "country": "CA", "postalCode": "T0C1X0", "twitter": "None", "instagram": "None", "facebook": "None", "youtube": "None", "website": "None", "summary": "None", "logo": "None", "latitude": 52.972951504822625, "longitude": -113.9625780770494}, "892666819RR0001": {"name": "LAKEFIELD AND DISTRICT HORTICULTURAL SOCIETY", "designationCode": "C", "categoryCode": "56", "address": "P.O.BOX # 1390", "city": "LAKEFIELD", "province": "ON", "country": "CA", "postalCode": "K0L2H0", "twitter": "None", "instagram": "None", "facebook": "None", "youtube": "None", "website": "None", "summary": "None", "logo": "None", "latitude": 44.42679000000004, "longitude": -78.26996999999994}, "139094221RR0001": {"name": "LAKEFIELD ANIMAL WELFARE SOCIETY", "designationCode": "C", "categoryCode": "54", "address": "2887 COUNTY RD 29             PO BOX 9", "city": "LAKEFIELD", "province": "ON", "country": "CA", "postalCode": "K0L2H0", "twitter": "None", "instagram": "None", "facebook": "None", "youtube": "None", "website": "None", "summary": "None", "logo": "None", "latitude": 44.418829192946575, "longitude": -78.2850027282137}, "107590614RR0001": {"name": "LAKEFIELD BAPTIST CHURCH", "designationCode": "C", "categoryCode": "31", "address": "PO BOX 56", "city": "LAKEFIELD", "province": "ON", "country": "CA", "postalCode": "K0L2H0", "twitter": "None", "instagram": "None", "facebook": "None", "youtube": "None", "website": "None", "summary": "None", "logo": "None", "latitude": 44.42679000000004, "longitude": -78.26996999999994}, "107590630RR0001": {"name": "LAKEFIELD COLLEGE SCHOOL", "designationCode": "C", "categoryCode": "20", "address": "4391 COUNTY ROAD 29", "city": "LAKEFIELD", "province": "ON", "country": "CA", "postalCode": "K0L2H0", "twitter": "None", "instagram": "None", "facebook": "None", "youtube": "None", "website": "None", "summary": "None", "logo": "None", "latitude": 44.418829192946575, "longitude": -78.2850027282137}, "888787066RR0001": {"name": "LAKEFIELD COLLEGE SCHOOL FOUNDATION", "designationCode": "A", "categoryCode": "23", "address": "4391 COUNTY ROAD 29", "city": "LAKEFIELD", "province": "ON", "country": "CA", "postalCode": "K0L2H0", "twitter": "None", "instagram": "None", "facebook": "None", "youtube": "None", "website": "None", "summary": "None", "logo": "None", "latitude": 44.418829192946575, "longitude": -78.2850027282137}, "129892949RR0001": {"name": "LAKEFIELD UNITED CHURCH", "designationCode": "C", "categoryCode": "44", "address": "BOX 267", "city": "LAKEFIELD", "province": "ON", "country": "CA", "postalCode": "K0L2H0", "twitter": "None", "instagram": "None", "facebook": "None", "youtube": "None", "website": "None", "summary": "None", "logo": "None", "latitude": 44.42679000000004, "longitude": -78.26996999999994}, "888158847RR0001": {"name": "LAKEHEAD BAPTIST CHURCH", "designationCode": "C", "categoryCode": "31", "address": "1314 OLIVER RD.", "city": "THUNDER BAY", "province": "ON", "country": "CA", "postalCode": "P7G1K4", "twitter": "None", "instagram": "None", "facebook": "None", "youtube": "None", "website": "None", "summary": "None", "logo": "None", "latitude": 48.41883347547439, "longitude": -89.28825083097696}, "119002582RR0001": {"name": "LAKEHEAD CHORAL GROUP", "designationCode": "C", "categoryCode": "22", "address": "PO BOX 29086", "city": "THUNDER BAY", "province": "ON", "country": "CA", "postalCode": "P7B6P9", "twitter": "None", "instagram": "None", "facebook": "None", "youtube": "None", "website": "None", "summary": "None", "logo": "None", "latitude": 48.38168400000005, "longitude": -89.24550199999993}, "119002590RR0001": {"name": "LAKEHEAD CHRISTIAN SENIOR CITIZENS APARTMENTS, INC.", "designationCode": "C", "categoryCode": "01", "address": "51 WALKOVER ST.", "city": "THUNDER BAY", "province": "ON", "country": "CA", "postalCode": "P7B1L1", "twitter": "None", "instagram": "None", "facebook": "None", "youtube": "None", "website": "None", "summary": "None", "logo": "None", "latitude": 48.445152646084885, "longitude": -89.25002383189965}, "892171042RR0001": {"name": "LAKEHEAD CONSERVATION FOUNDATION", "designationCode": "A", "categoryCode": "53", "address": "BOX 10147-130 CONSERVATION RD", "city": "THUNDER BAY", "province": "ON", "country": "CA", "postalCode": "P7B6T6", "twitter": "None", "instagram": "None", "facebook": "None", "youtube": "None", "website": "None", "summary": "None", "logo": "None", "latitude": 48.42096818468026, "longitude": -89.27677379276186}, "107590721RR0004": {"name": "LAKEHEAD DISTRICT SCHOOL BOARD", "designationCode": "C", "categoryCode": "20", "address": "2135 SILLS ST", "city": "THUNDER BAY", "province": "ON", "country": "CA", "postalCode": "P7E5T2", "twitter": "None", "instagram": "None", "facebook": "None", "youtube": "None", "website": "None", "summary": "None", "logo": "None", "latitude": 48.38171646047076, "longitude": -89.26973991618097}, "890525181RR0001": {"name": "LAKEHEAD DISTRICT SCHOOL BOARD EMPLOYEES CHARITY TRUST FUND", "designationCode": "C", "categoryCode": "75", "address": "2135 SILLS ST", "city": "THUNDER BAY", "province": "ON", "country": "CA", "postalCode": "P7E5T2", "twitter": "None", "instagram": "None", "facebook": "None", "youtube": "None", "website": "None", "summary": "None", "logo": "None", "latitude": 48.38171646047076, "longitude": -89.26973991618097}, "119002616RR0001": {"name": "LAKEHEAD FESTIVAL OF MUSIC AND THE ARTS", "designationCode": "C", "categoryCode": "22", "address": "227 CARIBOU CRESCENT", "city": "THUNDER BAY", "province": "ON", "country": "CA", "postalCode": "P7C5Z4", "twitter": "None", "instagram": "None", "facebook": "None", "youtube": "None", "website": "None", "summary": "None", "logo": "None", "latitude": 48.38705633360268, "longitude": -89.30915468125673}, "107590804RR0001": {"name": "LAKEHEAD REGION CONSERVATION AUTHORITY", "designationCode": "C", "categoryCode": "52", "address": "PO BOX 10427                  130 CONSERVATION RD", "city": "THUNDER BAY", "province": "ON", "country": "CA", "postalCode": "P7B6T8", "twitter": "None", "instagram": "None", "facebook": "None", "youtube": "None", "website": "None", "summary": "None", "logo": "None", "latitude": 48.42096818468026, "longitude": -89.27677379276186}, "119002640RR0001": {"name": "LAKEHEAD SEARCH & RESCUE UNIT", "designationCode": "C", "categoryCode": "59", "address": "24 RAY BLVD", "city": "THUNDER BAY", "province": "ON", "country": "CA", "postalCode": "P7B4C1", "twitter": "None", "instagram": "None", "facebook": "None", "youtube": "None", "website": "None", "summary": "None", "logo": "None", "latitude": 48.4391820066651, "longitude": -89.2405748488948}, "107590820RR0001": {"name": "LAKEHEAD SOCIAL PLANNING COUNCIL", "designationCode": "C", "categoryCode": "09", "address": "125 SYNDICATE AVE. S          VICTORIA MALL", "city": "THUNDER BAY", "province": "ON", "country": "CA", "postalCode": "P7E6H8", "twitter": "None", "instagram": "None", "facebook": "None", "youtube": "None", "website": "None", "summary": "None", "logo": "None"}, "119002665RR0001": {"name": "LAKEHEAD UNITARIAN FELLOWSHIP", "designationCode": "C", "categoryCode": "39", "address": "129 S. ALGOMA ST.", "city": "THUNDER BAY", "province": "ON", "country": "CA", "postalCode": "P7B3B7", "twitter": "None", "instagram": "None", "facebook": "None", "youtube": "None", "website": "None", "summary": "None", "logo": "None"}, "119002681RR0001": {"name": "LAKEHEAD UNIVERSITY", "designationCode": "C", "categoryCode": "20", "address": "955 OLIVER ROAD", "city": "THUNDER BAY", "province": "ON", "country": "CA", "postalCode": "P7B5E1", "twitter": "None", "instagram": "None", "facebook": "None", "youtube": "None", "website": "None", "summary": "None", "logo": "None", "latitude": 48.42301908673417, "longitude": -89.26343477953208}, "107590937RR0001": {"name": "LAKEHILL PRE-SCHOOL ASSOCIATION", "designationCode": "C", "categoryCode": "20", "address": "3821 CEDAR HILL X ROAD", "city": "VICTORIA", "province": "BC", "country": "CA", "postalCode": "V8P2M6", "twitter": "None", "instagram": "None", "facebook": "None", "youtube": "None", "website": "None", "summary": "None", "logo": "None", "latitude": 48.463237959749605, "longitude": -123.33676781608888}, "134370030RR0001": {"name": "LAKEHURST PRESBYTERIAN CHURCH,", "designationCode": "C", "categoryCode": "37", "address": "209 ALLEN'S RD", "city": "LAKEHURST", "province": "ON", "country": "CA", "postalCode": "K0L1J0", "twitter": "None", "instagram": "None", "facebook": "None", "youtube": "None", "website": "None", "summary": "None", "logo": "None", "latitude": 44.50196774551759, "longitude": -78.43281684811816}, "133276956RR0001": {"name": "LAKELAND AGRICULTURAL RESEARCH ASSOCIATION", "designationCode": "C", "categoryCode": "21", "address": "PO BOX 7068", "city": "BONNYVILLE", "province": "AB", "country": "CA", "postalCode": "T9N2H4", "twitter": "None", "instagram": "None", "facebook": "None", "youtube": "None", "website": "None", "summary": "None", "logo": "None", "latitude": 54.267945000000054, "longitude": -110.75332399999994}, "859912396RR0001": {"name": "LAKELAND BAPTIST CHURCH", "designationCode": "C", "categoryCode": "31", "address": "155 CHURCH ST.", "city": "GRAVENHURST", "province": "ON", "country": "CA", "postalCode": "P1P1H3", "twitter": "None", "instagram": "None", "facebook": "None", "youtube": "None", "website": "None", "summary": "None", "logo": "None", "latitude": 44.92168082763008, "longitude": -79.37405645392121}, "131376261RR0001": {"name": "LAKELAND CHRISTIAN SCHOOL SOCIETY", "designationCode": "C", "categoryCode": "20", "address": "BOX 8397", "city": "COLD LAKE", "province": "AB", "country": "CA", "postalCode": "T9M1N2", "twitter": "None", "instagram": "None", "facebook": "None", "youtube": "None", "website": "None", "summary": "None", "logo": "None", "latitude": 54.46502700000005, "longitude": -110.17379149999994}, "892596586RR0001": {"name": "LAKELAND CHURCH OF GOD IN CHRIST (MENNONITE) OF DEWBERRY", "designationCode": "C", "categoryCode": "34", "address": "BOX 161", "city": "DEWBERRY", "province": "AB", "country": "CA", "postalCode": "T0B1G0", "twitter": "None", "instagram": "None", "facebook": "None", "youtube": "None", "website": "None", "summary": "None", "logo": "None", "latitude": 53.583470000000034, "longitude": -110.53492999999997}, "119002731RR0001": {"name": "LAKELAND COLLEGE", "designationCode": "C", "categoryCode": "20", "address": "5707 COLLEGE DRIVE", "city": "VERMILION", "province": "AB", "country": "CA", "postalCode": "T9X1K5", "twitter": "None", "instagram": "None", "facebook": "None", "youtube": "None", "website": "None", "summary": "None", "logo": "None", "latitude": 53.352582000000055, "longitude": -110.84980849999994}, "119160349RR0001": {"name": "LAKELAND COMMUNITY CHURCH", "designationCode": "C", "categoryCode": "39", "address": "BOX 189", "city": "SPIRITWOOD", "province": "SK", "country": "CA", "postalCode": "S0J2M0", "twitter": "None", "instagram": "None", "facebook": "None", "youtube": "None", "website": "None", "summary": "None", "logo": "None", "latitude": 53.366550000000075, "longitude": -107.51787999999999}, "886213602RR0001": {"name": "LAKELAND FETAL ALCOHOL SPECTRUM DISORDER SOCIETY", "designationCode": "C", "categoryCode": "11", "address": "4823-50TH STREET BOX 479", "city": "COLD LAKE", "province": "AB", "country": "CA", "postalCode": "T9M1P1", "twitter": "None", "instagram": "None", "facebook": "None", "youtube": "None", "website": "None", "summary": "None", "logo": "None", "latitude": 54.41290183236194, "longitude": -110.20524330151792}, "881914725RR0001": {"name": "LAKELAND HUMANE SOCIETY", "designationCode": "C", "categoryCode": "54", "address": "BOX 202", "city": "COLD LAKE", "province": "AB", "country": "CA", "postalCode": "T9M1P1", "twitter": "None", "instagram": "None", "facebook": "None", "youtube": "None", "website": "None", "summary": "None", "logo": "None", "latitude": 54.46502700000005, "longitude": -110.17379149999994}, "107591067RR0001": {"name": "LAKELAND INDUSTRIES SHELTERED WORKSHOPS INC.", "designationCode": "C", "categoryCode": "59", "address": "1-2270 RTE 4", "city": "ST CROIX", "province": "NB", "country": "CA", "postalCode": "E6J1H2", "twitter": "None", "instagram": "None", "facebook": "None", "youtube": "None", "website": "None", "summary": "None", "logo": "None", "latitude": 45.5687536038704, "longitude": -67.42829040580557}, "867302358RR0001": {"name": "LAKELAND INTERPRETIVE SOCIETY", "designationCode": "C", "categoryCode": "56", "address": "BOX 2570", "city": "LAC LA BICHE", "province": "AB", "country": "CA", "postalCode": "T0A2C0", "twitter": "None", "instagram": "None", "facebook": "None", "youtube": "None", "website": "None", "summary": "None", "logo": "None", "latitude": 54.768200000000036, "longitude": -111.98244999999997}, "119002756RR0001": {"name": "LAKELAND LIBRARY REGION", "designationCode": "C", "categoryCode": "50", "address": "1302 100TH STREET", "city": "NORTH BATTLEFORD", "province": "SK", "country": "CA", "postalCode": "S9A0V8", "twitter": "None", "instagram": "None", "facebook": "None", "youtube": "None", "website": "None", "summary": "None", "logo": "None", "latitude": 52.776737497085804, "longitude": -108.29898710167954}, "875352478RR0001": {"name": "LAKELAND LIVE-IN SOCIETY", "designationCode": "C", "categoryCode": "49", "address": "P.O.BOX 316", "city": "GLENDON", "province": "AB", "country": "CA", "postalCode": "T0A1P0", "twitter": "None", "instagram": "None", "facebook": "None", "youtube": "None", "website": "None", "summary": "None", "logo": "None", "latitude": 54.247190000000046, "longitude": -111.15382999999997}, "107591117RR0001": {"name": "LAKELAND LUTHERAN CHURCH", "designationCode": "C", "categoryCode": "32", "address": "PO BOX 456", "city": "COLD LAKE", "province": "AB", "country": "CA", "postalCode": "T9M1P1", "twitter": "None", "instagram": "None", "facebook": "None", "youtube": "None", "website": "None", "summary": "None", "logo": "None", "latitude": 54.46502700000005, "longitude": -110.17379149999994}, "886696798RR0001": {"name": "LAKELAND PRESCHOOL CO-OPERATIVE", "designationCode": "C", "categoryCode": "20", "address": "PO BOX 6", "city": "CHRISTOPHER LAKE", "province": "SK", "country": "CA", "postalCode": "S0J0N0", "twitter": "None", "instagram": "None", "facebook": "None", "youtube": "None", "website": "None", "summary": "None", "logo": "None", "latitude": 53.533390000000054, "longitude": -105.80098999999996}, "107591182RR0001": {"name": "LAKELAND REGIONAL LIBRARY", "designationCode": "C", "categoryCode": "50", "address": "PO BOX 970", "city": "KILLARNEY", "province": "MB", "country": "CA", "postalCode": "R0K1G0", "twitter": "None", "instagram": "None", "facebook": "None", "youtube": "None", "website": "None", "summary": "None", "logo": "None", "latitude": 49.18482000000006, "longitude": -99.66915999999998}, "897640629RR0001": {"name": "LAKELAND SPORTS & RECREATION ASSOCIATION", "designationCode": "C", "categoryCode": "56", "address": "P.O. BOX 6682", "city": "BONNYVILLE", "province": "AB", "country": "CA", "postalCode": "T9N2H2", "twitter": "None", "instagram": "None", "facebook": "None", "youtube": "None", "website": "None", "summary": "None", "logo": "None", "latitude": 54.267945000000054, "longitude": -110.75332399999994}, "891276735RR0001": {"name": "LAKELAND UNITED WAY FOUNDATION", "designationCode": "A", "categoryCode": "05", "address": "PO BOX 57 STN MAIN", "city": "COLD LAKE", "province": "AB", "country": "CA", "postalCode": "T9M1P1", "twitter": "None", "instagram": "None", "facebook": "None", "youtube": "None", "website": "None", "summary": "None", "logo": "None", "latitude": 54.46502700000005, "longitude": -110.17379149999994}, "119002806RR0001": {"name": "LAKELSE PENTECOSTAL CAMP", "designationCode": "C", "categoryCode": "56", "address": "3511 EBY STREET", "city": "TERRACE", "province": "BC", "country": "CA", "postalCode": "V8G2Y9", "twitter": "None", "instagram": "None", "facebook": "None", "youtube": "None", "website": "None", "summary": "None", "logo": "None", "latitude": 54.52290950291419, "longitude": -128.59890736886143}, "799202320RR0001": {"name": "LAKEMOUNT WORSHIP CENTRE", "designationCode": "C", "categoryCode": "36", "address": "54 NORTH SERVICE ROAD", "city": "GRIMSBY", "province": "ON", "country": "CA", "postalCode": "L3M1Y8", "twitter": "None", "instagram": "None", "facebook": "None", "youtube": "None", "website": "None", "summary": "None", "logo": "None", "latitude": 43.2011001440934, "longitude": -79.56997801552323}, "872513718RR0001": {"name": "LAKEPORT CEMETERY", "designationCode": "C", "categoryCode": "59", "address": "636 RED CLOUD SCHOOL RD", "city": "WARKWORTH", "province": "ON", "country": "CA", "postalCode": "K0K3K0", "twitter": "None", "instagram": "None", "facebook": "None", "youtube": "None", "website": "None", "summary": "None", "logo": "None", "latitude": 44.154530842533404, "longitude": -77.92816954690211}, "893673236RR0001": {"name": "LAKERIDGE CO-OPERATIVE PRESCHOOL", "designationCode": "C", "categoryCode": "20", "address": "305 WATERBURY RD", "city": "SASKATOON", "province": "SK", "country": "CA", "postalCode": "S7J4Z7", "twitter": "None", "instagram": "None", "facebook": "None", "youtube": "None", "website": "None", "summary": "None", "logo": "None", "latitude": 52.095173187604715, "longitude": -106.58090011801085}, "871843660RR0001": {"name": "LAKERIDGE HEALTH CORPORATION", "designationCode": "C", "categoryCode": "10", "address": "UNIT 1                        850 CHAMPLAIN AVENUE", "city": "OSHAWA", "province": "ON", "country": "CA", "postalCode": "L1J8R2", "twitter": "None", "instagram": "None", "facebook": "None", "youtube": "None", "website": "None", "summary": "None", "logo": "None", "latitude": 43.873836565979126, "longitude": -78.88690904689095}, "890312648RR0001": {"name": "LAKERIDGE HEALTH WHITBY FOUNDATION", "designationCode": "A", "categoryCode": "13", "address": "300 GORDON ST", "city": "WHITBY", "province": "ON", "country": "CA", "postalCode": "L1N5T2", "twitter": "None", "instagram": "None", "facebook": "None", "youtube": "None", "website": "None", "summary": "None", "logo": "None", "latitude": 43.85640013032858, "longitude": -78.9429018741142}, "129150827RR0001": {"name": "LAKERIDGE HEALTH WHITBY VOLUNTEER SERVICES", "designationCode": "C", "categoryCode": "19", "address": "300 GORDON ST", "city": "WHITBY", "province": "ON", "country": "CA", "postalCode": "L1N5T2", "twitter": "None", "instagram": "None", "facebook": "None", "youtube": "None", "website": "None", "summary": "None", "logo": "None", "latitude": 43.85640013032858, "longitude": -78.9429018741142}, "119002939RR0001": {"name": "LAKES AND DISTRICT FIRE DEPARTMENT", "designationCode": "C", "categoryCode": "59", "address": "3128 LAKE GEORGE ROAD", "city": "LAKE GEORGE", "province": "NS", "country": "CA", "postalCode": "B5A5L6", "twitter": "None", "instagram": "None", "facebook": "None", "youtube": "None", "website": "None", "summary": "None", "logo": "None", "latitude": 44.052442125165975, "longitude": -66.04360539309859}, "107591448RR0001": {"name": "LAKES COMMUNITY CHURCH", "designationCode": "C", "categoryCode": "39", "address": "22970 CHIEF LAKE ROAD", "city": "PRINCE GEORGE", "province": "BC", "country": "CA", "postalCode": "V2K5K8", "twitter": "None", "instagram": "None", "facebook": "None", "youtube": "None", "website": "None", "summary": "None", "logo": "None", "latitude": 54.07653407380706, "longitude": -122.99185470811962}, "107591455RR0001": {"name": "LAKES DISTRICT CHILD CARE SOCIETY", "designationCode": "C", "categoryCode": "01", "address": "3115 TAYLOR FRONTAGE RD", "city": "BURNS LAKE", "province": "BC", "country": "CA", "postalCode": "V0J1E2", "twitter": "None", "instagram": "None", "facebook": "None", "youtube": "None", "website": "None", "summary": "None", "logo": "None", "latitude": 54.19889723864414, "longitude": -125.74107077805493}, "871991360RR0001": {"name": "LAKES DISTRICT COMMUNITY POOL CLU", "designationCode": "C", "categoryCode": "56", "address": "BOX 597", "city": "BURNS LAKE", "province": "BC", "country": "CA", "postalCode": "V0J1E0", "twitter": "None", "instagram": "None", "facebook": "None", "youtube": "None", "website": "None", "summary": "None", "logo": "None", "latitude": 54.22723000000008, "longitude": -125.76009999999997}, "898283551RR0001": {"name": "LAKES DISTRICT FAMILY ENHANCEMENT SOCIETY", "designationCode": "C", "categoryCode": "20", "address": "PO BOX 777", "city": "BURNS LAKE", "province": "BC", "country": "CA", "postalCode": "V0J1E0", "twitter": "None", "instagram": "None", "facebook": "None", "youtube": "None", "website": "None", "summary": "None", "logo": "None", "latitude": 54.22723000000008, "longitude": -125.76009999999997}, "892009572RR0001": {"name": "LAKES DISTRICT FESTIVAL ASSOCIATION", "designationCode": "C", "categoryCode": "22", "address": "16743 GARDNER RD", "city": "BURNS LAKE", "province": "BC", "country": "CA", "postalCode": "V0J1E2", "twitter": "None", "instagram": "None", "facebook": "None", "youtube": "None", "website": "None", "summary": "None", "logo": "None", "latitude": 54.22807500000006, "longitude": -125.76273649999993}, "107590549RR0001": {"name": "LAKES DISTRICT MUSEUM SOCIETY", "designationCode": "C", "categoryCode": "50", "address": "POST OFFICE BOX 266", "city": "BURNS LAKE", "province": "BC", "country": "CA", "postalCode": "V0J1E0", "twitter": "None", "instagram": "None", "facebook": "None", "youtube": "None", "website": "None", "summary": "None", "logo": "None", "latitude": 54.22723000000008, "longitude": -125.76009999999997}, "107591489RR0001": {"name": "LAKES DISTRICT SENIOR CITIZEN HOUSING ASSOCIATION", "designationCode": "C", "categoryCode": "09", "address": "PO BOX 38", "city": "BURNS LAKE", "province": "BC", "country": "CA", "postalCode": "V0J1E0", "twitter": "None", "instagram": "None", "facebook": "None", "youtube": "None", "website": "None", "summary": "None", "logo": "None", "latitude": 54.22723000000008, "longitude": -125.76009999999997}, "118818491RR0002": {"name": "LAKES DISTRICT SEVENTH-DAY ADVENTIST CHURCH", "designationCode": "C", "categoryCode": "41", "address": "PO 1000", "city": "ABBOTSFORD", "province": "BC", "country": "CA", "postalCode": "V2S4P5", "twitter": "None", "instagram": "None", "facebook": "None", "youtube": "None", "website": "None", "summary": "None", "logo": "None", "latitude": 49.03851300000005, "longitude": -122.29441549999993}, "119002996RR0001": {"name": "LAKESHORE AREA MULTI-SERVICES PROJECT LAMP INC.", "designationCode": "C", "categoryCode": "09", "address": "185-5TH ST", "city": "TORONTO", "province": "ON", "country": "CA", "postalCode": "M8V2Z5", "twitter": "None", "instagram": "None", "facebook": "None", "youtube": "None", "website": "None", "summary": "None", "logo": "None", "latitude": 43.603174636923086, "longitude": -79.50375147438743}, "882969744RR0001": {"name": "LAKESHORE ARTS COMMITTEE", "designationCode": "C", "categoryCode": "22", "address": "2422 LAKESHORE BLVD WEST", "city": "TORONTO", "province": "ON", "country": "CA", "postalCode": "M8V1C4", "twitter": "None", "instagram": "None", "facebook": "None", "youtube": "None", "website": "None", "summary": "None", "logo": "None", "latitude": 43.614505229497915, "longitude": -79.48898729873828}, "119003002RR0001": {"name": "LAKESHORE BAPTIST CHURCH", "designationCode": "C", "categoryCode": "31", "address": "12 BLACK KNIGHT RD", "city": "ST CATHARINES", "province": "ON", "country": "CA", "postalCode": "L2N3C1", "twitter": "None", "instagram": "None", "facebook": "None", "youtube": "None", "website": "None", "summary": "None", "logo": "None", "latitude": 43.19564683094831, "longitude": -79.25144646834794}, "886609197RR0001": {"name": "LAKESHORE CHAMBER MUSIC SOCIETY", "designationCode": "C", "categoryCode": "22", "address": "847 5E AVE", "city": "L'ILE-BIZARD", "province": "QC", "country": "CA", "postalCode": "H9C1J4", "twitter": "None", "instagram": "None", "facebook": "None", "youtube": "None", "website": "None", "summary": "None", "logo": "None", "latitude": 45.51700247712403, "longitude": -73.87577242977744}}