{"896103249RR0001": {"name": "FONDATION DES AMIS DE L'\u00c9COLE ST-CAMILLE DE COOKSHIRE", "designationCode": "C", "categoryCode": "21", "address": "150 RUE BIBEAU", "city": "COOKSHIRE", "province": "QC", "country": "CA", "postalCode": "J0B1M0", "twitter": "None", "instagram": "None", "facebook": "None", "youtube": "None", "website": "None", "summary": "None", "logo": "None", "latitude": 45.414794948438875, "longitude": -71.62669545482485}, "136745064RR0001": {"name": "FONDATION DES AMIS DE L'ART CULINAIRE", "designationCode": "C", "categoryCode": "21", "address": "4185 MELROSE", "city": "MONTREAL", "province": "QC", "country": "CA", "postalCode": "H4A2S5", "twitter": "None", "instagram": "None", "facebook": "None", "youtube": "None", "website": "None", "summary": "None", "logo": "None", "latitude": 45.47280123203871, "longitude": -73.62365976865378}, "896425543RR0001": {"name": "FONDATION DES AMIS DE L'ECOLE ELEMENTAIRE PRINCESS ELIZABETH/FRIENDS OF PRINCESS ELIZABETH ELEMENTARY SCHOOL FOUNDATION", "designationCode": "C", "categoryCode": "21", "address": "120 RUE BELLEVUE", "city": "MAGOG", "province": "QC", "country": "CA", "postalCode": "J1X3H2", "twitter": "None", "instagram": "None", "facebook": "None", "youtube": "None", "website": "None", "summary": "None", "logo": "None", "latitude": 45.262435746869464, "longitude": -72.15314995519063}, "118921931RR0001": {"name": "FONDATION DES AMIS DE L'ENFANCE (MONTR\u00c9AL) INC.", "designationCode": "C", "categoryCode": "09", "address": "5800 CH HUDSON", "city": "MONTREAL", "province": "QC", "country": "CA", "postalCode": "H3S2G5", "twitter": "None", "instagram": "None", "facebook": "None", "youtube": "None", "website": "None", "summary": "None", "logo": "None", "latitude": 45.50491730890418, "longitude": -73.62489954094289}, "118921949RR0001": {"name": "FONDATION DES AMIS DE L'ENFANCE (QU\u00c9BEC) INC.", "designationCode": "C", "categoryCode": "01", "address": "2747, BOUL. LAURIER", "city": "SAINTE-FOY", "province": "QC", "country": "CA", "postalCode": "G1V2L9", "twitter": "None", "instagram": "None", "facebook": "None", "youtube": "None", "website": "None", "summary": "None", "logo": "None", "latitude": 46.76921110929694, "longitude": -71.28423760958447}, "118921956RR0001": {"name": "FONDATION DES AMIS DE L'HOPITAL GENERAL DE GRAND-SAULT INC.", "designationCode": "A", "categoryCode": "13", "address": "625 BOUL EVERARD H DAIGLE", "city": "GRAND FALLS", "province": "NB", "country": "CA", "postalCode": "E3Z2R9", "twitter": "None", "instagram": "None", "facebook": "None", "youtube": "None", "website": "None", "summary": "None", "logo": "None", "latitude": 47.045926884410044, "longitude": -67.75484843090229}, "899082838RR0001": {"name": "FONDATION DES AMIS DE L'HOPITAL JEFFERY HALE-SAINT BRIGID'S/SAINT-BRIGID'S-JEFFERY HALE HOSPITAL FRIENDS' FOUNDATION", "designationCode": "A", "categoryCode": "13", "address": "1250 CH SAINTE-FOY", "city": "QUEBEC", "province": "QC", "country": "CA", "postalCode": "G1S2M6", "twitter": "None", "instagram": "None", "facebook": "None", "youtube": "None", "website": "None", "summary": "None", "logo": "None", "latitude": 46.79571318096826, "longitude": -71.25227324147377}, "887780666RR0001": {"name": "FONDATION DES AMIS DE LA BIBLIOTH\u00c8QUE MUNICIPALE DE SAINT-LAMBERT", "designationCode": "C", "categoryCode": "59", "address": "490, AV. MERCILLE", "city": "SAINT-LAMBERT", "province": "QC", "country": "CA", "postalCode": "J4P2L5", "twitter": "None", "instagram": "None", "facebook": "None", "youtube": "None", "website": "None", "summary": "None", "logo": "None", "latitude": 45.502992753274775, "longitude": -73.51045480875996}, "893004572RR0001": {"name": "FONDATION DES AMIS DE LA BIBLIOTH\u00c8QUE PUBLIQUE DE LAC-M\u00c9GANTIC", "designationCode": "C", "categoryCode": "55", "address": "3700 LEMIEUX", "city": "LAC-M\u00c9GANTIC", "province": "QC", "country": "CA", "postalCode": "G6B1S7", "twitter": "None", "instagram": "None", "facebook": "None", "youtube": "None", "website": "None", "summary": "None", "logo": "None", "latitude": 45.58303567361067, "longitude": -70.89032061324939}, "851332437RR0001": {"name": "FONDATION DES AMIS DE LA M\u00c9DIATH\u00c8QUE MASKOUTAINE", "designationCode": "C", "categoryCode": "53", "address": "2720, RUE DESSAULLES", "city": "SAINT-HYACINTHE", "province": "QC", "country": "CA", "postalCode": "J2S2V7", "twitter": "None", "instagram": "None", "facebook": "None", "youtube": "None", "website": "None", "summary": "None", "logo": "None", "latitude": 45.62117693868643, "longitude": -72.9578271189622}, "888620275RR0001": {"name": "FONDATION DES AMIS DE R\u00c9SIDENCE SOREL-TRACY INC.", "designationCode": "C", "categoryCode": "09", "address": "4025, RUE FRONTENAC", "city": "TRACY", "province": "QC", "country": "CA", "postalCode": "J3R4G8", "twitter": "None", "instagram": "None", "facebook": "None", "youtube": "None", "website": "None", "summary": "None", "logo": "None", "latitude": 46.02824076963473, "longitude": -73.1428134555364}, "118921972RR0001": {"name": "FONDATION DES AMIS DE VANIER", "designationCode": "C", "categoryCode": "21", "address": "3995, BOUL. LEVESQUE E", "city": "LAVAL", "province": "QC", "country": "CA", "postalCode": "H7E2R3", "twitter": "None", "instagram": "None", "facebook": "None", "youtube": "None", "website": "None", "summary": "None", "logo": "None", "latitude": 45.59854278550375, "longitude": -73.65262605060816}, "883549016RR0001": {"name": "FONDATION DES AMIS DES FILLES DE MARIE PARIDAENS", "designationCode": "C", "categoryCode": "47", "address": "9231 BOUL. PERRAS", "city": "MONTR\u00c9AL", "province": "QC", "country": "CA", "postalCode": "H1E6L4", "twitter": "None", "instagram": "None", "facebook": "None", "youtube": "None", "website": "None", "summary": "None", "logo": "None", "latitude": 45.653028651970594, "longitude": -73.574850544434}, "862472289RR0001": {"name": "FONDATION DES AMIS DU LASER INC.", "designationCode": "C", "categoryCode": "23", "address": "1305 LEBOURGNEUF #307", "city": "QU\u00c9BEC", "province": "QC", "country": "CA", "postalCode": "G2K2E4", "twitter": "None", "instagram": "None", "facebook": "None", "youtube": "None", "website": "None", "summary": "None", "logo": "None", "latitude": 46.835712767384386, "longitude": -71.2967177906979}, "859045718RR0001": {"name": "FONDATION DES AMIS DU PATRIMOINE SCOLAIRE", "designationCode": "C", "categoryCode": "52", "address": "4649 RUE DE BREBEUF", "city": "MONTREAL", "province": "QC", "country": "CA", "postalCode": "H2J3L2", "twitter": "None", "instagram": "None", "facebook": "None", "youtube": "None", "website": "None", "summary": "None", "logo": "None", "latitude": 45.530365148219694, "longitude": -73.58023795891287}, "891784043RR0001": {"name": "FONDATION DES AMIS DU PAVOIS", "designationCode": "A", "categoryCode": "03", "address": "2380, AVENUE DU MONT-THABOR", "city": "QUEBEC", "province": "QC", "country": "CA", "postalCode": "G1J3W7", "twitter": "None", "instagram": "None", "facebook": "None", "youtube": "None", "website": "None", "summary": "None", "logo": "None", "latitude": 46.83942069054757, "longitude": -71.2327553974264}, "132589433RR0001": {"name": "FONDATION DES AMIS DU S\u00c9MINAIRE DE TROIS-RIVI\u00c8RES", "designationCode": "A", "categoryCode": "21", "address": "858, RUE LAVIOLETTE", "city": "TROIS-RIVIERES", "province": "QC", "country": "CA", "postalCode": "G9A5J1", "twitter": "None", "instagram": "None", "facebook": "None", "youtube": "None", "website": "None", "summary": "None", "logo": "None", "latitude": 46.34869787846938, "longitude": -72.54542115869394}, "887873065RR0001": {"name": "FONDATION DES AMIS DU TROISIEME AGE INC.", "designationCode": "C", "categoryCode": "09", "address": "62 RUE ASSOMPTION", "city": "ROGERSVILLE", "province": "NB", "country": "CA", "postalCode": "E4Y1S5", "twitter": "None", "instagram": "None", "facebook": "None", "youtube": "None", "website": "None", "summary": "None", "logo": "None", "latitude": 46.73473422550693, "longitude": -65.42605127449308}, "891753568RR0001": {"name": "FONDATION DES AMIS ET DES ANCIENS DE L'EXTERNAT MONT-JESUS-MARIE", "designationCode": "A", "categoryCode": "23", "address": "2755, CHEMIN DE LA C\u00d4TE       SAINTE CATHERINE", "city": "MONTREAL", "province": "QC", "country": "CA", "postalCode": "H3T1B5", "twitter": "None", "instagram": "None", "facebook": "None", "youtube": "None", "website": "None", "summary": "None", "logo": "None", "latitude": 45.50616751536253, "longitude": -73.62075300129021}, "866541113RR0001": {"name": "FONDATION DES AMIS-ES DE L'\u00c9COLE SAINT-JOSEPH (1985)", "designationCode": "C", "categoryCode": "23", "address": "4080, AVENUE DE LORIMIER", "city": "MONTREAL", "province": "QC", "country": "CA", "postalCode": "H2K3X7", "twitter": "None", "instagram": "None", "facebook": "None", "youtube": "None", "website": "None", "summary": "None", "logo": "None", "latitude": 45.532248760171015, "longitude": -73.56630222081463}, "881717045RR0001": {"name": "FONDATION DES ANCIENS DE SHAWINIGAN", "designationCode": "C", "categoryCode": "21", "address": "810 PLACE HELENE BOULLE       APP 3", "city": "BOUCHERVILLE", "province": "QC", "country": "CA", "postalCode": "J4B2A7", "twitter": "None", "instagram": "None", "facebook": "None", "youtube": "None", "website": "None", "summary": "None", "logo": "None", "latitude": 45.597013816261786, "longitude": -73.44902126161331}, "120293659RR0001": {"name": "FONDATION DES ANCIENS DU C.M.R. EX-CADET FOUNDATION", "designationCode": "C", "categoryCode": "21", "address": "625 RUE FRANCOISE-LOISEL", "city": "BOUCHERVILLE", "province": "QC", "country": "CA", "postalCode": "J4B3B4", "twitter": "None", "instagram": "None", "facebook": "None", "youtube": "None", "website": "None", "summary": "None", "logo": "None", "latitude": 45.60958253012286, "longitude": -73.44635936845741}, "139914915RR0001": {"name": "FONDATION DES ANCIENS DU QU\u00c9BEC HIGH SCHOOL", "designationCode": "C", "categoryCode": "21", "address": "1452 RUE LE ROUX", "city": "QUEBEC", "province": "QC", "country": "CA", "postalCode": "G2L1Y3", "twitter": "None", "instagram": "None", "facebook": "None", "youtube": "None", "website": "None", "summary": "None", "logo": "None", "latitude": 46.882167464885484, "longitude": -71.2503807764154}, "892221045RR0001": {"name": "FONDATION DES ANCIENS DU SEMINAIRE DE SAINT/HYACINTHE", "designationCode": "C", "categoryCode": "23", "address": "650 RUE GIROUARD EST", "city": "SAINT-HYACINTHE", "province": "QC", "country": "CA", "postalCode": "J2S2Y2", "twitter": "None", "instagram": "None", "facebook": "None", "youtube": "None", "website": "None", "summary": "None", "logo": "None", "latitude": 45.63261623495506, "longitude": -72.94180957057556}, "140565904RR0001": {"name": "FONDATION DES ARTS ET DE LA CULTURE COMEAU", "designationCode": "C", "categoryCode": "22", "address": "432, ROUTE 138", "city": "RAGUENEAU", "province": "QC", "country": "CA", "postalCode": "G0H1S0", "twitter": "None", "instagram": "None", "facebook": "None", "youtube": "None", "website": "None", "summary": "None", "logo": "None", "latitude": 49.07551321402483, "longitude": -68.45578063092465}, "140566100RR0001": {"name": "FONDATION DES ARTS ET M\u00c9TIERS D'ART DU QU\u00c9BEC", "designationCode": "C", "categoryCode": "09", "address": "5720 RUE SAINT-ANDRE", "city": "MONTREAL", "province": "QC", "country": "CA", "postalCode": "H2S2K1", "twitter": "None", "instagram": "None", "facebook": "None", "youtube": "None", "website": "None", "summary": "None", "logo": "None", "latitude": 45.53330781513661, "longitude": -73.59497305219563}, "888066248RR0001": {"name": "FONDATION DES AUBERGES DU COEUR DU QU\u00c9BEC", "designationCode": "A", "categoryCode": "03", "address": "4246 RUE JEAN-TALON EST       TOUR SUD/BUR.17", "city": "ST-LEONARD", "province": "QC", "country": "CA", "postalCode": "H1S1J8", "twitter": "None", "instagram": "None", "facebook": "None", "youtube": "None", "website": "None", "summary": "None", "logo": "None", "latitude": 45.56827500000006, "longitude": -73.58974549999994}, "118922079RR0001": {"name": "FONDATION DES AUXILIAIRES DE TEMISCAMING", "designationCode": "C", "categoryCode": "19", "address": "C.P. 415", "city": "TEMISCAMING", "province": "QC", "country": "CA", "postalCode": "J0Z3R0", "twitter": "None", "instagram": "None", "facebook": "None", "youtube": "None", "website": "None", "summary": "None", "logo": "None", "latitude": 46.74185700000005, "longitude": -79.06862149999994}, "132269655RR0001": {"name": "FONDATION DES AVEUGLES DU QU\u00c9BEC (F.A.Q.)/ QUEBEC FOUNDATION FOR THE BLIND (Q.F.B.)", "designationCode": "A", "categoryCode": "03", "address": "5112 RUE DE BELLECHASSE", "city": "MONTREAL", "province": "QC", "country": "CA", "postalCode": "H1T2A4", "twitter": "None", "instagram": "None", "facebook": "None", "youtube": "None", "website": "None", "summary": "None", "logo": "None", "latitude": 45.57138104134693, "longitude": -73.56717749290222}, "101835767RR0001": {"name": "FONDATION DES C.H.S.L.D. DE LA RIVI\u00c8RE DU NORD", "designationCode": "A", "categoryCode": "13", "address": "531 RUE LAVIOLETTE", "city": "ST-JEROME", "province": "QC", "country": "CA", "postalCode": "J7Y2T8", "twitter": "None", "instagram": "None", "facebook": "None", "youtube": "None", "website": "None", "summary": "None", "logo": "None", "latitude": 45.78288940106175, "longitude": -74.00666287486364}, "882718521RR0001": {"name": "FONDATION DES CADETS DE L'ARMEE (QUEBEC)/ARMY CADET FOUNDATION (QUEBEC", "designationCode": "C", "categoryCode": "29", "address": "C.P. 1000                     SUCC. FORCES", "city": "COURCELETTE", "province": "QC", "country": "CA", "postalCode": "G0A4Z0", "twitter": "None", "instagram": "None", "facebook": "None", "youtube": "None", "website": "None", "summary": "None", "logo": "None", "latitude": 46.88734200000006, "longitude": -71.50947199999993}, "894211184RR0001": {"name": "FONDATION DES CAISSES POPULAIRES ACADIENNES INC.", "designationCode": "B", "categoryCode": "21", "address": "CP 5554 295 BOUL ST-PIERRE O.", "city": "CARAQUET", "province": "NB", "country": "CA", "postalCode": "E1W1B7", "twitter": "None", "instagram": "None", "facebook": "None", "youtube": "None", "website": "None", "summary": "None", "logo": "None", "latitude": 47.78440546859648, "longitude": -64.9760047394437}, "888226990RR0001": {"name": "FONDATION DES CENTRES D'H\u00c9BERGEMENT ET DE SOINS DE LONGUE DUREE - VIEUX-LONGUEUIL", "designationCode": "A", "categoryCode": "03", "address": "1275, BOUL JACQUES-CARTIER EST", "city": "LONGUEUIL", "province": "QC", "country": "CA", "postalCode": "J4M2Y8", "twitter": "None", "instagram": "None", "facebook": "None", "youtube": "None", "website": "None", "summary": "None", "logo": "None", "latitude": 45.535035989208616, "longitude": -73.45875345940289}, "889086765RR0001": {"name": "FONDATION DES CENTRES D'H\u00c9BERGEMENT SOULANGES", "designationCode": "C", "categoryCode": "19", "address": "5 RUE D'AMOUR", "city": "RIGAUD", "province": "QC", "country": "CA", "postalCode": "J0P1P0", "twitter": "None", "instagram": "None", "facebook": "None", "youtube": "None", "website": "None", "summary": "None", "logo": "None", "latitude": 45.47367979381364, "longitude": -74.30462905011815}, "867374464RR0001": {"name": "FONDATION DES CLSC DU LAC-SAINT-LOUIS ET DE PIERREFONDS / CLSC'S LAC-SAINT-LOUIS AND PIERREFONDS FOUNDATION", "designationCode": "A", "categoryCode": "13", "address": "180 AVENUE CARTIER", "city": "POINTE-CLAIRE", "province": "QC", "country": "CA", "postalCode": "H9S4S1", "twitter": "None", "instagram": "None", "facebook": "None", "youtube": "None", "website": "None", "summary": "None", "logo": "None", "latitude": 45.439006736049414, "longitude": -73.82714786320594}, "866175383RR0001": {"name": "FONDATION DES CLUBS LIONS DU QU\u00c9BEC", "designationCode": "A", "categoryCode": "15", "address": "140 RUE LAROUCHE", "city": "LAVAL", "province": "QC", "country": "CA", "postalCode": "H7G2M7", "twitter": "None", "instagram": "None", "facebook": "None", "youtube": "None", "website": "None", "summary": "None", "logo": "None", "latitude": 45.57818135111649, "longitude": -73.6935161265796}, "862606092RR0001": {"name": "FONDATION DES COUGUARS", "designationCode": "C", "categoryCode": "21", "address": "600, 36E AVENUE", "city": "SAINT-JEROME", "province": "QC", "country": "CA", "postalCode": "J7Z5W2", "twitter": "None", "instagram": "None", "facebook": "None", "youtube": "None", "website": "None", "summary": "None", "logo": "None", "latitude": 45.77511508569989, "longitude": -73.97897758569987}, "896961240RR0001": {"name": "FONDATION DES DIACRES DU DIOC\u00c8SE DE SHERBROOKE", "designationCode": "C", "categoryCode": "49", "address": "257, 9E AVENUE", "city": "ASBESTOS", "province": "QC", "country": "CA", "postalCode": "J1T1T1", "twitter": "None", "instagram": "None", "facebook": "None", "youtube": "None", "website": "None", "summary": "None", "logo": "None", "latitude": 45.776818518466094, "longitude": -71.92863148874727}, "859997405RR0001": {"name": "FONDATION DES ECOLES DES BOURDONS ET COURVAL DE NEUVILLE", "designationCode": "C", "categoryCode": "23", "address": "758, ROUTE 138", "city": "NEUVILLE", "province": "QC", "country": "CA", "postalCode": "G0A2R0", "twitter": "None", "instagram": "None", "facebook": "None", "youtube": "None", "website": "None", "summary": "None", "logo": "None", "latitude": 46.6965342468328, "longitude": -71.58639988277042}, "141480657RR0001": {"name": "FONDATION DES ENFANTS DE VAUDREUIL-SOULAGES", "designationCode": "C", "categoryCode": "09", "address": "3031 BOUL. DE LA GARE", "city": "VAUDREUIL-DORION", "province": "QC", "country": "CA", "postalCode": "J7V9R2", "twitter": "None", "instagram": "None", "facebook": "None", "youtube": "None", "website": "None", "summary": "None", "logo": "None", "latitude": 45.39727100147676, "longitude": -74.05424147068368}, "897222600RR0001": {"name": "FONDATION DES ENFANTS DU VIEUX SAINT-LAURENT", "designationCode": "C", "categoryCode": "21", "address": "1700, RUE DECELLES", "city": "SAINT-LAURENT", "province": "QC", "country": "CA", "postalCode": "H4L0B9", "twitter": "None", "instagram": "None", "facebook": "None", "youtube": "None", "website": "None", "summary": "None", "logo": "None", "latitude": 45.51056792561602, "longitude": -73.68329412960935}, "867904211RR0001": {"name": "FONDATION DES ENFANTS ORPHELINS DE LA RUE (F.E.O.R.)", "designationCode": "C", "categoryCode": "01", "address": "1573 RUE PRUNIER", "city": "SHERBROOKE", "province": "QC", "country": "CA", "postalCode": "J1K2K2", "twitter": "None", "instagram": "None", "facebook": "None", "youtube": "None", "website": "None", "summary": "None", "logo": "None", "latitude": 45.38254499999999, "longitude": -71.93079262242465}, "897113148RR0001": {"name": "FONDATION DES ENTREPRISES ADAPT\u00c9ES DU QU\u00c9BEC", "designationCode": "C", "categoryCode": "09", "address": "101 DE LA GRAND VOILE", "city": "ST AUGUSTIN-DE-DESMAURES", "province": "QC", "country": "CA", "postalCode": "G3A2M7", "twitter": "None", "instagram": "None", "facebook": "None", "youtube": "None", "website": "None", "summary": "None", "logo": "None", "latitude": 46.75609324176222, "longitude": -71.37673727087548}, "891420192RR0001": {"name": "FONDATION DES FOYERS PRESBYTERIENS DE ST-ANDREW LA/ST ANDREW'S PRESB HOMES FOUNDATION", "designationCode": "C", "categoryCode": "13", "address": "1195 RUE SHERBROOKE O", "city": "MONTREAL", "province": "QC", "country": "CA", "postalCode": "H3A1H9", "twitter": "None", "instagram": "None", "facebook": "None", "youtube": "None", "website": "None", "summary": "None", "logo": "None", "latitude": 45.50071925258228, "longitude": -73.57773646367339}, "118922111RR0001": {"name": "FONDATION DES GENS DES CANTONS DE L'EST POUR LA RECHERCHE ET LA CULTURE/TOWNSHIPPERS RESEARCH AND CULTURAL FOUNDATION", "designationCode": "A", "categoryCode": "21", "address": "100-257 QUEEN ST", "city": "SHERBROOKE", "province": "QC", "country": "CA", "postalCode": "J1M1K7", "twitter": "None", "instagram": "None", "facebook": "None", "youtube": "None", "website": "None", "summary": "None", "logo": "None", "latitude": 45.36848150858411, "longitude": -71.85670308770297}, "826085763RR0001": {"name": "FONDATION DES GENS HEUREUX DE L'\u00c9COLE SAINT-JOSEPH", "designationCode": "C", "categoryCode": "23", "address": "491, CHEMIN PIERRE-PELADEAU", "city": "SAINTE-ADELE", "province": "QC", "country": "CA", "postalCode": "J8B1Z3", "twitter": "None", "instagram": "None", "facebook": "None", "youtube": "None", "website": "None", "summary": "None", "logo": "None", "latitude": 45.95374215485612, "longitude": -74.13273129084213}, "864768643RR0001": {"name": "FONDATION DES GOUVERNEURS DE L'ESPOIR", "designationCode": "A", "categoryCode": "03", "address": "201 - 1850 BOUL LE CORBUSIER", "city": "LAVAL", "province": "QC", "country": "CA", "postalCode": "H7S2K1", "twitter": "None", "instagram": "None", "facebook": "None", "youtube": "None", "website": "None", "summary": "None", "logo": "None", "latitude": 45.56838884122007, "longitude": -73.73662125829507}, "882522188RR0001": {"name": "FONDATION DES GREFF\u00c9S PULMONAIRES DU QU\u00c9BEC", "designationCode": "C", "categoryCode": "11", "address": "227 1RE RUE", "city": "SAINT-PAUL-DE-L'ILE-AUX-NOIX", "province": "QC", "country": "CA", "postalCode": "J0J1G0", "twitter": "None", "instagram": "None", "facebook": "None", "youtube": "None", "website": "None", "summary": "None", "logo": "None", "latitude": 45.14209466111719, "longitude": -73.26347136805336}, "885429563RR0001": {"name": "FONDATION DES HANDICAP\u00c9S ADULTES DE LA MAURICIE", "designationCode": "A", "categoryCode": "09", "address": "1322 RUE STE-JULIE", "city": "TROIS-RIVIERES", "province": "QC", "country": "CA", "postalCode": "G9A1Y6", "twitter": "None", "instagram": "None", "facebook": "None", "youtube": "None", "website": "None", "summary": "None", "logo": "None", "latitude": 46.35120077130817, "longitude": -72.54992913362007}, "888738846RR0001": {"name": "FONDATION DES JEUX DU QUEBEC INC", "designationCode": "A", "categoryCode": "21", "address": "4545 PIERRE DE COUBERTIN AV   C.P. 1000 SUCC M", "city": "MONTREAL", "province": "QC", "country": "CA", "postalCode": "H1V3R2", "twitter": "None", "instagram": "None", "facebook": "None", "youtube": "None", "website": "None", "summary": "None", "logo": "None", "latitude": 45.555920590080106, "longitude": -73.55036240097485}, "806821955RR0001": {"name": "FONDATION DES LOGIS ROSE-VIRGINIE", "designationCode": "A", "categoryCode": "03", "address": "CASIER POSTAL 363             SUCCURSALE ROSEMONT", "city": "MONTR\u00c9AL", "province": "QC", "country": "CA", "postalCode": "H1X3C6", "twitter": "None", "instagram": "None", "facebook": "None", "youtube": "None", "website": "None", "summary": "None", "logo": "None", "latitude": 45.55657500000005, "longitude": -73.57275349999993}, "859501371RR0001": {"name": "FONDATION DES M\u00c9DECINS CANADO-HA\u00cfTIENS", "designationCode": "A", "categoryCode": "03", "address": "11121 RUE SALK NO 103         BUREAU 15", "city": "MONTR\u00c9AL-NORD", "province": "QC", "country": "CA", "postalCode": "H1G4Y3", "twitter": "None", "instagram": "None", "facebook": "None", "youtube": "None", "website": "None", "summary": "None", "logo": "None", "latitude": 45.601575955883106, "longitude": -73.6235903630044}, "121989461RR0001": {"name": "FONDATION DES MALADIES DU COEUR DU QUEBEC / HEART AND STROKE FOUNDATION OF QUEBEC", "designationCode": "C", "categoryCode": "11", "address": "1434 RUE STE-CATHERINE O      BUREAU 500", "city": "MONTREAL", "province": "QC", "country": "CA", "postalCode": "H3G1R4", "twitter": "None", "instagram": "None", "facebook": "None", "youtube": "None", "website": "None", "summary": "None", "logo": "None", "latitude": 45.49622654703109, "longitude": -73.57659780610557}, "886894393RR0001": {"name": "FONDATION DES MILITANTS CHR\u00c9TIENS DU DIOC\u00c8SE DE ST-HYACINTHE", "designationCode": "A", "categoryCode": "03", "address": "1195 RUE SAINT-ANTOINE        BUREAU 111", "city": "SAINT-HYACINTHE", "province": "QC", "country": "CA", "postalCode": "J2S3K6", "twitter": "None", "instagram": "None", "facebook": "None", "youtube": "None", "website": "None", "summary": "None", "logo": "None", "latitude": 45.625280134601034, "longitude": -72.94288513737098}, "141461723RR0001": {"name": "FONDATION DES OEUVRES CHARITABLES ST-ROCH INC.", "designationCode": "C", "categoryCode": "09", "address": "6630 RUE FONTAINE", "city": "SHERBROOKE", "province": "QC", "country": "CA", "postalCode": "J1N2T3", "twitter": "None", "instagram": "None", "facebook": "None", "youtube": "None", "website": "None", "summary": "None", "logo": "None", "latitude": 45.348850897570635, "longitude": -71.99128501552323}, "885566026RR0001": {"name": "FONDATION DES OEUVRES DU HAVRE", "designationCode": "A", "categoryCode": "03", "address": "1153, CHEMIN VILLEBOIS", "city": "ALMA", "province": "QC", "country": "CA", "postalCode": "G8B5V2", "twitter": "None", "instagram": "None", "facebook": "None", "youtube": "None", "website": "None", "summary": "None", "logo": "None", "latitude": 48.53540340002255, "longitude": -71.61479103300837}, "140687021RR0001": {"name": "FONDATION DES OEUVRES T\u00c9L\u00c9-OUTAOUAISES INC.", "designationCode": "C", "categoryCode": "09", "address": "144 RUE JEAN-RENE-MONETTE", "city": "GATINEAU", "province": "QC", "country": "CA", "postalCode": "J8P5B7", "twitter": "None", "instagram": "None", "facebook": "None", "youtube": "None", "website": "None", "summary": "None", "logo": "None", "latitude": 45.482402189566606, "longitude": -75.64810553701909}, "120817564RR0001": {"name": "FONDATION DES ORGANISMES COMMUNAUTAIRES DE LA R\u00c9GION DE L'AMIANTE", "designationCode": "A", "categoryCode": "03", "address": "37 RUE NOTRE-DAME OUEST", "city": "THETFORD-MINES", "province": "QC", "country": "CA", "postalCode": "G6G1J1", "twitter": "None", "instagram": "None", "facebook": "None", "youtube": "None", "website": "None", "summary": "None", "logo": "None", "latitude": 46.090591542068076, "longitude": -71.30077859677387}, "101835643RR0001": {"name": "FONDATION DES PARAPLEGIQUES DU QUEBEC/QUEBEC PARAPLEGIC FOUNDATION", "designationCode": "A", "categoryCode": "13", "address": "201-1720 MCNAMARA", "city": "LAVAL", "province": "QC", "country": "CA", "postalCode": "H7S2P2", "twitter": "None", "instagram": "None", "facebook": "None", "youtube": "None", "website": "None", "summary": "None", "logo": "None", "latitude": 45.56985653341243, "longitude": -73.72215157735548}, "840047161RR0001": {"name": "FONDATION DES PETITS CHANTEURS DE CHARLESBOURG", "designationCode": "C", "categoryCode": "22", "address": "650, AVENUE DU BOURG-ROYAL    QU\u00c9BEC", "city": "QU\u00c9BEC", "province": "QC", "country": "CA", "postalCode": "G2L1M8", "twitter": "None", "instagram": "None", "facebook": "None", "youtube": "None", "website": "None", "summary": "None", "logo": "None", "latitude": 46.876831175976605, "longitude": -71.24378719813629}, "118922152RR0001": {"name": "FONDATION DES PETITS CHANTEURS DE TROIS-RIVI\u00c8RES", "designationCode": "C", "categoryCode": "22", "address": "10520 BOUL. DES FORGES", "city": "TROIS-RIVI\u00c8RES", "province": "QC", "country": "CA", "postalCode": "G9C1B3", "twitter": "None", "instagram": "None", "facebook": "None", "youtube": "None", "website": "None", "summary": "None", "logo": "None", "latitude": 46.39398027451081, "longitude": -72.6698550180334}, "118922160RR0001": {"name": "FONDATION DES PETITS FR\u00c8RES DES PAUVRES", "designationCode": "A", "categoryCode": "05", "address": "4624 RUE GARNIER", "city": "MONTR\u00c9AL", "province": "QC", "country": "CA", "postalCode": "H2J3S7", "twitter": "None", "instagram": "None", "facebook": "None", "youtube": "None", "website": "None", "summary": "None", "logo": "None", "latitude": 45.53165984067182, "longitude": -73.57829244284136}, "709979090RR0001": {"name": "FONDATION DES POMPIERS DE L\u00c9VIS", "designationCode": "C", "categoryCode": "09", "address": "140 RUE ROCH-EMILE-OLIVIER", "city": "LEVIS", "province": "QC", "country": "CA", "postalCode": "G6K1G3", "twitter": "None", "instagram": "None", "facebook": "None", "youtube": "None", "website": "None", "summary": "None", "logo": "None", "latitude": 46.69427400000005, "longitude": -71.28819349999993}, "129199659RR0001": {"name": "FONDATION DES POMPIERS DU QUEBEC POUR LES GRANDS BRULES", "designationCode": "A", "categoryCode": "13", "address": "SUITE 200                     2575 PLACE CHASS\u00c9", "city": "MONTREAL", "province": "QC", "country": "CA", "postalCode": "H1Y2C3", "twitter": "None", "instagram": "None", "facebook": "None", "youtube": "None", "website": "None", "summary": "None", "logo": "None", "latitude": 45.54298945573888, "longitude": -73.57012421689083}, "890687155RR0001": {"name": "FONDATION DES PREMI\u00c8RES-SEIGNEURIES", "designationCode": "C", "categoryCode": "21", "address": "643 AVE. DU CENACLE", "city": "BEAUPORT", "province": "QC", "country": "CA", "postalCode": "G1E1B3", "twitter": "None", "instagram": "None", "facebook": "None", "youtube": "None", "website": "None", "summary": "None", "logo": "None", "latitude": 46.871654446044026, "longitude": -71.19202333389116}, "887131399RR0001": {"name": "FONDATION DES RESIDENCES MANCE-DECARY", "designationCode": "A", "categoryCode": "11", "address": "1800 RUE SAINT-JACQUES", "city": "MONTREAL", "province": "QC", "country": "CA", "postalCode": "H3J2R5", "twitter": "None", "instagram": "None", "facebook": "None", "youtube": "None", "website": "None", "summary": "None", "logo": "None", "latitude": 45.48973012986917, "longitude": -73.57152880691362}, "101835650RR0001": {"name": "FONDATION DES RESSOURCES ALTERNATIVES DU SUD-OUEST", "designationCode": "C", "categoryCode": "01", "address": "30 RUE ST-THOMAS, BUREAU 200", "city": "SALABERRY-DE-VALLEYFIELD", "province": "QC", "country": "CA", "postalCode": "J6T4J2", "twitter": "None", "instagram": "None", "facebook": "None", "youtube": "None", "website": "None", "summary": "None", "logo": "None", "latitude": 45.25532801053158, "longitude": -74.13361876496019}, "852974435RR0001": {"name": "FONDATION DES SAMARES", "designationCode": "C", "categoryCode": "21", "address": "4671 RUE PRINCIPALE", "city": "SAINT-FELIX-DE-VALOIS", "province": "QC", "country": "CA", "postalCode": "J0K2M0", "twitter": "None", "instagram": "None", "facebook": "None", "youtube": "None", "website": "None", "summary": "None", "logo": "None", "latitude": 46.16952319037466, "longitude": -73.42542979306381}, "873771927RR0001": {"name": "FONDATION DES SCOUTS DU DISTRICT D'OTTAWA", "designationCode": "A", "categoryCode": "03", "address": "123 AVENUE BEECHWOOD", "city": "OTTAWA", "province": "ON", "country": "CA", "postalCode": "K1M1L5", "twitter": "None", "instagram": "None", "facebook": "None", "youtube": "None", "website": "None", "summary": "None", "logo": "None", "latitude": 45.44177361117192, "longitude": -75.67232008050081}, "732285093RR0001": {"name": "FONDATION DES SERVICES ANIMALIERS DE LA VALL\u00c9E DU RICHELIEU", "designationCode": "C", "categoryCode": "54", "address": "2863 CH DE L'INDUSTRIE", "city": "SAINT-MATHIEU-DE-BELOEIL", "province": "QC", "country": "CA", "postalCode": "J3G0S3", "twitter": "None", "instagram": "None", "facebook": "None", "youtube": "None", "website": "None", "summary": "None", "logo": "None", "latitude": 45.592855311154544, "longitude": -73.25199811394188}, "870476140RR0001": {"name": "FONDATION DES SERVICES COMMUNAUTAIRES DE PRESCOTT ET/AND RUSSEL COMMUNITY SERVICES FOUNDATION", "designationCode": "A", "categoryCode": "03", "address": "B - 295 MAIN ST W", "city": "HAWKESBURY", "province": "ON", "country": "CA", "postalCode": "K6A0B3", "twitter": "None", "instagram": "None", "facebook": "None", "youtube": "None", "website": "None", "summary": "None", "logo": "None", "latitude": 45.61043735820719, "longitude": -74.61858965589197}, "888729050RR0001": {"name": "FONDATION DES SERVICES D'EMPLOI POUR LES JEUNES/YOUTH EMPLOYMENT SERVICES FOUNDATION", "designationCode": "C", "categoryCode": "21", "address": "666 SHERBROOKE WEST           SUITE 700", "city": "MONTR\u00c9AL", "province": "QC", "country": "CA", "postalCode": "H3A1E7", "twitter": "None", "instagram": "None", "facebook": "None", "youtube": "None", "website": "None", "summary": "None", "logo": "None", "latitude": 45.50511043767683, "longitude": -73.5733004482084}, "848316329RR0001": {"name": "FONDATION DES SERVICES DE SANTE DES CANTONS", "designationCode": "C", "categoryCode": "11", "address": "755 RUE CORMIER", "city": "DRUMMONDVILLE", "province": "QC", "country": "CA", "postalCode": "J2C6P7", "twitter": "None", "instagram": "None", "facebook": "None", "youtube": "None", "website": "None", "summary": "None", "logo": "None", "latitude": 45.88806347789856, "longitude": -72.5151456112006}, "141083840RR0001": {"name": "FONDATION DES SERVICES SANTE ET SOCIAUX DE PORTNEUF", "designationCode": "A", "categoryCode": "13", "address": "700, RUE SAINT-CYRILLE", "city": "SAINT-RAYMOND", "province": "QC", "country": "CA", "postalCode": "G3L1W1", "twitter": "None", "instagram": "None", "facebook": "None", "youtube": "None", "website": "None", "summary": "None", "logo": "None", "latitude": 46.89622179286841, "longitude": -71.82262843369905}, "895314284RR0001": {"name": "FONDATION DES SKIEURS HANDICAPES DU QUEBEC/QUEBEC FOUNDATION FOR DISABLED SKIERS", "designationCode": "C", "categoryCode": "56", "address": "2000 BOUL DU BEAU-PRE", "city": "BEAUPRE", "province": "QC", "country": "CA", "postalCode": "G0A1E0", "twitter": "None", "instagram": "None", "facebook": "None", "youtube": "None", "website": "None", "summary": "None", "logo": "None", "latitude": 47.075065377211374, "longitude": -70.90342685508229}, "860451129RR0001": {"name": "FONDATION DES TOURS GOUIN", "designationCode": "C", "categoryCode": "09", "address": "6835 BOUL GOUIN EST", "city": "MONTREAL-NORD", "province": "QC", "country": "CA", "postalCode": "H1G6M4", "twitter": "None", "instagram": "None", "facebook": "None", "youtube": "None", "website": "None", "summary": "None", "logo": "None", "latitude": 45.62764426092081, "longitude": -73.62149157623028}, "878248111RR0001": {"name": "FONDATION DES VIOLONS DU ROY", "designationCode": "A", "categoryCode": "03", "address": "995 PLACE D'YOUVILLE", "city": "QUEBEC", "province": "QC", "country": "CA", "postalCode": "G1R3P1", "twitter": "None", "instagram": "None", "facebook": "None", "youtube": "None", "website": "None", "summary": "None", "logo": "None", "latitude": 46.81223606050551, "longitude": -71.21349540091752}, "880274873RR0001": {"name": "FONDATION DES YEUX POUR ENTENDRE INC", "designationCode": "C", "categoryCode": "22", "address": "435 RUE TANGUAY               SUITE 3", "city": "TROIS-RIVIERES-OUEST", "province": "QC", "country": "CA", "postalCode": "G9A6G3", "twitter": "None", "instagram": "None", "facebook": "None", "youtube": "None", "website": "None", "summary": "None", "logo": "None", "latitude": 46.31962478100303, "longitude": -72.57391940065773}, "811751148RR0001": {"name": "FONDATION DESAUTELS-DUGUAY", "designationCode": "B", "categoryCode": "03", "address": "430 HILLCREST", "city": "SAINT-BRUNO", "province": "QC", "country": "CA", "postalCode": "J3V2P1", "twitter": "None", "instagram": "None", "facebook": "None", "youtube": "None", "website": "None", "summary": "None", "logo": "None", "latitude": 45.52739787370887, "longitude": -73.32445682817834}, "893663658RR0001": {"name": "FONDATION DESJARDINS", "designationCode": "C", "categoryCode": "23", "address": "1 COMPLEXE", "city": "MONTREAL", "province": "QC", "country": "CA", "postalCode": "H5B1B2", "twitter": "None", "instagram": "None", "facebook": "None", "youtube": "None", "website": "None", "summary": "None", "logo": "None", "latitude": 45.51239400000006, "longitude": -73.55469049999994}, "857819049RR0001": {"name": "FONDATION DESJARDINS-MOREAU", "designationCode": "B", "categoryCode": "03", "address": "1501 AVENUE MCGILL COLLEGE    BUREAU 900", "city": "MONTREAL", "province": "QC", "country": "CA", "postalCode": "H3A3M8", "twitter": "None", "instagram": "None", "facebook": "None", "youtube": "None", "website": "None", "summary": "None", "logo": "None", "latitude": 45.50241910883465, "longitude": -73.57189910473797}, "885827758RR0001": {"name": "FONDATION DIC ANN / DIC ANN'S FOUNDATION", "designationCode": "B", "categoryCode": "03", "address": "7830, CROISSANT BEAUBOIS", "city": "MONTREAL", "province": "QC", "country": "CA", "postalCode": "H4K4Y4", "twitter": "None", "instagram": "None", "facebook": "None", "youtube": "None", "website": "None", "summary": "None", "logo": "None", "latitude": 45.44471013129594, "longitude": -73.898889957035}, "118922194RR0001": {"name": "FONDATION DIOCESAINE IGNACE BOURGET (MONTR\u00c9AL)", "designationCode": "A", "categoryCode": "09", "address": "2000 RUE SHERBROOKE O", "city": "MONTREAL", "province": "QC", "country": "CA", "postalCode": "H3H1G4", "twitter": "None", "instagram": "None", "facebook": "None", "youtube": "None", "website": "None", "summary": "None", "logo": "None", "latitude": 45.49368344489018, "longitude": -73.5842704953837}, "119000735RR0001": {"name": "FONDATION DIOCESAINE L'ASSOMPTION (MONTR\u00c9AL)", "designationCode": "A", "categoryCode": "21", "address": "302-2930 EDOUARD MONTPETIT", "city": "MONTREAL", "province": "QC", "country": "CA", "postalCode": "H3T1J7", "twitter": "None", "instagram": "None", "facebook": "None", "youtube": "None", "website": "None", "summary": "None", "logo": "None", "latitude": 45.50280257118131, "longitude": -73.61922842212492}, "894697614RR0001": {"name": "FONDATION DMV", "designationCode": "C", "categoryCode": "54", "address": "2300 54E AV", "city": "LACHINE", "province": "QC", "country": "CA", "postalCode": "H8T3R2", "twitter": "None", "instagram": "None", "facebook": "None", "youtube": "None", "website": "None", "summary": "None", "logo": "None", "latitude": 45.459283913411, "longitude": -73.72317513832327}, "885134221RR0001": {"name": "FONDATION DOCTEUR BENOIT DESHAIES", "designationCode": "C", "categoryCode": "11", "address": "1988, RUE STE-CATHERINE EST   BUREAU 100", "city": "MONTREAL", "province": "QC", "country": "CA", "postalCode": "H2K2H7", "twitter": "None", "instagram": "None", "facebook": "None", "youtube": "None", "website": "None", "summary": "None", "logo": "None", "latitude": 45.52410367470721, "longitude": -73.5509071168274}, "118922228RR0001": {"name": "FONDATION DOCTEUR JACQUES PARADIS", "designationCode": "C", "categoryCode": "11", "address": "679 2E RUE EST", "city": "LA SARRE", "province": "QC", "country": "CA", "postalCode": "J9Z2X7", "twitter": "None", "instagram": "None", "facebook": "None", "youtube": "None", "website": "None", "summary": "None", "logo": "None", "latitude": 48.78645572463426, "longitude": -79.2002841465173}, "118922251RR0001": {"name": "FONDATION DOLLARD MORIN", "designationCode": "B", "categoryCode": "05", "address": "2600 BOUL SAINT-JOSEPH EST", "city": "MONTREAL", "province": "QC", "country": "CA", "postalCode": "H1Y2A4", "twitter": "None", "instagram": "None", "facebook": "None", "youtube": "None", "website": "None", "summary": "None", "logo": "None", "latitude": 45.543765333314234, "longitude": -73.57167213177374}, "869806976RR0001": {"name": "FONDATION DOMAINE MONTAUBAN", "designationCode": "C", "categoryCode": "56", "address": "120 4E RUE", "city": "DISRAELI", "province": "QC", "country": "CA", "postalCode": "G0N1E0", "twitter": "None", "instagram": "None", "facebook": "None", "youtube": "None", "website": "None", "summary": "None", "logo": "None", "latitude": 45.90975897694629, "longitude": -71.3608649851406}, "808860472RR0001": {"name": "FONDATION DOMINIQUE BOUDREAU", "designationCode": "C", "categoryCode": "49", "address": "2075 CH. DE SAINTE-CATHERINE", "city": "SHERBROOKE", "province": "QC", "country": "CA", "postalCode": "J1N1E7", "twitter": "None", "instagram": "None", "facebook": "None", "youtube": "None", "website": "None", "summary": "None", "logo": "None", "latitude": 45.349892964121274, "longitude": -71.953714268044}, "835217142RR0001": {"name": "FONDATION DOMUS DOMINI", "designationCode": "A", "categoryCode": "03", "address": "175 GRANDE-ALLEE OUEST", "city": "QUEBEC", "province": "QC", "country": "CA", "postalCode": "G1R2H1", "twitter": "None", "instagram": "None", "facebook": "None", "youtube": "None", "website": "None", "summary": "None", "logo": "None", "latitude": 46.80137147068521, "longitude": -71.22507813734231}, "859716805RR0001": {"name": "FONDATION DONAT GRENIER", "designationCode": "B", "categoryCode": "13", "address": "375, RUE LABB\u00c9", "city": "THETFORD MINES", "province": "QC", "country": "CA", "postalCode": "G6G1Z4", "twitter": "None", "instagram": "None", "facebook": "None", "youtube": "None", "website": "None", "summary": "None", "logo": "None", "latitude": 46.098617970050036, "longitude": -71.29747433599726}, "118922269RR0001": {"name": "FONDATION DONATIEN FREMONT INC.", "designationCode": "C", "categoryCode": "21", "address": "267 RUE DALHOUSIE", "city": "OTTAWA", "province": "ON", "country": "CA", "postalCode": "K1N7E3", "twitter": "None", "instagram": "None", "facebook": "None", "youtube": "None", "website": "None", "summary": "None", "logo": "None", "latitude": 45.43049899001668, "longitude": -75.69247797181038}, "882627185RR0001": {"name": "FONDATION DR HENRI SAMSON", "designationCode": "C", "categoryCode": "29", "address": "1307 CH. SAINTE-FOY", "city": "QUEBEC", "province": "QC", "country": "CA", "postalCode": "G1S2N2", "twitter": "None", "instagram": "None", "facebook": "None", "youtube": "None", "website": "None", "summary": "None", "logo": "None", "latitude": 46.79495295002608, "longitude": -71.25374966789786}, "891645061RR0001": {"name": "FONDATION DR ROMARIC BOULAY INC", "designationCode": "C", "categoryCode": "21", "address": "21 RUE CANADA", "city": "SAINT-QUENTIN", "province": "NB", "country": "CA", "postalCode": "E8A2P6", "twitter": "None", "instagram": "None", "facebook": "None", "youtube": "None", "website": "None", "summary": "None", "logo": "None", "latitude": 47.498660857918885, "longitude": -67.39249159436646}, "854973542RR0001": {"name": "FONDATION DR. GABRIEL MARQUIS", "designationCode": "B", "categoryCode": "15", "address": "600 LA GAUCHETIERE O          28E SUITE 1762", "city": "MONTREAL", "province": "QC", "country": "CA", "postalCode": "H3B4L2", "twitter": "None", "instagram": "None", "facebook": "None", "youtube": "None", "website": "None", "summary": "None", "logo": "None", "latitude": 45.50188920231989, "longitude": -73.56436485827253}, "118922277RR0001": {"name": "FONDATION DRAPEAU ET DESCHAMBAULT", "designationCode": "A", "categoryCode": "03", "address": "100 RUE CHANOINE LIONEL-GROULX", "city": "SAINTE THERESE", "province": "QC", "country": "CA", "postalCode": "J7E5E1", "twitter": "None", "instagram": "None", "facebook": "None", "youtube": "None", "website": "None", "summary": "None", "logo": "None", "latitude": 45.640655520370686, "longitude": -73.84113406878673}, "866892094RR0001": {"name": "FONDATION DROIT AU TALENT", "designationCode": "C", "categoryCode": "21", "address": "3785 BOUL. SAINTE-ROSE", "city": "LAVAL", "province": "QC", "country": "CA", "postalCode": "H7P1C6", "twitter": "None", "instagram": "None", "facebook": "None", "youtube": "None", "website": "None", "summary": "None", "logo": "None", "latitude": 45.579859791880395, "longitude": -73.82277604708838}, "869885046RR0001": {"name": "FONDATION DROITS & SANT\u00c9 MENTALE (FDSM)", "designationCode": "A", "categoryCode": "03", "address": "145 RUE EDDY", "city": "GATINEAU", "province": "QC", "country": "CA", "postalCode": "J8X2W7", "twitter": "None", "instagram": "None", "facebook": "None", "youtube": "None", "website": "None", "summary": "None", "logo": "None", "latitude": 45.429900537884464, "longitude": -75.7202623415372}, "894028323RR0001": {"name": "FONDATION DU BACCALAUR\u00c9AT INTERNATIONAL/\u00c9COLE MATHIEU-MARTIN INC.", "designationCode": "C", "categoryCode": "20", "address": "511 RUE CHAMPLAIN", "city": "DIEPPE", "province": "NB", "country": "CA", "postalCode": "E1A1P2", "twitter": "None", "instagram": "None", "facebook": "None", "youtube": "None", "website": "None", "summary": "None", "logo": "None", "latitude": 46.09843596684911, "longitude": -64.73406543178739}}