{"107833394RR0080": {"name": "PENTECOSTAL ASSEMBLY", "designationCode": "C", "categoryCode": "36", "address": "PO BOX 91", "city": "ROBERTS ARM", "province": "NL", "country": "CA", "postalCode": "A0J1R0", "twitter": "None", "instagram": "None", "facebook": "None", "youtube": "None", "website": "None", "summary": "None", "logo": "None", "latitude": 49.42983253296264, "longitude": -56.084323803080146}, "107833394RR0081": {"name": "PENTECOSTAL ASSEMBLY", "designationCode": "C", "categoryCode": "36", "address": "11 FIRST STREET, P.O.BOX 88", "city": "RIVER OF PONDS", "province": "NL", "country": "CA", "postalCode": "A0K4M0", "twitter": "None", "instagram": "None", "facebook": "None", "youtube": "None", "website": "None", "summary": "None", "logo": "None", "latitude": 50.53014461550784, "longitude": -57.38719269224608}, "107833394RR0082": {"name": "PENTECOSTAL ASSEMBLY", "designationCode": "C", "categoryCode": "36", "address": "PO BOX 94", "city": "PORT HOPE SIMPSON LAB.", "province": "NL", "country": "CA", "postalCode": "A0K4E0", "twitter": "None", "instagram": "None", "facebook": "None", "youtube": "None", "website": "None", "summary": "None", "logo": "None", "latitude": 52.547210000000064, "longitude": -56.30776999999995}, "107833394RR0085": {"name": "PENTECOSTAL ASSEMBLY", "designationCode": "C", "categoryCode": "36", "address": "P.O. BOX 64", "city": "POOL'S COVE", "province": "NL", "country": "CA", "postalCode": "A0H2B0", "twitter": "None", "instagram": "None", "facebook": "None", "youtube": "None", "website": "None", "summary": "None", "logo": "None", "latitude": 47.68284300000006, "longitude": -55.431174499999926}, "107833394RR0086": {"name": "PENTECOSTAL ASSEMBLY", "designationCode": "C", "categoryCode": "36", "address": "P.O. BOX 10", "city": "POINT LEAMINGTON", "province": "NL", "country": "CA", "postalCode": "A0H1Z0", "twitter": "None", "instagram": "None", "facebook": "None", "youtube": "None", "website": "None", "summary": "None", "logo": "None", "latitude": 49.34083430999183, "longitude": -55.40383605273618}, "107833394RR0089": {"name": "PENTECOSTAL ASSEMBLY", "designationCode": "C", "categoryCode": "36", "address": "", "city": "NORTH HARBOUR PLAC. BAY", "province": "NL", "country": "CA", "postalCode": "A0E2N0", "twitter": "None", "instagram": "None", "facebook": "None", "youtube": "None", "website": "None", "summary": "None", "logo": "None", "latitude": 48.07606335921356, "longitude": -53.92891311700269}, "107833394RR0093": {"name": "PENTECOSTAL ASSEMBLY", "designationCode": "C", "categoryCode": "36", "address": "BOX 40", "city": "MUSGRAVE HARBOUR", "province": "NL", "country": "CA", "postalCode": "A0G3J0", "twitter": "None", "instagram": "None", "facebook": "None", "youtube": "None", "website": "None", "summary": "None", "logo": "None", "latitude": 49.44766200000005, "longitude": -53.96427349999993}, "107833394RR0094": {"name": "PENTECOSTAL ASSEMBLY", "designationCode": "C", "categoryCode": "36", "address": "", "city": "MILES COVE GREEN BAY", "province": "NL", "country": "CA", "postalCode": "A0J1L0", "twitter": "None", "instagram": "None", "facebook": "None", "youtube": "None", "website": "None", "summary": "None", "logo": "None", "latitude": 49.54211700000006, "longitude": -55.780212499999934}, "107833394RR0096": {"name": "PENTECOSTAL ASSEMBLY", "designationCode": "C", "categoryCode": "36", "address": "P.O. BOX 70", "city": "MAIN BROOK", "province": "NL", "country": "CA", "postalCode": "A0K3N0", "twitter": "None", "instagram": "None", "facebook": "None", "youtube": "None", "website": "None", "summary": "None", "logo": "None", "latitude": 51.184030000000064, "longitude": -56.01924999999994}, "107833394RR0097": {"name": "PENTECOSTAL ASSEMBLY", "designationCode": "C", "categoryCode": "36", "address": "P.O. BOX 9", "city": "LITTLE BURNT BAY", "province": "NL", "country": "CA", "postalCode": "A0G3B0", "twitter": "None", "instagram": "None", "facebook": "None", "youtube": "None", "website": "None", "summary": "None", "logo": "None", "latitude": 49.32589200000005, "longitude": -55.065823999999935}, "107833394RR0098": {"name": "PENTECOSTAL ASSEMBLY", "designationCode": "C", "categoryCode": "36", "address": "BOX 693", "city": "LEWISPORTE", "province": "NL", "country": "CA", "postalCode": "A0G3A0", "twitter": "None", "instagram": "None", "facebook": "None", "youtube": "None", "website": "None", "summary": "None", "logo": "None", "latitude": 49.24179000000004, "longitude": -55.05992999999995}, "107833394RR0100": {"name": "PENTECOSTAL ASSEMBLY", "designationCode": "C", "categoryCode": "36", "address": "BOX 51", "city": "LA SCIE", "province": "NL", "country": "CA", "postalCode": "A0K3M0", "twitter": "None", "instagram": "None", "facebook": "None", "youtube": "None", "website": "None", "summary": "None", "logo": "None", "latitude": 49.94923200000005, "longitude": -55.610031499999934}, "107833394RR0103": {"name": "PENTECOSTAL ASSEMBLY", "designationCode": "C", "categoryCode": "36", "address": "PO BOX 21", "city": "HARE BAY", "province": "NL", "country": "CA", "postalCode": "A0G2P0", "twitter": "None", "instagram": "None", "facebook": "None", "youtube": "None", "website": "None", "summary": "None", "logo": "None", "latitude": 48.85465000000005, "longitude": -54.009999999999934}, "107833394RR0104": {"name": "PENTECOSTAL ASSEMBLY", "designationCode": "C", "categoryCode": "36", "address": "P.O. BOX 2", "city": "HANTS HARBOUR", "province": "NL", "country": "CA", "postalCode": "A0B1Y0", "twitter": "None", "instagram": "None", "facebook": "None", "youtube": "None", "website": "None", "summary": "None", "logo": "None", "latitude": 47.27004350149087, "longitude": -53.8659576775996}, "107833394RR0105": {"name": "PENTECOSTAL ASSEMBLY", "designationCode": "C", "categoryCode": "36", "address": "PO BOX 40", "city": "GRIGUET", "province": "NL", "country": "CA", "postalCode": "A0K2X0", "twitter": "None", "instagram": "None", "facebook": "None", "youtube": "None", "website": "None", "summary": "None", "logo": "None", "latitude": 51.94600800000005, "longitude": -55.35920599999993}, "107833394RR0106": {"name": "PENTECOSTAL ASSEMBLY", "designationCode": "C", "categoryCode": "36", "address": "PO BOX 124", "city": "ARNOLD'S COVE", "province": "NL", "country": "CA", "postalCode": "A0B1A0", "twitter": "None", "instagram": "None", "facebook": "None", "youtube": "None", "website": "None", "summary": "None", "logo": "None", "latitude": 47.77260000000007, "longitude": -53.978489999999965}, "107833394RR0107": {"name": "PENTECOSTAL ASSEMBLY", "designationCode": "C", "categoryCode": "36", "address": "BOX 39", "city": "GLOVERTOWN", "province": "NL", "country": "CA", "postalCode": "A0G2L0", "twitter": "None", "instagram": "None", "facebook": "None", "youtube": "None", "website": "None", "summary": "None", "logo": "None", "latitude": 48.68247300000006, "longitude": -54.03195799999993}, "107833394RR0114": {"name": "PENTECOSTAL ASSEMBLY", "designationCode": "C", "categoryCode": "39", "address": "45 BENNETT'S AVE", "city": "DEER LAKE", "province": "NL", "country": "CA", "postalCode": "A8A1B2", "twitter": "None", "instagram": "None", "facebook": "None", "youtube": "None", "website": "None", "summary": "None", "logo": "None", "latitude": 49.18239890488486, "longitude": -57.435168111509704}, "107833394RR0115": {"name": "PENTECOSTAL ASSEMBLY", "designationCode": "C", "categoryCode": "36", "address": "118 MAIN STREET               POST OFFICE BOX 40", "city": "COX'S COVE", "province": "NL", "country": "CA", "postalCode": "A0L1C0", "twitter": "None", "instagram": "None", "facebook": "None", "youtube": "None", "website": "None", "summary": "None", "logo": "None", "latitude": 49.011921483222594, "longitude": -57.612732884007926}, "107833394RR0116": {"name": "PENTECOSTAL ASSEMBLY", "designationCode": "C", "categoryCode": "36", "address": "PO BOX 39", "city": "COTTLES ISLAND", "province": "NL", "country": "CA", "postalCode": "A0G1S0", "twitter": "None", "instagram": "None", "facebook": "None", "youtube": "None", "website": "None", "summary": "None", "logo": "None", "latitude": 49.516620000000046, "longitude": -54.88144999999997}, "107833394RR0117": {"name": "PENTECOSTAL ASSEMBLY", "designationCode": "C", "categoryCode": "36", "address": "14 TRINITY CRES", "city": "CLARENVILLE", "province": "NL", "country": "CA", "postalCode": "A5A1Z7", "twitter": "None", "instagram": "None", "facebook": "None", "youtube": "None", "website": "None", "summary": "None", "logo": "None", "latitude": 48.161351013255036, "longitude": -53.96787867985533}, "107833394RR0123": {"name": "PENTECOSTAL ASSEMBLY", "designationCode": "C", "categoryCode": "36", "address": "PO BOX 141", "city": "RODDICKTON", "province": "NL", "country": "CA", "postalCode": "A0K4P0", "twitter": "None", "instagram": "None", "facebook": "None", "youtube": "None", "website": "None", "summary": "None", "logo": "None", "latitude": 50.87235000000004, "longitude": -56.121699999999976}, "107833394RR0124": {"name": "PENTECOSTAL ASSEMBLY", "designationCode": "C", "categoryCode": "36", "address": "PO BOX 250 STN B", "city": "HAPPY VALLEY LABRADOR", "province": "NL", "country": "CA", "postalCode": "A0P1E0", "twitter": "None", "instagram": "None", "facebook": "None", "youtube": "None", "website": "None", "summary": "None", "logo": "None", "latitude": 53.30952000000008, "longitude": -60.37716999999998}, "133059493RR0001": {"name": "PENTECOSTAL ASSEMBLY", "designationCode": "C", "categoryCode": "36", "address": "287 MCNAMEE RD", "city": "MCNAMEE", "province": "NB", "country": "CA", "postalCode": "E9C1G9", "twitter": "None", "instagram": "None", "facebook": "None", "youtube": "None", "website": "None", "summary": "None", "logo": "None", "latitude": 46.50495211854774, "longitude": -66.29349286863628}, "107833394RR0128": {"name": "PENTECOSTAL ASSEMBLY (PARK AVENUE PENTECOSTAL CHURCH)", "designationCode": "C", "categoryCode": "36", "address": "P.O. BOX 26", "city": "MOUNT PEARL", "province": "NL", "country": "CA", "postalCode": "A1N2C1", "twitter": "None", "instagram": "None", "facebook": "None", "youtube": "None", "website": "None", "summary": "None", "logo": "None", "latitude": 47.51892600000005, "longitude": -52.81489249999993}, "107833394RR0125": {"name": "PENTECOSTAL ASSEMBLY OF ARNOLDS COVE", "designationCode": "C", "categoryCode": "36", "address": "PO BOX 124", "city": "ARNOLDS COVE", "province": "NL", "country": "CA", "postalCode": "A0B1A0", "twitter": "None", "instagram": "None", "facebook": "None", "youtube": "None", "website": "None", "summary": "None", "logo": "None", "latitude": 47.77260000000007, "longitude": -53.97850999999997}, "871627741RR0001": {"name": "PENTECOSTAL ASSEMBLY,", "designationCode": "C", "categoryCode": "36", "address": "BOX 1118", "city": "SHELLBROOK", "province": "SK", "country": "CA", "postalCode": "S0J2E0", "twitter": "None", "instagram": "None", "facebook": "None", "youtube": "None", "website": "None", "summary": "None", "logo": "None", "latitude": 53.21857000000006, "longitude": -106.38843999999995}, "871695748RR0001": {"name": "PENTECOSTAL ASSEMBLY,", "designationCode": "C", "categoryCode": "36", "address": "BOX 369", "city": "CANWOOD", "province": "SK", "country": "CA", "postalCode": "S0J0K0", "twitter": "None", "instagram": "None", "facebook": "None", "youtube": "None", "website": "None", "summary": "None", "logo": "None", "latitude": 53.36680000000007, "longitude": -106.60110999999995}, "107833394RR0072": {"name": "PENTECOSTAL ASSEMBLY, BETHESDA", "designationCode": "C", "categoryCode": "36", "address": "1 ESCASONI PLACE", "city": "ST. JOHN'S", "province": "NL", "country": "CA", "postalCode": "A1A0K7", "twitter": "None", "instagram": "None", "facebook": "None", "youtube": "None", "website": "None", "summary": "None", "logo": "None", "latitude": 47.591235943649444, "longitude": -52.71969515941508}, "107833394RR0071": {"name": "PENTECOSTAL ASSEMBLY, ELIM TABERNACLE", "designationCode": "C", "categoryCode": "36", "address": "P O BOX 13006, STN. A", "city": "ST. JOHN'S", "province": "NL", "country": "CA", "postalCode": "A1B3V8", "twitter": "None", "instagram": "None", "facebook": "None", "youtube": "None", "website": "None", "summary": "None", "logo": "None", "latitude": 47.56938900000006, "longitude": -52.78609699999993}, "872106471RR0001": {"name": "PENTECOSTAL CAMPUS MINISTRIES - UNIVERSITY OF CALGARY", "designationCode": "C", "categoryCode": "39", "address": "14 PATTERSON GREEN SW", "city": "CALGARY", "province": "AB", "country": "CA", "postalCode": "T3H3J3", "twitter": "None", "instagram": "None", "facebook": "None", "youtube": "None", "website": "None", "summary": "None", "logo": "None", "latitude": 51.06463351901436, "longitude": -114.18017418927813}, "863735619RR0001": {"name": "PENTECOSTAL CAMPUS MINISTRIES OF THE UNIVERSITY OF ALBERTA", "designationCode": "C", "categoryCode": "36", "address": "169 HUB INTERNATIONAL", "city": "EDMONTON", "province": "AB", "country": "CA", "postalCode": "T6G2E1", "twitter": "None", "instagram": "None", "facebook": "None", "youtube": "None", "website": "None", "summary": "None", "logo": "None", "latitude": 53.52053100000006, "longitude": -113.52709699999994}, "119090215RR0001": {"name": "PENTECOSTAL CHAPEL", "designationCode": "C", "categoryCode": "36", "address": "BOX 42", "city": "FORT GOOD HOPE", "province": "NT", "country": "CA", "postalCode": "X0E0H0", "twitter": "None", "instagram": "None", "facebook": "None", "youtube": "None", "website": "None", "summary": "None", "logo": "None", "latitude": 65.28629343269802, "longitude": -126.89722911695935}, "131454506RR0001": {"name": "PENTECOSTAL CHRISTIAN LIFE ASSEMBLY", "designationCode": "C", "categoryCode": "36", "address": "BOX 69", "city": "BARRIERE", "province": "BC", "country": "CA", "postalCode": "V0E1E0", "twitter": "None", "instagram": "None", "facebook": "None", "youtube": "None", "website": "None", "summary": "None", "logo": "None", "latitude": 51.29213204437867, "longitude": -119.92919375050194}, "893664524RR0001": {"name": "PENTECOSTAL CHURCH", "designationCode": "C", "categoryCode": "36", "address": "BOX 431", "city": "ROCANVILLE", "province": "SK", "country": "CA", "postalCode": "S0A3L0", "twitter": "None", "instagram": "None", "facebook": "None", "youtube": "None", "website": "None", "summary": "None", "logo": "None", "latitude": 50.377500000000055, "longitude": -101.68600999999995}, "893736728RR0001": {"name": "PENTECOSTAL CHURCH", "designationCode": "C", "categoryCode": "36", "address": "BOX 13", "city": "BEAUBIER", "province": "SK", "country": "CA", "postalCode": "S0C0H0", "twitter": "None", "instagram": "None", "facebook": "None", "youtube": "None", "website": "None", "summary": "None", "logo": "None", "latitude": 49.12620000000004, "longitude": -104.07627999999994}, "895740041RR0001": {"name": "PENTECOSTAL CHURCH GOD IS LOVE", "designationCode": "C", "categoryCode": "39", "address": "1818 EGLINTON AVE WEST        UNIT 4", "city": "TORONTO", "province": "ON", "country": "CA", "postalCode": "M6E2H6", "twitter": "None", "instagram": "None", "facebook": "None", "youtube": "None", "website": "None", "summary": "None", "logo": "None", "latitude": 43.695815132407986, "longitude": -79.44981698058162}, "807155742RR0001": {"name": "PENTECOSTAL CHURCH OF EMANUEL", "designationCode": "C", "categoryCode": "39", "address": "1939 RAINBOW VALLEY ROAD      RR #1", "city": "MINESING", "province": "ON", "country": "CA", "postalCode": "L0L1Y0", "twitter": "None", "instagram": "None", "facebook": "None", "youtube": "None", "website": "None", "summary": "None", "logo": "None", "latitude": 44.488966779332515, "longitude": -79.84739928984011}, "810737114RR0001": {"name": "PENTECOSTAL CHURCH OF GOD INTERNATIONAL MOVEMENT CANADA/\u00c9GLISE DE DIEU PENTEC\u00d4TISTE MOUVEMENT INTERNATIONAL CANADA", "designationCode": "C", "categoryCode": "49", "address": "658 3E AVENUE", "city": "LACHINE", "province": "QC", "country": "CA", "postalCode": "H8S2T8", "twitter": "None", "instagram": "None", "facebook": "None", "youtube": "None", "website": "None", "summary": "None", "logo": "None", "latitude": 45.441193348673025, "longitude": -73.66661667610865}, "119090249RR0001": {"name": "PENTECOSTAL CHURCH OF GOD OF ONTARIO", "designationCode": "C", "categoryCode": "39", "address": "1B-701 ROSSLAND RD E. BOX 364", "city": "WHITBY", "province": "ON", "country": "CA", "postalCode": "L1N9K3", "twitter": "None", "instagram": "None", "facebook": "None", "youtube": "None", "website": "None", "summary": "None", "logo": "None", "latitude": 43.902493945558355, "longitude": -78.92788466814449}, "871693941RR0001": {"name": "PENTECOSTAL CHURCH,", "designationCode": "C", "categoryCode": "36", "address": "P.O. BOX 17", "city": "SONNINGDALE", "province": "SK", "country": "CA", "postalCode": "S0K4B0", "twitter": "None", "instagram": "None", "facebook": "None", "youtube": "None", "website": "None", "summary": "None", "logo": "None", "latitude": 52.38806000000005, "longitude": -107.68334999999996}, "119090389RR0001": {"name": "PENTECOSTAL CONQUERORS DEPARTMENT OF UNITED PENTECOSTAL CHURCH (ONTARIO DISTRICT)", "designationCode": "C", "categoryCode": "39", "address": "6 HARTSMERE DR", "city": "STITTSVILLE", "province": "ON", "country": "CA", "postalCode": "K2S1K2", "twitter": "None", "instagram": "None", "facebook": "None", "youtube": "None", "website": "None", "summary": "None", "logo": "None", "latitude": 45.25170656093819, "longitude": -75.9045209117089}, "132172586RR0001": {"name": "PENTECOSTAL GOSPEL LIGHTHOUSE", "designationCode": "C", "categoryCode": "39", "address": "PO BOX 1082 STN MAIN", "city": "MINTO", "province": "NB", "country": "CA", "postalCode": "E4B3Y6", "twitter": "None", "instagram": "None", "facebook": "None", "youtube": "None", "website": "None", "summary": "None", "logo": "None", "latitude": 46.07501667158901, "longitude": -66.07176923006526}, "870262334RR0001": {"name": "PENTECOSTAL HI-WAY TABERNACLE", "designationCode": "C", "categoryCode": "36", "address": "BOX 507", "city": "FORT NELSON", "province": "BC", "country": "CA", "postalCode": "V0C1R0", "twitter": "None", "instagram": "None", "facebook": "None", "youtube": "None", "website": "None", "summary": "None", "logo": "None", "latitude": 58.80501000000004, "longitude": -122.70459999999997}, "107834632RR0001": {"name": "PENTECOSTAL HOLINESS CHURCH OF CANADA, LOWER BURLINGTON", "designationCode": "C", "categoryCode": "39", "address": "351 HIGHLAND AVE              PO BOX 63", "city": "WINDSOR", "province": "NS", "country": "CA", "postalCode": "B0N2T0", "twitter": "None", "instagram": "None", "facebook": "None", "youtube": "None", "website": "None", "summary": "None", "logo": "None", "latitude": 44.988645372756565, "longitude": -64.13488523189447}, "811919273RR0001": {"name": "PENTECOSTAL HOUSE OF WORSHIP", "designationCode": "C", "categoryCode": "39", "address": "1708 WESTON ROAD", "city": "TORONTO", "province": "ON", "country": "CA", "postalCode": "M9N1V6", "twitter": "None", "instagram": "None", "facebook": "None", "youtube": "None", "website": "None", "summary": "None", "logo": "None", "latitude": 43.69767969579902, "longitude": -79.50995124467643}, "824047245RR0001": {"name": "PENTECOSTAL LIGHTHOUSE OF BLACKS HARBOUR INC.", "designationCode": "C", "categoryCode": "36", "address": "253 MAIN ST.", "city": "BLACKS HARBOUR", "province": "NB", "country": "CA", "postalCode": "E5H1B3", "twitter": "None", "instagram": "None", "facebook": "None", "youtube": "None", "website": "None", "summary": "None", "logo": "None", "latitude": 45.06822454732054, "longitude": -66.7744140877508}, "119277499RR0001": {"name": "PENTECOSTAL LIGHTHOUSE RIVER DECHUTE INC.", "designationCode": "C", "categoryCode": "36", "address": "5127 ROUTE 560", "city": "RIVER-DE-CHUTE", "province": "NB", "country": "CA", "postalCode": "E7H4S2", "twitter": "None", "instagram": "None", "facebook": "None", "youtube": "None", "website": "None", "summary": "None", "logo": "None", "latitude": 46.76512200000006, "longitude": -67.58284849999993}, "871604211RR0001": {"name": "PENTECOSTAL MISSIONARY CHURCH OF CHRIST (4TH WATCH) ONTARIO INC.", "designationCode": "C", "categoryCode": "36", "address": "2 DELBERT DR", "city": "TORONTO", "province": "ON", "country": "CA", "postalCode": "M1P1X1", "twitter": "None", "instagram": "None", "facebook": "None", "youtube": "None", "website": "None", "summary": "None", "logo": "None", "latitude": 43.763644150729846, "longitude": -79.28595784139296}, "107833311RR0001": {"name": "PENTECOSTAL NEW LIFE ASSEMBLY", "designationCode": "C", "categoryCode": "36", "address": "602-7TH STREET", "city": "CASTLEGAR", "province": "BC", "country": "CA", "postalCode": "V1N3J6", "twitter": "None", "instagram": "None", "facebook": "None", "youtube": "None", "website": "None", "summary": "None", "logo": "None", "latitude": 49.32026849108961, "longitude": -117.65913550943591}, "804243947RR0001": {"name": "PENTECOSTAL PRAISE CENTRE MINISTRIES", "designationCode": "C", "categoryCode": "39", "address": "10520 YONGE STREET            SUITE 425", "city": "RICHMOND HILL", "province": "ON", "country": "CA", "postalCode": "L4C3C7", "twitter": "None", "instagram": "None", "facebook": "None", "youtube": "None", "website": "None", "summary": "None", "logo": "None", "latitude": 43.884329428241756, "longitude": -79.44029823102817}, "889340394RR0001": {"name": "PENTECOSTAL SUB-ARCTIC LEADERSHIP TRAINING COLLEGE", "designationCode": "C", "categoryCode": "20", "address": "BOX 727", "city": "FORT SMITH", "province": "NT", "country": "CA", "postalCode": "X0E0P0", "twitter": "None", "instagram": "None", "facebook": "None", "youtube": "None", "website": "None", "summary": "None", "logo": "None", "latitude": 60.01262014865944, "longitude": -112.05264672940851}, "119090504RR0001": {"name": "PENTECOSTAL SUB-ARCTIC MISSION ASSOCIATION", "designationCode": "C", "categoryCode": "36", "address": "BOX 1199", "city": "FORT SMITH", "province": "NT", "country": "CA", "postalCode": "X0E0P0", "twitter": "None", "instagram": "None", "facebook": "None", "youtube": "None", "website": "None", "summary": "None", "logo": "None", "latitude": 60.01262014865944, "longitude": -112.05264672940851}, "107441941RR0001": {"name": "PENTECOSTAL TABERNACLE", "designationCode": "C", "categoryCode": "36", "address": "PO BOX 550", "city": "LEASK", "province": "SK", "country": "CA", "postalCode": "S0J1M0", "twitter": "None", "instagram": "None", "facebook": "None", "youtube": "None", "website": "None", "summary": "None", "logo": "None", "latitude": 53.01679000000007, "longitude": -106.75113999999996}, "107833394RR0083": {"name": "PENTECOSTAL TABERNACLE", "designationCode": "C", "categoryCode": "36", "address": "BOX 62", "city": "PORT DE GRAVE", "province": "NL", "country": "CA", "postalCode": "A0A3J0", "twitter": "None", "instagram": "None", "facebook": "None", "youtube": "None", "website": "None", "summary": "None", "logo": "None", "latitude": 47.57294421642443, "longitude": -53.26582734842345}, "877668228RR0001": {"name": "PENTECOSTAL TABERNACLE", "designationCode": "C", "categoryCode": "36", "address": "PO BOX 126", "city": "GLENDON", "province": "AB", "country": "CA", "postalCode": "T0A1P0", "twitter": "None", "instagram": "None", "facebook": "None", "youtube": "None", "website": "None", "summary": "None", "logo": "None", "latitude": 54.247190000000046, "longitude": -111.15382999999997}, "871628145RR0001": {"name": "PENTECOSTAL TABERNACLE (P A O C )", "designationCode": "C", "categoryCode": "36", "address": "BOX 241", "city": "SWAN RIVER", "province": "MB", "country": "CA", "postalCode": "R0L1Z0", "twitter": "None", "instagram": "None", "facebook": "None", "youtube": "None", "website": "None", "summary": "None", "logo": "None", "latitude": 52.11672730414978, "longitude": -101.25989472758229}, "864976857RR0001": {"name": "PENTECOSTAL TABERNACLE OF BRITISH COLUMBIA", "designationCode": "C", "categoryCode": "39", "address": "9744 176 ST", "city": "SURREY", "province": "BC", "country": "CA", "postalCode": "V4N3V3", "twitter": "None", "instagram": "None", "facebook": "None", "youtube": "None", "website": "None", "summary": "None", "logo": "None", "latitude": 49.17869972076566, "longitude": -122.73447271363342}, "107834863RR0001": {"name": "PENTECOSTAL TABERNACLE OF CALGARY", "designationCode": "C", "categoryCode": "39", "address": "200, 2107 SIRROCCO DRIVE S.W.", "city": "CALGARY", "province": "AB", "country": "CA", "postalCode": "T3H5P1", "twitter": "None", "instagram": "None", "facebook": "None", "youtube": "None", "website": "None", "summary": "None", "logo": "None", "latitude": 51.03241549093836, "longitude": -114.17071285221779}, "872030648RR0001": {"name": "PENTECOSTAL TABERNACLE, REGENT PARK, TORONTO, INCORPORATED", "designationCode": "C", "categoryCode": "39", "address": "129 GILLETT DRIVE", "city": "AJAX", "province": "ON", "country": "CA", "postalCode": "L1Z0C1", "twitter": "None", "instagram": "None", "facebook": "None", "youtube": "None", "website": "None", "summary": "None", "logo": "None", "latitude": 43.89615507077729, "longitude": -79.02373450441473}, "119090652RR0001": {"name": "PENTECOSTAL TABERNACLE, VANCOUVER", "designationCode": "C", "categoryCode": "39", "address": "2969 WEST 21ST AVENUE", "city": "VANCOUVER", "province": "BC", "country": "CA", "postalCode": "V6L1K7", "twitter": "None", "instagram": "None", "facebook": "None", "youtube": "None", "website": "None", "summary": "None", "logo": "None", "latitude": 49.25375549321934, "longitude": -123.17200094171619}, "119090637RR0001": {"name": "PENTECOSTAL TABERNACLES (FLORENCEVILLE) INC.", "designationCode": "C", "categoryCode": "36", "address": "BURNHAM ROAD CATHEDRAL        340 BURNHAM ROAD", "city": "OAKLAND", "province": "NB", "country": "CA", "postalCode": "E7L2V2", "twitter": "None", "instagram": "None", "facebook": "None", "youtube": "None", "website": "None", "summary": "None", "logo": "None", "latitude": 46.43472476819243, "longitude": -67.59156694474595}, "107834889RR0001": {"name": "PENTECOSTAL TABERNACLES INC.", "designationCode": "C", "categoryCode": "36", "address": "350 BURNHAM RD", "city": "OAKLAND", "province": "NB", "country": "CA", "postalCode": "E7L2V4", "twitter": "None", "instagram": "None", "facebook": "None", "youtube": "None", "website": "None", "summary": "None", "logo": "None", "latitude": 46.43491134280873, "longitude": -67.59025088570546}, "837072040RR0001": {"name": "PENTECOSTALS OF MIRAMICHI INC.", "designationCode": "C", "categoryCode": "36", "address": "146 KING ST.", "city": "MIRAMICHI", "province": "NB", "country": "CA", "postalCode": "E1N2N9", "twitter": "None", "instagram": "None", "facebook": "None", "youtube": "None", "website": "None", "summary": "None", "logo": "None", "latitude": 47.02266118647952, "longitude": -65.44915653889409}, "865702229RR0001": {"name": "PENTHELIA SINGERS", "designationCode": "C", "categoryCode": "22", "address": "20 GOTHIC AVE                 SUITE 112", "city": "TORONTO", "province": "ON", "country": "CA", "postalCode": "M6P2T5", "twitter": "None", "instagram": "None", "facebook": "None", "youtube": "None", "website": "None", "summary": "None", "logo": "None", "latitude": 43.65395756116935, "longitude": -79.46788561241267}, "895335230RR0002": {"name": "PENTICTON & DISTRICT MULTICULTURAL SOCIETY", "designationCode": "C", "categoryCode": "59", "address": "340 ELLIS ST", "city": "PENTICTON", "province": "BC", "country": "CA", "postalCode": "V2A4L7", "twitter": "None", "instagram": "None", "facebook": "None", "youtube": "None", "website": "None", "summary": "None", "logo": "None", "latitude": 49.4982897485429, "longitude": -119.59053915638533}, "138394820RR0001": {"name": "PENTICTON ACADEMY OF MUSIC SOCIETY", "designationCode": "C", "categoryCode": "20", "address": "220 MANOR PARK AVE", "city": "PENTICTON", "province": "BC", "country": "CA", "postalCode": "V2A2R2", "twitter": "None", "instagram": "None", "facebook": "None", "youtube": "None", "website": "None", "summary": "None", "logo": "None", "latitude": 49.48479958728147, "longitude": -119.58426815153788}, "107834939RR0001": {"name": "PENTICTON ALLIANCE CHURCH OF THE CHRISTIAN AND MISSIONARY ALLIANCE IN CANADA", "designationCode": "C", "categoryCode": "39", "address": "197 BRANDON AVE", "city": "PENTICTON", "province": "BC", "country": "CA", "postalCode": "V2A6X6", "twitter": "None", "instagram": "None", "facebook": "None", "youtube": "None", "website": "None", "summary": "None", "logo": "None", "latitude": 49.466147154048066, "longitude": -119.5871672463212}, "119090736RR0001": {"name": "PENTICTON AND DISTRICT COMMUNITY RESOURCES SOCIETY", "designationCode": "C", "categoryCode": "09", "address": "330 ELLIS STREET", "city": "PENTICTON", "province": "BC", "country": "CA", "postalCode": "V2A4L7", "twitter": "None", "instagram": "None", "facebook": "None", "youtube": "None", "website": "None", "summary": "None", "logo": "None", "latitude": 49.498434639188645, "longitude": -119.59052918192056}, "140728890RR0001": {"name": "PENTICTON AND DISTRICT EMERGENCY PROGRAM SOCIETY", "designationCode": "C", "categoryCode": "59", "address": "251 DAWSON AVE", "city": "PENTICTON", "province": "BC", "country": "CA", "postalCode": "V2A3N4", "twitter": "None", "instagram": "None", "facebook": "None", "youtube": "None", "website": "None", "summary": "None", "logo": "None", "latitude": 49.47388408465576, "longitude": -119.5776573105776}, "119090686RR0001": {"name": "PENTICTON AND DISTRICT SOCIETY FOR COMMUNITY LIVING", "designationCode": "C", "categoryCode": "11", "address": "180 INDUSTRIAL AVE WEST", "city": "PENTICTON", "province": "BC", "country": "CA", "postalCode": "V2A6X9", "twitter": "None", "instagram": "None", "facebook": "None", "youtube": "None", "website": "None", "summary": "None", "logo": "None", "latitude": 49.479056612816706, "longitude": -119.58989756771886}, "118790419RR0001": {"name": "PENTICTON ART GALLERY SOCIETY", "designationCode": "C", "categoryCode": "50", "address": "199 MARINA WAY", "city": "PENTICTON", "province": "BC", "country": "CA", "postalCode": "V2A1H5", "twitter": "None", "instagram": "None", "facebook": "None", "youtube": "None", "website": "None", "summary": "None", "logo": "None", "latitude": 49.50390189706455, "longitude": -119.59004566443694}, "107834954RR0001": {"name": "PENTICTON BETHEL PENTECOSTAL TABERNACLE", "designationCode": "C", "categoryCode": "36", "address": "945 MAIN ST", "city": "PENTICTON", "province": "BC", "country": "CA", "postalCode": "V2A5E3", "twitter": "None", "instagram": "None", "facebook": "None", "youtube": "None", "website": "None", "summary": "None", "logo": "None", "latitude": 49.489044317790984, "longitude": -119.5876915037509}, "107834988RR0001": {"name": "PENTICTON CHRISTIAN SCHOOL SOCIETY", "designationCode": "C", "categoryCode": "20", "address": "102-96 EDMONTON AVE", "city": "PENTICTON", "province": "BC", "country": "CA", "postalCode": "V2A2G8", "twitter": "None", "instagram": "None", "facebook": "None", "youtube": "None", "website": "None", "summary": "None", "logo": "None", "latitude": 49.48941781320337, "longitude": -119.58735572799934}, "889975462RR0001": {"name": "PENTICTON COMMUNITY SOUPATERIA SOCIETY", "designationCode": "C", "categoryCode": "09", "address": "150 ORCHARD AVE", "city": "PENTICTON", "province": "BC", "country": "CA", "postalCode": "V2A1X8", "twitter": "None", "instagram": "None", "facebook": "None", "youtube": "None", "website": "None", "summary": "None", "logo": "None", "latitude": 49.49470875491956, "longitude": -119.59258400499166}, "893155473RR0001": {"name": "PENTICTON EARLY CHILDHOOD EDUCATION SOCIETY (P.E.A.C.H.E.S.)", "designationCode": "C", "categoryCode": "01", "address": "104 550 CARMI AVE", "city": "PENTICTON", "province": "BC", "country": "CA", "postalCode": "V2A3G6", "twitter": "None", "instagram": "None", "facebook": "None", "youtube": "None", "website": "None", "summary": "None", "logo": "None", "latitude": 49.48263050346246, "longitude": -119.5783335}, "107835068RR0001": {"name": "PENTICTON FAITH CENTRE SOCIETY OF CANADA", "designationCode": "C", "categoryCode": "39", "address": "5D-4505 MCLEAN CREEK RD RR 1", "city": "OKANAGAN FALLS", "province": "BC", "country": "CA", "postalCode": "V0H1R1", "twitter": "None", "instagram": "None", "facebook": "None", "youtube": "None", "website": "None", "summary": "None", "logo": "None", "latitude": 49.347851830906166, "longitude": -119.53668870868464}, "877842542RR0001": {"name": "PENTICTON FREE PRESBYTERIAN CHURCH", "designationCode": "C", "categoryCode": "37", "address": "120 PRESTON AVENUE", "city": "PENTICTON", "province": "BC", "country": "CA", "postalCode": "V2A2K2", "twitter": "None", "instagram": "None", "facebook": "None", "youtube": "None", "website": "None", "summary": "None", "logo": "None", "latitude": 49.48801063835192, "longitude": -119.58990640008079}, "830763074RR0001": {"name": "PENTICTON NEW BEGINNINGS CHRISTIAN FELLOWSHIP", "designationCode": "B", "categoryCode": "39", "address": "96 EDMONTON AVE               #101", "city": "PENTICTON", "province": "BC", "country": "CA", "postalCode": "V2A2G8", "twitter": "None", "instagram": "None", "facebook": "None", "youtube": "None", "website": "None", "summary": "None", "logo": "None", "latitude": 49.48941781320337, "longitude": -119.58735572799934}, "107835159RR0001": {"name": "PENTICTON PASTORAL CHARGE", "designationCode": "C", "categoryCode": "44", "address": "696 MAIN ST", "city": "PENTICTON", "province": "BC", "country": "CA", "postalCode": "V2A5C8", "twitter": "None", "instagram": "None", "facebook": "None", "youtube": "None", "website": "None", "summary": "None", "logo": "None", "latitude": 49.49416434332622, "longitude": -119.59006059518734}, "106984081RR0001": {"name": "PENTICTON PUBLIC LIBRARY", "designationCode": "C", "categoryCode": "50", "address": "785 MAIN ST", "city": "PENTICTON", "province": "BC", "country": "CA", "postalCode": "V2A5E3", "twitter": "None", "instagram": "None", "facebook": "None", "youtube": "None", "website": "None", "summary": "None", "logo": "None", "latitude": 49.491299011656764, "longitude": -119.58864447169482}, "809816143RR0001": {"name": "PENTICTON RECOVERY RESOURCE SOCIETY", "designationCode": "C", "categoryCode": "57", "address": "1296 MAIN ST", "city": "PENTICTON", "province": "BC", "country": "CA", "postalCode": "V2A5G2", "twitter": "None", "instagram": "None", "facebook": "None", "youtube": "None", "website": "None", "summary": "None", "logo": "None", "latitude": 49.48517736663973, "longitude": -119.58632192824176}, "890405244RR0001": {"name": "PENTICTON SECONDARY SCHOOL BURSARY AND SCHOLARSHIP FOUNDATION", "designationCode": "C", "categoryCode": "21", "address": "158 ECKHARDT AVE.", "city": "PENTICTON", "province": "BC", "country": "CA", "postalCode": "V2A1Z3", "twitter": "None", "instagram": "None", "facebook": "None", "youtube": "None", "website": "None", "summary": "None", "logo": "None", "latitude": 49.49333078045477, "longitude": -119.58769708881069}, "889150595RR0001": {"name": "PENTICTON SENIORS' DROP-IN CENTRE SOCIETY", "designationCode": "C", "categoryCode": "56", "address": "2965 S MAIN ST", "city": "PENTICTON", "province": "BC", "country": "CA", "postalCode": "V2A5J7", "twitter": "None", "instagram": "None", "facebook": "None", "youtube": "None", "website": "None", "summary": "None", "logo": "None", "latitude": 49.457008005828385, "longitude": -119.57850869553921}, "118818491RR0049": {"name": "PENTICTON SEVENTH-DAY ADVENTIST CHURCH", "designationCode": "C", "categoryCode": "41", "address": "PO 1000", "city": "ABBOTSFORD", "province": "BC", "country": "CA", "postalCode": "V2S4P5", "twitter": "None", "instagram": "None", "facebook": "None", "youtube": "None", "website": "None", "summary": "None", "logo": "None", "latitude": 49.03851300000005, "longitude": -122.29441549999993}, "107835142RR0001": {"name": "PENTICTON SIKH TEMPLE AND INDIAN CULTURAL SOCIETY", "designationCode": "C", "categoryCode": "62", "address": "3290 SOUTH MAIN STREET", "city": "PENTICTON", "province": "BC", "country": "CA", "postalCode": "V2A5J6", "twitter": "None", "instagram": "None", "facebook": "None", "youtube": "None", "website": "None", "summary": "None", "logo": "None", "latitude": 49.45474022592188, "longitude": -119.5790130062324}, "107835167RR0001": {"name": "PENTICTON VINEYARD COMMUNITY CHURCH", "designationCode": "C", "categoryCode": "39", "address": "#102-1825 MAIN ST", "city": "PENTICTON", "province": "BC", "country": "CA", "postalCode": "V2A5H2", "twitter": "None", "instagram": "None", "facebook": "None", "youtube": "None", "website": "None", "summary": "None", "logo": "None", "latitude": 49.47822606633389, "longitude": -119.58403874508046}, "861487304RR0001": {"name": "PENYEM JAMORAI RELIEF ORGANIZATION", "designationCode": "C", "categoryCode": "09", "address": "51 ANGLIER CRESCENT", "city": "AJAX", "province": "ON", "country": "CA", "postalCode": "L1S7R8", "twitter": "None", "instagram": "None", "facebook": "None", "youtube": "None", "website": "None", "summary": "None", "logo": "None", "latitude": 43.845164926452746, "longitude": -79.00317985524276}, "119090850RR0001": {"name": "PENZANCE MEMORIAL CEMETARY FUND", "designationCode": "C", "categoryCode": "59", "address": "PO BOX 6", "city": "PENZANCE", "province": "SK", "country": "CA", "postalCode": "S0G3X0", "twitter": "None", "instagram": "None", "facebook": "None", "youtube": "None", "website": "None", "summary": "None", "logo": "None", "latitude": 51.05981000000003, "longitude": -105.43752999999998}, "119090868RR0001": {"name": "PENZANCE UNITED CHURCH", "designationCode": "C", "categoryCode": "44", "address": "BOX 207", "city": "HOLDFAST", "province": "SK", "country": "CA", "postalCode": "S0G2H0", "twitter": "None", "instagram": "None", "facebook": "None", "youtube": "None", "website": "None", "summary": "None", "logo": "None", "latitude": 50.966770000000054, "longitude": -105.41784999999999}, "874865066RR0001": {"name": "PEOPLE FIRST OF CANADA/DES PERSONNES D'ABORD DU CANADA", "designationCode": "C", "categoryCode": "09", "address": "120 MARYLAND STREET SUITE 5", "city": "WINNIPEG", "province": "MB", "country": "CA", "postalCode": "R3G1L1", "twitter": "None", "instagram": "None", "facebook": "None", "youtube": "None", "website": "None", "summary": "None", "logo": "None", "latitude": 49.882439126839415, "longitude": -97.16095383308308}, "871480190RR0001": {"name": "PEOPLE FOR A HEALTHY COMMUNITY ON GABRIOLA SOCIETY", "designationCode": "C", "categoryCode": "59", "address": "PO BOX 325", "city": "GABRIOLA", "province": "BC", "country": "CA", "postalCode": "V0R1X0", "twitter": "None", "instagram": "None", "facebook": "None", "youtube": "None", "website": "None", "summary": "None", "logo": "None", "latitude": 49.18637400000006, "longitude": -123.82815049999994}, "857190532RR0001": {"name": "PEOPLE FOR EDUCATION", "designationCode": "C", "categoryCode": "21", "address": "641 BLOOR STREET WEST         2ND FLOOR", "city": "TORONTO", "province": "ON", "country": "CA", "postalCode": "M6G1L1", "twitter": "None", "instagram": "None", "facebook": "None", "youtube": "None", "website": "None", "summary": "None", "logo": "None", "latitude": 43.664364033008404, "longitude": -79.41485992229781}, "868660739RR0001": {"name": "PEOPLE FOR SUICIDE AWARENESS STETTLER & DISTRICT", "designationCode": "C", "categoryCode": "09", "address": "BOX 2097", "city": "STETTLER", "province": "AB", "country": "CA", "postalCode": "T0C2L0", "twitter": "None", "instagram": "None", "facebook": "None", "youtube": "None", "website": "None", "summary": "None", "logo": "None", "latitude": 52.32597900000006, "longitude": -112.70698099999993}, "131276297RR0001": {"name": "PEOPLE IN TRANSITION (ALLISTON) INC.", "designationCode": "C", "categoryCode": "09", "address": "P.O. BOX 533, 143 ALBERT ST. E", "city": "ALLISTON", "province": "ON", "country": "CA", "postalCode": "L9R1V7", "twitter": "None", "instagram": "None", "facebook": "None", "youtube": "None", "website": "None", "summary": "None", "logo": "None"}, "853891836RR0001": {"name": "PEOPLE INTERNATIONAL CANADA", "designationCode": "C", "categoryCode": "47", "address": "POST OFFICE BOX 30102         RETAIL POSTAL OUTLET REYNOLDS", "city": "VICTORIA", "province": "BC", "country": "CA", "postalCode": "V8X5E1", "twitter": "None", "instagram": "None", "facebook": "None", "youtube": "None", "website": "None", "summary": "None", "logo": "None", "latitude": 48.42854700000005, "longitude": -123.36445249999994}, "107835241RR0002": {"name": "PEOPLE OF PRAISE MEYRONNE INC.", "designationCode": "C", "categoryCode": "39", "address": "PO BOX 208", "city": "LAFLECHE", "province": "SK", "country": "CA", "postalCode": "S0H2K0", "twitter": "None", "instagram": "None", "facebook": "None", "youtube": "None", "website": "None", "summary": "None", "logo": "None", "latitude": 49.71676000000008, "longitude": -106.58451999999994}, "107835233RR0001": {"name": "PEOPLE OF PRAISE SASKATOON INC.", "designationCode": "C", "categoryCode": "49", "address": "1315 MCLORG ST", "city": "SASKATOON", "province": "SK", "country": "CA", "postalCode": "S7J0N3", "twitter": "None", "instagram": "None", "facebook": "None", "youtube": "None", "website": "None", "summary": "None", "logo": "None", "latitude": 52.096542525967905, "longitude": -106.63607313918864}, "859475345RR0001": {"name": "PEOPLE OF THE WORD FAITH MINISTRIES", "designationCode": "C", "categoryCode": "47", "address": "804-15 LENA CRESCENT", "city": "CAMBRIDGE", "province": "ON", "country": "CA", "postalCode": "N1R0A6", "twitter": "None", "instagram": "None", "facebook": "None", "youtube": "None", "website": "None", "summary": "None", "logo": "None", "latitude": 43.39167251543635, "longitude": -80.31287088634657}, "129590055RR0001": {"name": "PEOPLE PLACE SOCIETY", "designationCode": "C", "categoryCode": "56", "address": "101-3402 27 AVE", "city": "VERNON", "province": "BC", "country": "CA", "postalCode": "V1T1S1", "twitter": "None", "instagram": "None", "facebook": "None", "youtube": "None", "website": "None", "summary": "None", "logo": "None", "latitude": 50.26130859781307, "longitude": -119.27748610949848}}