{"784846297RR0001": {"name": "M\u00e9lanie's Way", "designationCode": "C", "categoryCode": "11", "address": "3303 - 224 KING ST W", "city": "TORONTO", "province": "ON", "country": "CA", "postalCode": "M5H0A6", "twitter": "None", "instagram": "None", "facebook": "None", "youtube": "None", "website": "None", "summary": "None", "logo": "None", "latitude": 43.64813467004466, "longitude": -79.38254906728791}, "898084330RR0001": {"name": "M-ADO JEUNES", "designationCode": "C", "categoryCode": "09", "address": "948 GEORGES", "city": "GATINEAU", "province": "QC", "country": "CA", "postalCode": "J8L2E5", "twitter": "None", "instagram": "None", "facebook": "None", "youtube": "None", "website": "None", "summary": "None", "logo": "None", "latitude": 45.568205966991606, "longitude": -75.42444591981724}, "139942668RR0001": {"name": "M-DO", "designationCode": "C", "categoryCode": "22", "address": "94 STAFFORD STREET", "city": "TORONTO", "province": "ON", "country": "CA", "postalCode": "M6J2S1", "twitter": "None", "instagram": "None", "facebook": "None", "youtube": "None", "website": "None", "summary": "None", "logo": "None", "latitude": 43.644212235356925, "longitude": -79.41151294866975}, "815567789RR0001": {"name": "M-E Squared Foundation", "designationCode": "A", "categoryCode": "03", "address": "600 - 1100 1 ST SE", "city": "CALGARY", "province": "AB", "country": "CA", "postalCode": "T2G1B1", "twitter": "None", "instagram": "None", "facebook": "None", "youtube": "None", "website": "None", "summary": "None", "logo": "None", "latitude": 51.04198444823706, "longitude": -114.06078092365414}, "807777313RR0001": {"name": "M-2/W-2 ASSOCIATION - RESTORATIVE CHRISTIAN MINISTRIES", "designationCode": "C", "categoryCode": "59", "address": "208-2825 CLEARBROOK RD", "city": "ABBOTSFORD", "province": "BC", "country": "CA", "postalCode": "V2T6S3", "twitter": "None", "instagram": "None", "facebook": "None", "youtube": "None", "website": "None", "summary": "None", "logo": "None", "latitude": 49.053293999999994, "longitude": -122.33797191124661}, "865965982RR0001": {"name": "M\u00c9TA D'\u00c2ME", "designationCode": "C", "categoryCode": "57", "address": "2250 FLORIAN", "city": "MONTREAL", "province": "QC", "country": "CA", "postalCode": "H2K2P5", "twitter": "None", "instagram": "None", "facebook": "None", "youtube": "None", "website": "None", "summary": "None", "logo": "None", "latitude": 45.53820127947382, "longitude": -73.5531218005943}, "899072524RR0001": {"name": "M\u00c9TIERS ET TRADITIONS", "designationCode": "C", "categoryCode": "50", "address": "340, RUE SAINT-CHARLES OUEST", "city": "LONGUEUIL", "province": "QC", "country": "CA", "postalCode": "J4H1E8", "twitter": "None", "instagram": "None", "facebook": "None", "youtube": "None", "website": "None", "summary": "None", "logo": "None", "latitude": 45.53676948511195, "longitude": -73.51213634494232}, "130637903RR0001": {"name": "M'AKOLA HOUSING SOCIETY", "designationCode": "C", "categoryCode": "09", "address": "104 - 550 GOLDSTREAM AVE", "city": "VICTORIA", "province": "BC", "country": "CA", "postalCode": "V9B2W7", "twitter": "None", "instagram": "None", "facebook": "None", "youtube": "None", "website": "None", "summary": "None", "logo": "None", "latitude": 48.44618480138952, "longitude": -123.48594728860456}, "893327619RR0001": {"name": "M'WIKWEDONG NATIVE CULTURAL RESOURCE CENTRE", "designationCode": "C", "categoryCode": "56", "address": "1723 EIGHTH AVE E", "city": "OWEN SOUND", "province": "ON", "country": "CA", "postalCode": "N4K3C2", "twitter": "None", "instagram": "None", "facebook": "None", "youtube": "None", "website": "None", "summary": "None", "logo": "None", "latitude": 44.57643057488597, "longitude": -80.92770356283697}, "833611502RR0001": {"name": "Maasai Medical Society", "designationCode": "C", "categoryCode": "11", "address": "369 KEARY STREET", "city": "NEW WESTMINSTER", "province": "BC", "country": "CA", "postalCode": "V3L3L2", "twitter": "None", "instagram": "None", "facebook": "None", "youtube": "None", "website": "None", "summary": "None", "logo": "None", "latitude": 49.225607453257396, "longitude": -122.89730383236193}, "826197790RR0001": {"name": "Maayanos Torah", "designationCode": "C", "categoryCode": "42", "address": "2 MANOR HAVEN ROAD", "city": "TORONTO", "province": "ON", "country": "CA", "postalCode": "M6A2H9", "twitter": "None", "instagram": "None", "facebook": "None", "youtube": "None", "website": "None", "summary": "None", "logo": "None", "latitude": 43.72163258338635, "longitude": -79.43562079655493}, "808392542RR0001": {"name": "Mabuhay Baptist Christian Church Inc.", "designationCode": "C", "categoryCode": "31", "address": "1277 WELLINGTON AVE", "city": "WINNIPEG", "province": "MB", "country": "CA", "postalCode": "R3E0K3", "twitter": "None", "instagram": "None", "facebook": "None", "youtube": "None", "website": "None", "summary": "None", "logo": "None", "latitude": 49.90090949321934, "longitude": -97.18808044310117}, "805029527RR0001": {"name": "Mac Voisin Foundation", "designationCode": "B", "categoryCode": "03", "address": "504-5 FATHER DAVID BAUER DRIVE", "city": "WATERLOO", "province": "ON", "country": "CA", "postalCode": "N2L6M2", "twitter": "None", "instagram": "None", "facebook": "None", "youtube": "None", "website": "None", "summary": "None", "logo": "None", "latitude": 43.46288461887623, "longitude": -80.52490792754926}, "832380810RR0001": {"name": "Macedonian Film Festival", "designationCode": "C", "categoryCode": "22", "address": "62 HOUNSLOW AVE", "city": "TORONTO", "province": "ON", "country": "CA", "postalCode": "M2N2A8", "twitter": "None", "instagram": "None", "facebook": "None", "youtube": "None", "website": "None", "summary": "None", "logo": "None", "latitude": 43.77503499751849, "longitude": -79.41745079615089}, "802865758RR0001": {"name": "Macedonian Orthodox Church-American Canadian Macedonian Orthodox Diocese", "designationCode": "C", "categoryCode": "39", "address": "35 - 5160 EXPLORER DR", "city": "MISSISSAUGA", "province": "ON", "country": "CA", "postalCode": "L4W4T7", "twitter": "None", "instagram": "None", "facebook": "None", "youtube": "None", "website": "None", "summary": "None", "logo": "None", "latitude": 43.66230239601279, "longitude": -79.59771749145897}, "865589667RR0001": {"name": "Machik Canada", "designationCode": "C", "categoryCode": "20", "address": "294 LIFFORD RD", "city": "BETHANY", "province": "ON", "country": "CA", "postalCode": "L0A1A0", "twitter": "None", "instagram": "None", "facebook": "None", "youtube": "None", "website": "None", "summary": "None", "logo": "None", "latitude": 44.1919769439111, "longitude": -78.6419058781532}, "119306207RR0001": {"name": "Mackenzie Health Volunteer Association", "designationCode": "C", "categoryCode": "19", "address": "10 TRENCH ST", "city": "RICHMOND HILL", "province": "ON", "country": "CA", "postalCode": "L4C4Z3", "twitter": "None", "instagram": "None", "facebook": "None", "youtube": "None", "website": "None", "summary": "None", "logo": "None", "latitude": 43.87024448961454, "longitude": -79.44955747523466}, "812592392RR0001": {"name": "Mackenzie Innovation Institute", "designationCode": "C", "categoryCode": "11", "address": "10 TRENCH STREET,", "city": "RICHMOND HILL", "province": "ON", "country": "CA", "postalCode": "L4C4Z3", "twitter": "None", "instagram": "None", "facebook": "None", "youtube": "None", "website": "None", "summary": "None", "logo": "None", "latitude": 43.87024448961454, "longitude": -79.44955747523466}, "868400425RR0001": {"name": "Mackenzie Investments Charitable Foundation", "designationCode": "A", "categoryCode": "03", "address": "180 QUEEN ST WEST, STE 1600", "city": "TORONTO", "province": "ON", "country": "CA", "postalCode": "M5V3K1", "twitter": "None", "instagram": "None", "facebook": "None", "youtube": "None", "website": "None", "summary": "None", "logo": "None", "latitude": 43.65053086153249, "longitude": -79.38780787691151}, "119288918RR1589": {"name": "MacDonald Congregation of Jehovah's Witnesses, Vancouver, British Columbia", "designationCode": "C", "categoryCode": "61", "address": "2790 WEST 3RD AVE", "city": "VANCOUVER", "province": "BC", "country": "CA", "postalCode": "V6K1M5", "twitter": "None", "instagram": "None", "facebook": "None", "youtube": "None", "website": "None", "summary": "None", "logo": "None", "latitude": 49.26922051399404, "longitude": -123.16796108381902}, "837537851RR0001": {"name": "MacDonald Drive Legacy Fund", "designationCode": "C", "categoryCode": "21", "address": "152 MACDONALD DRIVE", "city": "ST JOHN'S", "province": "NL", "country": "CA", "postalCode": "A1A2K9", "twitter": "None", "instagram": "None", "facebook": "None", "youtube": "None", "website": "None", "summary": "None", "logo": "None", "latitude": 47.59252931207543, "longitude": -52.71388859352307}, "822852927RR0001": {"name": "MacDonald Services to Seniors Incorporated", "designationCode": "C", "categoryCode": "09", "address": "P.O. BOX 283                  5 38 RIVER AVE", "city": "STARBUCK", "province": "MB", "country": "CA", "postalCode": "R0G2P0", "twitter": "None", "instagram": "None", "facebook": "None", "youtube": "None", "website": "None", "summary": "None", "logo": "None", "latitude": 49.77266846624182, "longitude": -97.62207397446477}, "810023374RR0001": {"name": "MacDun Educational Foundation", "designationCode": "B", "categoryCode": "21", "address": "5051 MAINWAY", "city": "BURLINGTON", "province": "ON", "country": "CA", "postalCode": "L7L5H9", "twitter": "None", "instagram": "None", "facebook": "None", "youtube": "None", "website": "None", "summary": "None", "logo": "None", "latitude": 43.39066185431913, "longitude": -79.7775225619478}, "107354516RR0001": {"name": "MacGregor Evangelical Mennonite Church", "designationCode": "C", "categoryCode": "34", "address": "BOX 133", "city": "MACGREGOR", "province": "MB", "country": "CA", "postalCode": "R0H0R0", "twitter": "None", "instagram": "None", "facebook": "None", "youtube": "None", "website": "None", "summary": "None", "logo": "None", "latitude": 49.965220000000045, "longitude": -98.77929999999998}, "829882653RR0001": {"name": "MacKay Residential School Gathering Inc.", "designationCode": "C", "categoryCode": "11", "address": "39 RICHARDSON AVENUE", "city": "WINNIPEG", "province": "MB", "country": "CA", "postalCode": "R2V2N3", "twitter": "None", "instagram": "None", "facebook": "None", "youtube": "None", "website": "None", "summary": "None", "logo": "None", "latitude": 49.943828932021326, "longitude": -97.15372274519602}, "801714106RR0001": {"name": "MacKinleyville-Cochraneville Cemetery Inc.", "designationCode": "C", "categoryCode": "59", "address": "2863 ROUTE 118 HWY", "city": "CHELMSFORD", "province": "NB", "country": "CA", "postalCode": "E9E2H1", "twitter": "None", "instagram": "None", "facebook": "None", "youtube": "None", "website": "None", "summary": "None", "logo": "None", "latitude": 46.87013985286672, "longitude": -65.66143224994757}, "829451954RR0001": {"name": "MacKinnon's Y-Not? Anti-Poverty Program Inc.", "designationCode": "C", "categoryCode": "09", "address": "14 MEADOWBANK ROAD", "city": "WINNIPEG", "province": "MB", "country": "CA", "postalCode": "R3Y1N8", "twitter": "None", "instagram": "None", "facebook": "None", "youtube": "None", "website": "None", "summary": "None", "logo": "None", "latitude": 49.81827808630054, "longitude": -97.20438154480937}, "737364125RR0001": {"name": "MacLellan Charitable Trust", "designationCode": "B", "categoryCode": "05", "address": "148 ROXBOROUGH DR", "city": "TORONTO", "province": "ON", "country": "CA", "postalCode": "M4W1X6", "twitter": "None", "instagram": "None", "facebook": "None", "youtube": "None", "website": "None", "summary": "None", "logo": "None", "latitude": 43.683852015292096, "longitude": -79.37339978077188}, "805476264RR0001": {"name": "MacPhee Centre for Creative Learning Society", "designationCode": "C", "categoryCode": "20", "address": "50 QUEEN ST PO BOX 325", "city": "DARTMOUTH", "province": "NS", "country": "CA", "postalCode": "B2Y2Y5", "twitter": "None", "instagram": "None", "facebook": "None", "youtube": "None", "website": "None", "summary": "None", "logo": "None", "latitude": 44.66649997140637, "longitude": -63.56700282985177}, "857467625RR0001": {"name": "Madagascar School Project Inc.", "designationCode": "C", "categoryCode": "20", "address": "55 WATER ST W SUITE 200", "city": "CORNWALL", "province": "ON", "country": "CA", "postalCode": "K6J1A1", "twitter": "None", "instagram": "None", "facebook": "None", "youtube": "None", "website": "None", "summary": "None", "logo": "None", "latitude": 45.01488196476991, "longitude": -74.72847881738696}, "801415332RR0001": {"name": "Madaniyya Academy", "designationCode": "C", "categoryCode": "20", "address": "3042 MERRITT AVENUE", "city": "MISSISSAUGA", "province": "ON", "country": "CA", "postalCode": "L4T1P1", "twitter": "None", "instagram": "None", "facebook": "None", "youtube": "None", "website": "None", "summary": "None", "logo": "None", "latitude": 43.706788828178354, "longitude": -79.64438865332691}, "826172009RR0001": {"name": "Madawaska Valley Hospice Palliative Care", "designationCode": "C", "categoryCode": "10", "address": "7 ST. FRANCIS MEMORIAL DRIVE  BOX 129", "city": "BARRY'S BAY", "province": "ON", "country": "CA", "postalCode": "K0J1B0", "twitter": "None", "instagram": "None", "facebook": "None", "youtube": "None", "website": "None", "summary": "None", "logo": "None", "latitude": 45.482674244503535, "longitude": -77.69379674724391}, "827110008RR0001": {"name": "Made by Momma", "designationCode": "C", "categoryCode": "09", "address": "66 21 ST NW", "city": "CALGARY", "province": "AB", "country": "CA", "postalCode": "T2N4T9", "twitter": "None", "instagram": "None", "facebook": "None", "youtube": "None", "website": "None", "summary": "None", "logo": "None", "latitude": 51.05173592200936, "longitude": -114.11041778253224}, "831778816RR0001": {"name": "Made Whole Ministries Inc.", "designationCode": "C", "categoryCode": "47", "address": "61217 TUNNACLIFFE RD N", "city": "WELLAND", "province": "ON", "country": "CA", "postalCode": "L3B5N6", "twitter": "None", "instagram": "None", "facebook": "None", "youtube": "None", "website": "None", "summary": "None", "logo": "None", "latitude": 42.96704369608747, "longitude": -79.33791543176245}, "844925032RR0001": {"name": "Madina Seminary", "designationCode": "C", "categoryCode": "60", "address": "2380 SPEAKMAN DR", "city": "MISSISSAUGA", "province": "ON", "country": "CA", "postalCode": "L5K1B4", "twitter": "None", "instagram": "None", "facebook": "None", "youtube": "None", "website": "None", "summary": "None", "logo": "None", "latitude": 43.519494995787745, "longitude": -79.65953929439148}, "836293845RR0001": {"name": "Madni Islamic Centre and Mosque Inc.", "designationCode": "C", "categoryCode": "60", "address": "639 PASQUA SREET", "city": "REGINA", "province": "SK", "country": "CA", "postalCode": "S4T4K5", "twitter": "None", "instagram": "None", "facebook": "None", "youtube": "None", "website": "None", "summary": "None", "logo": "None", "latitude": 50.468823000000015, "longitude": -104.64094886147518}, "852534254RR0001": {"name": "Madoc Agricultural Society", "designationCode": "C", "categoryCode": "56", "address": "RR 1 HWY 62 #14610", "city": "MADOC", "province": "ON", "country": "CA", "postalCode": "K0K2K0", "twitter": "None", "instagram": "None", "facebook": "None", "youtube": "None", "website": "None", "summary": "None", "logo": "None", "latitude": 44.504974028985764, "longitude": -77.47402682278656}, "808278188RR0001": {"name": "Madox's Warriors Inc.", "designationCode": "B", "categoryCode": "03", "address": "40 HARDING CRES", "city": "WINNIPEG", "province": "MB", "country": "CA", "postalCode": "R2N4N7", "twitter": "None", "instagram": "None", "facebook": "None", "youtube": "None", "website": "None", "summary": "None", "logo": "None", "latitude": 49.80923955063776, "longitude": -97.07771522898028}, "731215323RR0001": {"name": "Mae Day Foundation", "designationCode": "B", "categoryCode": "03", "address": "4122 BATHURST ST", "city": "NORTH YORK", "province": "ON", "country": "CA", "postalCode": "M3H3P2", "twitter": "None", "instagram": "None", "facebook": "None", "youtube": "None", "website": "None", "summary": "None", "logo": "None", "latitude": 43.74664643213689, "longitude": -79.43635814490146}, "838138733RR0001": {"name": "Maelstrom Theatre Productions", "designationCode": "C", "categoryCode": "22", "address": "581 HIGH STREET", "city": "SOUTHAMPTON", "province": "ON", "country": "CA", "postalCode": "N0H2L0", "twitter": "None", "instagram": "None", "facebook": "None", "youtube": "None", "website": "None", "summary": "None", "logo": "None", "latitude": 44.48741958027062, "longitude": -81.35094278885063}, "836277251RR0001": {"name": "Magdalene House Society", "designationCode": "C", "categoryCode": "59", "address": "107 4929 50 ST.", "city": "RED DEER", "province": "AB", "country": "CA", "postalCode": "T4N1X9", "twitter": "None", "instagram": "None", "facebook": "None", "youtube": "None", "website": "None", "summary": "None", "logo": "None", "latitude": 52.268958546742624, "longitude": -113.81319377699232}, "894097062RR0001": {"name": "Magellan Aerospace, Mississauga Employees' Welfare Service Fund", "designationCode": "C", "categoryCode": "75", "address": "3160 DERRY ROAD EAST", "city": "MISSISSAUGA", "province": "ON", "country": "CA", "postalCode": "L4T1A9", "twitter": "None", "instagram": "None", "facebook": "None", "youtube": "None", "website": "None", "summary": "None", "logo": "None", "latitude": 43.707542331283236, "longitude": -79.63823252557164}, "136842952RR0001": {"name": "Maggie's Early Learning Centre Inc.", "designationCode": "C", "categoryCode": "01", "address": "820 9TH AVENUE NORTH", "city": "SASKATOON", "province": "SK", "country": "CA", "postalCode": "S7K2Z2", "twitter": "None", "instagram": "None", "facebook": "None", "youtube": "None", "website": "None", "summary": "None", "logo": "None", "latitude": 52.14018594754458, "longitude": -106.64898675275609}, "849612353RR0001": {"name": "Magic of Children in the Arts", "designationCode": "C", "categoryCode": "22", "address": "4-115 FIRST ST.  SUITE 501", "city": "COLLINGWOOD", "province": "ON", "country": "CA", "postalCode": "L9Y4W3", "twitter": "None", "instagram": "None", "facebook": "None", "youtube": "None", "website": "None", "summary": "None", "logo": "None", "latitude": 44.50177999924051, "longitude": -80.22823103526717}, "748656725RR0001": {"name": "Magic Lantern Foundation", "designationCode": "B", "categoryCode": "03", "address": "11121 125 ST NW", "city": "EDMONTON", "province": "AB", "country": "CA", "postalCode": "T5M0M4", "twitter": "None", "instagram": "None", "facebook": "None", "youtube": "None", "website": "None", "summary": "None", "logo": "None", "latitude": 53.55961174854292, "longitude": -113.53764376017101}, "814951497RR0001": {"name": "Magical Dreams Foundation Inc.", "designationCode": "C", "categoryCode": "09", "address": "900-400 ST. MARY AVEENUE", "city": "WINNIPEG", "province": "MB", "country": "CA", "postalCode": "R3C4K5", "twitter": "None", "instagram": "None", "facebook": "None", "youtube": "None", "website": "None", "summary": "None", "logo": "None", "latitude": 49.88988781775004, "longitude": -97.14513647574606}, "808418446RR0001": {"name": "Magna Carta Canada", "designationCode": "C", "categoryCode": "21", "address": "151 YONGE ST                  SUITE 1500", "city": "TORONTO", "province": "ON", "country": "CA", "postalCode": "M5C2W7", "twitter": "None", "instagram": "None", "facebook": "None", "youtube": "None", "website": "None", "summary": "None", "logo": "None", "latitude": 43.65173779819972, "longitude": -79.37861566152122}, "132856865RR0001": {"name": "Magnetawan Public Library", "designationCode": "C", "categoryCode": "50", "address": "BOX 130", "city": "MAGNETAWAN", "province": "ON", "country": "CA", "postalCode": "P0A1P0", "twitter": "None", "instagram": "None", "facebook": "None", "youtube": "None", "website": "None", "summary": "None", "logo": "None", "latitude": 45.63884400000006, "longitude": -79.72022599999994}, "819185299RR0001": {"name": "Magnetawan Watershed Land Trust", "designationCode": "C", "categoryCode": "59", "address": "51 KING WILLIAM ROAD,         PO BOX 300018", "city": "HUNTSVILLE", "province": "ON", "country": "CA", "postalCode": "P1H0B5", "twitter": "None", "instagram": "None", "facebook": "None", "youtube": "None", "website": "None", "summary": "None", "logo": "None", "latitude": 45.33224517456296, "longitude": -79.20793523561673}, "801461435RR0001": {"name": "Maha Rudra Dev Mandir and Cultural Sabha Inc.", "designationCode": "C", "categoryCode": "48", "address": "850 TAPSCOTT ROAD             UNIT 34", "city": "TORONTO", "province": "ON", "country": "CA", "postalCode": "M1X1N4", "twitter": "None", "instagram": "None", "facebook": "None", "youtube": "None", "website": "None", "summary": "None", "logo": "None", "latitude": 43.82111906520871, "longitude": -79.24112503892275}, "801325168RR0001": {"name": "Mahamevnawa Buddhist Monastery Edmonton Ltd.", "designationCode": "C", "categoryCode": "35", "address": "13036 SHERBROOKE AVE NW", "city": "EDMONTON", "province": "AB", "country": "CA", "postalCode": "T5L4E8", "twitter": "None", "instagram": "None", "facebook": "None", "youtube": "None", "website": "None", "summary": "None", "logo": "None", "latitude": 53.57865344214888, "longitude": -113.54840564086209}, "818185522RR0001": {"name": "Mahamevnawa Buddhist Monastery Saskatoon Inc.", "designationCode": "C", "categoryCode": "35", "address": "602 STONEBRIDGE COMMON", "city": "SASKATOON", "province": "SK", "country": "CA", "postalCode": "S7T1C9", "twitter": "None", "instagram": "None", "facebook": "None", "youtube": "None", "website": "None", "summary": "None", "logo": "None", "latitude": 52.0778874884588, "longitude": -106.62244872147848}, "812046761RR0001": {"name": "Mahamevnawa Buddhist Monastery Winnipeg Inc.", "designationCode": "C", "categoryCode": "35", "address": "2610 ST MARY'S RD", "city": "WINNIPEG", "province": "MB", "country": "CA", "postalCode": "R2N4A2", "twitter": "None", "instagram": "None", "facebook": "None", "youtube": "None", "website": "None", "summary": "None", "logo": "None", "latitude": 49.78660027148105, "longitude": -97.12002799206455}, "806161329RR0001": {"name": "Mahamevnawa Buddhist Nuns' Centre Inc.", "designationCode": "C", "categoryCode": "35", "address": "148 MAIN ST S", "city": "ACTON", "province": "ON", "country": "CA", "postalCode": "L7J1X9", "twitter": "None", "instagram": "None", "facebook": "None", "youtube": "None", "website": "None", "summary": "None", "logo": "None", "latitude": 43.626025845115215, "longitude": -80.03663209827441}, "805230158RR0001": {"name": "Mahanaim Church of Christ Inc.", "designationCode": "C", "categoryCode": "39", "address": "722 SIMPSON AVENUE", "city": "WINNIPEG", "province": "MB", "country": "CA", "postalCode": "R2K1R9", "twitter": "None", "instagram": "None", "facebook": "None", "youtube": "None", "website": "None", "summary": "None", "logo": "None", "latitude": 49.91707707908717, "longitude": -97.08120029768011}, "886568054RR0001": {"name": "Mahanaim International Ministries", "designationCode": "C", "categoryCode": "39", "address": "C2-2285 ST-LAURENT BLVD.", "city": "OTTAWA", "province": "ON", "country": "CA", "postalCode": "K1G4Z6", "twitter": "None", "instagram": "None", "facebook": "None", "youtube": "None", "website": "None", "summary": "None", "logo": "None", "latitude": 45.38612576654765, "longitude": -75.61598818007516}, "820534147RR0001": {"name": "Maharaj Lal Dass Brahma Nand Bhuriwale Garibdassi Society of Toronto Canada Inc.", "designationCode": "C", "categoryCode": "48", "address": "41 & 42 - 480 CHRYSLER DR", "city": "BRAMPTON", "province": "ON", "country": "CA", "postalCode": "L6S0C1", "twitter": "None", "instagram": "None", "facebook": "None", "youtube": "None", "website": "None", "summary": "None", "logo": "None", "latitude": 43.74829561197998, "longitude": -79.71408766807075}, "843395195RR0001": {"name": "Maharam Tav Fund", "designationCode": "C", "categoryCode": "09", "address": "634 OUTREMONT", "city": "MONTREAL", "province": "QC", "country": "CA", "postalCode": "H2V3M7", "twitter": "None", "instagram": "None", "facebook": "None", "youtube": "None", "website": "None", "summary": "None", "logo": "None", "latitude": 45.51944684067182, "longitude": -73.61008396837659}, "843021460RR0001": {"name": "Mahatma Gandhi Peace Council of Ottawa", "designationCode": "C", "categoryCode": "21", "address": "305 EQUINE WAY", "city": "KANATA", "province": "ON", "country": "CA", "postalCode": "K2V0A7", "twitter": "None", "instagram": "None", "facebook": "None", "youtube": "None", "website": "None", "summary": "None", "logo": "None", "latitude": 45.27474292700101, "longitude": -75.88577531903172}, "844074120RR0001": {"name": "Mahibere Kidusan Canada", "designationCode": "C", "categoryCode": "39", "address": "105 CONN SMYTHE DR.", "city": "TORONTO", "province": "ON", "country": "CA", "postalCode": "M1J3P6", "twitter": "None", "instagram": "None", "facebook": "None", "youtube": "None", "website": "None", "summary": "None", "logo": "None", "latitude": 43.74369426559535, "longitude": -79.22414481611753}, "825551559RR0001": {"name": "Mahone Bay Area Food Bank Association", "designationCode": "C", "categoryCode": "09", "address": "MAHONE BAY CENTRE             BOX 489", "city": "MAHONE BAY", "province": "NS", "country": "CA", "postalCode": "B0J2E0", "twitter": "None", "instagram": "None", "facebook": "None", "youtube": "None", "website": "None", "summary": "None", "logo": "None", "latitude": 44.44952100000006, "longitude": -64.40039449999993}, "891228017RR0001": {"name": "Mahone Bay Centre Society", "designationCode": "C", "categoryCode": "56", "address": "45 SCHOOL STREET", "city": "MAHONE BAY", "province": "NS", "country": "CA", "postalCode": "B0J2E0", "twitter": "None", "instagram": "None", "facebook": "None", "youtube": "None", "website": "None", "summary": "None", "logo": "None", "latitude": 44.44676537105449, "longitude": -64.38081329430457}, "852507466RR0001": {"name": "Mai Tor Kok Buddhist Society", "designationCode": "C", "categoryCode": "35", "address": "3277 COMMERCIAL DRIVE", "city": "VANCOUVER", "province": "BC", "country": "CA", "postalCode": "V5N4E5", "twitter": "None", "instagram": "None", "facebook": "None", "youtube": "None", "website": "None", "summary": "None", "logo": "None", "latitude": 49.25548651322125, "longitude": -123.06936388610784}, "812139905RR0001": {"name": "Maica Impact to End Poverty", "designationCode": "C", "categoryCode": "09", "address": "499 WILLIAM FORSTER RD", "city": "MARKHAM", "province": "ON", "country": "CA", "postalCode": "L6B0X5", "twitter": "None", "instagram": "None", "facebook": "None", "youtube": "None", "website": "None", "summary": "None", "logo": "None", "latitude": 43.89172331973082, "longitude": -79.21786403448746}, "817397722RR0001": {"name": "Mailman Family Foundation", "designationCode": "B", "categoryCode": "03", "address": "100 ST. ANN'S RD", "city": "CAMPBELL RIVER", "province": "BC", "country": "CA", "postalCode": "V9W4C4", "twitter": "None", "instagram": "None", "facebook": "None", "youtube": "None", "website": "None", "summary": "None", "logo": "None", "latitude": 50.024225943389645, "longitude": -125.24288450640529}, "829161561RR0001": {"name": "Maimonides Educational Foundation", "designationCode": "C", "categoryCode": "21", "address": "250-181 BAY STREET", "city": "TORONTO", "province": "ON", "country": "CA", "postalCode": "M5J2T3", "twitter": "None", "instagram": "None", "facebook": "None", "youtube": "None", "website": "None", "summary": "None", "logo": "None", "latitude": 43.64715434416293, "longitude": -79.37959157588452}, "818906703RR0001": {"name": "Main dans la main contre la traite des personnes", "designationCode": "C", "categoryCode": "59", "address": "4048 RUE LANOUETTE", "city": "VERDUN", "province": "QC", "country": "CA", "postalCode": "H4G1B6", "twitter": "None", "instagram": "None", "facebook": "None", "youtube": "None", "website": "None", "summary": "None", "logo": "None", "latitude": 45.46393096280801, "longitude": -73.57664346528951}, "810978197RR0001": {"name": "Mains Utiles", "designationCode": "C", "categoryCode": "59", "address": "6665 RUE BOMBARDIER", "city": "SAINT-LEONARD", "province": "QC", "country": "CA", "postalCode": "H1P2W2", "twitter": "None", "instagram": "None", "facebook": "None", "youtube": "None", "website": "None", "summary": "None", "logo": "None", "latitude": 45.60211155236853, "longitude": -73.59163405020414}, "823283999RR0001": {"name": "Mais Family Foundation", "designationCode": "B", "categoryCode": "05", "address": "828 BRUNSWICK ST", "city": "FREDERICTON", "province": "NB", "country": "CA", "postalCode": "E3B1J1", "twitter": "None", "instagram": "None", "facebook": "None", "youtube": "None", "website": "None", "summary": "None", "logo": "None", "latitude": 45.95700873521272, "longitude": -66.63515362199196}, "844663021RR0001": {"name": "Maison chance Canada", "designationCode": "C", "categoryCode": "09", "address": "5830 RUE CANSEAU", "city": "ST-LEONARD", "province": "QC", "country": "CA", "postalCode": "H1P1H9", "twitter": "None", "instagram": "None", "facebook": "None", "youtube": "None", "website": "None", "summary": "None", "logo": "None", "latitude": 45.592249977234744, "longitude": -73.59556954841605}, "891928723RR0001": {"name": "Maison communautaire Daniel-Johnson", "designationCode": "C", "categoryCode": "09", "address": "22, RUE ARTHUR-BUIES", "city": "GATINEAU", "province": "QC", "country": "CA", "postalCode": "J8Z1P5", "twitter": "None", "instagram": "None", "facebook": "None", "youtube": "None", "website": "None", "summary": "None", "logo": "None", "latitude": 45.463681686652414, "longitude": -75.7530114237697}, "119028413RR0001": {"name": "Maison d'entraide de Pr\u00e9vost", "designationCode": "C", "categoryCode": "09", "address": "788 RUE SHAW", "city": "PREVOST", "province": "QC", "country": "CA", "postalCode": "J0R1T0", "twitter": "None", "instagram": "None", "facebook": "None", "youtube": "None", "website": "None", "summary": "None", "logo": "None", "latitude": 45.87194609634117, "longitude": -74.07761052013953}, "107656183RR0001": {"name": "Maison d'h\u00e9bergement d'Anjou", "designationCode": "C", "categoryCode": "09", "address": "5971 AV. DU BOCAGE", "city": "ANJOU", "province": "QC", "country": "CA", "postalCode": "H1M1X4", "twitter": "None", "instagram": "None", "facebook": "None", "youtube": "None", "website": "None", "summary": "None", "logo": "None", "latitude": 45.591838271712206, "longitude": -73.55038119842474}, "807699228RR0001": {"name": "Maison d'h\u00e9bergement pour femmes francophones", "designationCode": "C", "categoryCode": "09", "address": "225 MORNINGSIDE AVE           C.P. 25029", "city": "SCARBOROUGH", "province": "ON", "country": "CA", "postalCode": "M1E0A7", "twitter": "None", "instagram": "None", "facebook": "None", "youtube": "None", "website": "None", "summary": "None", "logo": "None", "latitude": 43.7668943139245, "longitude": -79.18574931799347}, "134110287RR0001": {"name": "Maison d'H\u00e9relle", "designationCode": "C", "categoryCode": "10", "address": "3742 ST-HUBERT", "city": "MONTR\u00c9AL", "province": "QC", "country": "CA", "postalCode": "H2L4A2", "twitter": "None", "instagram": "None", "facebook": "None", "youtube": "None", "website": "None", "summary": "None", "logo": "None", "latitude": 45.520712771279506, "longitude": -73.57036176077658}, "816507602RR0001": {"name": "Maison de fin de vie du Granit", "designationCode": "C", "categoryCode": "11", "address": "6900 RUE DES PINS", "city": "LAC-MEGANTIC", "province": "QC", "country": "CA", "postalCode": "G6B2M1", "twitter": "None", "instagram": "None", "facebook": "None", "youtube": "None", "website": "None", "summary": "None", "logo": "None", "latitude": 45.57142212349252, "longitude": -70.86704395377699}, "879827673RR0001": {"name": "Maison de jeunes l'escalier en mon temps", "designationCode": "C", "categoryCode": "09", "address": "5964 AVENUE AUTEUIL", "city": "BROSSARD", "province": "QC", "country": "CA", "postalCode": "J4Z1N2", "twitter": "None", "instagram": "None", "facebook": "None", "youtube": "None", "website": "None", "summary": "None", "logo": "None", "latitude": 45.47090118567148, "longitude": -73.45991413015761}, "802500942RR0001": {"name": "Maison de l'architecture du Qu\u00e9bec - Monopoli", "designationCode": "C", "categoryCode": "50", "address": "181 RUE SAINT-ANTOINE O", "city": "MONTREAL", "province": "QC", "country": "CA", "postalCode": "H2Z1X8", "twitter": "None", "instagram": "None", "facebook": "None", "youtube": "None", "website": "None", "summary": "None", "logo": "None", "latitude": 45.50468102415024, "longitude": -73.55918632835123}, "737689893RR0001": {"name": "Maison de la culture de La Macaza", "designationCode": "C", "categoryCode": "22", "address": "67 RUE DES PIONNIERS", "city": "LA MACAZA", "province": "QC", "country": "CA", "postalCode": "J0T1R0", "twitter": "None", "instagram": "None", "facebook": "None", "youtube": "None", "website": "None", "summary": "None", "logo": "None", "latitude": 46.37209285261703, "longitude": -74.77211531499236}, "848546362RR0001": {"name": "Maison de la culture du Pic Champlain", "designationCode": "C", "categoryCode": "22", "address": "29 PLACE DE L'\u00c9GLISE", "city": "RIMOUSKI", "province": "QC", "country": "CA", "postalCode": "G0L1B0", "twitter": "None", "instagram": "None", "facebook": "None", "youtube": "None", "website": "None", "summary": "None", "logo": "None", "latitude": 48.37169566548402, "longitude": -68.70553547379784}, "814295440RR0001": {"name": "Maison de la famille Au coeur des g\u00e9n\u00e9rations d'Argenteuil", "designationCode": "C", "categoryCode": "09", "address": "232, RUE BETHANY , C.P", "city": "LACHUTE", "province": "QC", "country": "CA", "postalCode": "J8H4G5", "twitter": "None", "instagram": "None", "facebook": "None", "youtube": "None", "website": "None", "summary": "None", "logo": "None", "latitude": 45.65132818789316, "longitude": -74.33057022791243}, "835610312RR0001": {"name": "Maison de la famille Les Arbrisseaux", "designationCode": "C", "categoryCode": "09", "address": "111 RUE SAINT-GEORGES", "city": "WINDSOR", "province": "QC", "country": "CA", "postalCode": "J1S1J7", "twitter": "None", "instagram": "None", "facebook": "None", "youtube": "None", "website": "None", "summary": "None", "logo": "None", "latitude": 45.571397395233376, "longitude": -72.0013116781983}, "858145253RR0001": {"name": "Maison de la musique de Sorel-Tracy", "designationCode": "C", "categoryCode": "22", "address": "124 RUE GEORGE", "city": "SOREL-TRACY", "province": "QC", "country": "CA", "postalCode": "J3P1C6", "twitter": "None", "instagram": "None", "facebook": "None", "youtube": "None", "website": "None", "summary": "None", "logo": "None", "latitude": 46.045362783773, "longitude": -73.110617073403}, "873164479RR0001": {"name": "Maison de la Famille des Basques", "designationCode": "C", "categoryCode": "09", "address": "340 RUE JEAN-RIOUX", "city": "TROIS-PISTOLES", "province": "QC", "country": "CA", "postalCode": "G0L4K0", "twitter": "None", "instagram": "None", "facebook": "None", "youtube": "None", "website": "None", "summary": "None", "logo": "None", "latitude": 48.12424372993258, "longitude": -69.17368858661764}, "805277985RR0001": {"name": "Maison de la Gr\u00e2ce House of Grace", "designationCode": "C", "categoryCode": "39", "address": "1351 RUE DU RELAIS", "city": "LAVAL", "province": "QC", "country": "CA", "postalCode": "H7Y1Z7", "twitter": "None", "instagram": "None", "facebook": "None", "youtube": "None", "website": "None", "summary": "None", "logo": "None"}, "816739643RR0001": {"name": "Maison de la Madone Rimouski / Madonna House Rimouski", "designationCode": "C", "categoryCode": "99", "address": "39 RUE SAINT-JEAN-BAPTISTE O.", "city": "RIMOUSKI", "province": "QC", "country": "CA", "postalCode": "G5L4J2", "twitter": "None", "instagram": "None", "facebook": "None", "youtube": "None", "website": "None", "summary": "None", "logo": "None", "latitude": 48.44746504688685, "longitude": -68.52460345181508}, "848963302RR0001": {"name": "Maison de soins palliatifs du Littoral", "designationCode": "C", "categoryCode": "11", "address": "107 RUE SAINT-LOUIS 2E \u00c9TAGE", "city": "L\u00c9VIS", "province": "QC", "country": "CA", "postalCode": "G6V4G9", "twitter": "None", "instagram": "None", "facebook": "None", "youtube": "None", "website": "None", "summary": "None", "logo": "None", "latitude": 46.79968200000006, "longitude": -71.18721349999993}, "838161933RR0001": {"name": "Maison de th\u00e9rapie Victoriaville-Arthabaska", "designationCode": "C", "categoryCode": "57", "address": "78 RUE LAURIER OUEST", "city": "VICTORIAVILLE", "province": "QC", "country": "CA", "postalCode": "G6S0G5", "twitter": "None", "instagram": "None", "facebook": "None", "youtube": "None", "website": "None", "summary": "None", "logo": "None", "latitude": 46.029620996393334, "longitude": -71.91706511792394}, "851490474RR0001": {"name": "Maison de transition des a\u00een\u00e9s de Mistissini / Chisheinuukamikw", "designationCode": "C", "categoryCode": "09", "address": "8 CHENO STREET", "city": "MISTISSINI", "province": "QC", "country": "CA", "postalCode": "G0W1C0", "twitter": "None", "instagram": "None", "facebook": "None", "youtube": "None", "website": "None", "summary": "None", "logo": "None", "latitude": 48.19721100000005, "longitude": -72.17786149999993}, "118792951RR0001": {"name": "Maison de Campagne & d'Entraide Communautaire du Lac", "designationCode": "C", "categoryCode": "09", "address": "2915 ROUTE DU LAC OUEST       C.P. 2144", "city": "ALMA", "province": "QC", "country": "CA", "postalCode": "G8B5W1", "twitter": "None", "instagram": "None", "facebook": "None", "youtube": "None", "website": "None", "summary": "None", "logo": "None", "latitude": 48.53317026066103, "longitude": -71.71569702135162}, "119028637RR0001": {"name": "Maison de Quartier de Jonqui\u00e8re", "designationCode": "C", "categoryCode": "09", "address": "3971 RUE DU VIEUX-PONT        CP 42", "city": "JONQUI\u00c8RE", "province": "QC", "country": "CA", "postalCode": "G7X7V8", "twitter": "None", "instagram": "None", "facebook": "None", "youtube": "None", "website": "None", "summary": "None", "logo": "None", "latitude": 48.409984834843456, "longitude": -71.25810043242537}, "857111827RR0001": {"name": "Maison de Sophia", "designationCode": "C", "categoryCode": "09", "address": "195 RUE GENEST", "city": "SAINT-JEROME", "province": "QC", "country": "CA", "postalCode": "J7Y1Z4", "twitter": "None", "instagram": "None", "facebook": "None", "youtube": "None", "website": "None", "summary": "None", "logo": "None", "latitude": 45.786257528997666, "longitude": -74.01746275145709}, "829925817RR0001": {"name": "Maison des enfants Marie-Rose", "designationCode": "C", "categoryCode": "21", "address": "600, RUE ELLICE               SUITE 333", "city": "BEAUHARNOIS", "province": "QC", "country": "CA", "postalCode": "J6N3P7", "twitter": "None", "instagram": "None", "facebook": "None", "youtube": "None", "website": "None", "summary": "None", "logo": "None", "latitude": 45.31367296641469, "longitude": -73.87731407576895}, "135243574RR0001": {"name": "Maison des familles de Baie-Comeau", "designationCode": "C", "categoryCode": "09", "address": "985, BOUL. JOLLIET", "city": "BAIE-COMEAU", "province": "QC", "country": "CA", "postalCode": "G5C1P7", "twitter": "None", "instagram": "None", "facebook": "None", "youtube": "None", "website": "None", "summary": "None", "logo": "None", "latitude": 49.19021855727421, "longitude": -68.26118817609218}, "846638468RR0001": {"name": "Maison des familles de Saint-Laurent", "designationCode": "C", "categoryCode": "09", "address": "1159, AVENUE SAINTE-CROIX", "city": "MONTREAL", "province": "QC", "country": "CA", "postalCode": "H4L3Z2", "twitter": "None", "instagram": "None", "facebook": "None", "youtube": "None", "website": "None", "summary": "None", "logo": "None", "latitude": 45.517662072998995, "longitude": -73.68215584456695}, "129963104RR0001": {"name": "Maison des familles La Cigogne du Lac Saint-Jean Est", "designationCode": "C", "categoryCode": "01", "address": "155, ST-JOSEPH CP 2205", "city": "ALMA", "province": "QC", "country": "CA", "postalCode": "G8B5W1", "twitter": "None", "instagram": "None", "facebook": "None", "youtube": "None", "website": "None", "summary": "None", "logo": "None", "latitude": 48.54947093170423, "longitude": -71.65315794918935}, "141097956RR0001": {"name": "Maison des jeunes de Beauport Ouest", "designationCode": "C", "categoryCode": "29", "address": "20 RUE HUGUES-POMMIER", "city": "QUEBEC", "province": "QC", "country": "CA", "postalCode": "G1E4T9", "twitter": "None", "instagram": "None", "facebook": "None", "youtube": "None", "website": "None", "summary": "None", "logo": "None", "latitude": 46.859656399128525, "longitude": -71.19372871412088}, "871024063RR0001": {"name": "Maison des jeunes de Brownsburg-Chatham", "designationCode": "C", "categoryCode": "09", "address": "385 RUE PRINCIPALE", "city": "BROWNSBURG-CHATHAM", "province": "QC", "country": "CA", "postalCode": "J8G2V2", "twitter": "None", "instagram": "None", "facebook": "None", "youtube": "None", "website": "None", "summary": "None", "logo": "None", "latitude": 45.678085659992014, "longitude": -74.41381723480866}, "838728657RR0001": {"name": "Maison des jeunes de Labrecque", "designationCode": "C", "categoryCode": "09", "address": "3359 RUE DAMASSE", "city": "LABRECQUE", "province": "QC", "country": "CA", "postalCode": "G0W2S0", "twitter": "None", "instagram": "None", "facebook": "None", "youtube": "None", "website": "None", "summary": "None", "logo": "None", "latitude": 48.67328129533808, "longitude": -71.52252103814581}, "825742406RR0001": {"name": "Maison des jeunes de Lac-Bouchette", "designationCode": "C", "categoryCode": "09", "address": "213, RUE PRINCIPALE           LOCAL 101", "city": "LAC-BOUCHETTE", "province": "QC", "country": "CA", "postalCode": "G0W1V0", "twitter": "None", "instagram": "None", "facebook": "None", "youtube": "None", "website": "None", "summary": "None", "logo": "None", "latitude": 48.26072573244276, "longitude": -72.1828756533269}}