{"132994351RR0001": {"name": "L'ESCALE DU CENTRE-VILLE (SECTEUR ST-FELICIEN) INC", "designationCode": "C", "categoryCode": "09", "address": "1150 RUE MONSEIGNEUR-BLUTEAU  C.P. 5055", "city": "ST-FELICIEN", "province": "QC", "country": "CA", "postalCode": "G8K2R1", "twitter": "None", "instagram": "None", "facebook": "None", "youtube": "None", "website": "None", "summary": "None", "logo": "None", "latitude": 48.65216375999716, "longitude": -72.44743898477995}, "132357401RR0001": {"name": "L'ESCALE MADAVIC INC", "designationCode": "C", "categoryCode": "01", "address": "P.O. BOX 411", "city": "EDMUNDSTON", "province": "NB", "country": "CA", "postalCode": "E3V3L1", "twitter": "None", "instagram": "None", "facebook": "None", "youtube": "None", "website": "None", "summary": "None", "logo": "None", "latitude": 47.37372000000006, "longitude": -68.32513249999994}, "103083978RR0001": {"name": "L'ESCALE NOTRE-DAME INC.", "designationCode": "C", "categoryCode": "49", "address": "1475 AVE MORGAN", "city": "MONTREAL", "province": "QC", "country": "CA", "postalCode": "H1V2P6", "twitter": "None", "instagram": "None", "facebook": "None", "youtube": "None", "website": "None", "summary": "None", "logo": "None", "latitude": 45.55210185541567, "longitude": -73.53481528905311}, "107615031RR0001": {"name": "L'ESCALE POUR ELLE (MONTREAL)", "designationCode": "C", "categoryCode": "01", "address": "CP 51023 COMPTOIR DOMAINE     COMPTOIR DOMAINE", "city": "MONTREAL", "province": "QC", "country": "CA", "postalCode": "H1N3T8", "twitter": "None", "instagram": "None", "facebook": "None", "youtube": "None", "website": "None", "summary": "None", "logo": "None", "latitude": 45.57543900000006, "longitude": -73.52860849999993}, "873114565RR0001": {"name": "L'ESPOIR DE SHELNA", "designationCode": "C", "categoryCode": "09", "address": "1075 RUE DES ANCIENS", "city": "HAVRE-SAINT-PIERRE", "province": "QC", "country": "CA", "postalCode": "G0G1P0", "twitter": "None", "instagram": "None", "facebook": "None", "youtube": "None", "website": "None", "summary": "None", "logo": "None", "latitude": 50.237831910381246, "longitude": -63.60270001736957}, "877179168RR0001": {"name": "L'ESSENTIEL DES ETCHEMINS", "designationCode": "C", "categoryCode": "09", "address": "301A, RUE INDUSTRIELLE", "city": "LAC-ETCHEMINS", "province": "QC", "country": "CA", "postalCode": "G0R1S0", "twitter": "None", "instagram": "None", "facebook": "None", "youtube": "None", "website": "None", "summary": "None", "logo": "None", "latitude": 46.40566787941348, "longitude": -70.52234011752732}, "867609224RR0001": {"name": "L'ETINCELLE D'AMHERST", "designationCode": "C", "categoryCode": "09", "address": "1123 CH DU LAC-DE-LA-SUCRERIE", "city": "AMHERST", "province": "QC", "country": "CA", "postalCode": "J0T2T0", "twitter": "None", "instagram": "None", "facebook": "None", "youtube": "None", "website": "None", "summary": "None", "logo": "None", "latitude": 46.11753926721149, "longitude": -74.89659009746636}, "135417194RR0001": {"name": "L'ETINCELLE DE L'AMITIE INC", "designationCode": "C", "categoryCode": "09", "address": "7788A RUE SHERBROOKE EST", "city": "MONTREAL", "province": "QC", "country": "CA", "postalCode": "H1L1A5", "twitter": "None", "instagram": "None", "facebook": "None", "youtube": "None", "website": "None", "summary": "None", "logo": "None", "latitude": 45.59497195969922, "longitude": -73.53579037870193}, "883508228RR0001": {"name": "L'ETINCELLE LAC-ST-JEAN", "designationCode": "C", "categoryCode": "09", "address": "185 RUE GOBEIL", "city": "ST-NAZAIRE", "province": "QC", "country": "CA", "postalCode": "G0W2V0", "twitter": "None", "instagram": "None", "facebook": "None", "youtube": "None", "website": "None", "summary": "None", "logo": "None", "latitude": 48.587179263402305, "longitude": -71.54152634318199}, "119018745RR0001": {"name": "L'EV\u00caQUE CATHOLIQUE ROMAIN DE GASP\u00c9", "designationCode": "C", "categoryCode": "49", "address": "EVECHE DE GASPE               172 JACQUES-CARTIER", "city": "GASPE", "province": "QC", "country": "CA", "postalCode": "G4X1M9", "twitter": "None", "instagram": "None", "facebook": "None", "youtube": "None", "website": "None", "summary": "None", "logo": "None", "latitude": 48.8305935135428, "longitude": -64.4873937729059}, "890287469RR0001": {"name": "L'EV\u00caQUE CATHOLIQUE ROMAIN DE SAINT-HYACINTHE", "designationCode": "C", "categoryCode": "38", "address": "1900 RUE GIROUARD CP 190", "city": "ST-HYACINTHE", "province": "QC", "country": "CA", "postalCode": "J2S7B4", "twitter": "None", "instagram": "None", "facebook": "None", "youtube": "None", "website": "None", "summary": "None", "logo": "None", "latitude": 45.62391797590707, "longitude": -72.94864985033708}, "118904440RR0001": {"name": "L'EV\u00caQUE GREC-MELKITE CATHOLIQUE ROMAIN AU CANADA/THE ROMAN CATHOLIC GREEK-MELCHITE BISHOP IN CANADA", "designationCode": "C", "categoryCode": "38", "address": "34 MAPLEWOOD", "city": "OUTREMONT", "province": "QC", "country": "CA", "postalCode": "H2V2M1", "twitter": "None", "instagram": "None", "facebook": "None", "youtube": "None", "website": "None", "summary": "None", "logo": "None", "latitude": 45.515274561169335, "longitude": -73.59654886066713}, "890351786RR0001": {"name": "L'EVASION ST-PIE X", "designationCode": "C", "categoryCode": "09", "address": "1843, RUE D\u00c9SILETS, PORTE 9", "city": "QU\u00c9BEC", "province": "QC", "country": "CA", "postalCode": "G1J1A7", "twitter": "None", "instagram": "None", "facebook": "None", "youtube": "None", "website": "None", "summary": "None", "logo": "None", "latitude": 46.84775983596862, "longitude": -71.23378092423106}, "871228532RR0001": {"name": "L'EVASION, SERVICE DE GARDIENNAGE ET DE REPIT", "designationCode": "C", "categoryCode": "09", "address": "154 , TOUPIN", "city": "CAP DE LA MADELEINE", "province": "QC", "country": "CA", "postalCode": "G8T3Z9", "twitter": "None", "instagram": "None", "facebook": "None", "youtube": "None", "website": "None", "summary": "None", "logo": "None", "latitude": 46.36462202524677, "longitude": -72.50378633775763}, "889574372RR0001": {"name": "L'EVEIL", "designationCode": "C", "categoryCode": "65", "address": "560 RUE SHEA", "city": "BELOEIL", "province": "QC", "country": "CA", "postalCode": "J3G3S8", "twitter": "None", "instagram": "None", "facebook": "None", "youtube": "None", "website": "None", "summary": "None", "logo": "None", "latitude": 45.568981361648085, "longitude": -73.22041290135022}, "141218057RR0001": {"name": "L'EVEIL CHARLEVOISIEN", "designationCode": "C", "categoryCode": "09", "address": "22 RUE DES \u00c9RABLES", "city": "CLERMONT", "province": "QC", "country": "CA", "postalCode": "G4A1J8", "twitter": "None", "instagram": "None", "facebook": "None", "youtube": "None", "website": "None", "summary": "None", "logo": "None", "latitude": 47.694264611979996, "longitude": -70.22318364014093}, "134380799RR0001": {"name": "L'EVEIL DE POINTE SAINT-CHARLES (MONTREAL)", "designationCode": "C", "categoryCode": "01", "address": "1650 RUE ST-TIMOTHEE          # 105", "city": "MONTREAL", "province": "QC", "country": "CA", "postalCode": "H2L3P1", "twitter": "None", "instagram": "None", "facebook": "None", "youtube": "None", "website": "None", "summary": "None", "logo": "None", "latitude": 45.5183408151366, "longitude": -73.56041207773085}, "890611593RR0001": {"name": "L'EVEIL MUSICAL DU QUEBEC", "designationCode": "C", "categoryCode": "22", "address": "3000 RUE VIAU", "city": "MONTREAL", "province": "QC", "country": "CA", "postalCode": "H1V3J3", "twitter": "None", "instagram": "None", "facebook": "None", "youtube": "None", "website": "None", "summary": "None", "logo": "None", "latitude": 45.56351736649796, "longitude": -73.54926218799496}, "140365297RR0001": {"name": "L'EVEIL, GROUPE D'ENTRAIDE POUR PERSONNES ATTEINTES DE MALADIE MENTALE", "designationCode": "C", "categoryCode": "09", "address": "200 RUE DU SANATORIUM BEGIN", "city": "LAC-ETCHEMIN", "province": "QC", "country": "CA", "postalCode": "G0R1S0", "twitter": "None", "instagram": "None", "facebook": "None", "youtube": "None", "website": "None", "summary": "None", "logo": "None", "latitude": 46.396349213168605, "longitude": -70.5025908526457}, "129247433RR0001": {"name": "L'EVEQUE CATHOLIQUE ROMAIN DE BAIE-COMEAU", "designationCode": "C", "categoryCode": "49", "address": "639 RUE DE BRETAGNE", "city": "BAIE-COMEAU", "province": "QC", "country": "CA", "postalCode": "G5C1X2", "twitter": "None", "instagram": "None", "facebook": "None", "youtube": "None", "website": "None", "summary": "None", "logo": "None", "latitude": 49.190637227306844, "longitude": -68.24850217447604}, "119018737RR0001": {"name": "L'EVEQUE CATHOLIQUE ROMAIN DE BATHURST", "designationCode": "C", "categoryCode": "38", "address": "CP 460 STN MAIN", "city": "BATHURST", "province": "NB", "country": "CA", "postalCode": "E2A3Z4", "twitter": "None", "instagram": "None", "facebook": "None", "youtube": "None", "website": "None", "summary": "None", "logo": "None", "latitude": 47.61919316408974, "longitude": -65.64634945511216}, "131310757RR0001": {"name": "L'EVEQUE CATHOLIQUE ROMAIN DE JOLIETTE", "designationCode": "C", "categoryCode": "49", "address": "2 RUE SAINT-CHARLES-BORROMEE N", "city": "JOLIETTE", "province": "QC", "country": "CA", "postalCode": "J6E4R2", "twitter": "None", "instagram": "None", "facebook": "None", "youtube": "None", "website": "None", "summary": "None", "logo": "None", "latitude": 46.02706174689812, "longitude": -73.43820616406099}, "887794147RR0001": {"name": "L'EVEQUE CATHOLIQUE ROMAIN DE SAINT-JEAN-LONGUEUIL/THE ROMANCATHOLIC BISHOP OF SAINT-JEAN-LONGUEUIL", "designationCode": "C", "categoryCode": "49", "address": "740 BOUL. SAINTE-FOY", "city": "LONGUEUIL", "province": "QC", "country": "CA", "postalCode": "J4J1Z3", "twitter": "None", "instagram": "None", "facebook": "None", "youtube": "None", "website": "None", "summary": "None", "logo": "None", "latitude": 45.52391010794063, "longitude": -73.49585410600737}, "119018786RR0002": {"name": "L'EVEQUE CATHOLIQUE ROMAIN DE SAINT-JEROME-THE ROMAN CATHOLIC BISHOP OF SAINT-JEROME", "designationCode": "C", "categoryCode": "49", "address": "355 PLACE DU CURE-LABELLE", "city": "SAINT-JEROME", "province": "QC", "country": "CA", "postalCode": "J7Z5A9", "twitter": "None", "instagram": "None", "facebook": "None", "youtube": "None", "website": "None", "summary": "None", "logo": "None", "latitude": 45.77841057112399, "longitude": -74.00216483501633}, "107624181RR0001": {"name": "L'EXIT DE WATERLOO", "designationCode": "C", "categoryCode": "59", "address": "350 RUE WATERLOO", "city": "WATERLOO", "province": "QC", "country": "CA", "postalCode": "J0E2N0", "twitter": "None", "instagram": "None", "facebook": "None", "youtube": "None", "website": "None", "summary": "None", "logo": "None", "latitude": 45.34261738550985, "longitude": -72.52640456936365}, "811242080RR0001": {"name": "L'Harmonie Calixa Lavall\u00e9e de Sorel inc.", "designationCode": "C", "categoryCode": "22", "address": "CP 92 SUCC BUREAU-CHEF", "city": "SOREL-TRACY", "province": "QC", "country": "CA", "postalCode": "J3P5N6", "twitter": "None", "instagram": "None", "facebook": "None", "youtube": "None", "website": "None", "summary": "None", "logo": "None", "latitude": 46.04237700000006, "longitude": -73.11261049999993}, "128956885RR0001": {"name": "L'HEURE DE LA BONNE NOUVELLE INC.", "designationCode": "C", "categoryCode": "47", "address": "C.P. 26006", "city": "TROIS-RIVI\u00c8RES", "province": "QC", "country": "CA", "postalCode": "G8Y7M1", "twitter": "None", "instagram": "None", "facebook": "None", "youtube": "None", "website": "None", "summary": "None", "logo": "None", "latitude": 46.34016900000006, "longitude": -72.54503449999993}, "119018901RR0001": {"name": "L'HIRONDELLE, SERVICES D'ACCUEIL ET D'INTEGRATION DES IMMIGRANTS", "designationCode": "C", "categoryCode": "59", "address": "4652 RUE JEANNE-MANCE 3EME ETA", "city": "MONTREAL", "province": "QC", "country": "CA", "postalCode": "H2V4J4", "twitter": "None", "instagram": "None", "facebook": "None", "youtube": "None", "website": "None", "summary": "None", "logo": "None", "latitude": 45.5182896547119, "longitude": -73.59038387443002}, "829737998RR0001": {"name": "L'H\u00f4te-Maison", "designationCode": "C", "categoryCode": "01", "address": "101 - 755 RUE CHILD", "city": "COATICOOK", "province": "QC", "country": "CA", "postalCode": "J1A2C3", "twitter": "None", "instagram": "None", "facebook": "None", "youtube": "None", "website": "None", "summary": "None", "logo": "None", "latitude": 45.14807273769421, "longitude": -71.80938325168823}, "107491052RR0001": {"name": "L'HOPITAL GENERAL JUIF SIR MORTIMER B. DAVIS/SIR MORTIMER B. DAVIS JEWISH GENERAL HOSPITAL", "designationCode": "C", "categoryCode": "10", "address": "3755 CH COTE-SAINTE-CATHERINE RM A-404", "city": "MONTREAL", "province": "QC", "country": "CA", "postalCode": "H3T1E2", "twitter": "None", "instagram": "None", "facebook": "None", "youtube": "None", "website": "None", "summary": "None", "logo": "None", "latitude": 45.497694044926, "longitude": -73.62844462285645}, "103321410RR0001": {"name": "L'HOTE MAISON (MAISON DE JEUNES)", "designationCode": "C", "categoryCode": "09", "address": "6255, RUE BOYER", "city": "MONTREAL", "province": "QC", "country": "CA", "postalCode": "H2S2J2", "twitter": "None", "instagram": "None", "facebook": "None", "youtube": "None", "website": "None", "summary": "None", "logo": "None", "latitude": 45.536082348606335, "longitude": -73.59989276435459}, "136445244RR0001": {"name": "L'HOTELLERIE ST NORBERT/GUEST HOUSE INC", "designationCode": "C", "categoryCode": "52", "address": "PO BOX 175", "city": "ST NORBERT", "province": "MB", "country": "CA", "postalCode": "R3V1L6", "twitter": "None", "instagram": "None", "facebook": "None", "youtube": "None", "website": "None", "summary": "None", "logo": "None", "latitude": 49.765360077182656, "longitude": -97.15356999826922}, "845655463RR0001": {"name": "L'Id\u00e9e f\u00e9d\u00e9rale-r\u00e9seau Qu\u00e9b\u00e9cois de r\u00e9flexion sur le f\u00e9d\u00e9ralisme", "designationCode": "C", "categoryCode": "21", "address": "11-38 PLACE DU COMMERCE       BUREAU 189", "city": "MONTR\u00c9AL", "province": "QC", "country": "CA", "postalCode": "H3E1T8", "twitter": "None", "instagram": "None", "facebook": "None", "youtube": "None", "website": "None", "summary": "None", "logo": "None", "latitude": 45.469205526001474, "longitude": -73.54312665103213}, "833219405RR0001": {"name": "L'Institut de la Famille Joviale (IFJ) / Happy Family Institute (HFI)", "designationCode": "B", "categoryCode": "09", "address": "3615 RUE ABENAKIS", "city": "LAVAL", "province": "QC", "country": "CA", "postalCode": "H7P6A4", "twitter": "None", "instagram": "None", "facebook": "None", "youtube": "None", "website": "None", "summary": "None", "logo": "None", "latitude": 45.587997365543224, "longitude": -73.81990673189448}, "741736326RR0001": {"name": "L'Institut de Cavalerie de Montr\u00e9al/The Montr\u00e9al Cavalry Institute", "designationCode": "C", "categoryCode": "59", "address": "652 AV WESTLUKE", "city": "COTE SAINT-LUC", "province": "QC", "country": "CA", "postalCode": "H4X1P7", "twitter": "None", "instagram": "None", "facebook": "None", "youtube": "None", "website": "None", "summary": "None", "logo": "None", "latitude": 45.45705232333091, "longitude": -73.665201168619}, "107403446RR0001": {"name": "L'Institut Fraser-Hickson, Montr\u00e9al / The Fraser-Hickson Institute, Montreal", "designationCode": "C", "categoryCode": "50", "address": "S102-3755 RUE BOTREL", "city": "MONTREAL", "province": "QC", "country": "CA", "postalCode": "H4A3G8", "twitter": "None", "instagram": "None", "facebook": "None", "youtube": "None", "website": "None", "summary": "None", "logo": "None", "latitude": 45.475468155433035, "longitude": -73.61475003551854}, "837668821RR0001": {"name": "L'Institut Lightfoot/The Lightfoot Institute", "designationCode": "C", "categoryCode": "11", "address": "8, WATTERSON ROAD", "city": "BAIE D'URF\u00c9", "province": "QC", "country": "CA", "postalCode": "H9X3C2", "twitter": "None", "instagram": "None", "facebook": "None", "youtube": "None", "website": "None", "summary": "None", "logo": "None", "latitude": 45.41246622869183, "longitude": -73.91021687278523}, "138052261RR0001": {"name": "L'Institut Marialys inc.", "designationCode": "C", "categoryCode": "49", "address": "626 ROUTE DU SANCTUAIRE", "city": "LAC-ETCHEMIN", "province": "QC", "country": "CA", "postalCode": "G0S1R0", "twitter": "None", "instagram": "None", "facebook": "None", "youtube": "None", "website": "None", "summary": "None", "logo": "None", "latitude": 46.38889625578277, "longitude": -70.50398658702751}, "889867172RR0001": {"name": "L'ICONE DE JESUS MISERICORDIEUX", "designationCode": "C", "categoryCode": "49", "address": "C.P. 105                      PLACE CENTRE-VILLE", "city": "JONQUIERE", "province": "QC", "country": "CA", "postalCode": "G7X7V8", "twitter": "None", "instagram": "None", "facebook": "None", "youtube": "None", "website": "None", "summary": "None", "logo": "None", "latitude": 48.38709381188563, "longitude": -71.51813859407957}, "132564055RR0001": {"name": "L'ILE DES AMIS", "designationCode": "C", "categoryCode": "09", "address": "68 PRINCE EDWARD", "city": "PIERREFONDS", "province": "QC", "country": "CA", "postalCode": "H9R4C7", "twitter": "None", "instagram": "None", "facebook": "None", "youtube": "None", "website": "None", "summary": "None", "logo": "None", "latitude": 45.50631719793515, "longitude": -73.80801166819579}, "832044671RR0001": {"name": "L'ILE DU SAVOIR INC.", "designationCode": "C", "categoryCode": "21", "address": "425 BOUL DE MAISONNEUVE O     BUREAU 1100", "city": "MONTREAL", "province": "QC", "country": "CA", "postalCode": "H3A3G5", "twitter": "None", "instagram": "None", "facebook": "None", "youtube": "None", "website": "None", "summary": "None", "logo": "None", "latitude": 45.50605028088745, "longitude": -73.57003793300228}, "119019800RR0001": {"name": "L'ILLUSION, THEATRE DE MARIONNETTES", "designationCode": "C", "categoryCode": "22", "address": "6430, RUE SAINT-DENIS", "city": "MONTR\u00c9AL", "province": "QC", "country": "CA", "postalCode": "H2S2R7", "twitter": "None", "instagram": "None", "facebook": "None", "youtube": "None", "website": "None", "summary": "None", "logo": "None", "latitude": 45.53387879681474, "longitude": -73.60484190287941}, "107626335RR0001": {"name": "L'IMAGERIE LOCAL DES JEUNES INC.", "designationCode": "C", "categoryCode": "09", "address": "949 MARIE ANNE EST", "city": "MONTREAL", "province": "QC", "country": "CA", "postalCode": "H2J2B2", "twitter": "None", "instagram": "None", "facebook": "None", "youtube": "None", "website": "None", "summary": "None", "logo": "None", "latitude": 45.52586184791384, "longitude": -73.57789490732283}, "892167776RR0001": {"name": "L'IMPACT - RIVIERE GATINEAU", "designationCode": "C", "categoryCode": "09", "address": "270, RUE NOTRE DAME", "city": "MANIWAKI", "province": "QC", "country": "CA", "postalCode": "J9E2J8", "twitter": "None", "instagram": "None", "facebook": "None", "youtube": "None", "website": "None", "summary": "None", "logo": "None", "latitude": 46.377907684778684, "longitude": -75.97428746560718}, "136878220RR0001": {"name": "L'INFORMATEUR CATHOLIQUE", "designationCode": "C", "categoryCode": "49", "address": "1073, BOUL. RENE-LEVESQUE O", "city": "QUEBEC", "province": "QC", "country": "CA", "postalCode": "G1S4R5", "twitter": "None", "instagram": "None", "facebook": "None", "youtube": "None", "website": "None", "summary": "None", "logo": "None", "latitude": 46.79480836547074, "longitude": -71.24324980090242}, "132071515RR0001": {"name": "L'INSTITUT BARTHELEMY JOLIETTE", "designationCode": "C", "categoryCode": "20", "address": "C.P. 470", "city": "JOLIETTE", "province": "QC", "country": "CA", "postalCode": "J6E6H6", "twitter": "None", "instagram": "None", "facebook": "None", "youtube": "None", "website": "None", "summary": "None", "logo": "None", "latitude": 46.02356700000006, "longitude": -73.44196099999994}, "847105343RR0001": {"name": "L'INSTITUT DE FORMATION THEOLOGIQUE ET PASTORALE", "designationCode": "C", "categoryCode": "20", "address": "574, RUE JACQUES-CARTIER EST", "city": "CHICOUTIMI", "province": "QC", "country": "CA", "postalCode": "G7H1Z5", "twitter": "None", "instagram": "None", "facebook": "None", "youtube": "None", "website": "None", "summary": "None", "logo": "None", "latitude": 48.42527962998474, "longitude": -71.0505434587973}, "107508160RR0001": {"name": "L'INSTITUT DE RECHERCHE DU CENTRE UNIVERSITAIRE DE SANT\u00c9 MCGILL / THE RESEARCH INSTITUTE OF THE MCGILL UNIVERSITY HEALTH CENTRE", "designationCode": "C", "categoryCode": "11", "address": "500 - 2155 RUE GUY", "city": "MONTREAL", "province": "QC", "country": "CA", "postalCode": "H3H2R9", "twitter": "None", "instagram": "None", "facebook": "None", "youtube": "None", "website": "None", "summary": "None", "logo": "None", "latitude": 45.49610163338893, "longitude": -73.58026141851823}, "119020436RR0001": {"name": "L'INSTITUT DE YOGA INTEGRAL /THE INTEGRAL YOGA INSTITUTE", "designationCode": "C", "categoryCode": "39", "address": "5425 DU PARC", "city": "MONTREAL", "province": "QC", "country": "CA", "postalCode": "H2V4G9", "twitter": "None", "instagram": "None", "facebook": "None", "youtube": "None", "website": "None", "summary": "None", "logo": "None", "latitude": 45.52201524314721, "longitude": -73.6017317247967}, "103341939RR0001": {"name": "L'INSTITUT DES ARTS AU SAGUENAY", "designationCode": "C", "categoryCode": "22", "address": "4160 DU VIEUX PONT            C.P. 605", "city": "JONQUIERE", "province": "QC", "country": "CA", "postalCode": "G7X7W4", "twitter": "None", "instagram": "None", "facebook": "None", "youtube": "None", "website": "None", "summary": "None", "logo": "None", "latitude": 48.40995917993262, "longitude": -71.25786314721081}, "119020394RR0001": {"name": "L'INSTITUT DES FRERES DE NOTRE-DAME DE MISERICORDE", "designationCode": "C", "categoryCode": "09", "address": "1133, CHEMIN TOUR DU LAC NORD", "city": "LAC SERGENT", "province": "QC", "country": "CA", "postalCode": "G0A2J0", "twitter": "None", "instagram": "None", "facebook": "None", "youtube": "None", "website": "None", "summary": "None", "logo": "None", "latitude": 46.87373705197345, "longitude": -71.72639836806971}, "107991721RR0001": {"name": "L'INSTITUT DES SOEURS DE L'ENFANCE DE JESUS ET DE MARIE, DITES DE SAINTE-CHRETIENNE", "designationCode": "C", "categoryCode": "46", "address": "007-2281 CH DE LA CANARDI\u00c8RE", "city": "QU\u00c9BEC", "province": "QC", "country": "CA", "postalCode": "G1J0B8", "twitter": "None", "instagram": "None", "facebook": "None", "youtube": "None", "website": "None", "summary": "None", "logo": "None", "latitude": 46.84230286011887, "longitude": -71.21999381378028}, "119020428RR0001": {"name": "L'INSTITUT DES SOEURS DE L'IMMACUL\u00c9E DE G\u00caNES - R\u00c9GION CANADIENNE", "designationCode": "C", "categoryCode": "46", "address": "11960, BOUL DE L'ACADIE", "city": "MONTREAL", "province": "QC", "country": "CA", "postalCode": "H3M2T7", "twitter": "None", "instagram": "None", "facebook": "None", "youtube": "None", "website": "None", "summary": "None", "logo": "None", "latitude": 45.54043336329284, "longitude": -73.69515016140565}, "105220859RR0001": {"name": "L'INSTITUT INTERNATIONAL DES SCIENCES HUMAINES INTEGRALES -THE INTERNATIONAL INSTITUTE OF INTEGRAL HUMAN SCIENCES", "designationCode": "C", "categoryCode": "59", "address": "1974 DE MAISONNEUVE BLVD. WEST", "city": "MONTREAL", "province": "QC", "country": "CA", "postalCode": "H3H1K5", "twitter": "None", "instagram": "None", "facebook": "None", "youtube": "None", "website": "None", "summary": "None", "logo": "None", "latitude": 45.49278445017031, "longitude": -73.58258979903643}, "890196660RR0001": {"name": "L'INSTITUT REGIONAL DU TROISIEME AGE DES BOIS-FRANCS INC", "designationCode": "C", "categoryCode": "09", "address": "2 DROUIN #207", "city": "VICTORIAVILLE", "province": "QC", "country": "CA", "postalCode": "G6P8H2", "twitter": "None", "instagram": "None", "facebook": "None", "youtube": "None", "website": "None", "summary": "None", "logo": "None", "latitude": 46.05454089757064, "longitude": -71.96142631253952}, "889516779RR0001": {"name": "L'INSTITUT ST-JOSEPH DU BIEN-ETRE CANADIEN-UKRAINIENN ST JOSEPH'S CANADIAN-UKRAINIAN WELFARE INSTITUTE", "designationCode": "C", "categoryCode": "01", "address": "5-3150 BLVD ROSEMONT", "city": "MONTREAL", "province": "QC", "country": "CA", "postalCode": "H1Y1M5", "twitter": "None", "instagram": "None", "facebook": "None", "youtube": "None", "website": "None", "summary": "None", "logo": "None", "latitude": 45.55212460392991, "longitude": -73.58130737826784}, "860303635RR0001": {"name": "L'INSTITUTION KUPAT TORAH VECHIESED", "designationCode": "C", "categoryCode": "42", "address": "31 - 5810 AV DU PARC", "city": "MONTREAL", "province": "QC", "country": "CA", "postalCode": "H2V4H3", "twitter": "None", "instagram": "None", "facebook": "None", "youtube": "None", "website": "None", "summary": "None", "logo": "None", "latitude": 45.52379871299569, "longitude": -73.6058821258871}, "119117752RR0001": {"name": "L'O.E.I.L.", "designationCode": "C", "categoryCode": "09", "address": "170, ST-ANTOINE NORD, BUR.112", "city": "GRANBY", "province": "QC", "country": "CA", "postalCode": "J2G5G8", "twitter": "None", "instagram": "None", "facebook": "None", "youtube": "None", "website": "None", "summary": "None", "logo": "None", "latitude": 45.406137226758595, "longitude": -72.7272702524667}, "858445190RR0001": {"name": "L'Orchestre symphonique de Gatineau", "designationCode": "C", "categoryCode": "22", "address": "CP 81010", "city": "GATINEAU", "province": "QC", "country": "CA", "postalCode": "J8T1K7", "twitter": "None", "instagram": "None", "facebook": "None", "youtube": "None", "website": "None", "summary": "None", "logo": "None", "latitude": 45.47688900000006, "longitude": -75.71912299999994}, "140796293RR0001": {"name": "L'OASIS DE LOTBINIERE INC", "designationCode": "C", "categoryCode": "09", "address": "17 RUE DES ERABLES", "city": "ST-FLAVIEN", "province": "QC", "country": "CA", "postalCode": "G0S2M0", "twitter": "None", "instagram": "None", "facebook": "None", "youtube": "None", "website": "None", "summary": "None", "logo": "None", "latitude": 46.532883922961055, "longitude": -71.62538617748496}, "891385346RR0001": {"name": "L'OASIS DE SAINT-LAURENT", "designationCode": "C", "categoryCode": "09", "address": "1895 RUE DE L'EGLISE", "city": "SAINT-LAURENT", "province": "QC", "country": "CA", "postalCode": "H4M1E6", "twitter": "None", "instagram": "None", "facebook": "None", "youtube": "None", "website": "None", "summary": "None", "logo": "None", "latitude": 45.50703853150783, "longitude": -73.68426074813887}, "870136751RR0001": {"name": "L'OASIS DES AINES DE SAINT-EUSEBE", "designationCode": "C", "categoryCode": "09", "address": "110 RUE DECHAMP", "city": "SAINT-EUSEBE", "province": "QC", "country": "CA", "postalCode": "G0L2Y0", "twitter": "None", "instagram": "None", "facebook": "None", "youtube": "None", "website": "None", "summary": "None", "logo": "None", "latitude": 47.561595000000054, "longitude": -68.89865299999994}, "887886232RR0001": {"name": "L'OASIS DES ENFANTS DE ROSEMONT", "designationCode": "C", "categoryCode": "01", "address": "2555, RUE HOLT", "city": "MONTREAL", "province": "QC", "country": "CA", "postalCode": "H1Y1N4", "twitter": "None", "instagram": "None", "facebook": "None", "youtube": "None", "website": "None", "summary": "None", "logo": "None", "latitude": 45.546204184026685, "longitude": -73.58258865713513}, "886555432RR0001": {"name": "L'OASIS LIBERTE, LIEU DE RESSOURCEMENT POUR EX-DETENUS", "designationCode": "C", "categoryCode": "59", "address": "2581 BOUL PIE-IX", "city": "MONTREAL", "province": "QC", "country": "CA", "postalCode": "H1V2E8", "twitter": "None", "instagram": "None", "facebook": "None", "youtube": "None", "website": "None", "summary": "None", "logo": "None", "latitude": 45.55309765747456, "longitude": -73.5495872939118}, "119022481RR0001": {"name": "L'OASIS MYRIAM BETHLEEM INC.", "designationCode": "C", "categoryCode": "59", "address": "105 BOUL LASALLE", "city": "BAIE-COMEAU", "province": "QC", "country": "CA", "postalCode": "G4Z1R7", "twitter": "None", "instagram": "None", "facebook": "None", "youtube": "None", "website": "None", "summary": "None", "logo": "None", "latitude": 49.2194717369148, "longitude": -68.15535536987103}, "103363362RR0001": {"name": "L'OASIS ST-DAMIEN", "designationCode": "C", "categoryCode": "09", "address": "65, ROUTE ST-G\u00c9RARD", "city": "ST-DAMIEN-DE-BUCKLAND", "province": "QC", "country": "CA", "postalCode": "G0R2Y0", "twitter": "None", "instagram": "None", "facebook": "None", "youtube": "None", "website": "None", "summary": "None", "logo": "None", "latitude": 46.628598901143654, "longitude": -70.66641534712103}, "894139096RR0001": {"name": "L'OASIS-JEUNESSE DE L'ESTRAN", "designationCode": "C", "categoryCode": "09", "address": "1, RUE DE LA RIVIERE", "city": "GRANDE-VALLEE", "province": "QC", "country": "CA", "postalCode": "G0E1K0", "twitter": "None", "instagram": "None", "facebook": "None", "youtube": "None", "website": "None", "summary": "None", "logo": "None", "latitude": 49.22434570552255, "longitude": -65.12782222753799}, "890021306RR0001": {"name": "L'ODYSSEE BLEUE INC.", "designationCode": "C", "categoryCode": "09", "address": "3365 CH ROYAL                 SS109", "city": "QUEBEC", "province": "QC", "country": "CA", "postalCode": "G1E1W1", "twitter": "None", "instagram": "None", "facebook": "None", "youtube": "None", "website": "None", "summary": "None", "logo": "None", "latitude": 46.85232160785372, "longitude": -71.20802136138826}, "103372413RR0001": {"name": "L'OEIL DE POISSON", "designationCode": "C", "categoryCode": "22", "address": "541 RUE SAINT-VALLIER EST", "city": "QUEBEC", "province": "QC", "country": "CA", "postalCode": "G1K3P9", "twitter": "None", "instagram": "None", "facebook": "None", "youtube": "None", "website": "None", "summary": "None", "logo": "None", "latitude": 46.812717534826064, "longitude": -71.22146098306311}, "130676448RR0003": {"name": "L'OEUVRE ANTOINE GIROUARD", "designationCode": "C", "categoryCode": "09", "address": "650 RUE GIROUARD E", "city": "SAINT-HYACINTHE", "province": "QC", "country": "CA", "postalCode": "J2S2Y2", "twitter": "None", "instagram": "None", "facebook": "None", "youtube": "None", "website": "None", "summary": "None", "logo": "None", "latitude": 45.63261623495506, "longitude": -72.94180957057556}, "130165947RR0001": {"name": "L'OEUVRE DAVID DEZIEL", "designationCode": "C", "categoryCode": "43", "address": "3111-21, RUE NOTRE-DAME", "city": "L\u00c9VIS", "province": "QC", "country": "CA", "postalCode": "G6V4A5", "twitter": "None", "instagram": "None", "facebook": "None", "youtube": "None", "website": "None", "summary": "None", "logo": "None", "latitude": 46.81110189012614, "longitude": -71.18077611258556}, "131253791RR0001": {"name": "L'OEUVRE DE L'AUTRE", "designationCode": "C", "categoryCode": "22", "address": "555 BOUL DE L'UNIVERSITE", "city": "CHICOUTIMI", "province": "QC", "country": "CA", "postalCode": "G7H2B1", "twitter": "None", "instagram": "None", "facebook": "None", "youtube": "None", "website": "None", "summary": "None", "logo": "None", "latitude": 48.418932335580934, "longitude": -71.05692294168692}, "893052241RR0001": {"name": "L'OEUVRE DE ROSALIE CADRON-JETTE", "designationCode": "A", "categoryCode": "09", "address": "12435 AV DE LA MISERICORDE    MARGUERITE DICAIRE", "city": "MONTREAL", "province": "QC", "country": "CA", "postalCode": "H4J2G3", "twitter": "None", "instagram": "None", "facebook": "None", "youtube": "None", "website": "None", "summary": "None", "logo": "None", "latitude": 45.53466392724452, "longitude": -73.71954688710238}, "140661810RR0001": {"name": "L'OEUVRE DE SAINT-PEREGRIN", "designationCode": "C", "categoryCode": "38", "address": "6805 RUE DE MARSEILLE", "city": "MONTREAL", "province": "QC", "country": "CA", "postalCode": "H1N1M6", "twitter": "None", "instagram": "None", "facebook": "None", "youtube": "None", "website": "None", "summary": "None", "logo": "None", "latitude": 45.58358348932419, "longitude": -73.5380223181081}, "119022978RR0001": {"name": "L'OEUVRE DES BOURSES MONSEIGNEUR A. VAILLANCOURT STURGEON FALLS", "designationCode": "C", "categoryCode": "21", "address": "98 PROMENADE DU LAC", "city": "STURGEON FALLS", "province": "ON", "country": "CA", "postalCode": "P2B2X8", "twitter": "None", "instagram": "None", "facebook": "None", "youtube": "None", "website": "None", "summary": "None", "logo": "None", "latitude": 46.328720281421305, "longitude": -79.8975984282705}, "891791386RR0001": {"name": "L'OEUVRE DES CLERCS DU DIOCESE DE QUEBEC", "designationCode": "C", "categoryCode": "20", "address": "1073 BOUL. REN\u00c9-L\u00c9VESQUE OUEST", "city": "QU\u00c9BEC", "province": "QC", "country": "CA", "postalCode": "G1S4R5", "twitter": "None", "instagram": "None", "facebook": "None", "youtube": "None", "website": "None", "summary": "None", "logo": "None", "latitude": 46.79480836547074, "longitude": -71.24324980090242}, "119022994RR0001": {"name": "L'OEUVRE DES LOISIRS DE SAINT-BERNARD (DORCHESTER) INC.", "designationCode": "C", "categoryCode": "56", "address": "CP 114", "city": "ST-BERNARD", "province": "QC", "country": "CA", "postalCode": "G0S2G0", "twitter": "None", "instagram": "None", "facebook": "None", "youtube": "None", "website": "None", "summary": "None", "logo": "None", "latitude": 46.39477298687738, "longitude": -71.33161718159103}, "103372504RR0001": {"name": "L'OEUVRE DES SAINTS-APOTRES", "designationCode": "A", "categoryCode": "47", "address": "3719 BOUL GOUIN EST", "city": "MONTREAL-NORD", "province": "QC", "country": "CA", "postalCode": "H1H5L8", "twitter": "None", "instagram": "None", "facebook": "None", "youtube": "None", "website": "None", "summary": "None", "logo": "None", "latitude": 45.593507702752575, "longitude": -73.64833820959058}, "864009741RR0001": {"name": "L'OEUVRE DES SAMARITAINS", "designationCode": "C", "categoryCode": "09", "address": "9413, RUE LAJEUNESSE", "city": "MONTREAL", "province": "QC", "country": "CA", "postalCode": "H2M1S5", "twitter": "None", "instagram": "None", "facebook": "None", "youtube": "None", "website": "None", "summary": "None", "logo": "None", "latitude": 45.54998492812618, "longitude": -73.65003405883206}, "119023042RR0001": {"name": "L'OEUVRE DES TERRAINS DE JEUX DE ST-ALEXIS-DE-MATAPEDIA", "designationCode": "C", "categoryCode": "56", "address": "107 RUE RUSTICO               C.P.69", "city": "ST-ALEXIS DE MATAP\u00c9DIA", "province": "QC", "country": "CA", "postalCode": "G0J2E0", "twitter": "None", "instagram": "None", "facebook": "None", "youtube": "None", "website": "None", "summary": "None", "logo": "None", "latitude": 47.97013491234315, "longitude": -67.04875939794601}, "119005858RR0001": {"name": "L'OEUVRE DES VOCATIONS DU DIOC\u00c8SE DE MONTR\u00c9AL", "designationCode": "C", "categoryCode": "49", "address": "1350 BOUL SAINT-JOSEPH", "city": "MONTREAL", "province": "QC", "country": "CA", "postalCode": "H2J1M3", "twitter": "None", "instagram": "None", "facebook": "None", "youtube": "None", "website": "None", "summary": "None", "logo": "None", "latitude": 45.53278403494163, "longitude": -73.58169036851565}, "119023075RR0001": {"name": "L'OEUVRE DES VOCATIONS DU DIOCESE DE JOLIETTE", "designationCode": "C", "categoryCode": "49", "address": "2 RUE SAINT-CHARLES-BORROMEE N", "city": "JOLIETTE", "province": "QC", "country": "CA", "postalCode": "J6E4R2", "twitter": "None", "instagram": "None", "facebook": "None", "youtube": "None", "website": "None", "summary": "None", "logo": "None", "latitude": 46.02706174689812, "longitude": -73.43820616406099}, "892742586RR0001": {"name": "L'OEUVRE DES VOCATIONS DU DIOCESE DE MONT-LAURIER - SERVICES DES BOURSES", "designationCode": "C", "categoryCode": "49", "address": "435 RUE DE LA MADONE", "city": "MONT-LAURIER", "province": "QC", "country": "CA", "postalCode": "J9L1S1", "twitter": "None", "instagram": "None", "facebook": "None", "youtube": "None", "website": "None", "summary": "None", "logo": "None", "latitude": 46.55167978270512, "longitude": -75.50047181170281}, "119023109RR0001": {"name": "L'OEUVRE DIOCESAINE DES VOCATIONS DE SAINT-JEAN", "designationCode": "C", "categoryCode": "49", "address": "740 BOUL. STE-FOY", "city": "LONGUEUIL", "province": "QC", "country": "CA", "postalCode": "J4J1Z3", "twitter": "None", "instagram": "None", "facebook": "None", "youtube": "None", "website": "None", "summary": "None", "logo": "None", "latitude": 45.52391010794063, "longitude": -73.49585410600737}, "119065241RR0001": {"name": "L'OEUVRE DU FRERE ANDRE-BROTHER ANDRE FOUNDATION", "designationCode": "A", "categoryCode": "45", "address": "3800 CHEMIN QUEEN MARY", "city": "MONTREAL", "province": "QC", "country": "CA", "postalCode": "H3V1H6", "twitter": "None", "instagram": "None", "facebook": "None", "youtube": "None", "website": "None", "summary": "None", "logo": "None", "latitude": 45.49360960377943, "longitude": -73.62021765348871}, "140534769RR0001": {"name": "L'OEUVRE DU PETIT PRINCE", "designationCode": "C", "categoryCode": "21", "address": "44, RUE DE JUAN-LES-PINS", "city": "GATINEAU", "province": "QC", "country": "CA", "postalCode": "J8T6H2", "twitter": "None", "instagram": "None", "facebook": "None", "youtube": "None", "website": "None", "summary": "None", "logo": "None", "latitude": 45.48594626721148, "longitude": -75.73341095360409}, "888671997RR0001": {"name": "L'OEUVRE ET FABRIQUE DE LA PAROISSE DE SAINT-NICEPHORE", "designationCode": "C", "categoryCode": "38", "address": "4676 RUE TRAVERSY", "city": "DRUMMONDVILLE", "province": "QC", "country": "CA", "postalCode": "J2A2G2", "twitter": "None", "instagram": "None", "facebook": "None", "youtube": "None", "website": "None", "summary": "None", "logo": "None", "latitude": 45.8297605293148, "longitude": -72.42077938158606}, "119023133RR0001": {"name": "L'OEUVRE FRANCISCAINE - LES FRANCISCAINS", "designationCode": "C", "categoryCode": "46", "address": "5750, BOUL. ROSEMONT", "city": "MONTREAL", "province": "QC", "country": "CA", "postalCode": "H1T2H2", "twitter": "None", "instagram": "None", "facebook": "None", "youtube": "None", "website": "None", "summary": "None", "logo": "None", "latitude": 45.57786483429518, "longitude": -73.56045483954664}, "119023141RR0001": {"name": "L'OEUVRE LANGEVIN", "designationCode": "C", "categoryCode": "09", "address": "49 RUE SAINT-JEAN-BAPTISTE O", "city": "RIMOUSKI", "province": "QC", "country": "CA", "postalCode": "G5L4J2", "twitter": "None", "instagram": "None", "facebook": "None", "youtube": "None", "website": "None", "summary": "None", "logo": "None", "latitude": 48.4472260155639, "longitude": -68.52486508765837}, "878180918RR0001": {"name": "L'OEUVRE SOUPE MAISON (LACHINE)", "designationCode": "C", "categoryCode": "09", "address": "1170 RUE NOTRE-DAME", "city": "LACHINE", "province": "QC", "country": "CA", "postalCode": "H8S2C4", "twitter": "None", "instagram": "None", "facebook": "None", "youtube": "None", "website": "None", "summary": "None", "logo": "None", "latitude": 45.43494952596792, "longitude": -73.6742517485429}, "119065332RR0001": {"name": "L'OEUVRE ST-EDOUARD", "designationCode": "C", "categoryCode": "49", "address": "11575, 14E AVENUE", "city": "ST-GEORGES BEAUCE", "province": "QC", "country": "CA", "postalCode": "G5Y7Z7", "twitter": "None", "instagram": "None", "facebook": "None", "youtube": "None", "website": "None", "summary": "None", "logo": "None", "latitude": 46.12681491430505, "longitude": -70.66767076322942}, "107417545RR0001": {"name": "L'OISEAU BLEU", "designationCode": "C", "categoryCode": "01", "address": "574 AVE DE BUCKINGHAM", "city": "GATINEAU", "province": "QC", "country": "CA", "postalCode": "J8L2H3", "twitter": "None", "instagram": "None", "facebook": "None", "youtube": "None", "website": "None", "summary": "None", "logo": "None", "latitude": 45.58465057092153, "longitude": -75.41529822465246}, "119985828RR0001": {"name": "L'OMBRE-ELLE, MAISON D'HEBERGEMENT POUR FEMMES VICTIMES DE VIOLENCE", "designationCode": "C", "categoryCode": "01", "address": "C.P. 374", "city": "STE-AGATHE-DES-MONTS", "province": "QC", "country": "CA", "postalCode": "J8C3C6", "twitter": "None", "instagram": "None", "facebook": "None", "youtube": "None", "website": "None", "summary": "None", "logo": "None", "latitude": 46.04740800000006, "longitude": -74.28346099999993}, "119024404RR0001": {"name": "L'ORCHESTRE DE CHAMBRE DE MONTR\u00c9AL/MONTREAL CHAMBER ORCHESTRA", "designationCode": "C", "categoryCode": "22", "address": "2901 - 1 PLACE VILLE-MARIE", "city": "MONTREAL", "province": "QC", "country": "CA", "postalCode": "H3B0E9", "twitter": "None", "instagram": "None", "facebook": "None", "youtube": "None", "website": "None", "summary": "None", "logo": "None", "latitude": 45.50188724476333, "longitude": -73.56787382018557}, "119024412RR0001": {"name": "L'ORCHESTRE DE CHAMBRE I MUSICI DE MONTREAL", "designationCode": "C", "categoryCode": "22", "address": "201-3575 BOUL SAINT-LAURENT", "city": "MONTR\u00c9AL", "province": "QC", "country": "CA", "postalCode": "H2X2T7", "twitter": "None", "instagram": "None", "facebook": "None", "youtube": "None", "website": "None", "summary": "None", "logo": "None", "latitude": 45.51380326146907, "longitude": -73.57226889964811}, "899085112RR0001": {"name": "L'ORCHESTRE LA SINFONIA DE LANAUDIERE", "designationCode": "C", "categoryCode": "22", "address": "C.P. 3013", "city": "L'ASSOMPTION", "province": "QC", "country": "CA", "postalCode": "J5W4M9", "twitter": "None", "instagram": "None", "facebook": "None", "youtube": "None", "website": "None", "summary": "None", "logo": "None"}, "103386140RR0001": {"name": "L'ORCHESTRE SYMPHONIQUE DE LAVAL 1984 INC.", "designationCode": "C", "categoryCode": "22", "address": "3235 BOUL. ST-MARTIN EST      BUREAU 203", "city": "LAVAL", "province": "QC", "country": "CA", "postalCode": "H7E5G8", "twitter": "None", "instagram": "None", "facebook": "None", "youtube": "None", "website": "None", "summary": "None", "logo": "None", "latitude": 45.604743588695136, "longitude": -73.67758055987034}, "119069532RR0001": {"name": "L'ORCHESTRE SYMPHONIQUE DE QUEBEC", "designationCode": "C", "categoryCode": "22", "address": "250 - 437 GRANDE ALLEE E", "city": "QUEBEC", "province": "QC", "country": "CA", "postalCode": "G1R2J5", "twitter": "None", "instagram": "None", "facebook": "None", "youtube": "None", "website": "None", "summary": "None", "logo": "None", "latitude": 46.80585090362552, "longitude": -71.21738613913874}, "119024438RR0001": {"name": "L'ORCHESTRE SYMPHONIQUE DE TROIS-RIVIERES INC.", "designationCode": "C", "categoryCode": "22", "address": "CASE POSTALE 1281", "city": "TROIS-RIVIERES", "province": "QC", "country": "CA", "postalCode": "G9A5K8", "twitter": "None", "instagram": "None", "facebook": "None", "youtube": "None", "website": "None", "summary": "None", "logo": "None", "latitude": 46.34016900000006, "longitude": -72.54503449999993}, "882575327RR0001": {"name": "L'ORCHESTRE SYMPHONIQUE DES JEUNES DE JOLIETTE", "designationCode": "C", "categoryCode": "22", "address": "20 ST-CHARLES-BORROMEE SUD    C.P. 105", "city": "JOLIETTE", "province": "QC", "country": "CA", "postalCode": "J6E4S9", "twitter": "None", "instagram": "None", "facebook": "None", "youtube": "None", "website": "None", "summary": "None", "logo": "None", "latitude": 46.02611159006534, "longitude": -73.4378227121386}}